% program   : rnx2rtkp ver.2.4.3 b31
% inp file  : ngs/21_08_31_07_48_03_txan.obs
% inp file  : ngs/21_08_31_07_48_03_txan_P1.obs
% inp file  : ngs/21_08_31_07_48_03_brdc.nav
% obs start : 2021/08/31 07:00:00.0 GPST (week2173 198000.0s)
% obs end   : 2021/08/31 07:59:59.0 GPST (week2173 201599.0s)
% ref pos   :  -808791.7980  -5514479.0790   3090983.9540
%
% (x/y/z-ecef=WGS84,Q=1:fix,2:float,3:sbas,4:dgps,5:single,6:ppp,ns=# of satellites)
%  GPST              x-ecef(m)      y-ecef(m)      z-ecef(m)   Q  ns   sdx(m)   sdy(m)   sdz(m)  sdxy(m)  sdyz(m)  sdzx(m) age(s)  ratio
2173 200858.000   -828648.0199  -5494332.1012   3121536.8902   2   8   0.4004   1.1661   0.5507   0.2770  -0.6324  -0.1491 -30.00    1.1
2173 200859.000   -828648.0868  -5494331.9849   3121536.8179   2   8   0.2848   0.8287   0.3914   0.1973  -0.4492  -0.1060 -29.00    1.2
2173 200860.000   -828648.1120  -5494332.0985   3121536.8521   2   8   0.2332   0.6784   0.3205   0.1615  -0.3677  -0.0867 -28.00    1.1
2173 200861.000   -828648.1090  -5494332.1546   3121536.8460   2   8   0.2023   0.5885   0.2780   0.1400  -0.3190  -0.0752 -27.00    1.0
2173 200862.000   -828648.1051  -5494332.1281   3121536.8557   2   8   0.1812   0.5271   0.2491   0.1253  -0.2858  -0.0673 -26.00    1.0
2173 200863.000   -828648.1178  -5494332.1457   3121536.8901   2   8   0.1655   0.4816   0.2276   0.1144  -0.2612  -0.0614 -25.00    1.0
2173 200864.000   -828648.1249  -5494332.1524   3121536.9057   2   8   0.1534   0.4462   0.2109   0.1059  -0.2420  -0.0569 -24.00    1.0
2173 200865.000   -828648.1098  -5494332.1234   3121536.9170   2   8   0.1435   0.4176   0.1974   0.0991  -0.2265  -0.0532 -23.00    1.0
2173 200866.000   -828648.1112  -5494332.1056   3121536.9166   2   8   0.1354   0.3938   0.1862   0.0934  -0.2136  -0.0502 -22.00    1.1
2173 200867.000   -828648.0961  -5494332.1325   3121536.9354   2   8   0.1285   0.3737   0.1767   0.0886  -0.2027  -0.0476 -21.00    1.1
2173 200868.000   -828648.0929  -5494332.0809   3121536.9195   2   8   0.1225   0.3563   0.1685   0.0844  -0.1932  -0.0453 -20.00    1.1
2173 200869.000   -828648.0951  -5494332.1027   3121536.9352   2   8   0.1173   0.3410   0.1613   0.0808  -0.1849  -0.0434 -19.00    1.2
2173 200870.000   -828648.0768  -5494332.0706   3121536.9304   2   8   0.1127   0.3275   0.1550   0.0776  -0.1776  -0.0417 -18.00    1.2
2173 200871.000   -828648.0680  -5494332.0661   3121536.9278   2   8   0.1086   0.3155   0.1493   0.0747  -0.1711  -0.0401 -17.00    1.2
2173 200872.000   -828648.0668  -5494332.0561   3121536.9327   2   8   0.1049   0.3046   0.1442   0.0721  -0.1652  -0.0387 -16.00    1.2
2173 200873.000   -828648.0587  -5494332.0609   3121536.9362   2   8   0.1015   0.2948   0.1395   0.0698  -0.1598  -0.0375 -15.00    1.3
2173 200874.000   -828648.0618  -5494332.0358   3121536.9397   2   8   0.0985   0.2857   0.1353   0.0677  -0.1549  -0.0363 -14.00    1.3
2173 200875.000   -828648.0646  -5494332.0225   3121536.9415   2   8   0.0957   0.2775   0.1314   0.0657  -0.1504  -0.0353 -13.00    1.4
2173 200876.000   -828648.0647  -5494332.0064   3121536.9457   2   8   0.0931   0.2698   0.1278   0.0639  -0.1462  -0.0343 -12.00    1.4
2173 200877.000   -828648.0595  -5494331.9853   3121536.9398   2   8   0.0907   0.2628   0.1244   0.0623  -0.1423  -0.0334 -11.00    1.5
2173 200878.000   -828648.0548  -5494331.9824   3121536.9536   2   8   0.0885   0.2562   0.1214   0.0607  -0.1387  -0.0325 -10.00    1.6
2173 200879.000   -828648.0538  -5494331.9961   3121536.9590   2   8   0.0864   0.2500   0.1185   0.0593  -0.1354  -0.0317  -9.00    1.7
2173 200880.000   -828648.0532  -5494331.9913   3121536.9597   2   8   0.0845   0.2443   0.1158   0.0579  -0.1322  -0.0310  -8.00    1.8
2173 200881.000   -828648.0558  -5494331.9900   3121536.9630   2   8   0.0827   0.2389   0.1132   0.0566  -0.1293  -0.0303  -7.00    1.9
2173 200882.000   -828648.0562  -5494331.9738   3121536.9561   2   8   0.0809   0.2338   0.1108   0.0554  -0.1265  -0.0296  -6.00    2.1
2173 200883.000   -828648.0568  -5494331.9786   3121536.9590   2   8   0.0794   0.2290   0.1086   0.0543  -0.1239  -0.0290  -5.00    2.3
2173 200884.000   -828648.0531  -5494331.9696   3121536.9551   2   8   0.0778   0.2245   0.1065   0.0532  -0.1214  -0.0284  -4.00    2.5
2173 200885.000   -828648.0515  -5494331.9506   3121536.9513   2   8   0.0764   0.2203   0.1044   0.0522  -0.1190  -0.0279  -3.00    2.8
2173 200886.000   -828648.7755  -5494331.7201   3121536.6542   1   8   0.0045   0.0127   0.0060   0.0028  -0.0069  -0.0016  -2.00    3.1
2173 200887.000   -828648.7762  -5494331.7231   3121536.6550   1   8   0.0039   0.0119   0.0054   0.0030  -0.0064  -0.0023  -1.00    3.4
2173 200888.000   -828648.7754  -5494331.7163   3121536.6549   1   8   0.0036   0.0117   0.0055   0.0032  -0.0063  -0.0011   0.00    3.7
2173 200889.000   -828648.7739  -5494331.7220   3121536.6552   1   8   0.0040   0.0117   0.0055   0.0028  -0.0063  -0.0015   0.00    6.8
2173 200890.000   -828648.7732  -5494331.7230   3121536.6555   1   8   0.0040   0.0117   0.0055   0.0028  -0.0063  -0.0015   0.00    6.2
2173 200891.000   -828648.7757  -5494331.7212   3121536.6536   1   8   0.0040   0.0117   0.0055   0.0028  -0.0063  -0.0015   0.00    6.6
2173 200892.000   -828648.7738  -5494331.7209   3121536.6543   1   8   0.0040   0.0117   0.0055   0.0028  -0.0063  -0.0015   0.00    8.1
2173 200893.000   -828648.7740  -5494331.7160   3121536.6525   1   8   0.0040   0.0117   0.0055   0.0028  -0.0063  -0.0015   0.00   10.8
2173 200894.000   -828648.7744  -5494331.7209   3121536.6544   1   8   0.0040   0.0117   0.0055   0.0028  -0.0063  -0.0015   0.00    8.7
2173 200895.000   -828648.7743  -5494331.7182   3121536.6532   1   8   0.0040   0.0117   0.0055   0.0028  -0.0063  -0.0015   0.00    8.4
2173 200896.000   -828648.7737  -5494331.7198   3121536.6534   1   8   0.0040   0.0117   0.0055   0.0028  -0.0063  -0.0015   0.00    8.3
2173 200897.000   -828648.7726  -5494331.7171   3121536.6530   1   8   0.0040   0.0117   0.0055   0.0028  -0.0063  -0.0015   0.00    8.5
2173 200898.000   -828648.7728  -5494331.7175   3121536.6533   1   8   0.0040   0.0117   0.0055   0.0028  -0.0063  -0.0015   0.00    5.9
2173 200899.000   -828648.7722  -5494331.7114   3121536.6519   1   8   0.0040   0.0117   0.0055   0.0028  -0.0063  -0.0015   0.00   10.2
2173 200900.000   -828648.7727  -5494331.7159   3121536.6522   1   8   0.0040   0.0117   0.0055   0.0028  -0.0063  -0.0015   0.00    7.0
2173 200901.000   -828648.7742  -5494331.7128   3121536.6507   1   8   0.0040   0.0117   0.0055   0.0028  -0.0063  -0.0015   0.00    8.6
2173 200902.000   -828648.7731  -5494331.7168   3121536.6520   1   8   0.0040   0.0117   0.0055   0.0028  -0.0063  -0.0015   0.00    7.7
2173 200903.000   -828648.7736  -5494331.7148   3121536.6492   1   8   0.0040   0.0117   0.0055   0.0028  -0.0063  -0.0015   0.00    8.0
2173 200904.000   -828648.7728  -5494331.7159   3121536.6504   1   8   0.0040   0.0117   0.0055   0.0028  -0.0063  -0.0015   0.00    9.2
2173 200905.000   -828648.7736  -5494331.7180   3121536.6535   1   8   0.0040   0.0117   0.0055   0.0028  -0.0063  -0.0015   0.00    9.2
2173 200906.000   -828648.7731  -5494331.7147   3121536.6502   1   8   0.0040   0.0117   0.0055   0.0028  -0.0063  -0.0015   0.00    6.7
2173 200907.000   -828648.7737  -5494331.7168   3121536.6518   1   8   0.0040   0.0117   0.0055   0.0028  -0.0063  -0.0015   0.00    7.2
2173 200908.000   -828648.7730  -5494331.7163   3121536.6507   1   8   0.0040   0.0117   0.0055   0.0028  -0.0063  -0.0015   0.00    7.7
2173 200909.000   -828648.7733  -5494331.7179   3121536.6525   1   8   0.0040   0.0117   0.0055   0.0028  -0.0063  -0.0015   0.00    7.8
2173 200910.000   -828648.7726  -5494331.7203   3121536.6515   1   8   0.0040   0.0117   0.0055   0.0028  -0.0063  -0.0015   0.00    9.3
2173 200911.000   -828648.7730  -5494331.7166   3121536.6515   1   8   0.0040   0.0117   0.0055   0.0028  -0.0063  -0.0015   0.00    8.6
2173 200912.000   -828648.7722  -5494331.7128   3121536.6518   1   8   0.0040   0.0117   0.0055   0.0028  -0.0063  -0.0015   0.00   10.8
2173 200913.000   -828648.7727  -5494331.7146   3121536.6527   1   8   0.0040   0.0117   0.0055   0.0028  -0.0063  -0.0015   0.00    7.9
2173 200914.000   -828648.7731  -5494331.7162   3121536.6522   1   8   0.0040   0.0117   0.0055   0.0028  -0.0063  -0.0015   0.00    7.2
2173 200915.000   -828648.7729  -5494331.7121   3121536.6502   1   8   0.0040   0.0117   0.0055   0.0028  -0.0063  -0.0015   0.00   10.4
2173 200916.000   -828648.7737  -5494331.7129   3121536.6515   1   8   0.0040   0.0116   0.0055   0.0028  -0.0063  -0.0015   0.00   10.0
2173 200917.000   -828648.7719  -5494331.7150   3121536.6518   1   8   0.0040   0.0116   0.0055   0.0027  -0.0063  -0.0015   0.00   12.7
2173 200918.000   -828648.7720  -5494331.7126   3121536.6510   1   8   0.0040   0.0116   0.0055   0.0027  -0.0063  -0.0015   0.00   13.9
2173 200919.000   -828648.7729  -5494331.7106   3121536.6508   1   8   0.0040   0.0116   0.0055   0.0027  -0.0063  -0.0015   0.00   13.7
2173 200920.000   -828648.7720  -5494331.7131   3121536.6507   1   8   0.0040   0.0116   0.0055   0.0027  -0.0063  -0.0015   0.00   13.3
2173 200921.000   -828648.7728  -5494331.7148   3121536.6525   1   8   0.0040   0.0116   0.0055   0.0027  -0.0063  -0.0015   0.00   12.1
2173 200922.000   -828648.7738  -5494331.7187   3121536.6529   1   8   0.0040   0.0116   0.0055   0.0027  -0.0063  -0.0015   0.00   15.0
2173 200923.000   -828648.7730  -5494331.7115   3121536.6515   1   8   0.0040   0.0116   0.0055   0.0027  -0.0063  -0.0015   0.00   16.1
2173 200924.000   -828648.7731  -5494331.7177   3121536.6530   1   8   0.0040   0.0116   0.0055   0.0027  -0.0063  -0.0015   0.00   12.9
2173 200925.000   -828648.7732  -5494331.7163   3121536.6509   1   8   0.0040   0.0116   0.0055   0.0027  -0.0063  -0.0015   0.00   10.4
2173 200926.000   -828648.7736  -5494331.7156   3121536.6513   1   8   0.0040   0.0116   0.0055   0.0027  -0.0063  -0.0015   0.00   12.4
2173 200927.000   -828648.7734  -5494331.7116   3121536.6503   1   8   0.0040   0.0116   0.0055   0.0027  -0.0063  -0.0015   0.00   11.0
2173 200928.000   -828648.7737  -5494331.7186   3121536.6516   1   8   0.0040   0.0116   0.0055   0.0027  -0.0063  -0.0015   0.00   14.5
2173 200929.000   -828648.7737  -5494331.7187   3121536.6523   1   8   0.0040   0.0116   0.0055   0.0027  -0.0063  -0.0015   0.00   15.6
2173 200930.000   -828648.7723  -5494331.7163   3121536.6534   1   8   0.0040   0.0116   0.0055   0.0027  -0.0063  -0.0014   0.00   12.8
2173 200931.000   -828648.7745  -5494331.7172   3121536.6522   1   8   0.0040   0.0116   0.0055   0.0027  -0.0063  -0.0014   0.00   14.9
2173 200932.000   -828648.7748  -5494331.7185   3121536.6516   1   8   0.0040   0.0116   0.0055   0.0027  -0.0063  -0.0014   0.00   12.3
2173 200933.000   -828648.7741  -5494331.7165   3121536.6518   1   8   0.0040   0.0116   0.0055   0.0027  -0.0063  -0.0014   0.00   12.3
2173 200934.000   -828648.7723  -5494331.7147   3121536.6494   1   8   0.0040   0.0116   0.0055   0.0027  -0.0063  -0.0014   0.00    8.3
2173 200935.000   -828648.7746  -5494331.7123   3121536.6503   1   8   0.0040   0.0116   0.0055   0.0027  -0.0063  -0.0014   0.00    9.9
2173 200936.000   -828648.7740  -5494331.7141   3121536.6489   1   8   0.0040   0.0116   0.0055   0.0027  -0.0063  -0.0014   0.00   12.6
2173 200937.000   -828648.7725  -5494331.7153   3121536.6510   1   8   0.0040   0.0116   0.0055   0.0027  -0.0063  -0.0014   0.00   10.2
2173 200938.000   -828648.7734  -5494331.7093   3121536.6492   1   8   0.0040   0.0116   0.0055   0.0027  -0.0063  -0.0014   0.00    9.3
2173 200939.000   -828648.7737  -5494331.7137   3121536.6502   1   8   0.0040   0.0116   0.0055   0.0027  -0.0063  -0.0014   0.00    9.3
2173 200940.000   -828648.7720  -5494331.7088   3121536.6482   1   8   0.0040   0.0116   0.0055   0.0027  -0.0063  -0.0014   0.00   10.5
2173 200941.000   -828648.7743  -5494331.7109   3121536.6498   1   8   0.0040   0.0116   0.0055   0.0027  -0.0063  -0.0014   0.00   11.2
2173 200942.000   -828648.7726  -5494331.7097   3121536.6493   1   8   0.0040   0.0116   0.0055   0.0027  -0.0063  -0.0014   0.00    9.9
2173 200943.000   -828648.7738  -5494331.7160   3121536.6524   1   8   0.0040   0.0116   0.0055   0.0027  -0.0063  -0.0014   0.00   10.6
2173 200944.000   -828648.7747  -5494331.7139   3121536.6509   1   8   0.0040   0.0116   0.0055   0.0027  -0.0063  -0.0014   0.00   14.6
2173 200945.000   -828648.7739  -5494331.7133   3121536.6514   1   8   0.0040   0.0116   0.0055   0.0027  -0.0063  -0.0014   0.00   12.8
2173 200946.000   -828648.7728  -5494331.7108   3121536.6498   1   8   0.0040   0.0116   0.0055   0.0027  -0.0063  -0.0014   0.00   10.4
2173 200947.000   -828648.7720  -5494331.7149   3121536.6525   1   8   0.0040   0.0116   0.0055   0.0027  -0.0063  -0.0014   0.00   11.8
2173 200948.000   -828648.7750  -5494331.7209   3121536.6540   1   8   0.0040   0.0116   0.0055   0.0027  -0.0063  -0.0014   0.00    9.1
2173 200949.000   -828648.7732  -5494331.7146   3121536.6511   1   8   0.0040   0.0116   0.0055   0.0027  -0.0063  -0.0014   0.00    9.4
2173 200950.000   -828648.7753  -5494331.7196   3121536.6532   1   8   0.0040   0.0116   0.0055   0.0027  -0.0063  -0.0014   0.00    8.0
2173 200951.000   -828648.7742  -5494331.7181   3121536.6532   1   8   0.0040   0.0116   0.0055   0.0027  -0.0063  -0.0014   0.00    8.4
2173 200952.000   -828648.7738  -5494331.7182   3121536.6526   1   8   0.0040   0.0116   0.0055   0.0027  -0.0063  -0.0014   0.00    8.9
2173 200953.000   -828648.7748  -5494331.7201   3121536.6533   1   8   0.0040   0.0116   0.0055   0.0027  -0.0063  -0.0014   0.00    9.2
2173 200954.000   -828648.7743  -5494331.7153   3121536.6535   1   8   0.0040   0.0116   0.0055   0.0027  -0.0063  -0.0014   0.00    7.9
2173 200955.000   -828648.7736  -5494331.7177   3121536.6515   1   8   0.0040   0.0116   0.0055   0.0027  -0.0063  -0.0014   0.00    7.3
2173 200956.000   -828648.7760  -5494331.7191   3121536.6526   1   8   0.0040   0.0116   0.0055   0.0027  -0.0063  -0.0014   0.00    6.9
2173 200957.000   -828648.7740  -5494331.7179   3121536.6533   1   8   0.0040   0.0116   0.0055   0.0027  -0.0063  -0.0014   0.00    7.1
2173 200958.000   -828648.7735  -5494331.7183   3121536.6533   1   8   0.0040   0.0116   0.0055   0.0027  -0.0063  -0.0014   0.00    8.7
2173 200959.000   -828648.7737  -5494331.7164   3121536.6520   1   8   0.0040   0.0116   0.0055   0.0027  -0.0063  -0.0014   0.00    6.8
2173 200960.000   -828648.7747  -5494331.7172   3121536.6533   1   8   0.0040   0.0116   0.0056   0.0027  -0.0063  -0.0014   0.00    6.1
2173 200961.000   -828648.7736  -5494331.7193   3121536.6534   1   8   0.0040   0.0116   0.0056   0.0027  -0.0063  -0.0014   0.00    6.2
2173 200962.000   -828648.7744  -5494331.7154   3121536.6513   1   8   0.0040   0.0116   0.0056   0.0027  -0.0063  -0.0014   0.00    6.0
2173 200963.000   -828648.7728  -5494331.7146   3121536.6523   1   8   0.0040   0.0116   0.0056   0.0027  -0.0063  -0.0014   0.00    6.9
2173 200964.000   -828648.7745  -5494331.7186   3121536.6531   1   8   0.0040   0.0116   0.0056   0.0027  -0.0063  -0.0014   0.00    9.6
2173 200965.000   -828648.7745  -5494331.7163   3121536.6507   1   8   0.0040   0.0116   0.0056   0.0027  -0.0063  -0.0014   0.00    8.4
2173 200966.000   -828648.7730  -5494331.7160   3121536.6512   1   8   0.0040   0.0116   0.0056   0.0027  -0.0063  -0.0014   0.00    8.9
2173 200967.000   -828648.7735  -5494331.7164   3121536.6511   1   8   0.0040   0.0116   0.0056   0.0027  -0.0063  -0.0014   0.00    7.9
2173 200968.000   -828648.7734  -5494331.7113   3121536.6497   1   8   0.0040   0.0116   0.0056   0.0027  -0.0063  -0.0014   0.00    6.1
2173 200969.000   -828648.7743  -5494331.7144   3121536.6501   1   8   0.0040   0.0116   0.0056   0.0027  -0.0063  -0.0014   0.00    7.7
2173 200970.000   -828648.7734  -5494331.7185   3121536.6523   1   8   0.0040   0.0116   0.0056   0.0027  -0.0063  -0.0014   0.00    5.8
2173 200971.000   -828648.7746  -5494331.7168   3121536.6514   1   8   0.0040   0.0116   0.0056   0.0027  -0.0063  -0.0014   0.00    6.2
2173 200972.000   -828648.7745  -5494331.7173   3121536.6525   1   8   0.0040   0.0116   0.0056   0.0027  -0.0063  -0.0014   0.00    6.6
2173 200973.000   -828648.7759  -5494331.7193   3121536.6508   1   8   0.0040   0.0116   0.0056   0.0027  -0.0063  -0.0014   0.00    7.2
2173 200974.000   -828648.7748  -5494331.7169   3121536.6517   1   8   0.0040   0.0116   0.0056   0.0027  -0.0063  -0.0014   0.00    7.6
2173 200975.000   -828648.7743  -5494331.7179   3121536.6511   1   8   0.0040   0.0116   0.0056   0.0027  -0.0063  -0.0014   0.00    7.4
2173 200976.000   -828648.7747  -5494331.7217   3121536.6542   1   8   0.0040   0.0116   0.0056   0.0027  -0.0063  -0.0014   0.00    8.3
2173 200977.000   -828648.7751  -5494331.7151   3121536.6508   1   8   0.0040   0.0116   0.0056   0.0027  -0.0063  -0.0014   0.00    8.3
2173 200978.000   -828648.7743  -5494331.7138   3121536.6489   1   8   0.0040   0.0116   0.0056   0.0027  -0.0063  -0.0014   0.00    8.6
2173 200979.000   -828648.7736  -5494331.7179   3121536.6507   1   8   0.0040   0.0116   0.0056   0.0027  -0.0063  -0.0014   0.00    7.5
2173 200980.000   -828648.7738  -5494331.7174   3121536.6515   1   8   0.0040   0.0116   0.0056   0.0027  -0.0063  -0.0014   0.00    9.9
2173 200981.000   -828648.7737  -5494331.7221   3121536.6527   1   8   0.0040   0.0116   0.0056   0.0027  -0.0063  -0.0014   0.00    9.7
2173 200982.000   -828648.7734  -5494331.7192   3121536.6516   1   8   0.0040   0.0116   0.0056   0.0027  -0.0063  -0.0014   0.00    9.2
2173 200983.000   -828648.7736  -5494331.7192   3121536.6536   1   8   0.0040   0.0116   0.0056   0.0027  -0.0063  -0.0014   0.00    9.2
2173 200984.000   -828648.7736  -5494331.7213   3121536.6536   1   8   0.0040   0.0116   0.0056   0.0027  -0.0063  -0.0014   0.00    8.2
2173 200985.000   -828648.7734  -5494331.7211   3121536.6515   1   8   0.0040   0.0116   0.0056   0.0027  -0.0063  -0.0014   0.00    9.4
2173 200986.000   -828648.7722  -5494331.7179   3121536.6516   1   8   0.0040   0.0116   0.0056   0.0027  -0.0063  -0.0014   0.00    7.1
2173 200987.000   -828648.7753  -5494331.7169   3121536.6515   1   8   0.0040   0.0116   0.0056   0.0027  -0.0063  -0.0014   0.00    9.7
2173 200988.000   -828648.7760  -5494331.7220   3121536.6521   1   8   0.0040   0.0116   0.0056   0.0027  -0.0063  -0.0014   0.00    8.6
2173 200989.000   -828648.7744  -5494331.7200   3121536.6529   1   8   0.0040   0.0116   0.0056   0.0027  -0.0063  -0.0014   0.00    7.0
2173 200990.000   -828648.7746  -5494331.7199   3121536.6511   1   8   0.0040   0.0116   0.0056   0.0027  -0.0063  -0.0014   0.00    7.1
2173 200991.000   -828648.7752  -5494331.7208   3121536.6523   1   8   0.0040   0.0116   0.0056   0.0027  -0.0063  -0.0014   0.00    6.2
2173 200992.000   -828648.7739  -5494331.7210   3121536.6542   1   8   0.0040   0.0116   0.0056   0.0027  -0.0063  -0.0014   0.00    7.6
2173 200993.000   -828648.7759  -5494331.7210   3121536.6532   1   8   0.0040   0.0116   0.0056   0.0027  -0.0063  -0.0014   0.00    6.3
2173 200994.000   -828648.7754  -5494331.7205   3121536.6530   1   8   0.0040   0.0115   0.0056   0.0027  -0.0063  -0.0014   0.00    6.5
2173 200995.000   -828648.7754  -5494331.7154   3121536.6522   1   8   0.0040   0.0115   0.0056   0.0027  -0.0063  -0.0014   0.00    6.6
2173 200996.000   -828648.7760  -5494331.7186   3121536.6519   1   8   0.0040   0.0115   0.0056   0.0027  -0.0063  -0.0014   0.00    7.1
2173 200997.000   -828648.7754  -5494331.7215   3121536.6535   1   8   0.0040   0.0115   0.0056   0.0027  -0.0063  -0.0014   0.00    6.6
2173 200998.000   -828648.7779  -5494331.7259   3121536.6546   1   8   0.0040   0.0115   0.0056   0.0027  -0.0063  -0.0014   0.00    6.1
2173 200999.000   -828648.7768  -5494331.7241   3121536.6547   1   8   0.0040   0.0115   0.0056   0.0027  -0.0063  -0.0014   0.00    6.5
2173 201000.000   -828648.7760  -5494331.7195   3121536.6532   1   8   0.0040   0.0115   0.0056   0.0027  -0.0063  -0.0014   0.00    8.1
2173 201001.000   -828648.7785  -5494331.7252   3121536.6539   1   8   0.0040   0.0115   0.0056   0.0027  -0.0063  -0.0014   0.00    8.0
2173 201002.000   -828648.7766  -5494331.7207   3121536.6534   1   8   0.0040   0.0115   0.0056   0.0027  -0.0063  -0.0014   0.00    8.4
2173 201003.000   -828648.7772  -5494331.7226   3121536.6544   1   8   0.0040   0.0115   0.0056   0.0027  -0.0063  -0.0014   0.00    7.8
2173 201004.000   -828648.7767  -5494331.7184   3121536.6525   1   8   0.0040   0.0115   0.0056   0.0027  -0.0063  -0.0014   0.00   10.5
2173 201005.000   -828648.7768  -5494331.7213   3121536.6530   1   8   0.0040   0.0115   0.0056   0.0027  -0.0063  -0.0014   0.00    7.0
2173 201006.000   -828648.7781  -5494331.7249   3121536.6555   1   8   0.0040   0.0115   0.0056   0.0027  -0.0063  -0.0014   0.00    8.3
2173 201007.000   -828648.7757  -5494331.7196   3121536.6536   1   8   0.0040   0.0115   0.0056   0.0027  -0.0063  -0.0014   0.00    7.7
2173 201008.000   -828648.7773  -5494331.7176   3121536.6517   1   8   0.0040   0.0115   0.0056   0.0027  -0.0063  -0.0014   0.00    7.5
2173 201009.000   -828648.7766  -5494331.7263   3121536.6555   1   8   0.0040   0.0115   0.0056   0.0027  -0.0063  -0.0014   0.00    9.0
2173 201010.000   -828648.7763  -5494331.7199   3121536.6529   1   8   0.0040   0.0115   0.0056   0.0027  -0.0063  -0.0014   0.00    7.8
2173 201011.000   -828648.7760  -5494331.7199   3121536.6542   1   8   0.0040   0.0115   0.0056   0.0027  -0.0063  -0.0014   0.00    9.2
2173 201012.000   -828648.7758  -5494331.7219   3121536.6538   1   8   0.0040   0.0115   0.0056   0.0026  -0.0063  -0.0014   0.00    9.0
2173 201013.000   -828648.7755  -5494331.7238   3121536.6546   1   8   0.0040   0.0115   0.0056   0.0026  -0.0063  -0.0014   0.00   12.0
2173 201014.000   -828648.7749  -5494331.7194   3121536.6534   1   8   0.0040   0.0115   0.0056   0.0026  -0.0063  -0.0014   0.00    9.2
2173 201015.000   -828648.7745  -5494331.7196   3121536.6536   1   8   0.0040   0.0115   0.0056   0.0026  -0.0063  -0.0014   0.00   12.6
2173 201016.000   -828648.7755  -5494331.7224   3121536.6550   1   8   0.0040   0.0115   0.0056   0.0026  -0.0063  -0.0014   0.00    9.9
2173 201017.000   -828648.7773  -5494331.7240   3121536.6557   1   8   0.0040   0.0115   0.0056   0.0026  -0.0063  -0.0014   0.00    8.1
2173 201018.000   -828648.7758  -5494331.7238   3121536.6554   1   8   0.0040   0.0115   0.0056   0.0026  -0.0063  -0.0014   0.00    9.3
2173 201019.000   -828648.7761  -5494331.7211   3121536.6544   1   8   0.0040   0.0115   0.0056   0.0026  -0.0063  -0.0014   0.00    9.7
2173 201020.000   -828648.7765  -5494331.7193   3121536.6541   1   8   0.0040   0.0115   0.0056   0.0026  -0.0063  -0.0014   0.00   10.1
2173 201021.000   -828648.7758  -5494331.7152   3121536.6536   1   8   0.0040   0.0115   0.0056   0.0026  -0.0063  -0.0014   0.00    9.8
2173 201022.000   -828648.7764  -5494331.7159   3121536.6525   1   8   0.0040   0.0115   0.0056   0.0026  -0.0063  -0.0014   0.00    9.5
2173 201023.000   -828648.7772  -5494331.7192   3121536.6521   1   8   0.0040   0.0115   0.0056   0.0026  -0.0063  -0.0014   0.00   11.2
2173 201024.000   -828648.7763  -5494331.7213   3121536.6545   1   8   0.0040   0.0115   0.0056   0.0026  -0.0063  -0.0014   0.00   14.0
2173 201025.000   -828648.7750  -5494331.7231   3121536.6543   1   8   0.0040   0.0115   0.0056   0.0026  -0.0063  -0.0014   0.00   12.9
2173 201026.000   -828648.7752  -5494331.7185   3121536.6519   1   8   0.0040   0.0115   0.0056   0.0026  -0.0063  -0.0014   0.00   10.6
2173 201027.000   -828648.7742  -5494331.7195   3121536.6526   1   8   0.0040   0.0115   0.0056   0.0026  -0.0063  -0.0014   0.00    9.9
2173 201028.000   -828648.7738  -5494331.7141   3121536.6512   1   8   0.0040   0.0115   0.0056   0.0026  -0.0063  -0.0014   0.00   15.8
2173 201029.000   -828648.7742  -5494331.7221   3121536.6549   1   8   0.0040   0.0115   0.0056   0.0026  -0.0062  -0.0014   0.00   15.6
2173 201030.000   -828648.7741  -5494331.7156   3121536.6527   1   8   0.0040   0.0115   0.0056   0.0026  -0.0062  -0.0014   0.00   15.3
2173 201031.000   -828648.7739  -5494331.7170   3121536.6516   1   8   0.0040   0.0115   0.0056   0.0026  -0.0062  -0.0014   0.00   10.8
2173 201032.000   -828648.7741  -5494331.7146   3121536.6509   1   8   0.0040   0.0115   0.0056   0.0026  -0.0062  -0.0014   0.00   13.2
2173 201033.000   -828648.7741  -5494331.7177   3121536.6529   1   8   0.0040   0.0115   0.0056   0.0026  -0.0062  -0.0014   0.00   13.8
2173 201034.000   -828648.7745  -5494331.7191   3121536.6518   1   8   0.0040   0.0115   0.0056   0.0026  -0.0062  -0.0014   0.00   13.3
2173 201035.000   -828648.7734  -5494331.7146   3121536.6508   1   8   0.0040   0.0115   0.0056   0.0026  -0.0062  -0.0014   0.00   10.4
2173 201036.000   -828648.7731  -5494331.7151   3121536.6519   1   8   0.0040   0.0115   0.0056   0.0026  -0.0062  -0.0014   0.00   11.9
2173 201037.000   -828648.7729  -5494331.7181   3121536.6543   1   8   0.0040   0.0115   0.0056   0.0026  -0.0062  -0.0014   0.00    9.1
2173 201038.000   -828648.7741  -5494331.7165   3121536.6520   1   8   0.0040   0.0115   0.0056   0.0026  -0.0062  -0.0014   0.00    9.2
2173 201039.000   -828648.7732  -5494331.7187   3121536.6522   1   8   0.0040   0.0115   0.0056   0.0026  -0.0062  -0.0014   0.00    9.4
2173 201040.000   -828648.7741  -5494331.7155   3121536.6527   1   8   0.0040   0.0115   0.0056   0.0026  -0.0062  -0.0014   0.00    8.8
2173 201041.000   -828648.7726  -5494331.7148   3121536.6514   1   8   0.0040   0.0115   0.0056   0.0026  -0.0062  -0.0014   0.00    8.1
2173 201042.000   -828648.7755  -5494331.7142   3121536.6506   1   8   0.0040   0.0115   0.0056   0.0026  -0.0062  -0.0014   0.00    8.6
2173 201043.000   -828648.7739  -5494331.7143   3121536.6489   1   8   0.0040   0.0115   0.0056   0.0026  -0.0062  -0.0014   0.00    8.1
2173 201044.000   -828648.7729  -5494331.7184   3121536.6523   1   8   0.0040   0.0115   0.0056   0.0026  -0.0062  -0.0014   0.00    8.2
2173 201045.000   -828648.7742  -5494331.7161   3121536.6519   1   8   0.0040   0.0115   0.0056   0.0026  -0.0062  -0.0014   0.00    7.0
2173 201046.000   -828648.7742  -5494331.7151   3121536.6503   1   8   0.0040   0.0115   0.0056   0.0026  -0.0062  -0.0014   0.00    6.4
2173 201047.000   -828648.7739  -5494331.7105   3121536.6503   1   8   0.0040   0.0115   0.0056   0.0026  -0.0062  -0.0014   0.00    7.0
2173 201048.000   -828648.7747  -5494331.7190   3121536.6530   1   8   0.0040   0.0115   0.0056   0.0026  -0.0062  -0.0014   0.00    6.6
2173 201049.000   -828648.7751  -5494331.7165   3121536.6519   1   8   0.0040   0.0115   0.0056   0.0026  -0.0062  -0.0014   0.00    9.0
2173 201050.000   -828648.7755  -5494331.7200   3121536.6515   1   8   0.0040   0.0115   0.0056   0.0026  -0.0062  -0.0014   0.00    8.1
2173 201051.000   -828648.7753  -5494331.7150   3121536.6514   1   8   0.0040   0.0115   0.0056   0.0026  -0.0062  -0.0014   0.00    8.3
2173 201052.000   -828648.7754  -5494331.7189   3121536.6543   1   8   0.0040   0.0115   0.0056   0.0026  -0.0062  -0.0014   0.00    6.8
2173 201053.000   -828648.7742  -5494331.7195   3121536.6543   1   8   0.0040   0.0115   0.0056   0.0026  -0.0062  -0.0014   0.00    8.0
2173 201054.000   -828648.7741  -5494331.7171   3121536.6531   1   8   0.0040   0.0115   0.0056   0.0026  -0.0062  -0.0014   0.00    6.6
2173 201055.000   -828648.7735  -5494331.7203   3121536.6529   1   8   0.0040   0.0115   0.0056   0.0026  -0.0062  -0.0014   0.00    8.9
2173 201056.000   -828648.7746  -5494331.7163   3121536.6519   1   8   0.0040   0.0115   0.0056   0.0026  -0.0062  -0.0013   0.00    6.5
2173 201057.000   -828648.7762  -5494331.7154   3121536.6506   1   8   0.0040   0.0115   0.0056   0.0026  -0.0062  -0.0013   0.00    7.0
2173 201058.000   -828648.7756  -5494331.7228   3121536.6526   1   8   0.0040   0.0115   0.0056   0.0026  -0.0062  -0.0013   0.00    7.3
2173 201059.000   -828648.7753  -5494331.7175   3121536.6513   1   8   0.0040   0.0115   0.0056   0.0026  -0.0062  -0.0013   0.00    9.8
2173 201060.000   -828648.7746  -5494331.7167   3121536.6508   1   8   0.0040   0.0115   0.0056   0.0026  -0.0062  -0.0013   0.00    7.7
2173 201061.000   -828648.7752  -5494331.7194   3121536.6519   1   8   0.0040   0.0115   0.0056   0.0026  -0.0062  -0.0013   0.00    9.9
2173 201062.000   -828648.7750  -5494331.7205   3121536.6534   1   8   0.0040   0.0115   0.0056   0.0026  -0.0062  -0.0013   0.00    8.3
2173 201063.000   -828648.7741  -5494331.7177   3121536.6524   1   8   0.0040   0.0115   0.0056   0.0026  -0.0062  -0.0013   0.00    6.1
2173 201064.000   -828648.7742  -5494331.7189   3121536.6510   1   8   0.0040   0.0115   0.0056   0.0026  -0.0062  -0.0013   0.00    8.3
2173 201065.000   -828648.7745  -5494331.7197   3121536.6525   1   8   0.0040   0.0115   0.0056   0.0026  -0.0062  -0.0013   0.00    6.9
2173 201066.000   -828648.7753  -5494331.7206   3121536.6512   1   8   0.0040   0.0115   0.0056   0.0026  -0.0062  -0.0013   0.00    7.2
2173 201067.000   -828648.7774  -5494331.7236   3121536.6536   1   8   0.0040   0.0115   0.0056   0.0026  -0.0062  -0.0013   0.00    6.9
2173 201068.000   -828648.7758  -5494331.7253   3121536.6534   1   8   0.0040   0.0115   0.0056   0.0026  -0.0062  -0.0013   0.00    7.0
2173 201069.000   -828648.7749  -5494331.7229   3121536.6537   1   8   0.0040   0.0115   0.0056   0.0026  -0.0062  -0.0013   0.00    9.2
2173 201070.000   -828648.7764  -5494331.7229   3121536.6524   1   8   0.0040   0.0115   0.0056   0.0026  -0.0062  -0.0013   0.00    8.3
2173 201071.000   -828648.7757  -5494331.7186   3121536.6539   1   8   0.0040   0.0115   0.0056   0.0026  -0.0062  -0.0013   0.00    7.3
2173 201072.000   -828648.7755  -5494331.7215   3121536.6535   1   8   0.0040   0.0115   0.0056   0.0026  -0.0062  -0.0013   0.00    8.6
2173 201073.000   -828648.7758  -5494331.7207   3121536.6532   1   8   0.0040   0.0115   0.0056   0.0026  -0.0062  -0.0013   0.00    9.3
2173 201074.000   -828648.7758  -5494331.7243   3121536.6553   1   8   0.0040   0.0114   0.0056   0.0026  -0.0062  -0.0013   0.00   10.0
2173 201075.000   -828648.7759  -5494331.7213   3121536.6548   1   8   0.0040   0.0114   0.0056   0.0026  -0.0062  -0.0013   0.00    8.0
2173 201076.000   -828648.7761  -5494331.7201   3121536.6523   1   8   0.0040   0.0114   0.0056   0.0026  -0.0062  -0.0013   0.00    7.1
2173 201077.000   -828648.7762  -5494331.7210   3121536.6535   1   8   0.0040   0.0114   0.0056   0.0026  -0.0062  -0.0013   0.00    8.3
2173 201078.000   -828648.7763  -5494331.7199   3121536.6554   1   8   0.0040   0.0114   0.0056   0.0026  -0.0062  -0.0013   0.00    6.9
2173 201079.000   -828648.7776  -5494331.7244   3121536.6555   1   8   0.0040   0.0114   0.0056   0.0026  -0.0062  -0.0013   0.00    7.3
2173 201080.000   -828648.7769  -5494331.7239   3121536.6560   1   8   0.0040   0.0114   0.0056   0.0026  -0.0062  -0.0013   0.00    6.9
2173 201081.000   -828648.7758  -5494331.7216   3121536.6539   1   8   0.0040   0.0114   0.0056   0.0026  -0.0062  -0.0013   0.00    9.3
2173 201082.000   -828648.7766  -5494331.7199   3121536.6539   1   8   0.0040   0.0114   0.0056   0.0026  -0.0062  -0.0013   0.00    7.1
2173 201083.000   -828648.7758  -5494331.7243   3121536.6563   1   8   0.0040   0.0114   0.0056   0.0026  -0.0062  -0.0013   0.00    8.8
2173 201084.000   -828648.7754  -5494331.7219   3121536.6539   1   8   0.0040   0.0114   0.0056   0.0026  -0.0062  -0.0013   0.00    8.7
2173 201085.000   -828648.7744  -5494331.7139   3121536.6528   1   8   0.0040   0.0114   0.0056   0.0026  -0.0062  -0.0013   0.00    7.4
2173 201086.000   -828648.7758  -5494331.7213   3121536.6547   1   8   0.0040   0.0114   0.0056   0.0026  -0.0062  -0.0013   0.00    8.5
2173 201087.000   -828648.7764  -5494331.7280   3121536.6548   1   8   0.0040   0.0114   0.0056   0.0026  -0.0062  -0.0013   0.00    9.8
2173 201088.000   -828648.7752  -5494331.7239   3121536.6561   1   8   0.0040   0.0114   0.0056   0.0026  -0.0062  -0.0013   0.00   10.7
2173 201089.000   -828648.7761  -5494331.7245   3121536.6548   1   8   0.0040   0.0114   0.0056   0.0026  -0.0062  -0.0013   0.00    9.5
2173 201090.000   -828648.7763  -5494331.7265   3121536.6555   1   8   0.0040   0.0114   0.0056   0.0026  -0.0062  -0.0013   0.00   11.9
2173 201091.000   -828648.7744  -5494331.7230   3121536.6553   1   8   0.0040   0.0114   0.0056   0.0026  -0.0062  -0.0013   0.00   10.3
2173 201092.000   -828648.7747  -5494331.7252   3121536.6561   1   8   0.0040   0.0114   0.0056   0.0026  -0.0062  -0.0013   0.00   12.1
2173 201093.000   -828648.7744  -5494331.7216   3121536.6538   1   8   0.0040   0.0114   0.0056   0.0026  -0.0062  -0.0013   0.00   10.7
2173 201094.000   -828648.7754  -5494331.7239   3121536.6564   1   8   0.0040   0.0114   0.0056   0.0026  -0.0062  -0.0013   0.00    9.4
2173 201095.000   -828648.7765  -5494331.7240   3121536.6555   1   8   0.0040   0.0114   0.0056   0.0026  -0.0062  -0.0013   0.00    9.1
2173 201096.000   -828648.7757  -5494331.7261   3121536.6543   1   8   0.0040   0.0114   0.0056   0.0026  -0.0062  -0.0013   0.00    8.9
2173 201097.000   -828648.7776  -5494331.7295   3121536.6556   1   8   0.0040   0.0114   0.0056   0.0026  -0.0062  -0.0013   0.00   10.5
2173 201098.000   -828648.7768  -5494331.7255   3121536.6543   1   8   0.0040   0.0114   0.0056   0.0026  -0.0062  -0.0013   0.00   10.1
2173 201099.000   -828648.7776  -5494331.7282   3121536.6565   1   8   0.0040   0.0114   0.0056   0.0026  -0.0062  -0.0013   0.00   11.8
2173 201100.000   -828648.7769  -5494331.7267   3121536.6548   1   8   0.0040   0.0114   0.0056   0.0026  -0.0062  -0.0013   0.00   12.3
2173 201101.000   -828648.7766  -5494331.7310   3121536.6573   1   8   0.0040   0.0114   0.0056   0.0026  -0.0062  -0.0013   0.00    8.4
2173 201102.000   -828648.7776  -5494331.7338   3121536.6594   1   8   0.0040   0.0114   0.0056   0.0026  -0.0062  -0.0013   0.00    9.0
2173 201103.000   -828648.7753  -5494331.7301   3121536.6575   1   8   0.0040   0.0114   0.0056   0.0026  -0.0062  -0.0013   0.00    9.0
2173 201104.000   -828648.7777  -5494331.7288   3121536.6582   1   8   0.0040   0.0114   0.0056   0.0026  -0.0062  -0.0013   0.00   11.1
2173 201105.000   -828648.7760  -5494331.7217   3121536.6548   1   8   0.0040   0.0114   0.0056   0.0026  -0.0062  -0.0013   0.00    9.8
2173 201106.000   -828648.7770  -5494331.7255   3121536.6559   1   8   0.0040   0.0114   0.0056   0.0026  -0.0062  -0.0013   0.00    9.5
2173 201107.000   -828648.7764  -5494331.7236   3121536.6545   1   8   0.0040   0.0114   0.0056   0.0025  -0.0062  -0.0013   0.00    8.3
2173 201108.000   -828648.7773  -5494331.7214   3121536.6542   1   8   0.0040   0.0114   0.0056   0.0025  -0.0062  -0.0013   0.00   11.1
2173 201109.000   -828648.7766  -5494331.7238   3121536.6563   1   8   0.0040   0.0114   0.0056   0.0025  -0.0062  -0.0013   0.00   11.0
2173 201110.000   -828648.7763  -5494331.7303   3121536.6567   1   8   0.0040   0.0114   0.0056   0.0025  -0.0062  -0.0013   0.00    8.7
2173 201111.000   -828648.7759  -5494331.7298   3121536.6581   1   8   0.0040   0.0114   0.0056   0.0025  -0.0062  -0.0013   0.00    8.1
2173 201112.000   -828648.7757  -5494331.7273   3121536.6572   1   8   0.0040   0.0114   0.0056   0.0025  -0.0062  -0.0013   0.00    8.3
2173 201113.000   -828648.7780  -5494331.7297   3121536.6554   1   8   0.0040   0.0114   0.0056   0.0025  -0.0062  -0.0013   0.00   10.4
2173 201114.000   -828648.7770  -5494331.7281   3121536.6559   1   8   0.0040   0.0114   0.0056   0.0025  -0.0062  -0.0013   0.00    9.3
2173 201115.000   -828648.7769  -5494331.7250   3121536.6545   1   8   0.0040   0.0114   0.0056   0.0025  -0.0062  -0.0013   0.00   10.3
2173 201116.000   -828648.7771  -5494331.7251   3121536.6551   1   8   0.0040   0.0114   0.0056   0.0025  -0.0062  -0.0013   0.00    9.5
2173 201117.000   -828648.7755  -5494331.7247   3121536.6551   1   8   0.0040   0.0114   0.0056   0.0025  -0.0062  -0.0013   0.00   11.4
2173 201118.000   -828648.7763  -5494331.7284   3121536.6559   1   8   0.0040   0.0114   0.0056   0.0025  -0.0062  -0.0013   0.00    9.7
2173 201119.000   -828648.7776  -5494331.7347   3121536.6582   1   8   0.0040   0.0114   0.0056   0.0025  -0.0062  -0.0013   0.00    8.1
2173 201120.000   -828648.7758  -5494331.7274   3121536.6543   1   8   0.0040   0.0114   0.0056   0.0025  -0.0062  -0.0013   0.00    8.2
2173 201121.000   -828648.7764  -5494331.7296   3121536.6556   1   8   0.0040   0.0114   0.0056   0.0025  -0.0062  -0.0013   0.00    9.8
2173 201122.000   -828648.7759  -5494331.7284   3121536.6543   1   8   0.0040   0.0114   0.0056   0.0025  -0.0062  -0.0013   0.00    7.1
2173 201123.000   -828648.7759  -5494331.7349   3121536.6558   1   8   0.0040   0.0114   0.0056   0.0025  -0.0062  -0.0013   0.00    7.0
2173 201124.000   -828648.7752  -5494331.7254   3121536.6539   1   8   0.0040   0.0114   0.0056   0.0025  -0.0062  -0.0013   0.00    7.9
2173 201125.000   -828648.7764  -5494331.7263   3121536.6536   1   8   0.0040   0.0114   0.0056   0.0025  -0.0062  -0.0013   0.00    8.1
2173 201126.000   -828648.7760  -5494331.7310   3121536.6540   1   8   0.0040   0.0114   0.0056   0.0025  -0.0062  -0.0013   0.00    7.9
2173 201127.000   -828648.7753  -5494331.7294   3121536.6552   1   8   0.0040   0.0114   0.0056   0.0025  -0.0062  -0.0013   0.00    8.2
2173 201128.000   -828648.7774  -5494331.7267   3121536.6524   1   8   0.0040   0.0114   0.0056   0.0025  -0.0062  -0.0013   0.00    7.1
2173 201129.000   -828648.7778  -5494331.7263   3121536.6549   1   8   0.0040   0.0114   0.0056   0.0025  -0.0062  -0.0013   0.00    7.9
2173 201130.000   -828648.7773  -5494331.7310   3121536.6552   1   8   0.0040   0.0114   0.0056   0.0025  -0.0062  -0.0013   0.00    7.6
2173 201131.000   -828648.7765  -5494331.7293   3121536.6546   1   8   0.0040   0.0114   0.0056   0.0025  -0.0062  -0.0013   0.00    7.1
2173 201132.000   -828648.7772  -5494331.7300   3121536.6549   1   8   0.0040   0.0114   0.0056   0.0025  -0.0062  -0.0013   0.00    7.7
2173 201133.000   -828648.7778  -5494331.7290   3121536.6543   1   8   0.0040   0.0114   0.0056   0.0025  -0.0062  -0.0013   0.00    7.6
2173 201134.000   -828648.7764  -5494331.7236   3121536.6522   1   8   0.0040   0.0114   0.0056   0.0025  -0.0062  -0.0013   0.00    7.2
2173 201135.000   -828648.7777  -5494331.7254   3121536.6532   1   8   0.0040   0.0114   0.0056   0.0025  -0.0062  -0.0013   0.00    6.7
2173 201136.000   -828648.7763  -5494331.7226   3121536.6527   1   8   0.0040   0.0114   0.0056   0.0025  -0.0062  -0.0013   0.00    6.8
2173 201137.000   -828648.7750  -5494331.7257   3121536.6528   1   8   0.0040   0.0114   0.0056   0.0025  -0.0062  -0.0013   0.00    5.5
2173 201138.000   -828648.7753  -5494331.7312   3121536.6544   1   8   0.0040   0.0114   0.0056   0.0025  -0.0062  -0.0013   0.00    5.5
2173 201139.000   -828648.7747  -5494331.7296   3121536.6533   1   8   0.0040   0.0114   0.0056   0.0025  -0.0062  -0.0013   0.00    5.8
2173 201140.000   -828648.7753  -5494331.7307   3121536.6530   1   8   0.0040   0.0114   0.0056   0.0025  -0.0062  -0.0013   0.00    5.9
2173 201141.000   -828648.7742  -5494331.7247   3121536.6505   1   8   0.0040   0.0114   0.0056   0.0025  -0.0062  -0.0013   0.00    5.2
2173 201142.000   -828648.7764  -5494331.7298   3121536.6524   1   8   0.0040   0.0114   0.0056   0.0025  -0.0062  -0.0013   0.00    5.3
2173 201143.000   -828648.7755  -5494331.7281   3121536.6512   1   8   0.0040   0.0114   0.0056   0.0025  -0.0062  -0.0013   0.00    5.2
2173 201144.000   -828648.7736  -5494331.7269   3121536.6517   1   8   0.0040   0.0114   0.0056   0.0025  -0.0062  -0.0013   0.00    5.2
2173 201145.000   -828648.7747  -5494331.7325   3121536.6538   1   8   0.0040   0.0114   0.0056   0.0025  -0.0062  -0.0013   0.00    5.2
2173 201146.000   -828648.7738  -5494331.7307   3121536.6523   1   8   0.0040   0.0114   0.0056   0.0025  -0.0062  -0.0013   0.00    5.4
2173 201147.000   -828648.7742  -5494331.7306   3121536.6528   1   8   0.0040   0.0114   0.0056   0.0025  -0.0062  -0.0013   0.00    5.7
2173 201148.000   -828648.7728  -5494331.7299   3121536.6528   1   8   0.0040   0.0114   0.0056   0.0025  -0.0062  -0.0013   0.00    5.5
2173 201149.000   -828648.7741  -5494331.7259   3121536.6506   1   8   0.0040   0.0114   0.0056   0.0025  -0.0062  -0.0013   0.00    5.5
2173 201150.000   -828648.7740  -5494331.7297   3121536.6526   1   8   0.0040   0.0114   0.0056   0.0025  -0.0062  -0.0013   0.00    4.9
2173 201151.000   -828648.7750  -5494331.7319   3121536.6539   1   8   0.0040   0.0114   0.0056   0.0025  -0.0062  -0.0013   0.00    5.6
2173 201152.000   -828648.7747  -5494331.7237   3121536.6515   1   8   0.0040   0.0114   0.0056   0.0025  -0.0062  -0.0013   0.00    5.3
2173 201153.000   -828648.7750  -5494331.7286   3121536.6503   1   8   0.0040   0.0114   0.0056   0.0025  -0.0062  -0.0013   0.00    5.4
2173 201154.000   -828648.7759  -5494331.7271   3121536.6533   1   8   0.0040   0.0114   0.0056   0.0025  -0.0062  -0.0013   0.00    5.2
2173 201155.000   -828648.7755  -5494331.7318   3121536.6529   1   8   0.0040   0.0114   0.0056   0.0025  -0.0062  -0.0013   0.00    4.7
2173 201156.000   -828648.7743  -5494331.7283   3121536.6511   1   8   0.0040   0.0113   0.0056   0.0025  -0.0062  -0.0013   0.00    6.0
2173 201157.000   -828648.7754  -5494331.7296   3121536.6524   1   8   0.0040   0.0113   0.0056   0.0025  -0.0062  -0.0013   0.00    5.3
2173 201158.000   -828648.7748  -5494331.7336   3121536.6533   1   8   0.0040   0.0113   0.0056   0.0025  -0.0062  -0.0013   0.00    5.1
2173 201159.000   -828648.7730  -5494331.7288   3121536.6504   1   8   0.0040   0.0113   0.0056   0.0025  -0.0062  -0.0013   0.00    4.2
2173 201160.000   -828648.7729  -5494331.7291   3121536.6511   1   8   0.0040   0.0113   0.0056   0.0025  -0.0062  -0.0013   0.00    4.1
2173 201161.000   -828648.7731  -5494331.7255   3121536.6491   1   8   0.0040   0.0113   0.0056   0.0025  -0.0062  -0.0013   0.00    4.4
2173 201162.000   -828648.7723  -5494331.7271   3121536.6497   1   8   0.0040   0.0113   0.0056   0.0025  -0.0062  -0.0013   0.00    4.3
2173 201163.000   -828648.7739  -5494331.7273   3121536.6494   1   8   0.0040   0.0113   0.0056   0.0025  -0.0062  -0.0013   0.00    4.3
2173 201164.000   -828648.7722  -5494331.7298   3121536.6488   1   8   0.0040   0.0113   0.0056   0.0025  -0.0062  -0.0013   0.00    3.8
2173 201165.000   -828648.7747  -5494331.7309   3121536.6506   1   8   0.0040   0.0113   0.0056   0.0025  -0.0062  -0.0013   0.00    3.8
2173 201166.000   -828648.7760  -5494331.7271   3121536.6484   1   8   0.0040   0.0113   0.0056   0.0025  -0.0062  -0.0013   0.00    4.8
2173 201167.000   -828648.7739  -5494331.7265   3121536.6492   1   8   0.0040   0.0113   0.0056   0.0025  -0.0062  -0.0013   0.00    5.1
2173 201168.000   -828648.7736  -5494331.7257   3121536.6501   1   8   0.0040   0.0113   0.0056   0.0025  -0.0062  -0.0013   0.00    4.4
2173 201169.000   -828648.7734  -5494331.7287   3121536.6499   1   8   0.0040   0.0113   0.0056   0.0025  -0.0062  -0.0013   0.00    4.9
2173 201170.000   -828648.7755  -5494331.7301   3121536.6528   1   8   0.0040   0.0113   0.0056   0.0025  -0.0062  -0.0013   0.00    4.4
2173 201171.000   -828648.7743  -5494331.7310   3121536.6525   1   8   0.0040   0.0113   0.0056   0.0025  -0.0062  -0.0013   0.00    5.5
2173 201172.000   -828648.7748  -5494331.7314   3121536.6530   1   8   0.0040   0.0113   0.0056   0.0025  -0.0062  -0.0013   0.00    4.6
2173 201173.000   -828648.7742  -5494331.7293   3121536.6515   1   8   0.0040   0.0113   0.0056   0.0025  -0.0062  -0.0013   0.00    4.7
2173 201174.000   -828648.7726  -5494331.7282   3121536.6498   1   8   0.0040   0.0113   0.0056   0.0025  -0.0062  -0.0012   0.00    4.5
2173 201175.000   -828648.7703  -5494331.7275   3121536.6496   1   8   0.0040   0.0113   0.0056   0.0025  -0.0062  -0.0012   0.00    4.4
2173 201176.000   -828648.7737  -5494331.7277   3121536.6483   1   8   0.0040   0.0113   0.0056   0.0025  -0.0062  -0.0012   0.00    3.5
2173 201177.000   -828648.7736  -5494331.7321   3121536.6518   1   8   0.0040   0.0113   0.0056   0.0025  -0.0062  -0.0012   0.00    4.8
2173 201178.000   -828648.7743  -5494331.7328   3121536.6519   1   8   0.0040   0.0113   0.0056   0.0025  -0.0062  -0.0012   0.00    4.2
2173 201179.000   -828648.7718  -5494331.7252   3121536.6478   1   8   0.0040   0.0113   0.0056   0.0025  -0.0062  -0.0012   0.00    4.0
2173 201180.000   -828648.7735  -5494331.7278   3121536.6499   1   8   0.0040   0.0113   0.0056   0.0025  -0.0062  -0.0012   0.00    3.8
2173 201181.000   -828648.7735  -5494331.7292   3121536.6511   1   8   0.0040   0.0113   0.0056   0.0025  -0.0062  -0.0012   0.00    3.9
2173 201182.000   -828648.7737  -5494331.7246   3121536.6487   1   8   0.0040   0.0113   0.0056   0.0025  -0.0062  -0.0012   0.00    4.7
2173 201183.000   -828648.7730  -5494331.7295   3121536.6528   1   8   0.0040   0.0113   0.0056   0.0025  -0.0062  -0.0012   0.00    4.5
2173 201184.000   -828648.7742  -5494331.7234   3121536.6494   1   8   0.0040   0.0113   0.0056   0.0025  -0.0062  -0.0012   0.00    4.1
2173 201185.000   -828648.7741  -5494331.7253   3121536.6491   1   8   0.0040   0.0113   0.0056   0.0025  -0.0062  -0.0012   0.00    4.1
2173 201186.000   -828648.7740  -5494331.7255   3121536.6487   1   8   0.0040   0.0113   0.0056   0.0025  -0.0062  -0.0012   0.00    4.3
2173 201187.000   -828648.7735  -5494331.7246   3121536.6491   1   8   0.0040   0.0113   0.0056   0.0025  -0.0062  -0.0012   0.00    4.3
2173 201188.000   -828648.7716  -5494331.7274   3121536.6499   1   8   0.0040   0.0113   0.0056   0.0025  -0.0062  -0.0012   0.00    3.7
2173 201189.000   -828648.7711  -5494331.7268   3121536.6485   1   8   0.0040   0.0113   0.0056   0.0025  -0.0062  -0.0012   0.00    3.9
2173 201190.000   -828648.7711  -5494331.7272   3121536.6499   1   8   0.0040   0.0113   0.0056   0.0025  -0.0062  -0.0012   0.00    3.8
2173 201191.000   -828648.7704  -5494331.7233   3121536.6479   1   8   0.0040   0.0113   0.0056   0.0025  -0.0062  -0.0012   0.00    3.4
2173 201192.000   -828648.7701  -5494331.7253   3121536.6490   1   8   0.0040   0.0113   0.0056   0.0025  -0.0062  -0.0012   0.00    4.1
2173 201193.000   -828648.7702  -5494331.7225   3121536.6485   1   8   0.0040   0.0113   0.0056   0.0025  -0.0062  -0.0012   0.00    4.2
2173 201194.000   -828648.7701  -5494331.7268   3121536.6494   1   8   0.0040   0.0113   0.0056   0.0025  -0.0062  -0.0012   0.00    3.7
2173 201195.000   -828648.7706  -5494331.7217   3121536.6491   1   8   0.0040   0.0113   0.0056   0.0025  -0.0062  -0.0012   0.00    4.4
2173 201196.000   -828648.7706  -5494331.7210   3121536.6463   1   8   0.0040   0.0113   0.0056   0.0025  -0.0062  -0.0012   0.00    3.9
2173 201197.000   -828648.7704  -5494331.7206   3121536.6493   1   8   0.0040   0.0113   0.0056   0.0025  -0.0062  -0.0012   0.00    4.3
2173 201198.000   -828648.7705  -5494331.7171   3121536.6467   1   8   0.0040   0.0113   0.0056   0.0025  -0.0062  -0.0012   0.00    4.0
2173 201199.000   -828648.7712  -5494331.7231   3121536.6489   1   8   0.0040   0.0113   0.0056   0.0025  -0.0062  -0.0012   0.00    4.0
2173 201200.000   -828648.7709  -5494331.7186   3121536.6473   1   8   0.0040   0.0113   0.0056   0.0025  -0.0062  -0.0012   0.00    3.6
2173 201201.000   -828648.7707  -5494331.7214   3121536.6492   1   8   0.0040   0.0113   0.0056   0.0024  -0.0062  -0.0012   0.00    3.9
2173 201202.000   -828648.7701  -5494331.7231   3121536.6494   1   8   0.0040   0.0113   0.0056   0.0024  -0.0062  -0.0012   0.00    3.2
2173 201203.000   -828648.7694  -5494331.7210   3121536.6491   1   8   0.0040   0.0113   0.0056   0.0024  -0.0062  -0.0012   0.00    3.7
2173 201204.000   -828648.7694  -5494331.7243   3121536.6503   1   8   0.0040   0.0113   0.0056   0.0024  -0.0062  -0.0012   0.00    3.5
2173 201205.000   -828648.7700  -5494331.7156   3121536.6469   1   8   0.0040   0.0113   0.0056   0.0024  -0.0062  -0.0012   0.00    3.2
2173 201206.000   -828648.7702  -5494331.7213   3121536.6489   1   8   0.0040   0.0113   0.0056   0.0024  -0.0062  -0.0012   0.00    3.9
2173 201207.000   -828648.7716  -5494331.7195   3121536.6480   1   8   0.0040   0.0113   0.0056   0.0024  -0.0062  -0.0012   0.00    3.8
2173 201208.000   -828648.7697  -5494331.7164   3121536.6484   1   8   0.0040   0.0113   0.0056   0.0024  -0.0062  -0.0012   0.00    4.5
2173 201209.000   -828648.7712  -5494331.7221   3121536.6485   1   8   0.0040   0.0113   0.0056   0.0024  -0.0062  -0.0012   0.00    4.6
2173 201210.000   -828648.7702  -5494331.7180   3121536.6484   1   8   0.0040   0.0113   0.0056   0.0024  -0.0062  -0.0012   0.00    4.2
2173 201211.000   -828648.7697  -5494331.7158   3121536.6474   1   8   0.0040   0.0113   0.0056   0.0024  -0.0062  -0.0012   0.00    4.7
2173 201212.000   -828648.7708  -5494331.7155   3121536.6472   1   8   0.0040   0.0113   0.0056   0.0024  -0.0062  -0.0012   0.00    4.4
2173 201213.000   -828648.7707  -5494331.7172   3121536.6485   1   8   0.0040   0.0113   0.0056   0.0024  -0.0062  -0.0012   0.00    4.5
2173 201214.000   -828648.7703  -5494331.7191   3121536.6475   1   8   0.0040   0.0113   0.0056   0.0024  -0.0062  -0.0012   0.00    4.8
2173 201215.000   -828648.7712  -5494331.7165   3121536.6494   1   8   0.0040   0.0113   0.0056   0.0024  -0.0062  -0.0012   0.00    4.8
2173 201216.000   -828648.7696  -5494331.7121   3121536.6458   1   8   0.0040   0.0113   0.0056   0.0024  -0.0062  -0.0012   0.00    4.0
2173 201217.000   -828648.7702  -5494331.7170   3121536.6467   1   8   0.0040   0.0113   0.0056   0.0024  -0.0062  -0.0012   0.00    4.4
2173 201218.000   -828648.7675  -5494331.7153   3121536.6463   1   8   0.0040   0.0113   0.0056   0.0024  -0.0062  -0.0012   0.00    4.0
2173 201219.000   -828648.7697  -5494331.7191   3121536.6469   1   8   0.0040   0.0113   0.0056   0.0024  -0.0062  -0.0012   0.00    4.0
2173 201220.000   -828648.7697  -5494331.7134   3121536.6470   1   8   0.0042   0.0115   0.0057   0.0023  -0.0063  -0.0015   1.00    4.2
2173 201221.000   -828648.7704  -5494331.7200   3121536.6487   1   8   0.0040   0.0113   0.0056   0.0024  -0.0062  -0.0012   0.00    4.5
2173 201222.000   -828648.7707  -5494331.7142   3121536.6481   1   8   0.0040   0.0113   0.0056   0.0024  -0.0062  -0.0012   0.00    4.2
2173 201223.000   -828648.7688  -5494331.7175   3121536.6479   1   8   0.0040   0.0113   0.0056   0.0024  -0.0062  -0.0012   0.00    4.4
2173 201224.000   -828648.7702  -5494331.7135   3121536.6475   1   8   0.0040   0.0113   0.0056   0.0024  -0.0062  -0.0012   0.00    4.8
2173 201225.000   -828648.7696  -5494331.7197   3121536.6493   1   8   0.0040   0.0113   0.0056   0.0024  -0.0062  -0.0012   0.00    4.0
2173 201226.000   -828648.7672  -5494331.7162   3121536.6481   1   8   0.0040   0.0113   0.0056   0.0024  -0.0062  -0.0012   0.00    4.0
2173 201227.000   -828648.7686  -5494331.7158   3121536.6485   1   8   0.0040   0.0113   0.0056   0.0024  -0.0062  -0.0012   0.00    5.8
2173 201228.000   -828648.7695  -5494331.7131   3121536.6469   1   8   0.0040   0.0113   0.0056   0.0024  -0.0062  -0.0012   0.00    4.9
2173 201229.000   -828648.7687  -5494331.7154   3121536.6491   1   8   0.0040   0.0113   0.0056   0.0024  -0.0062  -0.0012   0.00    5.8
2173 201230.000   -828648.7690  -5494331.7192   3121536.6503   1   8   0.0040   0.0113   0.0056   0.0024  -0.0062  -0.0012   0.00    5.4
2173 201231.000   -828648.7689  -5494331.7125   3121536.6472   1   8   0.0040   0.0113   0.0056   0.0024  -0.0062  -0.0012   0.00    4.9
2173 201232.000   -828648.7684  -5494331.7144   3121536.6474   1   8   0.0040   0.0113   0.0056   0.0024  -0.0062  -0.0012   0.00    4.7
2173 201233.000   -828648.7697  -5494331.7141   3121536.6474   1   8   0.0040   0.0113   0.0056   0.0024  -0.0062  -0.0012   0.00    5.8
2173 201234.000   -828648.7714  -5494331.7191   3121536.6495   1   8   0.0040   0.0113   0.0056   0.0024  -0.0061  -0.0012   0.00    5.0
2173 201235.000   -828648.7698  -5494331.7153   3121536.6479   1   8   0.0040   0.0113   0.0056   0.0024  -0.0061  -0.0012   0.00    5.9
2173 201236.000   -828648.7714  -5494331.7180   3121536.6485   1   8   0.0040   0.0113   0.0056   0.0024  -0.0061  -0.0012   0.00    6.0
2173 201237.000   -828648.7707  -5494331.7134   3121536.6471   1   8   0.0040   0.0113   0.0056   0.0024  -0.0061  -0.0012   0.00    5.8
2173 201238.000   -828648.7694  -5494331.7155   3121536.6502   1   8   0.0040   0.0113   0.0056   0.0024  -0.0061  -0.0012   0.00    5.8
2173 201239.000   -828648.7694  -5494331.7185   3121536.6501   1   8   0.0040   0.0113   0.0056   0.0024  -0.0061  -0.0012   0.00    5.8
2173 201240.000   -828648.7703  -5494331.7129   3121536.6493   1   8   0.0040   0.0113   0.0056   0.0024  -0.0061  -0.0012   0.00    6.8
2173 201241.000   -828648.7684  -5494331.7165   3121536.6488   1   8   0.0040   0.0113   0.0056   0.0024  -0.0061  -0.0012   0.00    6.5
2173 201242.000   -828648.7694  -5494331.7207   3121536.6498   1   8   0.0040   0.0112   0.0056   0.0024  -0.0061  -0.0012   0.00    5.8
2173 201243.000   -828648.7685  -5494331.7200   3121536.6504   1   8   0.0040   0.0112   0.0056   0.0024  -0.0061  -0.0012   0.00    5.3
2173 201244.000   -828648.7694  -5494331.7194   3121536.6504   1   8   0.0040   0.0112   0.0056   0.0024  -0.0061  -0.0012   0.00    6.2
2173 201245.000   -828648.7685  -5494331.7186   3121536.6507   1   8   0.0040   0.0112   0.0056   0.0024  -0.0061  -0.0012   0.00    7.2
2173 201246.000   -828648.7685  -5494331.7196   3121536.6503   1   8   0.0040   0.0112   0.0056   0.0024  -0.0061  -0.0012   0.00    6.4
2173 201247.000   -828648.7684  -5494331.7208   3121536.6520   1   8   0.0040   0.0112   0.0056   0.0024  -0.0061  -0.0012   0.00    6.0
2173 201248.000   -828648.7682  -5494331.7215   3121536.6534   1   8   0.0040   0.0112   0.0056   0.0024  -0.0061  -0.0012   0.00    6.4
2173 201249.000   -828648.7676  -5494331.7234   3121536.6540   1   8   0.0040   0.0112   0.0056   0.0024  -0.0061  -0.0012   0.00    6.9
2173 201250.000   -828648.7697  -5494331.7220   3121536.6509   1   8   0.0040   0.0112   0.0056   0.0024  -0.0061  -0.0012   0.00    6.9
2173 201251.000   -828648.7688  -5494331.7213   3121536.6517   1   8   0.0040   0.0112   0.0056   0.0024  -0.0061  -0.0012   0.00    6.7
2173 201252.000   -828648.7693  -5494331.7189   3121536.6525   1   8   0.0040   0.0112   0.0056   0.0024  -0.0061  -0.0012   0.00    8.0
2173 201253.000   -828648.7682  -5494331.7175   3121536.6503   1   8   0.0040   0.0112   0.0056   0.0024  -0.0061  -0.0012   0.00    5.3
2173 201254.000   -828648.7712  -5494331.7196   3121536.6523   1   8   0.0040   0.0112   0.0056   0.0024  -0.0061  -0.0012   0.00    7.1
2173 201255.000   -828648.7684  -5494331.7239   3121536.6526   1   8   0.0040   0.0112   0.0056   0.0024  -0.0061  -0.0012   0.00    6.7
2173 201256.000   -828648.7694  -5494331.7183   3121536.6513   1   8   0.0040   0.0112   0.0056   0.0024  -0.0061  -0.0012   0.00    6.7
2173 201257.000   -828648.7701  -5494331.7217   3121536.6519   1   8   0.0040   0.0112   0.0056   0.0024  -0.0061  -0.0012   0.00    6.5
2173 201258.000   -828648.7694  -5494331.7267   3121536.6546   1   8   0.0040   0.0112   0.0056   0.0024  -0.0061  -0.0012   0.00    5.9
2173 201259.000   -828648.7696  -5494331.7187   3121536.6513   1   8   0.0040   0.0112   0.0056   0.0024  -0.0061  -0.0012   0.00    6.5
2173 201260.000   -828648.7685  -5494331.7217   3121536.6533   1   8   0.0040   0.0112   0.0056   0.0024  -0.0061  -0.0012   0.00    7.1
2173 201261.000   -828648.7689  -5494331.7167   3121536.6513   1   8   0.0040   0.0112   0.0056   0.0024  -0.0061  -0.0012   0.00    5.5
2173 201262.000   -828648.7675  -5494331.7204   3121536.6525   1   8   0.0040   0.0112   0.0056   0.0024  -0.0061  -0.0012   0.00    6.0
2173 201263.000   -828648.7700  -5494331.7227   3121536.6525   1   8   0.0040   0.0112   0.0056   0.0024  -0.0061  -0.0012   0.00    6.5
2173 201264.000   -828648.7692  -5494331.7223   3121536.6543   1   8   0.0040   0.0112   0.0056   0.0024  -0.0061  -0.0012   0.00    6.1
2173 201265.000   -828648.7694  -5494331.7224   3121536.6531   1   8   0.0040   0.0112   0.0056   0.0024  -0.0061  -0.0012   0.00    6.3
2173 201266.000   -828648.7703  -5494331.7219   3121536.6528   1   8   0.0040   0.0112   0.0056   0.0024  -0.0061  -0.0012   0.00    5.9
2173 201267.000   -828648.7688  -5494331.7142   3121536.6510   1   8   0.0040   0.0112   0.0056   0.0024  -0.0061  -0.0012   0.00    5.7
2173 201268.000   -828648.7685  -5494331.7164   3121536.6513   1   8   0.0040   0.0112   0.0056   0.0024  -0.0061  -0.0012   0.00    6.5
2173 201269.000   -828648.7688  -5494331.7190   3121536.6515   1   8   0.0040   0.0112   0.0056   0.0024  -0.0061  -0.0012   0.00    6.0
2173 201270.000   -828648.7699  -5494331.7225   3121536.6531   1   8   0.0040   0.0112   0.0056   0.0024  -0.0061  -0.0012   0.00    5.2
2173 201271.000   -828648.7685  -5494331.7265   3121536.6553   1   8   0.0040   0.0112   0.0056   0.0024  -0.0061  -0.0012   0.00    6.2
2173 201272.000   -828648.7703  -5494331.7208   3121536.6517   1   8   0.0040   0.0112   0.0056   0.0024  -0.0061  -0.0012   0.00    6.1
2173 201273.000   -828648.7703  -5494331.7203   3121536.6517   1   8   0.0040   0.0112   0.0056   0.0024  -0.0061  -0.0012   0.00    5.5
2173 201274.000   -828648.7690  -5494331.7238   3121536.6519   1   8   0.0040   0.0112   0.0056   0.0024  -0.0061  -0.0012   0.00    5.8
2173 201275.000   -828648.7695  -5494331.7197   3121536.6508   1   8   0.0040   0.0112   0.0056   0.0024  -0.0061  -0.0012   0.00    6.0
2173 201276.000   -828648.7685  -5494331.7214   3121536.6533   1   8   0.0040   0.0112   0.0056   0.0024  -0.0061  -0.0012   0.00    5.1
2173 201277.000   -828648.7691  -5494331.7221   3121536.6533   1   8   0.0040   0.0112   0.0056   0.0024  -0.0061  -0.0012   0.00    4.7
2173 201278.000   -828648.7691  -5494331.7179   3121536.6511   1   8   0.0040   0.0112   0.0056   0.0024  -0.0061  -0.0012   0.00    4.5
2173 201279.000   -828648.7687  -5494331.7214   3121536.6522   1   8   0.0040   0.0112   0.0056   0.0024  -0.0061  -0.0012   0.00    5.5
2173 201280.000   -828648.7678  -5494331.7210   3121536.6513   1   8   0.0040   0.0112   0.0056   0.0024  -0.0061  -0.0012   0.00    4.5
2173 201281.000   -828648.7693  -5494331.7211   3121536.6533   1   8   0.0040   0.0112   0.0056   0.0024  -0.0061  -0.0012   0.00    4.5
2173 201282.000   -828648.7683  -5494331.7223   3121536.6516   1   8   0.0040   0.0112   0.0056   0.0024  -0.0061  -0.0012   0.00    4.5
2173 201283.000   -828648.7695  -5494331.7198   3121536.6525   1   8   0.0040   0.0112   0.0056   0.0024  -0.0061  -0.0012   0.00    5.2
2173 201284.000   -828648.7705  -5494331.7237   3121536.6543   1   8   0.0040   0.0112   0.0056   0.0024  -0.0061  -0.0011   0.00    4.7
2173 201285.000   -828648.7692  -5494331.7220   3121536.6537   1   8   0.0040   0.0112   0.0056   0.0024  -0.0061  -0.0011   0.00    4.4
2173 201286.000   -828648.7691  -5494331.7218   3121536.6533   1   8   0.0040   0.0112   0.0056   0.0024  -0.0061  -0.0011   0.00    4.0
2173 201287.000   -828648.7707  -5494331.7197   3121536.6525   1   8   0.0040   0.0112   0.0056   0.0024  -0.0061  -0.0011   0.00    4.9
2173 201288.000   -828648.7697  -5494331.7199   3121536.6519   1   8   0.0040   0.0112   0.0056   0.0024  -0.0061  -0.0011   0.00    4.0
2173 201289.000   -828648.7699  -5494331.7163   3121536.6519   1   8   0.0040   0.0112   0.0056   0.0024  -0.0061  -0.0011   0.00    5.2
2173 201290.000   -828648.7706  -5494331.7201   3121536.6511   1   8   0.0040   0.0112   0.0056   0.0024  -0.0061  -0.0011   0.00    4.3
