% program   : rnx2rtkp ver.2.4.3 b31
% inp file  : ngs/21_08_31_21_19_44_mego.obs
% inp file  : ngs/21_08_31_21_19_44_mego_VZ.obs
% inp file  : ngs/21_08_31_21_19_44_brdc.nav
% obs start : 2021/08/31 21:00:00.0 GPST (week2173 248400.0s)
% obs end   : 2021/08/31 21:59:59.0 GPST (week2173 251999.0s)
% ref pos   :  1560840.5919  -4351234.5229   4379753.2380
%
% (x/y/z-ecef=WGS84,Q=1:fix,2:float,3:sbas,4:dgps,5:single,6:ppp,ns=# of satellites)
%  GPST              x-ecef(m)      y-ecef(m)      z-ecef(m)   Q  ns   sdx(m)   sdy(m)   sdz(m)  sdxy(m)  sdyz(m)  sdzx(m) age(s)  ratio
2173 249562.000   1545935.7653  -4353760.4454   4382600.0993   2   6   0.5468   1.0602   0.7916  -0.5401  -0.6686   0.2857 -30.00    1.1
2173 249563.000   1545935.6528  -4353760.2618   4382600.0267   2   6   0.3888   0.7542   0.5628  -0.3839  -0.4754   0.2031 -29.00    1.0
2173 249564.000   1545935.6186  -4353760.2275   4382599.9491   2   6   0.3183   0.6175   0.4607  -0.3143  -0.3892   0.1663 -28.00    1.1
2173 249565.000   1545935.6446  -4353760.3014   4382600.0273   2   6   0.2762   0.5357   0.3996  -0.2728  -0.3376   0.1443 -27.00    1.0
2173 249566.000   1545935.6536  -4353760.2933   4382600.0727   2   6   0.2474   0.4798   0.3579  -0.2443  -0.3023   0.1293 -26.00    1.0
2173 249567.000   1545935.6844  -4353760.3200   4382600.0774   2   6   0.2261   0.4384   0.3270  -0.2233  -0.2762   0.1182 -25.00    1.0
2173 249568.000   1545935.6812  -4353760.2952   4382600.0813   2   6   0.2095   0.4062   0.3029  -0.2070  -0.2559   0.1095 -24.00    1.0
2173 249569.000   1545935.7136  -4353760.3163   4382600.0966   2   6   0.1961   0.3802   0.2835  -0.1938  -0.2395   0.1025 -23.00    1.0
2173 249570.000   1545935.7475  -4353760.3629   4382600.1255   2   6   0.1850   0.3586   0.2674  -0.1828  -0.2259   0.0967 -22.00    1.0
2173 249571.000   1545935.7499  -4353760.3648   4382600.1000   2   6   0.1756   0.3403   0.2537  -0.1735  -0.2143   0.0918 -21.00    1.0
2173 249572.000   1545935.7356  -4353760.3377   4382600.0860   2   6   0.1674   0.3246   0.2419  -0.1655  -0.2044   0.0876 -20.00    1.1
2173 249573.000   1545935.7245  -4353760.2972   4382600.0554   2   6   0.1603   0.3108   0.2316  -0.1585  -0.1957   0.0839 -19.00    1.1
2173 249574.000   1545935.7204  -4353760.2670   4382600.0457   2   6   0.1540   0.2986   0.2225  -0.1523  -0.1880   0.0806 -18.00    1.2
2173 249575.000   1545935.7125  -4353760.2764   4382600.0647   2   6   0.1484   0.2877   0.2143  -0.1467  -0.1811   0.0777 -17.00    1.2
2173 249576.000   1545935.7207  -4353760.3032   4382600.0764   2   6   0.1434   0.2779   0.2070  -0.1417  -0.1749   0.0750 -16.00    1.3
2173 249577.000   1545935.7213  -4353760.2910   4382600.0718   2   6   0.1388   0.2690   0.2004  -0.1372  -0.1693   0.0726 -15.00    1.3
2173 249578.000   1545935.7085  -4353760.2582   4382600.0662   2   6   0.1346   0.2609   0.1943  -0.1331  -0.1642   0.0704 -14.00    1.4
2173 249579.000   1545935.7067  -4353760.2533   4382600.0647   2   6   0.1308   0.2535   0.1887  -0.1293  -0.1595   0.0684 -13.00    1.5
2173 249580.000   1545935.6898  -4353760.2498   4382600.0662   2   6   0.1272   0.2466   0.1836  -0.1258  -0.1552   0.0666 -12.00    1.5
2173 249581.000   1545935.6848  -4353760.2531   4382600.0741   2   6   0.1240   0.2403   0.1788  -0.1225  -0.1511   0.0649 -11.00    1.6
2173 249582.000   1545935.6839  -4353760.2496   4382600.0781   2   6   0.1209   0.2344   0.1744  -0.1195  -0.1474   0.0633 -10.00    1.8
2173 249583.000   1545935.6821  -4353760.2358   4382600.0807   2   6   0.1181   0.2289   0.1703  -0.1167  -0.1440   0.0619  -9.00    1.9
2173 249584.000   1545935.6897  -4353760.2321   4382600.0804   2   6   0.1154   0.2238   0.1664  -0.1141  -0.1407   0.0605  -8.00    1.9
2173 249585.000   1545935.6833  -4353760.2318   4382600.0776   2   6   0.1129   0.2190   0.1628  -0.1117  -0.1377   0.0592  -7.00    2.0
2173 249586.000   1545935.6780  -4353760.2314   4382600.0728   2   6   0.1106   0.2145   0.1595  -0.1094  -0.1349   0.0580  -6.00    2.1
2173 249587.000   1545935.6745  -4353760.2300   4382600.0751   2   6   0.1084   0.2102   0.1563  -0.1072  -0.1322   0.0569  -5.00    2.2
2173 249588.000   1545935.6630  -4353760.2130   4382600.0658   2   6   0.1064   0.2062   0.1533  -0.1052  -0.1297   0.0558  -4.00    2.3
2173 249589.000   1545935.6612  -4353760.2069   4382600.0626   2   6   0.1044   0.2025   0.1504  -0.1032  -0.1273   0.0548  -3.00    2.5
2173 249590.000   1545935.6668  -4353760.2073   4382600.0656   2   6   0.1026   0.1989   0.1478  -0.1014  -0.1251   0.0539  -2.00    2.8
2173 249591.000   1545935.5078  -4353759.7459   4382599.6668   1   6   0.0055   0.0109   0.0080  -0.0055  -0.0068   0.0030  -1.00    3.0
2173 249592.000   1545935.5084  -4353759.7475   4382599.6669   1   6   0.0055   0.0107   0.0080  -0.0055  -0.0066   0.0032   0.00    3.3
2173 249593.000   1545935.5086  -4353759.7452   4382599.6645   1   6   0.0057   0.0107   0.0077  -0.0055  -0.0068   0.0028   0.00    3.6
2173 249594.000   1545935.5069  -4353759.7441   4382599.6662   1   6   0.0053   0.0107   0.0080  -0.0055  -0.0067   0.0032   0.00    3.7
2173 249595.000   1545935.5088  -4353759.7446   4382599.6703   1   6   0.0053   0.0107   0.0080  -0.0054  -0.0066   0.0029   0.00    3.8
2173 249596.000   1545935.5073  -4353759.7425   4382599.6688   1   6   0.0056   0.0107   0.0080  -0.0055  -0.0067   0.0028   0.00    3.9
2173 249597.000   1545935.5105  -4353759.7508   4382599.6692   1   6   0.0056   0.0107   0.0079  -0.0056  -0.0067   0.0027   0.00    4.0
2173 249598.000   1545935.5111  -4353759.7497   4382599.6683   1   6   0.0057   0.0108   0.0080  -0.0054  -0.0067   0.0029   0.00    4.2
2173 249599.000   1545935.5100  -4353759.7462   4382599.6655   1   6   0.0055   0.0107   0.0079  -0.0055  -0.0067   0.0027   0.00    4.3
2173 249600.000   1545935.5084  -4353759.7471   4382599.6696   1   6   0.0053   0.0107   0.0078  -0.0055  -0.0067   0.0028   0.00    4.4
2173 249601.000   1545935.5073  -4353759.7448   4382599.6669   1   6   0.0056   0.0107   0.0080  -0.0055  -0.0068   0.0026   0.00    4.4
2173 249602.000   1545935.5065  -4353759.7453   4382599.6669   1   6   0.0055   0.0107   0.0080  -0.0055  -0.0067   0.0031   0.00    4.5
2173 249603.000   1545935.5057  -4353759.7462   4382599.6675   1   6   0.0056   0.0107   0.0079  -0.0055  -0.0067   0.0028   0.00    4.4
2173 249604.000   1545935.5081  -4353759.7493   4382599.6630   1   6   0.0056   0.0107   0.0080  -0.0056  -0.0067   0.0027   0.00    4.5
2173 249605.000   1545935.5085  -4353759.7469   4382599.6683   1   6   0.0054   0.0107   0.0079  -0.0055  -0.0066   0.0029   0.00    4.5
2173 249606.000   1545935.5091  -4353759.7485   4382599.6658   1   6   0.0056   0.0107   0.0079  -0.0055  -0.0067   0.0028   0.00    4.5
2173 249607.000   1545935.5091  -4353759.7455   4382599.6649   1   6   0.0056   0.0107   0.0079  -0.0055  -0.0068   0.0027   0.00    4.5
2173 249608.000   1545935.5102  -4353759.7490   4382599.6661   1   6   0.0055   0.0107   0.0079  -0.0055  -0.0067   0.0029   0.00    4.6
2173 249609.000   1545935.5080  -4353759.7461   4382599.6671   1   6   0.0057   0.0108   0.0080  -0.0054  -0.0067   0.0029   0.00    4.6
2173 249610.000   1545935.5069  -4353759.7426   4382599.6636   1   6   0.0053   0.0107   0.0081  -0.0054  -0.0067   0.0032   0.00    4.7
2173 249611.000   1545935.5071  -4353759.7519   4382599.6671   1   6   0.0053   0.0107   0.0079  -0.0056  -0.0067   0.0031   0.00    4.9
2173 249612.000   1545935.5060  -4353759.7417   4382599.6649   1   6   0.0059   0.0107   0.0079  -0.0056  -0.0068   0.0030   0.00    4.9
2173 249613.000   1545935.5085  -4353759.7453   4382599.6695   1   6   0.0054   0.0107   0.0081  -0.0056  -0.0067   0.0031   0.00    4.9
2173 249614.000   1545935.5081  -4353759.7453   4382599.6680   1   6   0.0053   0.0107   0.0078  -0.0055  -0.0067   0.0028   0.00    4.9
2173 249615.000   1545935.5071  -4353759.7470   4382599.6693   1   6   0.0054   0.0107   0.0080  -0.0056  -0.0067   0.0029   0.00    5.0
2173 249616.000   1545935.5051  -4353759.7435   4382599.6660   1   6   0.0054   0.0108   0.0080  -0.0053  -0.0068   0.0031   0.00    5.0
2173 249617.000   1545935.5084  -4353759.7461   4382599.6700   1   6   0.0052   0.0107   0.0080  -0.0055  -0.0067   0.0031   0.00    5.0
2173 249618.000   1545935.5075  -4353759.7443   4382599.6650   1   6   0.0054   0.0108   0.0080  -0.0054  -0.0067   0.0029   0.00    5.1
2173 249619.000   1545935.5073  -4353759.7426   4382599.6626   1   6   0.0056   0.0107   0.0080  -0.0055  -0.0067   0.0028   0.00    5.2
2173 249620.000   1545935.5076  -4353759.7462   4382599.6632   1   6   0.0054   0.0107   0.0079  -0.0055  -0.0068   0.0030   0.00    5.3
2173 249621.000   1545935.5084  -4353759.7455   4382599.6632   1   6   0.0053   0.0107   0.0078  -0.0055  -0.0067   0.0028   0.00    5.4
2173 249622.000   1545935.5055  -4353759.7429   4382599.6639   1   6   0.0054   0.0107   0.0078  -0.0055  -0.0067   0.0030   0.00    5.5
2173 249623.000   1545935.5057  -4353759.7450   4382599.6625   1   6   0.0057   0.0107   0.0079  -0.0055  -0.0067   0.0028   0.00    5.5
2173 249624.000   1545935.5095  -4353759.7478   4382599.6651   1   6   0.0056   0.0107   0.0079  -0.0055  -0.0067   0.0028   0.00    5.7
2173 249625.000   1545935.5064  -4353759.7412   4382599.6610   1   6   0.0055   0.0107   0.0082  -0.0055  -0.0067   0.0034   0.00    5.7
2173 249626.000   1545935.5048  -4353759.7434   4382599.6639   1   6   0.0052   0.0107   0.0079  -0.0053  -0.0067   0.0031   0.00    5.8
2173 249627.000   1545935.5051  -4353759.7454   4382599.6680   1   6   0.0057   0.0107   0.0080  -0.0055  -0.0067   0.0030   0.00    5.9
2173 249628.000   1545935.5064  -4353759.7420   4382599.6658   1   6   0.0053   0.0107   0.0079  -0.0056  -0.0066   0.0026   0.00    5.9
2173 249629.000   1545935.5067  -4353759.7448   4382599.6671   1   6   0.0056   0.0107   0.0078  -0.0055  -0.0067   0.0027   0.00    6.0
2173 249630.000   1545935.5044  -4353759.7450   4382599.6669   1   6   0.0056   0.0107   0.0080  -0.0055  -0.0067   0.0030   0.00    6.1
2173 249631.000   1545935.5055  -4353759.7441   4382599.6677   1   6   0.0054   0.0108   0.0078  -0.0055  -0.0067   0.0025   0.00    6.1
2173 249632.000   1545935.5062  -4353759.7455   4382599.6635   1   6   0.0056   0.0108   0.0080  -0.0055  -0.0067   0.0028   0.00    6.2
2173 249633.000   1545935.5088  -4353759.7459   4382599.6679   1   6   0.0057   0.0107   0.0081  -0.0056  -0.0067   0.0029   0.00    6.3
2173 249634.000   1545935.5079  -4353759.7429   4382599.6652   1   6   0.0054   0.0108   0.0079  -0.0055  -0.0067   0.0030   0.00    6.5
2173 249635.000   1545935.5062  -4353759.7459   4382599.6649   1   6   0.0057   0.0108   0.0078  -0.0055  -0.0067   0.0027   0.00    6.5
2173 249636.000   1545935.5059  -4353759.7465   4382599.6631   1   6   0.0058   0.0108   0.0080  -0.0055  -0.0067   0.0027   0.00    6.6
2173 249637.000   1545935.5070  -4353759.7464   4382599.6641   1   6   0.0054   0.0107   0.0080  -0.0055  -0.0067   0.0033   0.00    6.7
2173 249638.000   1545935.5060  -4353759.7478   4382599.6650   1   6   0.0051   0.0108   0.0080  -0.0055  -0.0068   0.0028   0.00    6.9
2173 249639.000   1545935.5041  -4353759.7479   4382599.6666   1   6   0.0053   0.0107   0.0079  -0.0055  -0.0067   0.0029   0.00    7.0
2173 249640.000   1545935.5055  -4353759.7461   4382599.6651   1   6   0.0057   0.0108   0.0080  -0.0054  -0.0067   0.0029   0.00    7.2
2173 249641.000   1545935.5044  -4353759.7475   4382599.6631   1   6   0.0054   0.0108   0.0079  -0.0054  -0.0067   0.0031   0.00    7.3
2173 249642.000   1545935.5043  -4353759.7487   4382599.6676   1   6   0.0053   0.0107   0.0078  -0.0056  -0.0067   0.0029   0.00    7.4
2173 249643.000   1545935.5046  -4353759.7461   4382599.6658   1   6   0.0056   0.0107   0.0078  -0.0056  -0.0067   0.0027   0.00    7.5
2173 249644.000   1545935.5026  -4353759.7494   4382599.6685   1   6   0.0055   0.0109   0.0081  -0.0054  -0.0067   0.0031   0.00    7.6
2173 249645.000   1545935.5049  -4353759.7514   4382599.6678   1   6   0.0058   0.0107   0.0080  -0.0056  -0.0067   0.0029   0.00    7.7
2173 249646.000   1545935.5071  -4353759.7500   4382599.6667   1   6   0.0056   0.0107   0.0079  -0.0055  -0.0067   0.0029   0.00    7.9
2173 249647.000   1545935.5034  -4353759.7485   4382599.6677   1   6   0.0055   0.0108   0.0079  -0.0055  -0.0068   0.0027   0.00    8.1
2173 249648.000   1545935.5061  -4353759.7467   4382599.6664   1   6   0.0051   0.0107   0.0079  -0.0055  -0.0067   0.0029   0.00    8.2
2173 249649.000   1545935.5057  -4353759.7473   4382599.6664   1   6   0.0054   0.0108   0.0080  -0.0054  -0.0067   0.0030   0.00    8.2
2173 249650.000   1545935.5062  -4353759.7452   4382599.6671   1   6   0.0055   0.0108   0.0080  -0.0054  -0.0066   0.0029   0.00    8.3
2173 249651.000   1545935.5068  -4353759.7464   4382599.6629   1   6   0.0055   0.0108   0.0078  -0.0053  -0.0067   0.0028   0.00    8.4
2173 249652.000   1545935.5045  -4353759.7476   4382599.6663   1   6   0.0057   0.0107   0.0078  -0.0055  -0.0066   0.0028   0.00    8.5
2173 249653.000   1545935.5063  -4353759.7453   4382599.6623   1   6   0.0055   0.0107   0.0079  -0.0055  -0.0066   0.0027   0.00    8.6
2173 249654.000   1545935.5049  -4353759.7446   4382599.6627   1   6   0.0056   0.0108   0.0078  -0.0055  -0.0067   0.0030   0.00    8.7
2173 249655.000   1545935.5051  -4353759.7429   4382599.6663   1   6   0.0055   0.0108   0.0079  -0.0055  -0.0067   0.0026   0.00    8.8
2173 249656.000   1545935.5029  -4353759.7390   4382599.6611   1   6   0.0055   0.0108   0.0081  -0.0055  -0.0066   0.0031   0.00    8.9
2173 249657.000   1545935.5035  -4353759.7452   4382599.6622   1   6   0.0054   0.0107   0.0079  -0.0056  -0.0067   0.0029   0.00    8.9
2173 249658.000   1545935.5031  -4353759.7351   4382599.6568   1   6   0.0056   0.0108   0.0080  -0.0054  -0.0067   0.0028   0.00    9.0
2173 249659.000   1545935.5043  -4353759.7457   4382599.6664   1   6   0.0058   0.0108   0.0080  -0.0055  -0.0067   0.0027   0.00    9.1
2173 249660.000   1545935.5048  -4353759.7402   4382599.6642   1   6   0.0057   0.0107   0.0078  -0.0055  -0.0066   0.0028   0.00    9.3
2173 249661.000   1545935.5054  -4353759.7442   4382599.6652   1   6   0.0053   0.0109   0.0080  -0.0052  -0.0067   0.0029   0.00    9.3
2173 249662.000   1545935.5057  -4353759.7432   4382599.6648   1   6   0.0057   0.0108   0.0079  -0.0055  -0.0066   0.0028   0.00    9.5
2173 249663.000   1545935.5063  -4353759.7410   4382599.6607   1   6   0.0055   0.0108   0.0079  -0.0054  -0.0067   0.0026   0.00    9.6
2173 249664.000   1545935.5032  -4353759.7416   4382599.6651   1   6   0.0055   0.0109   0.0080  -0.0054  -0.0067   0.0029   0.00    9.7
2173 249665.000   1545935.5051  -4353759.7443   4382599.6615   1   6   0.0054   0.0107   0.0079  -0.0056  -0.0067   0.0030   0.00    9.8
2173 249666.000   1545935.5055  -4353759.7446   4382599.6638   1   6   0.0053   0.0108   0.0078  -0.0054  -0.0067   0.0029   0.00    9.9
2173 249667.000   1545935.5055  -4353759.7448   4382599.6623   1   6   0.0055   0.0107   0.0080  -0.0056  -0.0067   0.0026   0.00    9.9
2173 249668.000   1545935.5073  -4353759.7443   4382599.6592   1   6   0.0055   0.0108   0.0079  -0.0055  -0.0067   0.0028   0.00   10.1
2173 249669.000   1545935.5025  -4353759.7365   4382599.6593   1   6   0.0054   0.0107   0.0078  -0.0056  -0.0067   0.0028   0.00   10.2
2173 249670.000   1545935.5045  -4353759.7403   4382599.6626   1   6   0.0055   0.0108   0.0079  -0.0056  -0.0067   0.0031   0.00   10.2
2173 249671.000   1545935.5030  -4353759.7389   4382599.6605   1   6   0.0053   0.0107   0.0079  -0.0055  -0.0067   0.0029   0.00   10.3
2173 249672.000   1545935.5035  -4353759.7400   4382599.6608   1   6   0.0056   0.0108   0.0078  -0.0055  -0.0067   0.0028   0.00   10.3
2173 249673.000   1545935.5033  -4353759.7390   4382599.6591   1   6   0.0055   0.0108   0.0081  -0.0055  -0.0067   0.0031   0.00   10.4
2173 249674.000   1545935.5040  -4353759.7373   4382599.6557   1   6   0.0056   0.0108   0.0079  -0.0055  -0.0067   0.0028   0.00   10.5
2173 249675.000   1545935.5047  -4353759.7424   4382599.6599   1   6   0.0057   0.0108   0.0080  -0.0055  -0.0066   0.0031   0.00   10.5
2173 249676.000   1545935.5050  -4353759.7419   4382599.6619   1   6   0.0058   0.0108   0.0082  -0.0055  -0.0066   0.0032   0.00   10.6
2173 249677.000   1545935.5052  -4353759.7412   4382599.6665   1   6   0.0055   0.0108   0.0080  -0.0055  -0.0067   0.0030   0.00   10.7
2173 249678.000   1545935.5053  -4353759.7397   4382599.6636   1   6   0.0055   0.0107   0.0078  -0.0056  -0.0066   0.0028   0.00   10.8
2173 249679.000   1545935.5044  -4353759.7400   4382599.6633   1   6   0.0056   0.0108   0.0079  -0.0054  -0.0067   0.0030   0.00   10.9
2173 249680.000   1545935.5041  -4353759.7368   4382599.6596   1   6   0.0058   0.0108   0.0081  -0.0055  -0.0067   0.0031   0.00   11.0
2173 249681.000   1545935.5084  -4353759.7410   4382599.6618   1   6   0.0055   0.0108   0.0081  -0.0055  -0.0067   0.0029   0.00   11.1
2173 249682.000   1545935.5033  -4353759.7373   4382599.6600   1   6   0.0055   0.0108   0.0078  -0.0054  -0.0067   0.0028   0.00   11.1
2173 249683.000   1545935.5052  -4353759.7401   4382599.6635   1   6   0.0053   0.0108   0.0080  -0.0054  -0.0067   0.0032   0.00   11.2
2173 249684.000   1545935.5080  -4353759.7418   4382599.6580   1   6   0.0056   0.0108   0.0079  -0.0056  -0.0066   0.0028   0.00   11.3
2173 249685.000   1545935.5045  -4353759.7407   4382599.6606   1   6   0.0057   0.0108   0.0079  -0.0055  -0.0067   0.0029   0.00   11.3
2173 249686.000   1545935.5066  -4353759.7397   4382599.6600   1   6   0.0055   0.0108   0.0078  -0.0055  -0.0067   0.0028   0.00   11.4
2173 249687.000   1545935.5056  -4353759.7390   4382599.6600   1   6   0.0054   0.0108   0.0077  -0.0055  -0.0067   0.0028   0.00   11.5
2173 249688.000   1545935.5052  -4353759.7392   4382599.6656   1   6   0.0057   0.0108   0.0082  -0.0054  -0.0067   0.0033   0.00   11.6
2173 249689.000   1545935.5044  -4353759.7329   4382599.6618   1   6   0.0054   0.0108   0.0079  -0.0055  -0.0067   0.0032   0.00   11.6
2173 249690.000   1545935.5053  -4353759.7367   4382599.6638   1   6   0.0056   0.0108   0.0081  -0.0056  -0.0067   0.0029   0.00   11.7
2173 249691.000   1545935.5051  -4353759.7396   4382599.6626   1   6   0.0054   0.0109   0.0079  -0.0054  -0.0067   0.0030   0.00   11.8
2173 249692.000   1545935.5065  -4353759.7401   4382599.6636   1   6   0.0057   0.0108   0.0077  -0.0055  -0.0066   0.0025   0.00   11.9
2173 249693.000   1545935.5059  -4353759.7396   4382599.6617   1   6   0.0057   0.0108   0.0079  -0.0055  -0.0067   0.0027   0.00   12.1
2173 249694.000   1545935.5065  -4353759.7374   4382599.6603   1   6   0.0058   0.0107   0.0078  -0.0056  -0.0067   0.0027   0.00   12.2
2173 249695.000   1545935.5070  -4353759.7432   4382599.6646   1   6   0.0054   0.0109   0.0080  -0.0054  -0.0066   0.0029   0.00   12.4
2173 249696.000   1545935.5039  -4353759.7369   4382599.6633   1   6   0.0055   0.0108   0.0078  -0.0055  -0.0067   0.0027   0.00   12.5
2173 249697.000   1545935.5071  -4353759.7396   4382599.6634   1   6   0.0054   0.0107   0.0080  -0.0056  -0.0067   0.0030   0.00   12.6
2173 249698.000   1545935.5053  -4353759.7388   4382599.6636   1   6   0.0055   0.0108   0.0080  -0.0056  -0.0066   0.0026   0.00   12.8
2173 249699.000   1545935.5054  -4353759.7393   4382599.6648   1   6   0.0055   0.0109   0.0079  -0.0054  -0.0067   0.0029   0.00   12.9
2173 249700.000   1545935.5046  -4353759.7388   4382599.6661   1   6   0.0056   0.0108   0.0079  -0.0055  -0.0066   0.0026   0.00   13.0
2173 249701.000   1545935.5066  -4353759.7400   4382599.6662   1   6   0.0053   0.0108   0.0079  -0.0056  -0.0066   0.0029   0.00   13.2
2173 249702.000   1545935.5050  -4353759.7429   4382599.6659   1   6   0.0058   0.0108   0.0079  -0.0056  -0.0067   0.0026   0.00   13.4
2173 249703.000   1545935.5040  -4353759.7423   4382599.6653   1   6   0.0053   0.0109   0.0080  -0.0054  -0.0067   0.0031   0.00   13.5
2173 249704.000   1545935.5024  -4353759.7333   4382599.6634   1   6   0.0055   0.0108   0.0079  -0.0055  -0.0067   0.0027   0.00   13.7
2173 249705.000   1545935.5042  -4353759.7362   4382599.6636   1   6   0.0058   0.0108   0.0080  -0.0056  -0.0067   0.0028   0.00   13.8
2173 249706.000   1545935.5052  -4353759.7428   4382599.6683   1   6   0.0055   0.0107   0.0080  -0.0055  -0.0067   0.0031   0.00   14.0
2173 249707.000   1545935.5041  -4353759.7406   4382599.6665   1   6   0.0052   0.0108   0.0079  -0.0056  -0.0067   0.0027   0.00   14.2
2173 249708.000   1545935.5040  -4353759.7383   4382599.6726   1   6   0.0058   0.0108   0.0079  -0.0055  -0.0067   0.0028   0.00   14.3
2173 249709.000   1545935.5057  -4353759.7403   4382599.6712   1   6   0.0054   0.0109   0.0080  -0.0054  -0.0067   0.0030   0.00   14.4
2173 249710.000   1545935.5075  -4353759.7390   4382599.6680   1   6   0.0054   0.0107   0.0079  -0.0056  -0.0066   0.0028   0.00   14.7
2173 249711.000   1545935.5057  -4353759.7369   4382599.6676   1   6   0.0057   0.0107   0.0079  -0.0056  -0.0067   0.0031   0.00   14.9
2173 249712.000   1545935.5051  -4353759.7438   4382599.6653   1   6   0.0056   0.0108   0.0080  -0.0055  -0.0067   0.0031   0.00   15.1
2173 249713.000   1545935.5025  -4353759.7333   4382599.6635   1   6   0.0055   0.0108   0.0080  -0.0056  -0.0066   0.0029   0.00   15.3
2173 249714.000   1545935.5042  -4353759.7394   4382599.6658   1   6   0.0054   0.0108   0.0081  -0.0055  -0.0066   0.0031   0.00   15.5
2173 249715.000   1545935.5038  -4353759.7361   4382599.6648   1   6   0.0054   0.0108   0.0080  -0.0055  -0.0067   0.0032   0.00   15.7
2173 249716.000   1545935.5039  -4353759.7375   4382599.6652   1   6   0.0058   0.0108   0.0079  -0.0056  -0.0067   0.0028   0.00   16.0
2173 249717.000   1545935.5047  -4353759.7395   4382599.6620   1   6   0.0053   0.0108   0.0080  -0.0056  -0.0067   0.0033   0.00   16.2
2173 249718.000   1545935.5049  -4353759.7383   4382599.6633   1   6   0.0057   0.0108   0.0080  -0.0057  -0.0066   0.0027   0.00   16.5
2173 249719.000   1545935.5030  -4353759.7374   4382599.6636   1   6   0.0054   0.0108   0.0079  -0.0056  -0.0066   0.0029   0.00   16.8
2173 249720.000   1545935.5045  -4353759.7374   4382599.6652   1   6   0.0057   0.0108   0.0079  -0.0056  -0.0067   0.0029   0.00   17.0
2173 249721.000   1545935.5047  -4353759.7370   4382599.6660   1   6   0.0054   0.0108   0.0078  -0.0054  -0.0067   0.0030   0.00   17.2
2173 249722.000   1545935.5053  -4353759.7364   4382599.6651   1   6   0.0055   0.0108   0.0078  -0.0055  -0.0067   0.0029   0.00   17.5
2173 249723.000   1545935.5046  -4353759.7361   4382599.6663   1   6   0.0058   0.0108   0.0081  -0.0055  -0.0066   0.0030   0.00   17.7
2173 249724.000   1545935.5040  -4353759.7341   4382599.6674   1   6   0.0054   0.0108   0.0080  -0.0055  -0.0067   0.0032   0.00   18.0
2173 249725.000   1545935.5039  -4353759.7354   4382599.6640   1   6   0.0055   0.0108   0.0080  -0.0055  -0.0066   0.0031   0.00   18.3
2173 249726.000   1545935.5063  -4353759.7365   4382599.6648   1   6   0.0055   0.0108   0.0078  -0.0056  -0.0067   0.0029   0.00   18.6
2173 249727.000   1545935.5057  -4353759.7363   4382599.6658   1   6   0.0055   0.0108   0.0079  -0.0055  -0.0067   0.0030   0.00   18.9
2173 249728.000   1545935.5045  -4353759.7363   4382599.6668   1   6   0.0054   0.0108   0.0079  -0.0055  -0.0066   0.0028   0.00   19.2
2173 249729.000   1545935.5039  -4353759.7358   4382599.6704   1   6   0.0058   0.0108   0.0079  -0.0056  -0.0067   0.0028   0.00   19.5
2173 249730.000   1545935.5040  -4353759.7409   4382599.6713   1   6   0.0055   0.0108   0.0080  -0.0056  -0.0066   0.0031   0.00   19.8
2173 249731.000   1545935.5055  -4353759.7401   4382599.6694   1   6   0.0056   0.0108   0.0079  -0.0055  -0.0066   0.0026   0.00   20.1
2173 249732.000   1545935.5061  -4353759.7351   4382599.6641   1   6   0.0056   0.0108   0.0081  -0.0057  -0.0066   0.0031   0.00   20.4
2173 249733.000   1545935.5048  -4353759.7366   4382599.6670   1   6   0.0054   0.0108   0.0079  -0.0055  -0.0067   0.0029   0.00   20.7
2173 249734.000   1545935.5017  -4353759.7316   4382599.6678   1   6   0.0057   0.0108   0.0080  -0.0056  -0.0067   0.0028   0.00   21.0
2173 249735.000   1545935.5033  -4353759.7357   4382599.6703   1   6   0.0056   0.0109   0.0078  -0.0056  -0.0067   0.0027   0.00   21.2
2173 249736.000   1545935.5028  -4353759.7346   4382599.6756   1   6   0.0058   0.0109   0.0078  -0.0055  -0.0066   0.0027   0.00   21.4
2173 249737.000   1545935.5051  -4353759.7374   4382599.6738   1   6   0.0056   0.0108   0.0079  -0.0056  -0.0067   0.0026   0.00   21.7
2173 249738.000   1545935.5035  -4353759.7332   4382599.6679   1   6   0.0054   0.0109   0.0079  -0.0055  -0.0067   0.0028   0.00   22.0
2173 249739.000   1545935.5050  -4353759.7354   4382599.6661   1   6   0.0056   0.0108   0.0079  -0.0057  -0.0066   0.0029   0.00   22.3
2173 249740.000   1545935.5030  -4353759.7340   4382599.6672   1   6   0.0057   0.0108   0.0079  -0.0057  -0.0067   0.0029   0.00   22.6
2173 249741.000   1545935.5050  -4353759.7350   4382599.6663   1   6   0.0057   0.0108   0.0079  -0.0056  -0.0066   0.0029   0.00   23.0
2173 249742.000   1545935.5055  -4353759.7353   4382599.6687   1   6   0.0056   0.0108   0.0079  -0.0056  -0.0067   0.0027   0.00   23.3
2173 249743.000   1545935.5058  -4353759.7363   4382599.6665   1   6   0.0058   0.0108   0.0080  -0.0055  -0.0066   0.0029   0.00   23.6
2173 249744.000   1545935.5047  -4353759.7345   4382599.6647   1   6   0.0057   0.0109   0.0079  -0.0055  -0.0067   0.0028   0.00   23.8
2173 249745.000   1545935.5034  -4353759.7317   4382599.6643   1   6   0.0055   0.0109   0.0081  -0.0054  -0.0066   0.0029   0.00   24.0
2173 249746.000   1545935.5050  -4353759.7310   4382599.6656   1   6   0.0055   0.0109   0.0080  -0.0056  -0.0066   0.0031   0.00   24.3
2173 249747.000   1545935.5054  -4353759.7313   4382599.6640   1   6   0.0057   0.0108   0.0079  -0.0056  -0.0066   0.0029   0.00   24.6
2173 249748.000   1545935.5032  -4353759.7317   4382599.6653   1   6   0.0056   0.0108   0.0080  -0.0056  -0.0067   0.0031   0.00   24.9
2173 249749.000   1545935.5024  -4353759.7340   4382599.6673   1   6   0.0055   0.0108   0.0078  -0.0056  -0.0067   0.0028   0.00   25.1
2173 249750.000   1545935.5036  -4353759.7365   4382599.6681   1   6   0.0059   0.0110   0.0080  -0.0057  -0.0067   0.0027   1.00   25.4
2173 249751.000   1545935.5053  -4353759.7375   4382599.6666   1   6   0.0059   0.0115   0.0084  -0.0060  -0.0071   0.0032   2.00   25.8
2173 249752.000   1545935.5070  -4353759.7399   4382599.6676   1   6   0.0065   0.0123   0.0090  -0.0066  -0.0076   0.0034   3.00   26.1
2173 249753.000   1545935.5054  -4353759.7372   4382599.6665   1   6   0.0072   0.0133   0.0098  -0.0072  -0.0083   0.0037   4.00   26.3
2173 249754.000   1545935.5068  -4353759.7391   4382599.6665   1   6   0.0079   0.0144   0.0109  -0.0080  -0.0090   0.0041   5.00   26.5
2173 249755.000   1545935.5072  -4353759.7357   4382599.6643   1   6   0.0086   0.0157   0.0118  -0.0088  -0.0098   0.0046   6.00   26.7
2173 249756.000   1545935.5082  -4353759.7381   4382599.6661   1   6   0.0095   0.0171   0.0129  -0.0097  -0.0107   0.0050   7.00   26.9
2173 249757.000   1545935.5078  -4353759.7394   4382599.6663   1   6   0.0104   0.0185   0.0141  -0.0106  -0.0117   0.0056   8.00   27.0
2173 249758.000   1545935.5089  -4353759.7375   4382599.6640   1   6   0.0113   0.0200   0.0153  -0.0116  -0.0127   0.0061   9.00   27.2
2173 249759.000   1545935.5087  -4353759.7395   4382599.6651   1   6   0.0123   0.0215   0.0166  -0.0125  -0.0137   0.0066  10.00   27.3
2173 249760.000   1545935.5097  -4353759.7478   4382599.6685   1   6   0.0133   0.0232   0.0179  -0.0135  -0.0148   0.0071  11.00   27.5
2173 249761.000   1545935.5117  -4353759.7541   4382599.6703   1   6   0.0142   0.0248   0.0192  -0.0145  -0.0158   0.0077  12.00   27.6
2173 249762.000   1545935.5124  -4353759.7572   4382599.6706   1   6   0.0152   0.0264   0.0205  -0.0156  -0.0169   0.0082  13.00   27.7
2173 249763.000   1545935.5134  -4353759.7644   4382599.6730   1   6   0.0162   0.0281   0.0219  -0.0166  -0.0180   0.0088  14.00   27.9
2173 249764.000   1545935.5137  -4353759.7660   4382599.6728   1   6   0.0173   0.0298   0.0232  -0.0177  -0.0191   0.0093  15.00   28.0
2173 249765.000   1545935.5147  -4353759.7708   4382599.6747   1   6   0.0183   0.0315   0.0246  -0.0187  -0.0202   0.0099  16.00   28.1
2173 249766.000   1545935.5140  -4353759.7709   4382599.6748   1   6   0.0193   0.0333   0.0260  -0.0198  -0.0214   0.0105  17.00   28.2
2173 249767.000   1545935.5144  -4353759.7735   4382599.6748   1   6   0.0203   0.0350   0.0274  -0.0208  -0.0225   0.0111  18.00   28.3
2173 249768.000   1545935.5157  -4353759.7785   4382599.6772   1   6   0.0214   0.0368   0.0288  -0.0219  -0.0236   0.0116  19.00   28.4
2173 249769.000   1545935.5174  -4353759.7812   4382599.6773   1   6   0.0224   0.0385   0.0302  -0.0230  -0.0248   0.0122  20.00   28.5
2173 249770.000   1545935.5169  -4353759.7763   4382599.6761   1   6   0.0235   0.0403   0.0316  -0.0241  -0.0259   0.0128  21.00   28.6
2173 249771.000   1545935.5185  -4353759.7797   4382599.6759   1   6   0.0245   0.0420   0.0330  -0.0251  -0.0270   0.0134  22.00   28.7
2173 249772.000   1545935.5183  -4353759.7779   4382599.6732   1   6   0.0256   0.0438   0.0344  -0.0262  -0.0282   0.0140  23.00   28.8
2173 249773.000   1545935.5212  -4353759.7813   4382599.6718   1   6   0.0266   0.0456   0.0358  -0.0273  -0.0293   0.0145  24.00   28.9
2173 249774.000   1545935.5206  -4353759.7837   4382599.6755   1   6   0.0277   0.0474   0.0372  -0.0284  -0.0305   0.0151  25.00   29.0
2173 249775.000   1545935.5191  -4353759.7840   4382599.6765   1   6   0.0287   0.0492   0.0386  -0.0295  -0.0316   0.0157  26.00   29.1
2173 249776.000   1545935.5204  -4353759.7822   4382599.6718   1   6   0.0298   0.0510   0.0400  -0.0306  -0.0328   0.0163  27.00   29.2
2173 249777.000   1545935.5204  -4353759.7858   4382599.6753   1   6   0.0309   0.0527   0.0414  -0.0317  -0.0340   0.0169  28.00   29.3
2173 249778.000   1545935.5205  -4353759.7898   4382599.6733   1   6   0.0319   0.0545   0.0428  -0.0328  -0.0351   0.0175  29.00   29.4
2173 249779.000   1545935.5209  -4353759.7896   4382599.6719   1   6   0.0330   0.0563   0.0443  -0.0339  -0.0363   0.0181  30.00   29.5
2173 250030.000   1545935.5030  -4353759.7354   4382599.6744   1   6   0.0054   0.0110   0.0077  -0.0057  -0.0065   0.0030   0.00   30.1
2173 250031.000   1545935.5048  -4353759.7379   4382599.6766   1   6   0.0059   0.0110   0.0077  -0.0058  -0.0065   0.0025   0.00   30.0
2173 250032.000   1545935.5074  -4353759.7394   4382599.6780   1   6   0.0060   0.0110   0.0079  -0.0058  -0.0065   0.0029   0.00   30.1
2173 250033.000   1545935.5049  -4353759.7369   4382599.6746   1   6   0.0058   0.0110   0.0080  -0.0058  -0.0065   0.0029   0.00   29.8
2173 250034.000   1545935.5052  -4353759.7349   4382599.6766   1   6   0.0058   0.0110   0.0079  -0.0058  -0.0066   0.0027   0.00   29.4
2173 250035.000   1545935.5039  -4353759.7361   4382599.6762   1   6   0.0057   0.0110   0.0079  -0.0059  -0.0065   0.0031   0.00   29.1
2173 250036.000   1545935.5044  -4353759.7325   4382599.6698   1   6   0.0053   0.0111   0.0077  -0.0057  -0.0065   0.0030   0.00   29.0
2173 250037.000   1545935.5054  -4353759.7388   4382599.6737   1   6   0.0056   0.0111   0.0078  -0.0057  -0.0065   0.0029   0.00   28.8
2173 250038.000   1545935.5034  -4353759.7367   4382599.6730   1   6   0.0056   0.0110   0.0079  -0.0058  -0.0065   0.0028   0.00   28.8
2173 250039.000   1545935.5059  -4353759.7406   4382599.6752   1   6   0.0056   0.0110   0.0079  -0.0058  -0.0066   0.0030   0.00   28.7
2173 250040.000   1545935.5045  -4353759.7387   4382599.6764   1   6   0.0060   0.0111   0.0079  -0.0058  -0.0066   0.0029   0.00   28.5
2173 250041.000   1545935.5059  -4353759.7405   4382599.6773   1   6   0.0057   0.0110   0.0079  -0.0058  -0.0065   0.0031   0.00   28.3
2173 250042.000   1545935.5038  -4353759.7366   4382599.6756   1   6   0.0058   0.0109   0.0078  -0.0060  -0.0065   0.0028   0.00   28.0
2173 250043.000   1545935.5041  -4353759.7372   4382599.6729   1   6   0.0057   0.0109   0.0079  -0.0058  -0.0065   0.0029   0.00   27.8
2173 250044.000   1545935.5032  -4353759.7369   4382599.6756   1   6   0.0056   0.0109   0.0078  -0.0058  -0.0064   0.0032   0.00   27.6
2173 250045.000   1545935.5056  -4353759.7322   4382599.6710   1   6   0.0057   0.0110   0.0079  -0.0058  -0.0065   0.0030   0.00   27.3
2173 250046.000   1545935.5062  -4353759.7369   4382599.6734   1   6   0.0059   0.0110   0.0077  -0.0059  -0.0065   0.0028   0.00   27.1
2173 250047.000   1545935.5042  -4353759.7336   4382599.6743   1   6   0.0057   0.0110   0.0079  -0.0058  -0.0065   0.0030   0.00   26.8
2173 250048.000   1545935.5066  -4353759.7378   4382599.6748   1   6   0.0057   0.0110   0.0079  -0.0059  -0.0065   0.0031   0.00   26.5
2173 250049.000   1545935.5058  -4353759.7366   4382599.6750   1   6   0.0057   0.0110   0.0078  -0.0058  -0.0065   0.0031   0.00   26.2
2173 250050.000   1545935.5042  -4353759.7344   4382599.6745   1   6   0.0055   0.0110   0.0078  -0.0058  -0.0065   0.0029   0.00   26.0
2173 250051.000   1545935.5049  -4353759.7398   4382599.6761   1   6   0.0054   0.0110   0.0079  -0.0058  -0.0065   0.0031   0.00   25.9
2173 250052.000   1545935.5040  -4353759.7359   4382599.6729   1   6   0.0055   0.0109   0.0076  -0.0059  -0.0065   0.0027   0.00   25.6
2173 250053.000   1545935.5039  -4353759.7361   4382599.6738   1   6   0.0056   0.0110   0.0078  -0.0058  -0.0065   0.0028   0.00   25.3
2173 250054.000   1545935.5058  -4353759.7408   4382599.6737   1   6   0.0059   0.0110   0.0079  -0.0059  -0.0065   0.0028   0.00   25.1
2173 250055.000   1545935.5049  -4353759.7368   4382599.6750   1   6   0.0058   0.0110   0.0079  -0.0058  -0.0065   0.0031   0.00   24.8
2173 250056.000   1545935.5045  -4353759.7355   4382599.6711   1   6   0.0055   0.0110   0.0078  -0.0057  -0.0066   0.0029   0.00   24.7
2173 250057.000   1545935.5071  -4353759.7444   4382599.6733   1   6   0.0055   0.0111   0.0078  -0.0057  -0.0065   0.0029   0.00   24.5
2173 250058.000   1545935.5043  -4353759.7376   4382599.6755   1   6   0.0054   0.0110   0.0079  -0.0058  -0.0065   0.0032   0.00   24.2
2173 250059.000   1545935.5063  -4353759.7379   4382599.6734   1   6   0.0057   0.0110   0.0077  -0.0058  -0.0066   0.0028   0.00   24.0
2173 250060.000   1545935.5078  -4353759.7386   4382599.6792   1   6   0.0057   0.0111   0.0079  -0.0057  -0.0066   0.0031   0.00   23.8
2173 250061.000   1545935.5044  -4353759.7333   4382599.6743   1   6   0.0059   0.0110   0.0079  -0.0058  -0.0065   0.0029   0.00   23.6
2173 250062.000   1545935.5064  -4353759.7382   4382599.6757   1   6   0.0057   0.0110   0.0078  -0.0058  -0.0065   0.0029   0.00   23.3
2173 250063.000   1545935.5062  -4353759.7380   4382599.6762   1   6   0.0055   0.0110   0.0078  -0.0058  -0.0065   0.0028   0.00   23.1
2173 250064.000   1545935.5035  -4353759.7379   4382599.6792   1   6   0.0059   0.0110   0.0080  -0.0058  -0.0065   0.0031   0.00   22.9
2173 250065.000   1545935.5045  -4353759.7379   4382599.6766   1   6   0.0055   0.0110   0.0079  -0.0058  -0.0065   0.0029   0.00   22.7
2173 250066.000   1545935.5057  -4353759.7376   4382599.6747   1   6   0.0056   0.0110   0.0077  -0.0058  -0.0065   0.0027   0.00   22.4
2173 250067.000   1545935.5063  -4353759.7401   4382599.6751   1   6   0.0055   0.0110   0.0079  -0.0058  -0.0065   0.0028   0.00   22.2
2173 250068.000   1545935.5048  -4353759.7348   4382599.6748   1   6   0.0056   0.0110   0.0078  -0.0058  -0.0065   0.0029   0.00   22.0
2173 250069.000   1545935.5077  -4353759.7409   4382599.6805   1   6   0.0060   0.0111   0.0079  -0.0058  -0.0065   0.0031   0.00   21.8
2173 250070.000   1545935.5054  -4353759.7367   4382599.6758   1   6   0.0056   0.0109   0.0078  -0.0059  -0.0065   0.0028   0.00   21.6
2173 250071.000   1545935.5065  -4353759.7373   4382599.6775   1   6   0.0057   0.0111   0.0078  -0.0057  -0.0065   0.0029   0.00   21.4
2173 250072.000   1545935.5060  -4353759.7363   4382599.6730   1   6   0.0059   0.0110   0.0081  -0.0059  -0.0065   0.0028   0.00   21.2
2173 250073.000   1545935.5066  -4353759.7355   4382599.6736   1   6   0.0059   0.0110   0.0078  -0.0058  -0.0066   0.0031   0.00   21.0
2173 250074.000   1545935.5039  -4353759.7378   4382599.6736   1   6   0.0053   0.0110   0.0079  -0.0058  -0.0065   0.0031   0.00   20.8
2173 250075.000   1545935.5066  -4353759.7408   4382599.6734   1   6   0.0060   0.0110   0.0078  -0.0058  -0.0065   0.0030   0.00   20.7
2173 250076.000   1545935.5065  -4353759.7392   4382599.6760   1   6   0.0057   0.0111   0.0078  -0.0057  -0.0066   0.0028   0.00   20.6
2173 250077.000   1545935.5063  -4353759.7382   4382599.6786   1   6   0.0057   0.0110   0.0078  -0.0058  -0.0065   0.0029   0.00   20.4
2173 250078.000   1545935.5090  -4353759.7394   4382599.6781   1   6   0.0057   0.0110   0.0078  -0.0059  -0.0065   0.0025   0.00   20.3
2173 250079.000   1545935.5061  -4353759.7347   4382599.6744   1   6   0.0058   0.0110   0.0078  -0.0059  -0.0065   0.0027   0.00   20.2
2173 250080.000   1545935.5060  -4353759.7355   4382599.6763   1   6   0.0058   0.0110   0.0078  -0.0058  -0.0065   0.0024   0.00   20.1
2173 250081.000   1545935.5074  -4353759.7349   4382599.6739   1   6   0.0059   0.0110   0.0079  -0.0059  -0.0065   0.0025   0.00   19.9
2173 250082.000   1545935.5087  -4353759.7349   4382599.6739   1   6   0.0057   0.0110   0.0078  -0.0058  -0.0065   0.0029   0.00   19.7
2173 250083.000   1545935.5075  -4353759.7376   4382599.6752   1   6   0.0056   0.0110   0.0079  -0.0058  -0.0065   0.0028   0.00   19.7
2173 250084.000   1545935.5090  -4353759.7409   4382599.6738   1   6   0.0053   0.0109   0.0078  -0.0059  -0.0065   0.0033   0.00   19.5
2173 250085.000   1545935.5066  -4353759.7377   4382599.6728   1   6   0.0057   0.0110   0.0079  -0.0059  -0.0065   0.0028   0.00   19.4
2173 250086.000   1545935.5075  -4353759.7419   4382599.6739   1   6   0.0059   0.0110   0.0078  -0.0059  -0.0065   0.0030   0.00   19.3
2173 250087.000   1545935.5042  -4353759.7369   4382599.6703   1   6   0.0059   0.0111   0.0080  -0.0059  -0.0064   0.0029   0.00   19.3
2173 250088.000   1545935.5077  -4353759.7418   4382599.6713   1   6   0.0055   0.0110   0.0077  -0.0060  -0.0065   0.0029   0.00   19.2
2173 250089.000   1545935.5047  -4353759.7371   4382599.6711   1   6   0.0060   0.0110   0.0078  -0.0059  -0.0064   0.0030   0.00   19.1
2173 250090.000   1545935.5037  -4353759.7359   4382599.6664   1   6   0.0055   0.0111   0.0077  -0.0058  -0.0064   0.0030   0.00   19.1
2173 250091.000   1545935.5062  -4353759.7332   4382599.6684   1   6   0.0058   0.0111   0.0077  -0.0058  -0.0064   0.0028   0.00   19.0
2173 250092.000   1545935.5070  -4353759.7386   4382599.6714   1   6   0.0055   0.0110   0.0077  -0.0060  -0.0066   0.0027   0.00   19.0
2173 250093.000   1545935.5056  -4353759.7344   4382599.6687   1   6   0.0057   0.0111   0.0079  -0.0058  -0.0065   0.0030   0.00   18.9
2173 250094.000   1545935.5088  -4353759.7401   4382599.6711   1   6   0.0054   0.0110   0.0078  -0.0058  -0.0064   0.0030   0.00   18.8
2173 250095.000   1545935.5057  -4353759.7342   4382599.6689   1   6   0.0059   0.0109   0.0078  -0.0061  -0.0066   0.0028   0.00   18.8
2173 250096.000   1545935.5071  -4353759.7366   4382599.6683   1   6   0.0057   0.0110   0.0078  -0.0059  -0.0065   0.0028   0.00   18.7
2173 250097.000   1545935.5073  -4353759.7381   4382599.6708   1   6   0.0057   0.0111   0.0076  -0.0058  -0.0064   0.0028   0.00   18.7
2173 250098.000   1545935.5072  -4353759.7406   4382599.6743   1   6   0.0059   0.0110   0.0078  -0.0058  -0.0066   0.0029   0.00   18.6
2173 250099.000   1545935.5068  -4353759.7368   4382599.6703   1   6   0.0056   0.0110   0.0077  -0.0060  -0.0066   0.0027   0.00   18.5
2173 250100.000   1545935.5084  -4353759.7399   4382599.6730   1   6   0.0058   0.0110   0.0077  -0.0058  -0.0065   0.0028   0.00   18.4
2173 250101.000   1545935.5076  -4353759.7369   4382599.6718   1   6   0.0060   0.0110   0.0079  -0.0059  -0.0065   0.0027   0.00   18.4
2173 250102.000   1545935.5089  -4353759.7407   4382599.6712   1   6   0.0055   0.0111   0.0078  -0.0059  -0.0065   0.0029   0.00   18.4
2173 250103.000   1545935.5064  -4353759.7347   4382599.6720   1   6   0.0056   0.0110   0.0079  -0.0059  -0.0065   0.0032   0.00   18.3
2173 250104.000   1545935.5043  -4353759.7367   4382599.6717   1   6   0.0058   0.0110   0.0077  -0.0058  -0.0065   0.0029   0.00   18.3
2173 250105.000   1545935.5098  -4353759.7385   4382599.6725   1   6   0.0057   0.0109   0.0079  -0.0060  -0.0064   0.0031   0.00   18.3
2173 250106.000   1545935.5058  -4353759.7361   4382599.6727   1   6   0.0057   0.0111   0.0078  -0.0058  -0.0065   0.0031   0.00   18.2
2173 250107.000   1545935.5079  -4353759.7384   4382599.6722   1   6   0.0057   0.0111   0.0079  -0.0058  -0.0065   0.0029   0.00   18.2
2173 250108.000   1545935.5065  -4353759.7382   4382599.6717   1   6   0.0056   0.0110   0.0078  -0.0059  -0.0065   0.0029   0.00   18.1
2173 250109.000   1545935.5058  -4353759.7387   4382599.6706   1   6   0.0055   0.0110   0.0077  -0.0058  -0.0065   0.0028   0.00   18.1
2173 250110.000   1545935.5076  -4353759.7439   4382599.6745   1   6   0.0057   0.0109   0.0078  -0.0060  -0.0066   0.0029   0.00   18.1
2173 250111.000   1545935.5079  -4353759.7397   4382599.6713   1   6   0.0053   0.0110   0.0077  -0.0058  -0.0065   0.0027   0.00   18.1
2173 250112.000   1545935.5077  -4353759.7377   4382599.6723   1   6   0.0058   0.0111   0.0079  -0.0057  -0.0065   0.0029   0.00   18.0
2173 250113.000   1545935.5077  -4353759.7398   4382599.6732   1   6   0.0056   0.0110   0.0081  -0.0060  -0.0066   0.0031   0.00   17.9
2173 250114.000   1545935.5099  -4353759.7393   4382599.6747   1   6   0.0056   0.0111   0.0076  -0.0058  -0.0064   0.0031   0.00   17.9
2173 250115.000   1545935.5068  -4353759.7335   4382599.6708   1   6   0.0058   0.0111   0.0076  -0.0058  -0.0064   0.0025   0.00   17.8
2173 250116.000   1545935.5075  -4353759.7346   4382599.6697   1   6   0.0057   0.0111   0.0079  -0.0059  -0.0066   0.0031   0.00   17.9
2173 250117.000   1545935.5055  -4353759.7349   4382599.6734   1   6   0.0058   0.0111   0.0079  -0.0059  -0.0065   0.0030   0.00   17.9
2173 250118.000   1545935.5069  -4353759.7370   4382599.6729   1   6   0.0058   0.0111   0.0079  -0.0059  -0.0066   0.0029   0.00   17.9
2173 250119.000   1545935.5089  -4353759.7402   4382599.6736   1   6   0.0058   0.0110   0.0080  -0.0059  -0.0066   0.0033   0.00   17.8
2173 250120.000   1545935.5062  -4353759.7345   4382599.6709   1   6   0.0057   0.0111   0.0079  -0.0057  -0.0065   0.0032   0.00   17.8
2173 250121.000   1545935.5064  -4353759.7378   4382599.6750   1   6   0.0059   0.0111   0.0077  -0.0058  -0.0065   0.0030   0.00   17.7
2173 250122.000   1545935.5055  -4353759.7324   4382599.6731   1   6   0.0058   0.0110   0.0080  -0.0059  -0.0066   0.0027   0.00   17.6
2173 250123.000   1545935.5059  -4353759.7358   4382599.6747   1   6   0.0057   0.0110   0.0078  -0.0059  -0.0065   0.0029   0.00   17.6
2173 250124.000   1545935.5078  -4353759.7363   4382599.6770   1   6   0.0059   0.0110   0.0077  -0.0059  -0.0065   0.0026   0.00   17.5
2173 250125.000   1545935.5063  -4353759.7373   4382599.6752   1   6   0.0058   0.0110   0.0079  -0.0058  -0.0065   0.0030   0.00   17.5
2173 250126.000   1545935.5083  -4353759.7354   4382599.6718   1   6   0.0056   0.0110   0.0078  -0.0059  -0.0065   0.0031   0.00   17.4
2173 250127.000   1545935.5089  -4353759.7392   4382599.6737   1   6   0.0055   0.0111   0.0077  -0.0058  -0.0065   0.0029   0.00   17.3
2173 250128.000   1545935.5092  -4353759.7407   4382599.6732   1   6   0.0056   0.0110   0.0078  -0.0058  -0.0064   0.0028   0.00   17.3
2173 250129.000   1545935.5102  -4353759.7408   4382599.6702   1   6   0.0056   0.0111   0.0079  -0.0058  -0.0065   0.0034   0.00   17.3
2173 250130.000   1545935.5070  -4353759.7397   4382599.6722   1   6   0.0057   0.0111   0.0078  -0.0059  -0.0065   0.0029   0.00   17.3
2173 250131.000   1545935.5063  -4353759.7404   4382599.6741   1   6   0.0055   0.0110   0.0077  -0.0059  -0.0065   0.0029   0.00   17.2
2173 250132.000   1545935.5085  -4353759.7413   4382599.6728   1   6   0.0055   0.0111   0.0079  -0.0057  -0.0065   0.0031   0.00   17.3
2173 250133.000   1545935.5042  -4353759.7362   4382599.6714   1   6   0.0058   0.0111   0.0079  -0.0057  -0.0065   0.0026   0.00   17.2
2173 250134.000   1545935.5097  -4353759.7396   4382599.6724   1   6   0.0056   0.0111   0.0078  -0.0058  -0.0065   0.0029   0.00   17.2
2173 250135.000   1545935.5082  -4353759.7379   4382599.6684   1   6   0.0058   0.0110   0.0079  -0.0059  -0.0065   0.0030   0.00   17.2
2173 250136.000   1545935.5082  -4353759.7379   4382599.6708   1   6   0.0056   0.0109   0.0078  -0.0059  -0.0065   0.0031   0.00   17.2
2173 250137.000   1545935.5066  -4353759.7419   4382599.6713   1   6   0.0057   0.0111   0.0078  -0.0059  -0.0065   0.0029   0.00   17.2
2173 250138.000   1545935.5067  -4353759.7369   4382599.6691   1   6   0.0058   0.0111   0.0077  -0.0060  -0.0065   0.0027   0.00   17.2
2173 250139.000   1545935.5074  -4353759.7405   4382599.6720   1   6   0.0057   0.0111   0.0080  -0.0058  -0.0066   0.0028   0.00   17.2
2173 250140.000   1545935.5113  -4353759.7459   4382599.6753   1   6   0.0056   0.0110   0.0080  -0.0059  -0.0065   0.0031   0.00   17.2
2173 250141.000   1545935.5081  -4353759.7393   4382599.6704   1   6   0.0055   0.0111   0.0078  -0.0056  -0.0064   0.0030   0.00   17.2
2173 250142.000   1545935.5096  -4353759.7410   4382599.6688   1   6   0.0058   0.0110   0.0078  -0.0059  -0.0066   0.0030   0.00   17.2
2173 250143.000   1545935.5100  -4353759.7433   4382599.6702   1   6   0.0057   0.0110   0.0079  -0.0060  -0.0064   0.0032   0.00   17.2
2173 250144.000   1545935.5067  -4353759.7370   4382599.6720   1   6   0.0057   0.0111   0.0079  -0.0058  -0.0066   0.0029   0.00   17.3
2173 250145.000   1545935.5056  -4353759.7378   4382599.6712   1   6   0.0057   0.0109   0.0079  -0.0060  -0.0064   0.0031   0.00   17.3
2173 250146.000   1545935.5089  -4353759.7406   4382599.6681   1   6   0.0055   0.0111   0.0078  -0.0057  -0.0065   0.0029   0.00   17.3
2173 250147.000   1545935.5066  -4353759.7364   4382599.6682   1   6   0.0059   0.0111   0.0079  -0.0059  -0.0065   0.0027   0.00   17.3
2173 250148.000   1545935.5077  -4353759.7398   4382599.6674   1   6   0.0059   0.0110   0.0078  -0.0060  -0.0065   0.0029   0.00   17.3
2173 250149.000   1545935.5094  -4353759.7409   4382599.6695   1   6   0.0058   0.0111   0.0078  -0.0058  -0.0065   0.0031   0.00   17.3
2173 250150.000   1545935.5075  -4353759.7368   4382599.6682   1   6   0.0060   0.0110   0.0078  -0.0060  -0.0064   0.0028   0.00   17.3
2173 250151.000   1545935.5094  -4353759.7376   4382599.6685   1   6   0.0057   0.0110   0.0079  -0.0059  -0.0065   0.0033   0.00   17.4
2173 250152.000   1545935.5062  -4353759.7385   4382599.6694   1   6   0.0056   0.0111   0.0080  -0.0058  -0.0066   0.0032   0.00   17.4
2173 250153.000   1545935.5078  -4353759.7367   4382599.6681   1   6   0.0055   0.0111   0.0079  -0.0058  -0.0066   0.0031   0.00   17.4
2173 250154.000   1545935.5116  -4353759.7458   4382599.6731   1   6   0.0061   0.0111   0.0078  -0.0058  -0.0065   0.0027   0.00   17.4
2173 250155.000   1545935.5090  -4353759.7434   4382599.6710   1   6   0.0057   0.0111   0.0079  -0.0057  -0.0064   0.0027   0.00   17.4
2173 250156.000   1545935.5078  -4353759.7374   4382599.6690   1   6   0.0055   0.0110   0.0077  -0.0059  -0.0065   0.0031   0.00   17.4
2173 250157.000   1545935.5068  -4353759.7405   4382599.6689   1   6   0.0058   0.0111   0.0078  -0.0059  -0.0065   0.0031   0.00   17.4
2173 250158.000   1545935.5087  -4353759.7442   4382599.6733   1   6   0.0057   0.0111   0.0077  -0.0058  -0.0065   0.0030   0.00   17.4
2173 250159.000   1545935.5094  -4353759.7446   4382599.6708   1   6   0.0057   0.0110   0.0079  -0.0059  -0.0065   0.0030   0.00   17.5
2173 250160.000   1545935.5092  -4353759.7405   4382599.6682   1   6   0.0060   0.0111   0.0078  -0.0059  -0.0065   0.0030   0.00   17.5
2173 250161.000   1545935.5100  -4353759.7403   4382599.6675   1   6   0.0059   0.0111   0.0077  -0.0059  -0.0064   0.0025   0.00   17.5
2173 250162.000   1545935.5076  -4353759.7366   4382599.6677   1   6   0.0058   0.0111   0.0079  -0.0060  -0.0065   0.0030   0.00   17.5
2173 250163.000   1545935.5084  -4353759.7380   4382599.6691   1   6   0.0059   0.0111   0.0078  -0.0059  -0.0065   0.0030   0.00   17.5
2173 250164.000   1545935.5062  -4353759.7346   4382599.6689   1   6   0.0058   0.0110   0.0079  -0.0060  -0.0065   0.0031   0.00   17.6
2173 250165.000   1545935.5085  -4353759.7379   4382599.6661   1   6   0.0055   0.0111   0.0078  -0.0058  -0.0065   0.0028   0.00   17.6
2173 250166.000   1545935.5044  -4353759.7309   4382599.6653   1   6   0.0058   0.0110   0.0079  -0.0059  -0.0065   0.0032   0.00   17.6
2173 250167.000   1545935.5073  -4353759.7347   4382599.6697   1   6   0.0060   0.0110   0.0079  -0.0059  -0.0065   0.0030   0.00   17.7
2173 250168.000   1545935.5096  -4353759.7376   4382599.6705   1   6   0.0059   0.0111   0.0078  -0.0060  -0.0064   0.0028   0.00   17.6
2173 250169.000   1545935.5095  -4353759.7362   4382599.6730   1   6   0.0056   0.0110   0.0079  -0.0060  -0.0064   0.0031   0.00   17.6
2173 250170.000   1545935.5056  -4353759.7350   4382599.6687   1   6   0.0059   0.0110   0.0079  -0.0060  -0.0065   0.0032   0.00   17.6
2173 250171.000   1545935.5080  -4353759.7365   4382599.6655   1   6   0.0062   0.0111   0.0079  -0.0059  -0.0065   0.0025   0.00   17.5
2173 250172.000   1545935.5075  -4353759.7401   4382599.6686   1   6   0.0056   0.0111   0.0078  -0.0059  -0.0064   0.0029   0.00   17.5
2173 250173.000   1545935.5068  -4353759.7354   4382599.6680   1   6   0.0058   0.0110   0.0077  -0.0060  -0.0064   0.0028   0.00   17.5
2173 250174.000   1545935.5072  -4353759.7399   4382599.6681   1   6   0.0053   0.0111   0.0078  -0.0059  -0.0064   0.0032   0.00   17.5
2173 250175.000   1545935.5068  -4353759.7375   4382599.6662   1   6   0.0058   0.0111   0.0078  -0.0059  -0.0065   0.0030   0.00   17.5
2173 250176.000   1545935.5075  -4353759.7367   4382599.6677   1   6   0.0058   0.0110   0.0079  -0.0060  -0.0065   0.0030   0.00   17.5
2173 250177.000   1545935.5080  -4353759.7344   4382599.6695   1   6   0.0057   0.0111   0.0078  -0.0059  -0.0064   0.0030   0.00   17.4
2173 250178.000   1545935.5110  -4353759.7404   4382599.6680   1   6   0.0058   0.0111   0.0079  -0.0060  -0.0065   0.0030   0.00   17.4
2173 250179.000   1545935.5094  -4353759.7420   4382599.6666   1   6   0.0057   0.0111   0.0077  -0.0058  -0.0065   0.0031   0.00   17.5
2173 250180.000   1545935.5092  -4353759.7355   4382599.6670   1   6   0.0055   0.0112   0.0079  -0.0058  -0.0065   0.0033   0.00   17.4
2173 250181.000   1545935.5060  -4353759.7345   4382599.6689   1   6   0.0058   0.0112   0.0078  -0.0058  -0.0065   0.0029   0.00   17.4
2173 250182.000   1545935.5057  -4353759.7355   4382599.6684   1   6   0.0056   0.0111   0.0077  -0.0058  -0.0065   0.0029   0.00   17.4
2173 250183.000   1545935.5052  -4353759.7327   4382599.6669   1   6   0.0057   0.0112   0.0078  -0.0058  -0.0065   0.0030   0.00   17.4
2173 250184.000   1545935.5033  -4353759.7306   4382599.6670   1   6   0.0055   0.0111   0.0077  -0.0058  -0.0064   0.0026   0.00   17.3
2173 250185.000   1545935.5057  -4353759.7356   4382599.6703   1   6   0.0057   0.0111   0.0079  -0.0058  -0.0065   0.0027   0.00   17.3
2173 250186.000   1545935.5040  -4353759.7354   4382599.6700   1   6   0.0058   0.0111   0.0078  -0.0060  -0.0064   0.0031   0.00   17.3
2173 250187.000   1545935.5020  -4353759.7311   4382599.6678   1   6   0.0056   0.0110   0.0079  -0.0060  -0.0065   0.0032   0.00   17.3
2173 250188.000   1545935.5039  -4353759.7301   4382599.6675   1   6   0.0054   0.0111   0.0079  -0.0057  -0.0065   0.0031   0.00   17.2
2173 250189.000   1545935.5047  -4353759.7324   4382599.6699   1   6   0.0057   0.0111   0.0077  -0.0058  -0.0064   0.0026   0.00   17.2
2173 250190.000   1545935.5074  -4353759.7366   4382599.6682   1   6   0.0058   0.0111   0.0079  -0.0059  -0.0065   0.0028   0.00   17.2
2173 250191.000   1545935.5053  -4353759.7343   4382599.6686   1   6   0.0055   0.0111   0.0078  -0.0058  -0.0065   0.0027   0.00   17.2
2173 250192.000   1545935.5063  -4353759.7317   4382599.6677   1   6   0.0054   0.0111   0.0078  -0.0059  -0.0065   0.0031   0.00   17.1
2173 250193.000   1545935.5069  -4353759.7378   4382599.6719   1   6   0.0058   0.0111   0.0080  -0.0059  -0.0066   0.0032   0.00   17.1
2173 250194.000   1545935.5066  -4353759.7410   4382599.6687   1   6   0.0060   0.0111   0.0078  -0.0060  -0.0065   0.0029   0.00   17.1
2173 250195.000   1545935.5063  -4353759.7413   4382599.6725   1   6   0.0058   0.0110   0.0078  -0.0059  -0.0064   0.0032   0.00   17.1
2173 250196.000   1545935.5044  -4353759.7330   4382599.6647   1   6   0.0055   0.0111   0.0078  -0.0059  -0.0065   0.0030   0.00   17.1
2173 250197.000   1545935.5055  -4353759.7370   4382599.6710   1   6   0.0056   0.0111   0.0078  -0.0059  -0.0065   0.0028   0.00   17.1
2173 250198.000   1545935.5067  -4353759.7412   4382599.6726   1   6   0.0056   0.0111   0.0077  -0.0058  -0.0064   0.0027   0.00   17.1
2173 250199.000   1545935.5022  -4353759.7343   4382599.6682   1   6   0.0057   0.0111   0.0078  -0.0059  -0.0065   0.0031   0.00   17.1
2173 250200.000   1545935.5048  -4353759.7356   4382599.6674   1   6   0.0059   0.0111   0.0078  -0.0058  -0.0065   0.0028   0.00   17.1
2173 250201.000   1545935.5077  -4353759.7400   4382599.6684   1   6   0.0057   0.0110   0.0078  -0.0060  -0.0064   0.0030   0.00   17.1
2173 250202.000   1545935.5008  -4353759.7286   4382599.6647   1   6   0.0059   0.0111   0.0078  -0.0060  -0.0065   0.0029   0.00   17.1
2173 250203.000   1545935.5058  -4353759.7349   4382599.6659   1   6   0.0056   0.0111   0.0078  -0.0060  -0.0064   0.0028   0.00   17.1
2173 250204.000   1545935.5031  -4353759.7322   4382599.6665   1   6   0.0055   0.0111   0.0079  -0.0059  -0.0064   0.0029   0.00   17.1
2173 250205.000   1545935.5048  -4353759.7323   4382599.6687   1   6   0.0058   0.0111   0.0078  -0.0059  -0.0064   0.0029   0.00   17.1
2173 250206.000   1545935.5064  -4353759.7345   4382599.6694   1   6   0.0060   0.0112   0.0078  -0.0059  -0.0064   0.0028   0.00   17.1
2173 250207.000   1545935.5055  -4353759.7312   4382599.6663   1   6   0.0054   0.0111   0.0079  -0.0058  -0.0065   0.0032   0.00   17.1
2173 250208.000   1545935.5063  -4353759.7335   4382599.6695   1   6   0.0060   0.0110   0.0079  -0.0060  -0.0065   0.0029   0.00   17.1
2173 250209.000   1545935.5076  -4353759.7344   4382599.6668   1   6   0.0055   0.0111   0.0078  -0.0059  -0.0065   0.0030   0.00   17.1
2173 250210.000   1545935.5030  -4353759.7308   4382599.6626   1   6   0.0059   0.0111   0.0079  -0.0059  -0.0065   0.0030   0.00   17.1
2173 250211.000   1545935.5054  -4353759.7336   4382599.6627   1   6   0.0054   0.0111   0.0077  -0.0059  -0.0065   0.0031   0.00   17.1
2173 250212.000   1545935.5067  -4353759.7307   4382599.6661   1   6   0.0056   0.0110   0.0078  -0.0060  -0.0065   0.0032   0.00   17.1
2173 250213.000   1545935.5076  -4353759.7370   4382599.6710   1   6   0.0057   0.0111   0.0078  -0.0060  -0.0064   0.0026   0.00   17.2
2173 250214.000   1545935.5082  -4353759.7380   4382599.6689   1   6   0.0059   0.0111   0.0079  -0.0059  -0.0065   0.0030   0.00   17.2
2173 250215.000   1545935.5063  -4353759.7372   4382599.6707   1   6   0.0059   0.0111   0.0078  -0.0059  -0.0065   0.0027   0.00   17.2
2173 250216.000   1545935.5063  -4353759.7393   4382599.6716   1   6   0.0058   0.0111   0.0078  -0.0058  -0.0064   0.0030   0.00   17.2
2173 250217.000   1545935.5048  -4353759.7342   4382599.6677   1   6   0.0058   0.0111   0.0078  -0.0059  -0.0064   0.0027   0.00   17.2
2173 250218.000   1545935.5042  -4353759.7370   4382599.6705   1   6   0.0058   0.0111   0.0078  -0.0059  -0.0064   0.0029   0.00   17.2
2173 250219.000   1545935.5074  -4353759.7393   4382599.6691   1   6   0.0060   0.0111   0.0079  -0.0060  -0.0066   0.0031   0.00   17.2
2173 250220.000   1545935.5058  -4353759.7361   4382599.6691   1   6   0.0060   0.0111   0.0079  -0.0059  -0.0065   0.0029   0.00   17.2
2173 250221.000   1545935.5084  -4353759.7410   4382599.6719   1   6   0.0057   0.0111   0.0078  -0.0058  -0.0064   0.0030   0.00   17.2
2173 250222.000   1545935.5085  -4353759.7388   4382599.6700   1   6   0.0060   0.0111   0.0078  -0.0059  -0.0064   0.0030   0.00   17.2
2173 250223.000   1545935.5075  -4353759.7401   4382599.6739   1   6   0.0057   0.0110   0.0079  -0.0060  -0.0066   0.0031   0.00   17.2
2173 250224.000   1545935.5101  -4353759.7393   4382599.6740   1   6   0.0057   0.0111   0.0079  -0.0059  -0.0065   0.0030   0.00   17.2
2173 250225.000   1545935.5088  -4353759.7401   4382599.6710   1   6   0.0059   0.0111   0.0078  -0.0060  -0.0064   0.0031   0.00   17.2
2173 250226.000   1545935.5079  -4353759.7359   4382599.6718   1   6   0.0053   0.0110   0.0078  -0.0061  -0.0065   0.0033   0.00   17.2
2173 250227.000   1545935.5059  -4353759.7369   4382599.6718   1   6   0.0055   0.0111   0.0079  -0.0059  -0.0065   0.0029   0.00   17.1
2173 250228.000   1545935.5105  -4353759.7392   4382599.6727   1   6   0.0059   0.0111   0.0079  -0.0059  -0.0064   0.0027   0.00   17.1
2173 250229.000   1545935.5098  -4353759.7401   4382599.6731   1   6   0.0060   0.0111   0.0078  -0.0060  -0.0064   0.0029   0.00   17.1
2173 250230.000   1545935.5081  -4353759.7427   4382599.6741   1   6   0.0056   0.0111   0.0079  -0.0060  -0.0064   0.0031   0.00   17.1
2173 250231.000   1545935.5100  -4353759.7439   4382599.6743   1   6   0.0059   0.0111   0.0077  -0.0059  -0.0064   0.0026   0.00   17.1
2173 250232.000   1545935.5095  -4353759.7414   4382599.6706   1   6   0.0058   0.0111   0.0079  -0.0059  -0.0065   0.0029   0.00   17.1
2173 250233.000   1545935.5109  -4353759.7464   4382599.6721   1   6   0.0056   0.0111   0.0080  -0.0059  -0.0066   0.0029   0.00   17.1
2173 250234.000   1545935.5075  -4353759.7440   4382599.6758   1   6   0.0056   0.0111   0.0079  -0.0059  -0.0064   0.0031   0.00   17.1
2173 250235.000   1545935.5095  -4353759.7454   4382599.6771   1   6   0.0056   0.0111   0.0079  -0.0059  -0.0064   0.0029   0.00   17.0
2173 250236.000   1545935.5114  -4353759.7454   4382599.6765   1   6   0.0054   0.0111   0.0080  -0.0059  -0.0065   0.0033   0.00   17.0
2173 250237.000   1545935.5088  -4353759.7422   4382599.6754   1   6   0.0058   0.0111   0.0079  -0.0060  -0.0065   0.0031   0.00   17.1
2173 250238.000   1545935.5085  -4353759.7404   4382599.6750   1   6   0.0060   0.0111   0.0078  -0.0060  -0.0064   0.0027   0.00   17.1
2173 250239.000   1545935.5071  -4353759.7431   4382599.6730   1   6   0.0055   0.0111   0.0078  -0.0059  -0.0064   0.0032   0.00   17.0
2173 250240.000   1545935.5110  -4353759.7458   4382599.6743   1   6   0.0055   0.0111   0.0078  -0.0059  -0.0064   0.0031   0.00   17.1
2173 250241.000   1545935.5107  -4353759.7474   4382599.6742   1   6   0.0057   0.0110   0.0078  -0.0061  -0.0064   0.0031   0.00   17.1
2173 250242.000   1545935.5098  -4353759.7451   4382599.6709   1   6   0.0058   0.0111   0.0079  -0.0059  -0.0065   0.0029   0.00   17.1
2173 250243.000   1545935.5068  -4353759.7405   4382599.6687   1   6   0.0057   0.0111   0.0078  -0.0059  -0.0064   0.0031   0.00   17.1
2173 250244.000   1545935.5105  -4353759.7420   4382599.6721   1   6   0.0058   0.0111   0.0078  -0.0059  -0.0065   0.0026   0.00   17.1
