     2.11           OBSERVATION DATA    M (MIXED)           RINEX VERSION / TYPE
CONVBIN 2.4.3                           20210901 190722 UTC PGM / RUN BY / DATE 
log: logs/21_09_01_08_12_02_ohlc_VZ.rtcm                    COMMENT             
format: RTCM 3, station ID: 4059                            COMMENT             
4059                                                        MARKER NAME         
                                                            MARKER NUMBER       
                                                            OBSERVER / AGENCY   
                    TRIMBLE ALLOY       4.40/7.701          REC # / TYPE / VERS 
                    GPPNULLANTENNA                          ANT # / TYPE        
   547417.4178 -4739168.6601  4219367.6868                  APPROX POSITION XYZ 
        0.0000        0.0000        0.0000                  ANTENNA: DELTA H/E/N
     1     1                                                WAVELENGTH FACT L1/2
     7    C1    L1    P2    L2    C2    C5    L5            # / TYPES OF OBSERV 
  2021     9     1     8    12   20.0000000     GPS         TIME OF FIRST OBS   
  2021     9     1     8    42    6.0000000     GPS         TIME OF LAST OBS    
                                                            END OF HEADER       
 21  9  1  8 12 20.0000000  0 20G 1G 7G 8G13G14G17G21G30R 4R12R13R14
                                R22R24E13E15E19E21E27E30
  21617957.260   113603140.835                    88521923.666    21617957.225  
  21617952.632    84833500.437  
  20488129.137   107665859.044                    83895443.468    20488126.099  
                                
  22277997.066   117071690.496                    91224674.288    22277996.923  
  22277992.545    87423655.004  
  23619513.089   124121374.272    23619509.194    96718049.624                  
                                
  21974139.995   115474903.750                    89980428.196    21974138.190  
  21974138.404    86231255.025  
  22811794.261   119876802.023                    93410476.152    22811792.724  
                                
  21552903.295   113261284.349    21552900.615    88255536.400                  
                                
  20671647.666   108630242.628                    84646932.361    20671647.380  
  20671643.895    81119978.194  
  23592434.086   126336418.643    23592429.672    98261642.760                  
                                
  20898697.583   111637114.603    20898695.099    86828853.457                  
                                
  19449871.179   103861222.355    19449866.640    80780938.551                  
                                
  22431255.173   119571214.465    22431251.938    92999816.167                  
                                
  21225841.850   113304987.137    21225838.366    88126085.179                  
                                
  22008958.554   117691798.082    22008954.409    91538057.513                  
                                
  25735294.003   135239893.749                                                  
                                
  23878228.934   125480955.895                                                  
                                
  26803643.914   140854096.258                                                  
                                
  25533055.957   134177125.527                                                  
                                
  23470222.549   123336877.446                                                  
                                
  25421082.512   133588727.718                                                  
                                
 21  9  1  8 12 21.0000000  0 20G 1G 7G 8G13G14G17G21G30R 4R12R13R14
                                R22R24E13E15E19E21E27E30
  21617443.651   113600442.865                    88519821.333    21617443.830  
  21617439.291    84831485.719  
  20488391.007   107667235.229                    83896515.807    20488388.577  
                                
  22278550.612   117074598.279                    91226940.079    22278551.327  
  22278545.913    87425826.389  
  23619318.406   124120353.416    23619314.975    96717254.195                  
                                
  21973720.823   115472698.785                    89978710.059    21973717.768  
  21973718.911    86229608.463  
  22811260.674   119873996.382                    93408289.918    22811257.386  
                                
  21552870.631   113261112.643    21552867.825    88255402.601                  
                                
  20671481.001   108629368.245                    84646251.039    20671480.322  
  20671477.571    81119325.247  
  23592804.207   126338398.636    23592799.811    98263182.764                  
                                
  20899136.410   111639460.575    20899134.337    86830678.104                  
                                
  19449704.640   103860331.243    19449699.726    80780245.465                  
                                
  22430607.992   119567764.931    22430604.901    92997133.189                  
                                
  21226453.668   113308253.946    21226450.398    88128626.035                  
                                
  22008182.967   117687651.004    22008178.857    91534832.012                  
                                
  25734724.410   135236900.917                                                  
                                
  23878083.588   125480190.896                                                  
                                
  26803880.392   140855338.487                                                  
                                
  25532695.718   134175232.464                                                  
                                
  23470231.340   123336923.963                                                  
                                
  25421456.136   133590690.902                                                  
                                
 21  9  1  8 12 22.0000000  0 20G 1G 7G 8G13G14G17G21G30R 4R12R13R14
                                R22R24E13E15E19E21E27E30
  21616930.578   113597745.361                    88517719.380    21616930.864  
  21616925.896    84829471.345  
  20488652.949   107668611.946                    83897588.580    20488650.072  
                                
  22279104.034   117077506.250                    91229206.033    22279104.213  
  22279099.227    87427997.919  
  23619124.116   124119333.149    23619120.954    96716459.179                  
                                
  21973301.008   115470493.955                    89976991.978    21973297.935  
  21973299.257    86227961.996  
  22810726.641   119871191.011                    93406103.929    22810724.425  
                                
  21552838.145   113260941.523    21552835.107    88255269.261                  
                                
  20671314.891   108628494.413                    84645570.127    20671314.694  
  20671311.210    81118672.702  
  23593174.185   126340379.224    23593169.450    98264723.200                  
                                
  20899576.256   111641806.920    20899573.647    86832503.042                  
                                
  19449538.136   103859440.567    19449532.918    80779552.719                  
                                
  22429960.544   119564315.417    22429957.757    92994450.232                  
                                
  21227065.789   113311521.279    21227062.501    88131167.278                  
                                
  22007408.059   117683504.206    22007403.556    91531606.718                  
                                
  25734154.817   135233908.231                                                  
                                
  23877937.991   125479426.358                                                  
                                
  26804116.782   140856581.035                                                  
                                
  25532335.460   134173339.419                                                  
                                
  23470240.114   123336970.635                                                  
                                
  25421829.634   133592654.174                                                  
                                
 21  9  1  8 12 23.0000000  0 20G 1G 7G 8G13G14G17G21G30R 4R12R13R14
                                R22R24E13E15E19E21E27E30
  21616416.897   113595048.325                    88515617.800    21616418.148  
  21616412.644    84827457.333  
  20488915.142   107669989.236                    83898661.820    20488912.265  
                                
  22279657.187   117080414.382                    91231472.117    22279657.884  
  22279652.684    87430169.585  
  23618930.202   124118313.463    23618926.771    96715664.562                  
                                
  21972881.408   115468289.271                    89975274.061    21972878.763  
  21972879.710    86226315.637  
  22810193.072   119868385.896                    93403918.136    22810191.713  
                                
  21552805.552   113260771.008    21552802.818    88255136.397                  
                                
  20671148.745   108627621.124                    84644889.647    20671148.638  
  20671145.028    81118020.579  
  23593543.967   126342360.413    23593539.714    98266264.130                  
                                
  20900015.352   111644153.670    20900013.011    86834328.280                  
                                
  19449371.043   103858550.377    19449366.182    80778860.344                  
                                
  22429314.007   119560865.928    22429310.612    92991767.286                  
                                
  21227678.018   113314789.098    21227674.748    88133708.927                  
                                
  22006632.258   117679357.680    22006628.201    91528381.652                  
                                
  25733585.421   135230915.698                                                  
                                
  23877792.501   125478662.257                                                  
                                
  26804353.046   140857823.947                                                  
                                
  25531975.167   134171446.410                                                  
                                
  23470249.138   123337017.463                                                  
                                
  25422203.257   133594617.555                                                  
                                
 21  9  1  8 12 24.0000000  0 20G 1G 7G 8G13G14G17G21G30R 4R12R13R14
                                R22R24E13E15E19E21E27E30
  21615903.573   113592351.819                    88513516.661    21615904.181  
  21615899.553    84825443.713  
  20489177.459   107671367.144                    83899735.508    20489174.510  
                                
  22280210.752   117083322.767                    91233738.356    22280210.770  
  22280206.159    87432341.431  
  23618736.251   124117294.476    23618732.856    96714870.564                  
                                
  21972461.897   115466084.776                    89973556.247    21972459.359  
  21972460.217    86224669.430  
  22809659.002   119865581.135                    93401732.608    22809658.055  
                                
  21552773.352   113260601.165    21552770.278    88255004.038                  
                                
  20670982.652   108626748.472                    84644209.644    20670983.099  
  20670978.918    81117368.921  
  23593914.963   126344342.263    23593909.889    98267805.575                  
                                
  20900454.948   111646500.910    20900452.589    86836153.911                  
                                
  19449204.861   103857660.723    19449199.572    80778168.396                  
                                
  22428666.684   119557416.518    22428663.593    92989084.414                  
                                
  21228290.711   113318057.564    21228287.137    88136251.069                  
                                
  22005856.456   117675211.534    22005853.061    91525156.869                  
                                
  25733016.310   135227923.377                                                  
                                
  23877647.315   125477898.693                                                  
                                
  26804589.828   140859067.284                                                  
                                
  25531615.035   134169553.497                                                  
                                
  23470257.947   123337064.535                                                  
                                
  25422576.934   133596581.077                                                  
                                
 21  9  1  8 12 25.0000000  0 20G 1G 7G 8G13G14G17G21G30R 4R12R13R14
                                R22R24E13E15E19E21E27E30
  21615390.804   113589655.827                    88511415.851    21615391.465  
  21615386.569    84823430.472  
  20489439.705   107672745.631                    83900809.638    20489436.863  
                                
  22280764.352   117086231.375                    91236004.817    22280763.584  
  22280759.635    87434513.439  
  23618541.997   124116276.085    23618539.031    96714077.008                  
                                
  21972042.332   115463880.465                    89971838.632    21972040.581  
  21972040.635    86223023.343  
  22809125.308   119862776.651                    93399547.277    22809124.504  
                                
  21552741.295   113260431.942    21552738.096    88254872.189                  
                                
  20670816.542   108625876.380                    84643530.106    20670816.542  
  20670812.986    81116717.695  
  23594284.566   126346324.708    23594280.099    98269347.484                  
                                
  20900894.633   111648848.588    20900892.203    86837979.883                  
                                
  19449038.107   103856771.550    19449033.122    80777476.814                  
                                
  22428019.879   119553967.147    22428016.537    92986401.566                  
                                
  21228903.029   113321326.525    21228899.562    88138793.580                  
                                
  22005081.173   117671065.743    22005077.688    91521932.369                  
                                
  25732446.628   135224931.240                                                  
                                
  23877502.022   125477135.607                                                  
                                
  26804826.789   140860311.024                                                  
                                
  25531254.920   134167660.634                                                  
                                
  23470266.989   123337111.794                                                  
                                
  25422950.433   133598544.739                                                  
                                
 21  9  1  8 12 26.0000000  0 20G 1G 7G 8G13G14G17G21G30R 4R12R13R14
                                R22R24E13E15E19E21E27E30
  21614877.695   113586960.333                    88509315.487    21614878.839  
  21614873.639    84821417.595  
  20489702.058   107674124.698                    83901884.226    20489699.627  
                                
  22281317.845   117089140.158                    91238271.391    22281317.863  
  22281313.110    87436685.585  
  23618348.190   124115258.309    23618345.456    96713283.886                  
                                
  21971623.143   115461676.304                    89970121.125    21971620.838  
  21971621.284    86221377.378  
  22808591.775   119859972.462                    93397362.195    22808590.846  
                                
  21552709.023   113260263.328    21552706.379    88254740.815                  
                                
  20670650.699   108625004.873                    84642850.995    20670650.163  
  20670647.179    81116066.892  
  23594654.920   126348307.763    23594650.399    98270889.860                  
                                
  20901333.389   111651196.643    20901331.655    86839806.150                  
                                
  19448871.068   103855882.898    19448866.761    80776785.643                  
                                
  22427372.645   119550517.795    22427369.411    92983718.743                  
                                
  21229515.239   113324596.034    21229512.023    88141336.548                  
                                
  22004306.211   117666920.328    22004302.673    91518708.160                  
                                
  25731877.285   135221939.279                                                  
                                
  23877356.711   125476373.012                                                  
                                
  26805063.197   140861555.113                                                  
                                
  25530894.770   134165767.823                                                  
                                
  23470276.049   123337159.235                                                  
                                
  25423324.145   133600508.493                                                  
                                
 21  9  1  8 12 27.0000000  0 20G 1G 7G 8G13G14G17G21G30R 4R12R13R14
                                R22R24E13E15E19E21E27E30
  21614364.836   113584265.351                    88507215.480    21614366.284  
  21614360.869    84819405.108  
  20489964.250   107675504.391                    83902959.318    20489962.034  
                                
  22281871.356   117092049.183                    91240538.193    22281872.410  
  22281866.692    87438857.913  
  23618155.169   124114241.218    23618151.809    96712491.409                  
                                
  21971203.757   115459472.343                    89968403.727    21971200.916  
  21971201.952    86219731.567  
  22808057.938   119857168.582                    93395177.406    22808057.151  
                                
  21552676.984   113260095.390    21552674.447    88254609.940                  
                                
  20670485.197   108624133.993                    84642172.404    20670485.304  
  20670481.408    81115416.553  
  23595024.862   126350291.452    23595020.538    98272432.727                  
                                
  20901773.592   111653545.153    20901771.341    86841632.767                  
                                
  19448704.975   103854994.769    19448700.472    80776094.876                  
                                
  22426725.268   119547068.531    22426722.481    92981035.982                  
                                
  21230128.093   113327866.077    21230124.537    88143879.908                  
                                
  22003530.714   117662775.289    22003527.479    91515484.246                  
                                
  25731308.228   135218947.533                                                  
                                
  23877211.794   125475610.927                                                  
                                
  26805300.336   140862799.633                                                  
                                
  25530534.620   134163875.107                                                  
                                
  23470285.144   123337206.902                                                  
                                
  25423697.805   133602472.416                                                  
                                
 21  9  1  8 12 28.0000000  0 20G 1G 7G 8G13G14G17G21G30R 4R12R13R14
                                R22R24E13E15E19E21E27E30
  21613852.245   113581570.814                    88505115.868    21613853.532  
  21613848.028    84817392.965  
  20490227.192   107676884.608                    83904034.822    20490224.691  
                                
  22282425.260   117094958.369                    91242805.109    22282425.224  
  22282420.185    87441030.354  
  23617961.772   124113224.687    23617958.341    96711699.336                  
                                
  21970784.317   115457268.504                    89966686.471    21970781.512  
  21970782.495    86218085.837  
  22807524.887   119854364.978                    93392992.725    22807523.922  
                                
  21552645.052   113259928.015    21552642.497    88254479.511                  
                                
  20670319.354   108623263.633                    84641494.203    20670319.408  
  20670315.852    81114766.604  
  23595395.448   126352275.691    23595391.141    98273976.034                  
                                
  20902213.134   111655894.045    20902210.954    86843459.690                  
                                
  19448538.900   103854107.101    19448534.308    80775404.475                  
                                
  22426078.535   119543619.288    22426075.390    92978353.245                  
                                
  21230740.643   113331136.668    21230737.248    88146423.705                  
                                
  22002755.805   117658630.543    22002752.428    91512260.554                  
                                
  25730738.957   135215955.915                                                  
                                
  23877067.037   125474849.270                                                  
                                
  26805537.030   140864044.479                                                  
                                
  25530174.363   134161982.400                                                  
                                
  23470294.329   123337254.687                                                  
                                
  25424071.410   133604436.404                                                  
                                
 21  9  1  8 12 29.0000000  0 20G 1G 7G 8G13G14G17G21G30R 4R12R13R14
                                R22R24E13E15E19E21E27E30
  21613339.458   113578876.794                    88503016.646    21613339.905  
  21613335.330    84815381.194  
  20490489.885   107678265.434                    83905110.781    20490487.294  
                                
  22282978.860   117097867.780                    91245072.142    22282978.806  
  22282973.964    87443202.969  
  23617767.732   124112208.784    23617765.052    96710907.721                  
                                
  21970364.735   115455064.833                    89964969.306    21970362.662  
  21970363.252    86216440.243  
  22806991.282   119851561.655                    93390808.354    22806989.370  
                                
  21552613.424   113259761.276    21552610.761    88254349.586                  
                                
  20670153.780   108622393.859                    84640816.449    20670153.172  
  20670150.260    81114117.104  
  23595765.873   126354260.541    23595761.906    98275519.807                  
                                
  20902653.016   111658243.430    20902650.783    86845286.985                  
                                
  19448373.308   103853219.935    19448368.180    80774714.461                  
                                
  22425431.783   119540170.120    22425428.299    92975670.556                  
                                
  21231353.962   113334407.796    21231350.030    88148967.909                  
                                
  22001980.915   117654486.107    22001977.306    91509037.100                  
                                
  25730169.596   135212964.495                                                  
                                
  23876922.190   125474088.103                                                  
                                
  26805774.169   140865289.741                                                  
                                
  25529814.248   134160089.745                                                  
                                
  23470303.335   123337302.680                                                  
                                
  25424445.516   133606400.516                                                  
                                
 21  9  1  8 12 30.0000000  0 20G 1G 7G 8G13G14G17G21G30R 4R12R13R14
                                R22R24E13E15E19E21E27E30
  21612826.796   113576183.266                    88500917.750    21612826.349  
  21612822.793    84813369.790  
  20490752.667   107679646.819                    83906187.196    20490749.504  
                                
  22283531.906   117100777.397                    91247339.399    22283532.871  
  22283527.564    87445375.733  
  23617574.979   124111193.511    23617571.959    96710116.607                  
                                
  21969945.385   115452861.336                    89963252.274    21969942.704  
  21969943.776    86214794.772  
  22806457.963   119848758.641                    93388624.159    22806456.534  
                                
  21552581.742   113259595.163    21552579.187    88254220.147                  
                                
  20669988.652   108621524.670                    84640139.160    20669988.295  
  20669984.864    81113468.030  
  23596136.619   126356246.057    23596132.795    98277064.088                  
                                
  20903092.362   111660593.250    20903090.503    86847114.618                  
                                
  19448207.251   103852333.296    19448202.176    80774024.846                  
                                
  22424784.263   119536720.979    22424781.387    92972987.879                  
                                
  21231966.297   113337679.451    21231962.795    88151512.534                  
                                
  22001206.365   117650342.000    22001202.255    91505813.917                  
                                
  25729600.360   135209973.250                                                  
                                
  23876777.469   125473327.421                                                  
                                
  26806011.434   140866535.353                                                  
                                
  25529453.884   134158197.158                                                  
                                
  23470312.555   123337350.861                                                  
                                
  25424819.139   133608364.750                                                  
                                
 21  9  1  8 12 31.0000000  0 20G 1G 7G 8G13G14G17G21G30R 4R12R13R14
                                R22R24E13E15E19E21E27E30
  21612314.741   113573490.247                    88498819.323    21612314.491  
  21612310.292    84811358.773  
  20491015.895   107681028.813                    83907264.088    20491012.482  
                                
  22284086.007   117103687.208                    91249606.784    22284086.722  
  22284081.379    87447548.652  
  23617381.887   124110178.861    23617378.813    96709325.941                  
                                
  21969526.660   115450657.993                    89961535.393    21969523.372  
  21969524.515    86213149.430  
  22805924.501   119845955.929                    93386440.237    22805923.376  
                                
  21552550.328   113259429.687    21552547.666    88254091.213                  
                                
  20669823.131   108620656.073                    84639462.332    20669823.221  
  20669819.593    81112819.402  
  23596507.973   126358232.237    23596503.577    98278608.895                  
                                
  20903532.833   111662943.496    20903530.439    86848942.585                  
                                
  19448040.158   103851447.143    19448036.370    80773335.616                  
                                
  22424137.405   119533271.903    22424134.224    92970305.278                  
                                
  21232579.223   113340951.667    21232575.881    88154057.582                  
                                
  22000431.206   117646198.234    22000427.490    91502590.987                  
                                
  25729030.964   135206982.181                                                  
                                
  23876632.873   125472567.232                                                  
                                
  26806248.503   140867781.399                                                  
                                
  25529093.608   134156304.615                                                  
                                
  23470321.775   123337399.229                                                  
                                
  25425192.727   133610329.129                                                  
                                
 21  9  1  8 12 32.0000000  0 20G 1G 7G 8G13G14G17G21G30R 4R12R13R14
                                R22R24E13E15E19E21E27E30
  21611802.257   113570797.770                    88496721.271    21611801.954  
  21611798.005    84809348.150  
  20491278.999   107682411.407                    83908341.416    20491276.193  
                                
  22284639.750   117106597.283                    91251874.354    22284640.322  
  22284635.122    87449721.745  
  23617189.312   124109164.863    23617185.935    96708535.839                  
                                
  21969107.417   115448454.862                    89959818.661    21969105.129  
  21969105.272    86211504.226  
  22805391.040   119843153.528                    93384256.534    22805389.128  
                                
  21552519.254   113259264.865    21552516.324    88253962.792                  
                                
  20669658.039   108619788.078                    84638785.956    20669657.486  
  20669654.394    81112171.229  
  23596879.256   126360219.017    23596874.574    98280154.164                  
                                
  20903972.608   111665294.202    20903970.463    86850770.916                  
                                
  19447874.369   103850561.536    19447870.510    80772646.810                  
                                
  22423490.439   119529822.874    22423487.276    92967622.703                  
                                
  21233192.005   113344224.437    21233189.021    88156603.067                  
                                
  21999656.691   117642054.831    21999652.635    91499368.339                  
                                
  25728462.157   135203991.333                                                  
                                
  23876488.223   125471807.556                                                  
                                
  26806485.714   140869027.815                                                  
                                
  25528733.583   134154412.180                                                  
                                
  23470330.889   123337447.809                                                  
                                
  25425566.636   133612293.610                                                  
                                
 21  9  1  8 12 33.0000000  0 20G 1G 7G 8G13G14G17G21G30R 4R12R13R14
                                R22R24E13E15E19E21E27E30
  21611290.238   113568105.824                    88494623.651    21611291.043  
  21611285.700    84807337.940  
  20491542.299   107683794.639                    83909419.231    20491539.493  
                                
  22285193.368   117109507.601                    91254142.146    22285193.868  
  22285188.865    87451895.039  
  23616996.595   124108151.559    23616993.003    96707746.211                  
                                
  21968688.209   115446251.951                    89958102.125    21968685.422  
  21968685.940    86209859.195  
  22804857.667   119840351.484                    93382073.126    22804856.613  
                                
  21552488.055   113259100.720    21552485.178    88253834.880                  
                                
  20669493.305   108618920.722                    84638110.110    20669492.733  
  20669489.409    81111523.528  
  23597250.663   126362206.456    23597245.606    98281699.945                  
                                
  20904412.454   111667645.386    20904410.685    86852599.614                  
                                
  19447709.134   103849676.481    19447704.613    80771958.432                  
                                
  22422843.634   119526373.935    22422840.328    92964940.188                  
                                
  21233804.966   113347497.767    21233802.304    88159148.998                  
                                
  21998881.176   117637911.829    21998877.959    91496146.001                  
                                
  25727892.993   135201000.702                                                  
                                
  23876343.806   125471048.414                                                  
                                
  26806722.961   140870274.682                                                  
                                
  25528373.540   134152519.845                                                  
                                
  23470340.306   123337496.638                                                  
                                
  25425940.313   133614258.291                                                  
                                
 21  9  1  8 12 34.0000000  0 20G 1G 7G 8G13G14G17G21G30R 4R12R13R14
                                R22R24E13E15E19E21E27E30
  21610777.612   113565414.334                    88492526.399    21610778.184  
  21610773.502    84805328.056  
  20491805.385   107685178.410                    83910497.532    20491802.490  
                                
  22285747.683   117112418.070                    91256410.034    22285747.415  
  22285742.733    87454068.445  
  23616803.359   124107138.828    23616800.411    96706957.111                  
                                
  21968268.770   115444049.155                    89956385.633    21968266.483  
  21968266.822    86208214.245  
  22804325.224   119837549.676                    93379889.924    22804323.097  
                                
  21552456.873   113258937.151    21552454.104    88253707.431                  
                                
  20669328.159   108618053.898                    84637434.661    20669328.070  
  20669324.425    81110876.224  
  23597621.624   126364194.439    23597616.889    98283246.152                  
                                
  20904852.979   111669996.992    20904850.852    86854428.644                  
                                
  19447543.417   103848791.881    19447538.914    80771270.405                  
                                
  22422196.632   119522925.005    22422193.327    92962257.696                  
                                
  21234419.196   113350771.643    21234415.551    88161695.348                  
                                
  21998106.482   117633769.116    21998103.159    91492923.899                  
                                
  25727323.775   135198010.211                                                  
                                
  23876199.478   125470289.706                                                  
                                
  26806960.315   140871521.870                                                  
                                
  25528013.247   134150627.516                                                  
                                
  23470349.562   123337545.605                                                  
                                
  25426314.330   133616223.027                                                  
                                
 21  9  1  8 12 35.0000000  0 20G 1G 7G 8G13G14G17G21G30R 4R12R13R14
                                R22R24E13E15E19E21E27E30
  21610265.754   113562723.353                    88490429.531    21610266.611  
  21610261.429    84803318.562  
  20492069.185   107686562.771                    83911576.239    20492066.111  
                                
  22286301.283   117115328.749                    91258678.117    22286301.641  
  22286296.655    87456242.000  
  23616610.838   124106126.722    23616607.640    96706168.375                  
                                
  21967849.688   115441846.528                    89954669.358    21967847.901  
  21967847.508    86206569.427  
  22803791.834   119834748.176                    93377706.927    22803790.243  
                                
  21552425.728   113258774.204    21552423.012    88253580.450                  
                                
  20669163.139   108617187.672                    84636759.673    20669162.478  
  20669159.565    81110229.359  
  23597992.835   126366183.059    23597988.082    98284792.859                  
                                
  20905293.254   111672349.032    20905291.181    86856258.004                  
                                
  19447377.610   103847907.780    19447373.322    80770582.776                  
                                
  22421549.506   119519476.134    22421546.075    92959575.236                  
                                
  21235033.122   113354046.044    21235028.941    88164242.100                  
                                
  21997332.182   117629626.768    21997328.394    91489702.072                  
                                
  25726754.879   135195019.926                                                  
                                
  23876055.042   125469531.495                                                  
                                
  26807197.902   140872769.454                                                  
                                
  25527653.204   134148735.246                                                  
                                
  23470359.032   123337594.772                                                  
                                
  25426688.454   133618187.928                                                  
                                
 21  9  1  8 12 36.0000000  0 20G 1G 7G 8G13G14G17G21G30R 4R12R13R14
                                R22R24E13E15E19E21E27E30
  21609753.717   113560032.954                    88488333.098    21609754.950  
  21609749.393    84801309.498  
  20492332.485   107687947.772                    83912655.469    20492329.090  
                                
  22286855.062   117118239.692                    91260946.364    22286855.134  
  22286850.595    87458415.761  
  23616418.264   124105115.321    23616415.244    96705380.366                  
                                
  21967430.498   115439644.140                    89952953.174    21967427.997  
  21967428.443    86204924.795  
  22803258.247   119831947.057                    93375524.219    22803258.139  
                                
  21552394.957   113258611.970    21552392.152    88253454.050                  
                                
  20668998.530   108616322.089                    84636085.190    20668999.012  
  20668994.902    81109582.988  
  23598364.439   126368172.399    23598359.454    98286340.131                  
                                
  20905734.386   111674701.524    20905731.742    86858087.720                  
                                
  19447212.536   103847024.251    19447207.801    80769895.591                  
                                
  22420902.450   119516027.398    22420898.966    92956892.893                  
                                
  21235647.048   113357321.086    21235642.384    88166789.354                  
                                
  21996557.649   117625484.826    21996553.843    91486480.562                  
                                
  25726185.644   135192029.879                                                  
                                
  23875910.661   125468773.832                                                  
                                
  26807435.363   140874017.507                                                  
                                
  25527292.929   134146843.111                                                  
                                
  23470368.342   123337644.200                                                  
                                
  25427062.327   133620152.979                                                  
                                
 21  9  1  8 12 37.0000000  0 20G 1G 7G 8G13G14G17G21G30R 4R12R13R14
                                R22R24E13E15E19E21E27E30
  21609241.787   113557342.922                    88486236.960    21609242.252  
  21609237.499    84799300.703  
  20492596.267   107689333.252                    83913735.054    20492591.496  
                                
  22287409.502   117121150.745                    91263214.721    22287410.217  
  22287404.552    87460589.590  
  23616225.529   124104104.406    23616222.723    96704592.633                  
                                
  21967011.630   115437441.807                    89951237.080    21967008.682  
  21967009.325    86203280.189  
  22802725.946   119829146.111                    93373341.648    22802725.714  
                                
  21552364.008   113258450.229    21552361.542    88253328.018                  
                                
  20668834.117   108615456.967                    84635411.083    20668833.884  
  20668830.221    81108936.960  
  23598735.758   126370162.254    23598731.005    98287887.812                  
                                
  20906174.625   111677054.294    20906172.338    86859917.652                  
                                
  19447047.284   103846141.122    19447042.316    80769208.704                  
                                
  22420255.503   119512578.596    22420252.054    92954210.486                  
                                
  21236259.652   113360596.577    21236255.863    88169336.950                  
                                
  21995783.134   117621343.099    21995779.203    91483259.218                  
                                
  25725616.605   135189039.872                                                  
                                
  23875766.708   125468016.539                                                  
                                
  26807672.950   140875265.806                                                  
                                
  25526932.940   134144950.917                                                  
                                
  23470377.741   123337693.689                                                  
                                
  25427436.326   133622118.058                                                  
                                
 21  9  1  8 12 38.0000000  0 20G 1G 7G 8G13G14G17G21G30R 4R12R13R14
                                R22R24E13E15E19E21E27E30
  21608729.733   113554653.515                    88484141.352    21608730.233  
  21608725.658    84797292.380  
  20492860.086   107690719.435                    83914815.207    20492857.084  
                                
  22287962.977   117124062.111                    91265483.324    22287963.585  
  22287958.510    87462763.662  
  23616033.848   124103094.258    23616030.399    96703805.507                  
                                
  21966592.244   115435239.750                    89949521.187    21966590.422  
  21966590.279    86201635.800  
  22802192.788   119826345.550                    93371159.434    22802191.805  
                                
  21552333.506   113258289.243    21552331.022    88253202.562                  
                                
  20668669.704   108614592.549                    84634737.494    20668669.757  
  20668665.773    81108291.450  
  23599107.844   126372152.833    23599102.859    98289436.023                  
                                
  20906614.436   111679407.643    20906612.863    86861748.042                  
                                
  19446881.942   103845258.569    19446876.974    80768522.276                  
                                
  22419608.519   119509129.966    22419604.963    92951528.214                  
                                
  21236872.720   113363872.668    21236869.539    88171885.041                  
                                
  21995008.405   117617201.843    21995004.759    91480038.242                  
                                
  25725047.744   135186050.189                                                  
                                
  23875622.809   125467259.836                                                  
                                
  26807910.572   140876514.637                                                  
                                
  25526572.825   134143058.890                                                  
                                
  23470387.105   123337743.502                                                  
                                
  25427810.271   133624083.370                                                  
                                
 21  9  1  8 12 39.0000000  0 20G 1G 7G 8G13G14G17G21G30R 4R12R13R14
                                R22R24E13E15E19E21E27E30
  21608217.874   113551964.533                    88482046.005    21608218.446  
  21608213.961    84795284.380  
  20493123.850   107692106.135                    83915895.741    20493120.187  
                                
  22288517.399   117126973.632                    91267752.045    22288517.399  
  22288512.664    87464937.850  
  23615842.292   124102084.675    23615838.307    96703018.778                  
                                
  21966172.966   115433037.813                    89947805.367    21966171.393  
  21966171.250    86199991.492  
  22801660.631   119823545.244                    93368977.375    22801658.272  
                                
  21552303.200   113258128.808    21552300.502    88253077.539                  
                                
  20668504.755   108613728.656                    84634064.340    20668505.059  
  20668501.235    81107646.334  
  23599479.395   126374143.929    23599474.588    98290984.651                  
                                
  20907055.300   111681761.404    20907053.477    86863578.730                  
                                
  19446716.188   103844376.432    19446711.811    80767836.177                  
                                
  22418961.517   119505681.283    22418957.836    92948845.905                  
                                
  21237486.503   113367149.218    21237483.394    88174433.455                  
                                
  21994234.104   117613060.872    21994230.370    91476817.481                  
                                
  25724478.741   135183060.634                                                  
                                
  23875478.909   125466503.567                                                  
                                
  26808148.033   140877763.744                                                  
                                
  25526212.854   134141166.863                                                  
                                
  23470396.593   123337793.419                                                  
                                
  25428184.198   133626048.731                                                  
                                
 21  9  1  8 12 40.0000000  0 20G 1G 7G 8G13G14G17G21G30R 4R12R13R14
                                R22R24E13E15E19E21E27E30
  21607706.445   113549276.070                    88479951.136    21607707.053  
  21607702.353    84793276.767  
  20493387.794   107693493.434                    83916976.741    20493385.435  
                                
  22289070.910   117129885.380                    91270020.950    22289071.607  
  22289066.711    87467112.220  
  23615650.557   124101075.742    23615646.411    96702232.626                  
                                
  21965754.402   115430836.029                    89946089.684    21965752.936  
  21965752.186    86198347.307  
  22801127.348   119820745.261                    93366795.558    22801125.489  
                                
  21552272.429   113257969.021    21552270.017    88252953.039                  
                                
  20668340.985   108612865.359                    84633391.636    20668340.646  
  20668337.090    81107001.666  
  23599851.303   126376135.685    23599846.729    98292533.797                  
                                
  20907496.183   111684115.588    20907494.002    86865409.765                  
                                
  19446551.150   103843494.836    19446546.772    80767150.491                  
                                
  22418314.659   119502232.674    22418310.924    92946163.647                  
                                
  21238100.233   113370426.331    21238097.284    88176982.323                  
                                
  21993459.947   117608920.193    21993456.194    91473596.960                  
                                
  25723910.042   135180071.256                                                  
                                
  23875335.153   125465747.791                                                  
                                
  26808385.870   140879013.288                                                  
                                
  25525852.918   134139274.901                                                  
                                
  23470406.349   123337843.543                                                  
                                
  25428558.215   133628014.210                                                  
                                
 21  9  1  8 12 41.0000000  0 20G 1G 7G 8G13G14G17G21G30R 4R12R13R14
                                R22R24E13E15E19E21E27E30
  21607195.052   113546588.157                    88477856.637    21607196.856  
  21607190.817    84791269.548  
  20493651.862   107694881.343                    83918058.279    20493649.378  
                                
  22289625.189   117132797.359                    91272289.998    22289625.279  
  22289620.812    87469286.748  
  23615458.483   124100067.444    23615454.855    96701446.949                  
                                
  21965335.337   115428634.453                    89944374.161    21965333.104  
  21965333.229    86196703.267  
  22800594.154   119817945.559                    93364613.952    22800592.617  
                                
  21552242.070   113257809.880    21552239.497    88252829.021                  
                                
  20668176.429   108612002.655                    84632719.420    20668176.090  
  20668172.856    81106357.439  
  23600223.533   126378128.109    23600218.779    98294083.451                  
                                
  20907936.868   111686470.225    20907934.867    86867241.149                  
                                
  19446386.308   103842613.764    19446381.913    80766465.208                  
                                
  22417667.085   119498784.131    22417663.887    92943481.454                  
                                
  21238715.463   113373704.014    21238711.300    88179531.643                  
                                
  21992685.307   117604779.905    21992681.804    91470376.732                  
                                
  25723341.396   135177082.074                                                  
                                
  23875191.522   125464992.519                                                  
                                
  26808623.582   140880263.213                                                  
                                
  25525492.839   134137383.021                                                  
                                
  23470415.892   123337893.877                                                  
                                
  25428932.356   133629979.854                                                  
                                
 21  9  1  8 12 42.0000000  0 20G 1G 7G 8G13G14G17G21G30R 4R12R13R14
                                R22R24E13E15E19E21E27E30
  21606683.837   113543900.683                    88475762.488    21606684.480  
  21606679.387    84789262.664  
  20493915.877   107696269.798                    83919140.132    20493913.518  
                                
  22290179.647   117135709.535                    91274559.244    22290179.344  
  22290174.930    87471461.411  
  23615266.123   124099059.720    23615263.264    96700661.675                  
                                
  21964916.434   115426433.006                    89942658.771    21964914.254  
  21964914.290    86195059.336  
  22800061.836   119815146.137                    93362432.611    22800061.210  
                                
  21552211.943   113257651.326    21552209.066    88252705.466                  
                                
  20668012.177   108611140.505                    84632047.603    20668012.302  
  20668008.818    81105713.619  
  23600595.995   126380121.097    23600591.116    98295633.562                  
                                
  20908377.858   111688825.226    20908375.696    86869072.817                  
                                
  19446220.895   103841733.131    19446217.089    80765780.276                  
                                
  22417020.423   119495335.597    22417016.992    92940799.260                  
                                
  21239329.603   113376982.173    21239325.404    88182081.314                  
                                
  21991911.417   117600639.936    21991907.647    91467156.759                  
                                
  25722772.607   135174093.051                                                  
                                
  23875047.819   125464237.691                                                  
                                
  26808861.597   140881513.511                                                  
                                
  25525132.850   134135491.156                                                  
                                
  23470425.469   123337944.379                                                  
                                
  25429306.426   133631945.579                                                  
                                
 21  9  1  8 12 43.0000000  0 20G 1G 7G 8G13G14G17G21G30R 4R12R13R14
                                R22R24E13E15E19E21E27E30
  21606172.121   113541213.738                    88473668.769    21606173.319  
  21606168.101    84787256.196  
  20494180.571   107697658.883                    83920222.562    20494178.784  
                                
  22290734.105   117138621.952                    91276828.637    22290733.802  
  22290729.227    87473636.270  
  23615074.728   124098052.717    23615071.636    96699876.983                  
                                
  21964497.781   115424231.756                    89940943.532    21964495.422  
  21964495.440    86193415.552  
  22799529.357   119812347.054                    93360251.533    22799528.177  
                                
  21552182.262   113257493.444    21552179.117    88252582.466                  
                                
  20667848.944   108610278.980                    84631376.276    20667848.354  
  20667844.923    81105070.279  
  23600968.224   126382114.723    23600963.918    98297184.158                  
                                
  20908818.544   111691180.723    20908816.668    86870904.870                  
                                
  19446056.464   103840853.097    19446052.247    80765095.800                  
                                
  22416373.922   119491887.155    22416370.080    92938117.143                  
                                
  21239943.851   113380260.941    21239939.670    88184631.464                  
                                
  21991137.402   117596500.365    21991133.453    91463937.101                  
                                
  25722203.764   135171104.239                                                  
                                
  23874904.224   125463483.400                                                  
                                
  26809099.416   140882764.214                                                  
                                
  25524772.825   134133599.393                                                  
                                
  23470434.886   123337995.092                                                  
                                
  25429680.407   133633911.457                                                  
                                
 21  9  1  8 12 44.0000000  0 20G 1G 7G 8G13G14G17G21G30R 4R12R13R14
                                R22R24E13E15E19E21E27E30
  21605661.121   113538527.356                    88471575.514    21605662.175  
  21605657.011    84785250.125  
  20494444.711   107699048.600                    83921305.472    20494442.459  
                                
  22291288.081   117141534.632                    91279098.265    22291288.242  
  22291283.578    87475811.328  
  23614882.922   124097046.348    23614880.170    96699092.802                  
                                
  21964078.645   115422030.718                    89939228.428    21964075.964  
  21964076.572    86191771.925  
  22798996.377   119809548.309                    93358070.641    22798995.234  
                                
  21552152.403   113257336.239    21552149.276    88252459.981                  
                                
