     2.11           OBSERVATION DATA    M (MIXED)           RINEX VERSION / TYPE
CONVBIN 2.4.3                           20210901 190637 UTC PGM / RUN BY / DATE 
log: logs/21_09_01_07_11_47_wylc_SW.rtcm                    COMMENT             
format: RTCM 3, station ID: 3465                            COMMENT             
3465                                                        MARKER NAME         
                                                            MARKER NUMBER       
                                                            OBSERVER / AGENCY   
                    SWFT                                    REC # / TYPE / VERS 
                    NULL                                    ANT # / TYPE        
 -1244028.4331 -4716671.0943  4095509.2832                  APPROX POSITION XYZ 
        0.0000        0.0000        0.0000                  ANTENNA: DELTA H/E/N
     1     1                                                WAVELENGTH FACT L1/2
     5    C1    L1    P2    L2    C2                        # / TYPES OF OBSERV 
  2021     9     1     7    11   52.0000000     GPS         TIME OF FIRST OBS   
  2021     9     1     7    41   50.0000000     GPS         TIME OF LAST OBS    
                                                            END OF HEADER       
 21  9  1  7 11 52.0000000  0 15G 7G 8G 9G13G14G17G21G27G30C20C23C25
                                C32C34E27
  20362981.540   107008207.011    20362980.736    83383022.351                  
  21616829.796   113597170.339    21616831.959    88517266.522                  
  22760592.863   119607684.935    22760595.204    93200783.893                  
  24122687.372   126765593.487    24122686.496    98778388.219                  
  22118567.356   116233861.476    22118567.856    90571843.587                  
  24101240.005   126652864.523    24101240.577    98690541.516                  
  23758326.682   124850847.957    23758325.985    97286375.253                  
  23854102.322   125354129.894    23854103.788    97678537.753                  
  21111449.905   110941383.945    21111451.692    86447823.203                  
                 137194721.411                   137194721.411    26346796.199  
                 117326559.813                   117326559.813    22531322.666  
                 117930372.671                   117930372.671    22647284.316  
                 129408659.757                   129408659.757    24851577.327  
                 121547090.413                   121547090.413    23341840.087  
  23573778.058   123881030.698                                                  
 21  9  1  7 11 53.0000000  0 15G 7G 8G 9G13G14G17G21G27G30C20C23C25
                                C32C34E27
  20362982.219   107008210.550    20362981.415    83383025.108                  
  21617202.097   113599126.727    21617204.242    88518790.985                  
  22761242.884   119611100.774    22761245.225    93203445.586                  
  24122072.356   126762361.439    24122071.462    98775869.737                  
  22118144.128   116231637.302    22118144.628    90570110.462                  
  24100540.737   126649189.969    24100541.344    98687678.227                  
  23757960.206   124848922.058    23757959.492    97284874.550                  
  23854744.088   125357502.362    23854745.536    97681165.653                  
  21111108.088   110939587.696    21111109.893    86446423.531                  
                 137193637.368                   137193637.368    26346588.025  
                 117325392.063                   117325392.063    22531098.392  
                 117931526.202                   117931526.202    22647505.838  
                 129410101.625                   129410101.625    24851854.225  
                 121547190.792                   121547190.792    23341859.368  
  23573861.006   123881466.640                                                  
 21  9  1  7 11 54.0000000  0 15G 7G 8G 9G13G14G17G21G27G30C20C23C25
                                C32C34E27
  20362982.952   107008214.488    20362982.166    83383028.175                  
  21617574.506   113601083.681    21617576.632    88520315.882                  
  22761892.942   119614516.871    22761895.282    93206107.480                  
  24121457.357   126759129.675    24121456.482    98773351.480                  
  22117720.918   116229413.398    22117721.418    90568377.552                  
  24099841.522   126645515.532    24099842.094    98684815.027                  
  23757593.784   124846996.470    23757593.052    97283374.094                  
  23855385.908   125360875.138    23855387.355    97683793.785                  
  21110766.325   110937791.746    21110768.148    86445024.089                  
                 137192553.828                   137192553.828    26346379.940  
                 117324224.497                   117324224.497    22530874.172  
                 117932679.945                   117932679.945    22647727.414  
                 129411543.929                   129411543.929    24852131.195  
                 121547291.741                   121547291.741    23341878.738  
  23573944.007   123881902.734                                                  
 21  9  1  7 11 55.0000000  0 15G 7G 8G 9G13G14G17G21G27G30C20C23C25
                                C32C34E27
  20362983.774   107008218.807    20362982.988    83383031.548                  
  21617947.003   113603041.187    21617949.148    88521841.212                  
  22762543.052   119617933.235    22762545.375    93208769.577                  
  24120842.449   126755898.210    24120841.555    98770833.458                  
  22117297.779   116227189.770    22117298.280    90566644.854                  
  24099142.325   126641841.200    24099142.897    98681951.909                  
  23757227.398   124845071.202    23757226.701    97281873.888                  
  23856027.763   125364248.222    23856029.228    97686422.164                  
  21110424.616   110935996.060    21110426.421    86443624.851                  
                 137191470.793                   137191470.793    26346171.963  
                 117323057.108                   117323057.108    22530650.005  
                 117933833.903                   117933833.903    22647949.026  
                 129412986.673                   129412986.673    24852408.254  
                 121547393.266                   121547393.266    23341898.233  
  23574027.009   123882338.972                                                  
 21  9  1  7 11 56.0000000  0 15G 7G 8G 9G13G14G17G21G27G30C20C23C25
                                C32C34E27
  20362984.685   107008223.529    20362983.881    83383035.222                  
  21618319.608   113604999.239    21618321.735    88523366.964                  
  22763193.217   119621349.860    22763195.558    93211431.882                  
  24120227.558   126752667.030    24120226.682    98768315.655                  
  22116874.677   116224966.417    22116875.177    90564912.374                  
  24098443.146   126638166.972    24098443.718    98679088.878                  
  23756861.101   124843146.245    23756860.404    97280373.921                  
  23856669.708   125367621.605    23856671.155    97689050.777                  
  21110082.960   110934200.664    21110084.783    86442225.844                  
                 137190388.259                   137190388.259    26345964.075  
                 117321889.903                   117321889.903    22530425.838  
                 117934988.076                   117934988.076    22648170.655  
                 129414429.852                   129414429.852    24852685.421  
                 121547495.361                   121547495.361    23341917.835  
  23574110.046   123882775.368                                                  
 21  9  1  7 11 57.0000000  0 15G 7G 8G 9G13G14G17G21G27G30C20C23C25
                                C32C34E27
  20362985.668   107008228.644    20362984.864    83383039.210                  
  21618692.303   113606957.860    21618694.465    88524893.164                  
  22763843.417   119624766.750    22763845.758    93214094.391                  
  24119612.756   126749436.144    24119611.863    98765798.077                  
  22116451.645   116222743.341    22116452.146    90563180.105                  
  24097743.985   126634492.840    24097744.556    98676225.919                  
  23756494.857   124841221.602    23756494.142    97278874.199                  
  23857311.706   125370995.305    23857313.153    97691679.632                  
  21109741.358   110932405.560    21109743.181    86440827.059                  
                 137189306.222                   137189306.222    26345756.276  
                 117320722.880                   117320722.880    22530201.742  
                 117936142.458                   117936142.458    22648392.356  
                 129415873.468                   129415873.468    24852962.641  
                 121547598.028                   121547598.028    23341937.563  
  23574193.119   123883211.903                                                  
 21  9  1  7 11 58.0000000  0 15G 7G 8G 9G13G14G17G21G27G30C20C23C25
                                C32C34E27
  20362986.705   107008234.157    20362985.900    83383043.504                  
  21619065.122   113608917.033    21619067.284    88526419.788                  
  22764493.706   119628183.897    22764496.012    93216757.106                  
  24118998.008   126746205.554    24118997.097    98763280.739                  
  22116028.668   116220520.531    22116029.168    90561448.048                  
  24097044.841   126630818.805    24097045.413    98673363.034                  
  23756128.667   124839297.270    23756127.953    97277374.720                  
  23857953.740   125374369.304    23857955.205    97694308.722                  
  21109399.828   110930610.734    21109401.632    86439428.495                  
                 137188224.697                   137188224.697    26345548.584  
                 117319556.038                   117319556.038    22529977.665  
                 117937297.056                   117937297.056    22648614.075  
                 129417317.519                   129417317.519    24853239.968  
                 121547701.269                   121547701.269    23341957.380  
  23574276.228   123883648.593                                                  
 21  9  1  7 11 59.0000000  0 15G 7G 8G 9G13G14G17G21G27G30C20C23C25
                                C32C34E27
  20362987.848   107008240.070    20362987.026    83383048.114                  
  21619438.066   113610876.798    21619440.193    88527946.883                  
  22765143.996   119631601.309    22765146.337    93219420.024                  
  24118383.278   126742975.249    24118382.402    98760763.618                  
  22115605.744   116218298.006    22115606.226    90559716.210                  
  24096345.716   126627144.890    24096346.305    98670500.241                  
  23755762.549   124837373.260    23755761.816    97275875.492                  
  23858595.863   125377743.618    23858597.329    97696938.058                  
  21109058.333   110928816.204    21109060.137    86438030.161                  
                 137187143.668                   137187143.668    26345340.982  
                 117318389.376                   117318389.376    22529753.605  
                 117938451.863                   117938451.863    22648835.848  
                 129418762.013                   129418762.013    24853517.366  
                 121547805.082                   121547805.082    23341977.321  
  23574359.337   123884085.441                                                  
 21  9  1  7 12  0.0000000  0 15G 7G 8G 9G13G14G17G21G27G30C20C23C25
                                C32C34E27
  20362989.045   107008246.388    20362988.223    83383053.032                  
  21619811.100   113612837.124    21619813.244    88529474.409                  
  22765794.357   119635018.985    22765796.698    93222083.144                  
  24117768.637   126739745.240    24117767.744    98758246.723                  
  22115182.855   116216075.760    22115183.338    90557984.590                  
  24095646.608   126623471.081    24095647.180    98667637.535                  
  23755396.466   124835449.571    23755395.751    97274376.511                  
  23859238.022   125381118.222    23859239.488    97699567.621                  
  21108716.891   110927021.965    21108718.714    86436632.050                  
                 137186063.143                   137186063.143    26345133.487  
                 117317222.897                   117317222.897    22529529.599  
                 117939606.888                   117939606.888    22649057.656  
                 129420206.937                   129420206.937    24853794.837  
                 121547909.468                   121547909.468    23341997.388  
  23574442.499   123884522.433                                                  
 21  9  1  7 12  1.0000000  0 15G 7G 8G 9G13G14G17G21G27G30C20C23C25
                                C32C34E27
  20362990.296   107008253.093    20362989.492    83383058.262                  
  21620184.241   113614798.005    21620186.385    88531002.368                  
  22766444.771   119638436.925    22766447.112    93224746.473                  
  24117154.032   126736515.512    24117153.156    98755730.055                  
  22114760.021   116213853.784    22114760.521    90556253.180                  
  24094947.518   126619797.369    24094948.108    98664774.897                  
  23755030.455   124833526.195    23755029.758    97272877.781                  
  23859880.253   125384493.149    23859881.718    97702197.430                  
  21108375.522   110925227.999    21108377.344    86435234.157                  
                 137184983.121                   137184983.121    26344926.081  
                 117316056.599                   117316056.599    22529305.629  
                 117940762.125                   117940762.125    22649279.500  
                 129421652.306                   129421652.306    24854072.414  
                 121548014.430                   121548014.430    23342017.527  
  23574525.698   123884959.575                                                  
 21  9  1  7 12  2.0000000  0 15G 7G 8G 9G13G14G17G21G27G30C20C23C25
                                C32C34E27
  20362991.654   107008260.212    20362990.868    83383063.804                  
  21620557.471   113616759.419    21620559.633    88532530.743                  
  22767095.240   119641855.126    22767097.580    93227410.004                  
  24116539.498   126733286.093    24116538.623    98753213.622                  
  22114337.240   116211632.081    22114337.740    90554521.985                  
  24094248.464   126616123.762    24094249.036    98661912.347                  
  23754664.515   124831603.146    23754663.801    97271379.301                  
  23860522.537   125387868.363    23860524.002    97704827.469                  
  21108034.205   110923434.329    21108035.992    86433836.489                  
                 137183903.605                   137183903.605    26344718.765  
                 117314890.480                   117314890.480    22529081.676  
                 117941917.574                   117941917.574    22649501.397  
                 129423098.105                   129423098.105    24854350.063  
                 121548119.962                   121548119.962    23342037.808  
  23574608.896   123885396.873                                                  
 21  9  1  7 12  3.0000000  0 15G 7G 8G 9G13G14G17G21G27G30C20C23C25
                                C32C34E27
  20362993.102   107008267.716    20362992.280    83383069.653                  
  21620930.844   113618721.403    21620932.989    88534059.562                  
  22767745.761   119645273.582    22767748.102    93230073.734                  
  24115925.019   126730056.964    24115924.143    98750697.418                  
  22113914.512   116209410.648    22113915.013    90552791.000                  
  24093549.428   126612450.267    24093550.000    98659049.888                  
  23754298.611   124829680.401    23754297.914    97269881.059                  
  23861164.875   125391243.903    23861166.340    97707457.758                  
  21107692.925   110921640.952    21107694.748    86432439.056                  
                 137182824.587                   137182824.587    26344511.537  
                 117313724.548                   117313724.548    22528857.777  
                 117943073.239                   117943073.239    22649723.349  
                 129424544.344                   129424544.344    24854627.801  
                 121548226.063                   121548226.063    23342058.161  
  23574692.148   123885834.314                                                  
 21  9  1  7 12  4.0000000  0 15G 7G 8G 9G13G14G17G21G27G30C20C23C25
                                C32C34E27
  20362994.603   107008275.624    20362993.799    83383075.816                  
  21621304.307   113620683.962    21621306.433    88535588.824                  
  22768396.319   119648692.299    22768398.660    93232737.672                  
  24115310.592   126726828.132    24115309.699    98748181.444                  
  22113491.838   116207189.499    22113492.339    90551060.231                  
  24092850.392   126608776.874    24092850.981    98656187.504                  
  23753932.797   124827757.965    23753932.100    97268383.058                  
  23861807.284   125394619.742    23861808.732    97710088.284                  
  21107351.716   110919847.849    21107353.521    86431041.832                  
                 137181746.074                   137181746.074    26344304.436  
                 117312558.794                   117312558.794    22528633.897  
                 117944229.116                   117944229.116    22649945.300  
                 129425991.015                   129425991.015    24854905.629  
                 121548332.741                   121548332.741    23342078.657  
  23574775.417   123886271.902                                                  
 21  9  1  7 12  5.0000000  0 15G 7G 8G 9G13G14G17G21G27G30C20C23C25
                                C32C34E27
  20362996.175   107008283.937    20362995.389    83383082.294                  
  21621677.859   113622647.085    21621680.021    88537118.535                  
  22769046.912   119652111.296    22769049.253    93235401.828                  
  24114696.219   126723599.567    24114695.326    98745665.679                  
  22113069.236   116204968.621    22113069.718    90549329.676                  
  24092151.391   126605103.591    24092151.981    98653325.203                  
  23753567.036   124825835.851    23753566.321    97266885.308                  
  23862449.747   125397995.875    23862451.194    97712719.039                  
  21107010.561   110918055.027    21107012.365    86429644.828                  
                 137180668.061                   137180668.061    26344097.405  
                 117311393.219                   117311393.219    22528410.087  
                 117945385.208                   117945385.208    22650167.322  
                 129427438.129                   129427438.129    24855183.528  
                 121548439.991                   121548439.991    23342099.260  
  23574858.723   123886709.648                                                  
 21  9  1  7 12  6.0000000  0 15G 7G 8G 9G13G14G17G21G27G30C20C23C25
                                C32C34E27
  20362997.837   107008292.641    20362997.033    83383089.073                  
  21622051.536   113624610.774    21622053.698    88538648.680                  
  22769697.577   119655530.538    22769699.918    93238066.173                  
  24114081.900   126720371.286    24114081.007    98743150.134                  
  22112646.651   116202748.012    22112647.152    90547599.331                  
  24091452.409   126601430.418    24091452.981    98650462.993                  
  23753201.328   124823914.046    23753200.613    97265387.797                  
  23863092.264   125401372.331    23863093.729    97715350.044                  
  21106669.441   110916262.496    21106671.264    86428248.050                  
                 137179590.554                   137179590.554    26343890.482  
                 117310227.828                   117310227.828    22528186.260  
                 117946541.513                   117946541.513    22650389.381  
                 129428885.676                   129428885.676    24855461.498  
                 121548547.811                   121548547.811    23342119.952  
  23574942.046   123887147.535                                                  
 21  9  1  7 12  7.0000000  0 15G 7G 8G 9G13G14G17G21G27G30C20C23C25
                                C32C34E27
  20362999.552   107008301.755    20362998.766    83383096.175                  
  21622425.338   113626575.026    21622427.482    88540179.266                  
  22770348.295   119658950.042    22770350.636    93240730.719                  
  24113467.617   126717143.293    24113466.741    98740634.812                  
  22112224.138   116200527.679    22112224.639    90545869.202                  
  24090753.444   126597757.360    24090754.034    98647600.867                  
  23752835.674   124821992.566    23752834.978    97263890.542                  
  23863734.834   125404749.097    23863736.299    97717981.288                  
  21106328.393   110914470.255    21106330.197    86426851.499                  
                 137178513.551                   137178513.551    26343683.666  
                 117309062.620                   117309062.620    22527962.504  
                 117947698.027                   117947698.027    22650611.475  
                 129430333.659                   129430333.659    24855739.576  
                 121548656.207                   121548656.207    23342140.787  
  23575025.405   123887585.575                                                  
 21  9  1  7 12  8.0000000  0 15G 7G 8G 9G13G14G17G21G27G30C20C23C25
                                C32C34E27
  20363001.375   107008311.245    20363000.589    83383103.570                  
  21622799.212   113628539.848    21622801.374    88541710.298                  
  22770999.067   119662369.825    22771001.408    93243395.480                  
  24112853.441   126713915.676    24112852.547    98738119.790                  
  22111801.679   116198307.637    22111802.179    90544139.301                  
  24090054.497   126594084.370    24090055.087    98644738.797                  
  23752470.092   124820071.421    23752469.395    97262393.546                  
  23864377.457   125408126.151    23864378.923    97720612.757                  
  21105987.398   110912678.316    21105989.203    86425455.183                  
                 137177437.050                   137177437.050    26343476.921  
                 117307897.589                   117307897.589    22527738.784  
                 117948854.759                   117948854.759    22650833.622  
                 129431782.081                   129431782.081    24856017.743  
                 121548765.176                   121548765.176    23342161.694  
  23575108.782   123888023.773                                                  
 21  9  1  7 12  9.0000000  0 15G 7G 8G 9G13G14G17G21G27G30C20C23C25
                                C32C34E27
  20363003.251   107008321.143    20363002.465    83383111.285                  
  21623173.228   113630505.215    21623175.372    88543241.753                  
  22771649.875   119665789.843    22771652.216    93246060.429                  
  24112239.282   126710688.305    24112238.407    98735604.953                  
  22111379.273   116196087.856    22111379.773    90542409.602                  
  24089355.586   126590411.512    24089356.158    98641876.832                  
  23752104.581   124818150.563    23752103.866    97260896.774                  
  23865020.152   125411503.531    23865021.618    97723244.484                  
  21105646.457   110910886.636    21105648.262    86424059.071                  
                 137176361.049                   137176361.049    26343270.302  
                 117306732.748                   117306732.748    22527515.081  
                 117950011.703                   117950011.703    22651055.806  
                 129433230.936                   129433230.936    24856295.982  
                 121548874.715                   121548874.715    23342182.744  
  23575192.194   123888462.109                                                  
 21  9  1  7 12 10.0000000  0 15G 7G 8G 9G13G14G17G21G27G30C20C23C25
                                C32C34E27
  20363005.217   107008331.440    20363004.413    83383119.309                  
  21623547.316   113632471.146    21623549.478    88544773.645                  
  22772300.718   119669210.130    22772303.077    93248725.585                  
  24111625.196   126707461.227    24111624.302    98733090.348                  
  22110956.921   116193868.351    22110957.421    90540680.122                  
  24088656.675   126586738.759    24088657.265    98639014.946                  
  23751739.106   124816230.031    23751738.391    97259400.253                  
  23865662.901   125414881.196    23865664.366    97725876.430                  
  21105305.552   110909095.267    21105307.375    86422663.194                  
                 137175285.555                   137175285.555    26343063.754  
                 117305568.083                   117305568.083    22527291.415  
                 117951168.862                   117951168.862    22651278.025  
                 129434680.231                   129434680.231    24856574.292  
                 121548984.829                   121548984.829    23342203.883  
  23575275.643   123888900.607                                                  
 21  9  1  7 12 11.0000000  0 15G 7G 8G 9G13G14G17G21G27G30C20C23C25
                                C32C34E27
  20363007.254   107008342.145    20363006.468    83383127.648                  
  21623921.547   113634437.640    21623923.673    88546305.980                  
  22772951.633   119672630.685    22772953.974    93251390.953                  
  24111011.162   126704234.426    24111010.269    98730575.957                  
  22110534.622   116191649.124    22110535.105    90538950.852                  
  24087957.800   126583066.115    24087958.371    98636153.144                  
  23751373.702   124814309.802    23751372.988    97257903.972                  
  23866305.721   125418259.172    23866307.187    97728508.617                  
  21104964.736   110907304.170    21104966.541    86421267.539                  
                 137174210.563                   137174210.563    26342857.313  
                 117304403.596                   117304403.596    22527067.784  
                 117952326.234                   117952326.234    22651500.280  
                 129436129.961                   129436129.961    24856852.691  
                 121549095.516                   121549095.516    23342225.147  
  23575359.127   123889339.251                                                  
 21  9  1  7 12 12.0000000  0 15G 7G 8G 9G13G14G17G21G27G30C20C23C25
                                C32C34E27
  20363009.362   107008353.246    20363008.558    83383136.300                  
  21624295.867   113636404.695    21624297.994    88547838.750                  
  22773602.602   119676051.491    22773604.943    93254056.516                  
  24110397.165   126701007.921    24110396.271    98728061.797                  
  22110112.359   116189430.170    22110112.860    90537221.797                  
  24087258.942   126579393.573    24087259.514    98633291.423                  
  23751008.352   124812389.895    23751007.638    97256407.941                  
  23866948.577   125421637.461    23866950.043    97731141.050                  
  21104623.956   110905513.359    21104625.761    86419872.102                  
                 137173136.075                   137173136.075    26342650.961  
                 117303239.295                   117303239.295    22526844.207  
                 117953483.818                   117953483.818    22651722.588  
                 129437580.125                   129437580.125    24857131.180  
                 121549206.773                   121549206.773    23342246.500  
  23575442.629   123889778.042                                                  
 21  9  1  7 12 13.0000000  0 15G 7G 8G 9G13G14G17G21G27G30C20C23C25
                                C32C34E27
  20363011.560   107008364.737    20363010.756    83383145.255                  
  21624670.277   113638372.292    21624672.421    88549371.941                  
  22774253.606   119679472.562    22774255.947    93256722.286                  
  24109783.239   126697781.712    24109782.363    98725547.863                  
  22109690.168   116187211.496    22109690.668    90535492.957                  
  24086560.103   126575721.143    24086560.674    98630429.794                  
  23750643.056   124810470.308    23750642.359    97254912.164                  
  23867591.505   125425016.044    23867592.952    97733773.710                  
  21104283.212   110903722.835    21104285.034    86418476.886                  
                 137172062.086                   137172062.086    26342444.717  
                 117302075.175                   117302075.175    22526620.647  
                 117954641.617                   117954641.617    22651944.915  
                 129439030.725                   129439030.725    24857409.758  
                 121549318.606                   121549318.606    23342267.979  
  23575526.148   123890216.977                                                  
 21  9  1  7 12 14.0000000  0 15G 7G 8G 9G13G14G17G21G27G30C20C23C25
                                C32C34E27
  20363013.812   107008376.640    20363013.026    83383154.527                  
  21625044.794   113640340.450    21625046.956    88550905.570                  
  22774904.664   119682893.894    22774907.005    93259388.254                  
  24109169.384   126694555.808    24109168.473    98723034.177                  
  22109268.012   116184993.094    22109268.495    90533764.337                  
  24085861.281   126572048.819    24085861.853    98627568.242                  
  23750277.849   124808551.035    23750277.134    97253416.626                  
  23868234.486   125428394.938    23868235.933    97736406.617                  
  21103942.557   110901932.607    21103944.361    86417081.903                  
                 137170988.601                   137170988.601    26342238.580  
                 117300911.238                   117300911.238    22526397.124  
                 117955799.628                   117955799.628    22652167.295  
                 129440481.764                   129440481.764    24857688.425  
                 121549431.012                   121549431.012    23342289.565  
  23575609.704   123890656.073                                                  
 21  9  1  7 12 15.0000000  0 15G 7G 8G 9G13G14G17G21G27G30C20C23C25
                                C32C34E27
  20363016.153   107008388.938    20363015.366    83383164.112                  
  21625419.436   113642309.163    21625421.580    88552439.637                  
  22775555.775   119686315.482    22775558.116    93262054.426                  
  24108555.565   126691330.189    24108554.672    98720520.703                  
  22108845.928   116182774.956    22108846.393    90532035.918                  
  24085162.477   126568376.609    24085163.067    98624706.778                  
  23749912.678   124806632.075    23749911.963    97251921.331                  
  23868877.521   125431774.138    23868878.986    97739039.761                  
  21103601.937   110900142.664    21103603.760    86415687.140                  
                 137169915.622                   137169915.622    26342032.514  
                 117299747.480                   117299747.480    22526173.618  
                 117956957.852                   117956957.852    22652389.728  
                 129441933.240                   129441933.240    24857967.164  
                 121549543.988                   121549543.988    23342311.258  
  23575693.277   123891095.307                                                  
 21  9  1  7 12 16.0000000  0 15G 7G 8G 9G13G14G17G21G27G30C20C23C25
                                C32C34E27
  20363018.583   107008401.632    20363017.779    83383173.997                  
  21625794.185   113644278.457    21625796.347    88553974.149                  
  22776206.922   119689737.216    22776209.281    93264720.660                  
  24107941.800   126688104.805    24107940.925    98718007.382                  
  22108423.880   116180557.085    22108424.362    90530307.696                  
  24084463.709   126564704.517    24084464.281    98621845.409                  
  23749547.560   124804713.471    23749546.863    97250426.335                  
  23869520.627   125435153.680    23869522.074    97741673.192                  
  21103261.371   110898353.043    21103263.194    86414292.651                  
                 137168843.145                   137168843.145    26341826.556  
                 117298583.907                   117298583.907    22525950.184  
                 117958116.293                   117958116.293    22652612.198  
                 129443385.148                   129443385.148    24858245.975  
                 121549657.536                   121549657.536    23342333.058  
  23575776.904   123891534.691                                                  
 21  9  1  7 12 17.0000000  0 15G 7G 8G 9G13G14G17G21G27G30C20C23C25
                                C32C34E27
  20363021.067   107008414.732    20363020.263    83383184.202                  
  21626169.041   113646248.314    21626171.186    88555509.102                  
  22776858.141   119693159.340    22776860.482    93267387.251                  
  24107328.106   126684879.778    24107327.213    98715494.372                  
  22108001.885   116178339.508    22108002.385    90528579.711                  
  24083764.941   126561032.518    24083765.512    98618984.114                  
  23749182.513   124802795.152    23749181.817    97248931.539                  
  23870163.786   125438533.493    23870165.234    97744306.810                  
  21102920.877   110896563.664    21102922.682    86412898.332                  
                 137167771.172                   137167771.172    26341620.705  
                 117297420.516                   117297420.516    22525726.767  
                 117959274.944                   117959274.944    22652834.703  
                 129444837.493                   129444837.493    24858524.892  
                 121549771.657                   121549771.657    23342354.983  
  23575860.531   123891974.230                                                  
 21  9  1  7 12 18.0000000  0 15G 7G 8G 9G13G14G17G21G27G30C20C23C25
                                C32C34E27
  20363023.640   107008428.233    20363022.836    83383194.727                  
  21626543.987   113648218.731    21626546.131    88557044.493                  
  22777509.396   119696581.726    22777511.736    93270054.042                  
  24106714.466   126681655.048    24106713.555    98712981.593                  
  22107579.944   116176122.206    22107580.444    90526851.946                  
  24083066.208   126557360.628    24083066.780    98616122.903                  
  23748817.539   124800877.153    23748816.824    97247436.996                  
  23870807.000   125441913.605    23870808.465    97746940.663                  
  21102580.419   110894774.598    21102582.241    86411504.255                  
                 137166699.699                   137166699.699    26341414.943  
                 117296257.305                   117296257.305    22525503.387  
                 117960433.808                   117960433.808    22653057.261  
                 129446290.274                   129446290.274    24858803.881  
                 121549886.352                   121549886.352    23342376.998  
  23575944.194   123892413.908                                                  
 21  9  1  7 12 19.0000000  0 15G 7G 8G 9G13G14G17G21G27G30C20C23C25
                                C32C34E27
  20363026.284   107008442.139    20363025.480    83383205.559                  
  21626919.058   113650189.706    21626921.202    88558580.318                  
  22778160.704   119700004.358    22778163.044    93272721.028                  
  24106100.862   126678430.612    24106099.986    98710469.050                  
  22107158.056   116173905.186    22107158.538    90525124.398                  
  24082367.476   126553688.847    24082368.066    98613261.773                  
  23748452.618   124798959.476    23748451.903    97245942.703                  
  23871450.267   125445294.025    23871451.714    97749574.759                  
  21102240.014   110892985.805    21102241.837    86410110.390                  
                 137165628.732                   137165628.732    26341209.253  
                 117295094.272                   117295094.272    22525280.024  
                 117961592.886                   117961592.886    22653279.838  
                 129447743.494                   129447743.494    24859082.960  
                 121550001.621                   121550001.621    23342399.138  
  23576027.893   123892853.755                                                  
 21  9  1  7 12 20.0000000  0 15G 7G 8G 9G13G14G17G21G27G30C20C23C25
                                C32C34E27
  20363029.000   107008456.427    20363028.196    83383216.694                  
  21627294.218   113652161.218    21627296.362    88560116.565                  
  22778812.065   119703427.254    22778814.406    93275388.222                  
  24105487.347   126675206.478    24105486.436    98707956.737                  
  22106736.222   116171688.431    22106736.722    90523397.063                  
  24081668.779   126550017.171    24081669.369    98610400.731                  
  23748087.768   124797042.110    23748087.035    97244448.656                  
  23872093.605   125448674.747    23872095.053    97752209.090                  
  21101899.680   110891197.294    21101901.503    86408716.750                  
                 137164558.271                   137164558.271    26341003.705  
                 117293931.425                   117293931.425    22525056.715  
                 117962752.180                   117962752.180    22653502.468  
                 129449197.144                   129449197.144    24859362.127  
                 121550117.461                   121550117.461    23342421.402  
  23576111.645   123893293.746                                                  
 21  9  1  7 12 21.0000000  0 15G 7G 8G 9G13G14G17G21G27G30C20C23C25
                                C32C34E27
  20363031.806   107008471.108    20363031.002    83383228.146                  
  21627669.503   113654133.317    21627671.647    88561653.270                  
  22779463.463   119706850.411    22779465.803    93278055.620                  
  24104873.868   126671982.628    24104872.956    98705444.651                  
  22106314.441   116169471.954    22106314.942    90521669.942                  
  24080970.100   126546345.589    24080970.672    98607539.761                  
  23747722.936   124795125.061    23747722.239    97242954.856                  
  23872736.979   125452055.766    23872738.445    97754843.657                  
  21101559.401   110889409.071    21101561.205    86407323.331                  
                 137163488.304                   137163488.304    26340798.212  
                 117292768.762                   117292768.762    22524833.441  
                 117963911.689                   117963911.689    22653725.134  
                 129450651.230                   129450651.230    24859641.367  
                 121550233.871                   121550233.871    23342443.739  
  23576195.379   123893733.884                                                  
 21  9  1  7 12 22.0000000  0 15G 7G 8G 9G13G14G17G21G27G30C20C23C25
                                C32C34E27
  20363034.665   107008486.203    20363033.861    83383239.906                  
  21628044.878   113656105.965    21628047.022    88563190.398                  
  22780114.914   119710273.824    22780117.254    93280723.214                  
  24104260.442   126668759.075    24104259.549    98702932.794                  
  22105892.697   116167255.753    22105893.197    90519943.032                  
  24080271.457   126542674.134    24080272.047    98604678.886                  
  23747358.193   124793208.324    23747357.497    97241461.297                  
  23873380.425   125455437.098    23873381.872    97757478.462                  
  21101219.157   110887621.132    21101220.979    86405930.136                  
                 137162418.849                   137162418.849    26340592.843  
                 117291606.278                   117291606.278    22524610.204  
                 117965071.407                   117965071.407    22653947.854  
                 129452105.753                   129452105.753    24859920.677  
                 121550350.859                   121550350.859    23342466.218  
  23576279.185   123894174.172                                                  
 21  9  1  7 12 23.0000000  0 15G 7G 8G 9G13G14G17G21G27G30C20C23C25
                                C32C34E27
  20363037.613   107008501.694    20363036.827    83383251.976                  
  21628420.359   113658079.156    21628422.522    88564727.950                  
  22780766.418   119713697.489    22780768.759    93283391.007                  
  24103647.052   126665535.821    24103646.176    98700421.163                  
  22105471.024   116165039.822    22105471.524    90518216.333                  
  24079572.814   126539002.775    24079573.404    98601818.089                  
  23746993.522   124791291.921    23746992.826    97239968.000                  
  23874023.924   125458818.730    23874025.372    97760113.495                  
  21100878.984   110885833.483    21100880.807    86404537.164                  
                 137161349.894                   137161349.894    26340387.564  
                 117290443.972                   117290443.972    22524386.984  
                 117966231.340                   117966231.340    22654170.609  
                 129453560.712                   129453560.712    24860200.095  
                 121550468.418                   121550468.418    23342488.786  
  23576362.973   123894614.609                                                  
 21  9  1  7 12 24.0000000  0 15G 7G 8G 9G13G14G17G21G27G30C20C23C25
                                C32C34E27
  20363040.633   107008517.578    20363039.847    83383264.351                  
  21628795.966   113660052.913    21628798.093    88566265.944                  
  22781417.976   119717121.421    22781420.317    93286059.004                  
  24103033.751   126662312.852    24103032.876    98697909.761                  
  22105049.404   116162824.169    22105049.904    90516489.848                  
  24078874.207   126535331.507    24078874.779    98598957.363                  
  23746628.905   124789375.826    23746628.208    97238474.937                  
  23874667.477   125462200.667    23874668.942    97762748.773                  
  21100538.865   110884046.125    21100540.688    86403144.415                  
                 137160281.442                   137160281.442    26340182.374  
                 117289281.855                   117289281.855    22524163.817  
                 117967391.489                   117967391.489    22654393.400  
                 129455016.107                   129455016.107    24860479.585  
                 121550586.546                   121550586.546    23342511.480  
  23576446.814   123895055.199                                                  
 21  9  1  7 12 25.0000000  0 15G 7G 8G 9G13G14G17G21G27G30C20C23C25
                                C32C34E27
  20363043.742   107008533.864    20363042.938    83383277.042                  
  21629171.663   113662027.245    21629173.825    88567804.383                  
  22782069.588   119720545.614    22782071.929    93288727.207                  
  24102420.504   126659090.188    24102419.629    98695398.594                  
  22104627.838   116160608.790    22104628.320    90514763.583                  
  24078175.600   126531660.368    24078176.171    98596096.734                  
  23746264.341   124787460.059    23746263.644    97236982.132                  
  23875311.101   125465582.907    23875312.567    97765384.284                  
  21100198.800   110882259.061    21100200.604    86401751.900                  
                 137159213.496                   137159213.496    26339977.273  
                 117288119.915                   117288119.915    22523940.687  
                 117968551.847                   117968551.847    22654616.244  
                 129456471.935                   129456471.935    24860759.163  
                 121550705.250                   121550705.250    23342534.263  
  23576530.691   123895495.941                                                  
 21  9  1  7 12 26.0000000  0 15G 7G 8G 9G13G14G17G21G27G30C20C23C25
                                C32C34E27
  20363046.923   107008550.558    20363046.119    83383290.050                  
  21629547.466   113664002.114    21629549.628    88569343.242                  
  22782721.218   119723970.063    22782723.576    93291395.606                  
  24101807.293   126655867.817    24101806.418    98692887.656                  
  22104206.326   116158393.692    22104206.808    90513037.531                  
  24077477.028   126527989.323    24077477.600    98593236.179                  
  23745899.849   124785544.607    23745899.134    97235489.569                  
  23875954.779   125468965.448    23875956.245    97768020.031                  
  21099858.788   110880472.284    21099860.593    86400359.606                  
                 137158146.050                   137158146.050    26339772.297  
                 117286958.159                   117286958.159    22523717.574  
                 117969712.423                   117969712.423    22654839.125  
                 129457928.199                   129457928.199    24861038.813  
                 121550824.527                   121550824.527    23342557.171  
  23576614.604   123895936.833                                                  
 21  9  1  7 12 27.0000000  0 15G 7G 8G 9G13G14G17G21G27G30C20C23C25
                                C32C34E27
  20363050.157   107008567.646    20363049.353    83383303.367                  
  21629923.377   113665977.538    21629925.521    88570882.535                  
  22783372.919   119727394.769    22783375.278    93294064.211                  
  24101194.153   126652645.743    24101193.278    98690376.949                  
  22103784.831   116156178.858    22103785.331    90511311.688                  
  24076778.474   126524318.390    24076779.064    98590375.712                  
  23745535.392   124783629.468    23745534.695    97233997.258                  
  23876598.529   125472348.298    23876599.976    97770656.015                  
  21099518.812   110878685.792    21099520.634    86398967.532                  
                 137157079.110                   137157079.110    26339567.393  
                 117285796.585                   117285796.585    22523494.497  
                 117970873.208                   117970873.208    22655062.023  
                 129459384.900                   129459384.900    24861318.553  
                 121550944.376                   121550944.376    23342580.186  
  23576698.517   123896377.866                                                  
 21  9  1  7 12 28.0000000  0 15G 7G 8G 9G13G14G17G21G27G30C20C23C25
                                C32C34E27
  20363053.499   107008585.129    20363052.695    83383316.989                  
  21630299.394   113667953.519    21630301.539    88572422.259                  
  22784024.674   119730819.737    22784027.014    93296733.012                  
  24100581.085   126649423.956    24100580.192    98687866.465                  
  22103363.426   116153964.304    22103363.926    90509586.064                  
  24076079.938   126520647.565    24076080.528    98587515.329                  
  23745171.025   124781714.656    23745170.328    97232505.196                  
  23877242.314   125475731.444    23877243.779    97773292.238                  
  21099178.925   110876899.579    21099180.712    86397575.675                  
                 137156012.673                   137156012.673    26339362.596  
                 117284635.192                   117284635.192    22523271.474  
                 117972034.208                   117972034.208    22655284.975  
                 129460842.031                   129460842.031    24861598.400  
                 121551064.796                   121551064.796    23342603.327  
  23576782.484   123896819.055                                                  
 21  9  1  7 12 29.0000000  0 15G 7G 8G 9G13G14G17G21G27G30C20C23C25
                                C32C34E27
  20363056.894   107008603.020    20363056.108    83383330.930                  
  21630675.519   113669930.067    21630677.664    88573962.426                  
  22784676.482   119734244.958    22784678.823    93299402.015                  
  24099968.052   126646202.477    24099967.177    98685356.218                  
  22102942.057   116151750.028    22102942.557    90507860.651                  
  24075381.421   126516976.849    24075381.992    98584655.028                  
  23744806.711   124779800.151    23744805.997    97231013.375                  
  23877886.153   125479114.899    23877887.618    97775928.696                  
  21098839.056   110875113.667    21098840.879    86396184.058                  
                 137154946.739                   137154946.739    26339157.907  
                 117283473.980                   117283473.980    22523048.487  
                 117973195.421                   117973195.421    22655507.980  
                 129462299.601                   129462299.601    24861878.300  
                 121551185.788                   121551185.788    23342626.557  
  23576866.468   123897260.390                                                  
 21  9  1  7 12 30.0000000  0 15G 7G 8G 9G13G14G17G21G27G30C20C23C25
                                C32C34E27
  20363060.378   107008621.302    20363059.574    83383345.175                  
  21631051.752   113671907.183    21631053.896    88575503.036                  
  22785328.326   119737670.436    22785330.667    93302071.219                  
  24099355.074   126642981.278    24099354.198    98682846.194                  
  22102520.759   116149536.024    22102521.241    90506135.454                  
  24074682.920   126513306.230    24074683.492    98581794.810                  
  23744442.451   124777885.963    23744441.737    97229521.800                  
  23878530.063   125482498.652    23878531.528    97778565.387                  
  21098499.277   110873328.079    21098501.100    86394792.691                  
                 137153881.308                   137153881.308    26338953.306  
                 117282312.953                   117282312.953    22522825.499  
                 117974356.852                   117974356.852    22655731.021  
                 129463757.607                   129463757.607    24862158.308  
                 121551307.359                   121551307.359    23342649.894  
  23576950.488   123897701.883                                                  
 21  9  1  7 12 31.0000000  0 15G 7G 8G 9G13G14G17G21G27G30C20C23C25
                                C32C34E27
  20363063.934   107008639.989    20363063.148    83383359.739                  
  21631428.073   113673884.855    21631430.236    88577044.079                  
  22785980.224   119741096.187    22785982.565    93304740.636                  
  24098742.166   126639760.386    24098741.273    98680336.411                  
  22102099.496   116147322.300    22102099.979    90504410.476                  
  24073984.438   126509635.695    24073985.028    98578934.653                  
  23744078.263   124775972.090    23744077.548    97228030.472                  
  23879174.045   125485882.714    23879175.492    97781202.320                  
  21098159.533   110871542.734    21098161.356    86393401.515                  
                 137152816.384                   137152816.384    26338748.778  
                 117281152.106                   117281152.106    22522602.583  
                 117975518.492                   117975518.492    22655954.098  
                 129465216.043                   129465216.043    24862438.387  
                 121551429.497                   121551429.497    23342673.356  
  23577034.526   123898143.521                                                  
 21  9  1  7 12 32.0000000  0 15G 7G 8G 9G13G14G17G21G27G30C20C23C25
                                C32C34E27
  20363067.562   107008659.074    20363066.758    83383374.610                  
  21631804.538   113675863.081    21631806.682    88578585.554                  
  22786632.157   119744522.182    22786634.516    93307410.242                  
  24098129.294   126636539.797    24098128.419    98677826.858                  
  22101678.288   116145108.848    22101678.788    90502685.707                  
  24073285.992   126505965.296    24073286.581    98576074.597                  
  23743714.128   124774058.542    23743713.395    97226539.396                  
  23879818.062   125489267.066    23879819.527    97783839.473                  
  21097819.861   110869757.677    21097821.666    86392010.559                  
                 137151751.962                   137151751.962    26338544.374  
                 117279991.440                   117279991.440    22522379.685  
                 117976680.348                   117976680.348    22656177.229  
                 129466674.919                   129466674.919    24862718.537  
                 121551552.211                   121551552.211    23342696.925  
  23577118.582   123898585.296                                                  
 21  9  1  7 12 33.0000000  0 15G 7G 8G 9G13G14G17G21G27G30C20C23C25
                                C32C34E27
  20363071.279   107008678.556    20363070.457    83383389.789                  
  21632181.074   113677841.865    21632183.236    88580127.461                  
  22787284.162   119747948.444    22787286.521    93310080.054                  
  24097516.494   126633319.501    24097515.618    98675317.535                  
  22101257.133   116142895.664    22101257.615    90500961.150                  
  24072587.563   126502294.982    24072588.135    98573214.614                  
  23743350.047   124772145.314    23743349.314    97225048.566                  
  23880462.133   125492651.735    23880463.598    97786476.880                  
  21097480.224   110867972.907    21097482.047    86390619.832                  
                 137150688.043                   137150688.043    26338340.059  
                 117278830.957                   117278830.957    22522156.822  
                 117977842.418                   117977842.418    22656400.395  
                 129468134.228                   129468134.228    24862998.777  
                 121551675.492                   121551675.492    23342720.601  
  23577202.674   123899027.236                                                  
 21  9  1  7 12 34.0000000  0 15G 7G 8G 9G13G14G17G21G27G30C20C23C25
                                C32C34E27
  20363075.067   107008698.437    20363074.263    83383405.280                  
  21632557.735   113679821.180    21632559.879    88581669.784                  
  22787936.203   119751374.953    22787938.561    93312750.059                  
  24096903.765   126630099.504    24096902.872    98672808.448                  
  22100836.031   116140682.761    22100836.514    90499236.810                  
  24071889.134   126498624.794    24071889.724    98570354.728                  
  23742986.019   124770232.400    23742985.322    97223557.988                  
  23881106.276   125496036.695    23881107.741    97789114.508                  
  21097140.659   110866188.419    21097142.464    86389229.319                  
                 137149624.624                   137149624.624    26338135.834  
                 117277670.658                   117277670.658    22521933.996  
                 117979004.698                   117979004.698    22656623.597  
                 129469593.970                   129469593.970    24863279.124  
                 121551799.351                   121551799.351    23342744.385  
  23577286.801   123899469.316                                                  
 21  9  1  7 12 35.0000000  0 15G 7G 8G 9G13G14G17G21G27G30C20C23C25
                                C32C34E27
  20363078.927   107008718.723    20363078.122    83383421.090                  
  21632934.504   113681801.075    21632936.648    88583212.562                  
  22788588.297   119754801.743    22788590.656    93315420.280                  
  24096291.072   126626879.804    24096290.197    98670299.589                  
  22100414.984   116138470.137    22100415.484    90497512.687                  
  24071190.742   126494954.703    24071191.313    98567494.919                  
  23742622.080   124768319.805    23742621.366    97222067.653                  
  23881750.454   125499421.965    23881751.919    97791752.382                  
  21096801.148   110864404.231    21096802.935    86387839.042                  
                 137148561.715                   137148561.715    26337931.717  
                 117276510.538                   117276510.538    22521711.223  
                 117980167.196                   117980167.196    22656846.835  
                 129471054.145                   129471054.145    24863559.525  
                 121551923.781                   121551923.781    23342768.276  
  23577370.964   123899911.538                                                  
 21  9  1  7 12 36.0000000  0 15G 7G 8G 9G13G14G17G21G27G30C20C23C25
                                C32C34E27
  20363082.858   107008739.399    20363082.036    83383437.199                  
  21633311.361   113683781.543    21633313.523    88584755.782                  
  22789240.463   119758228.777    22789242.804    93318090.698                  
