% program   : rnx2rtkp ver.2.4.3 b31
% inp file  : ngs/21_08_31_09_18_24_arlr.obs
% inp file  : ngs/21_08_31_09_18_24_arlr_SNAR.obs
% inp file  : ngs/21_08_31_09_18_24_brdc.nav
% obs start : 2021/08/31 09:00:00.0 GPST (week2173 205200.0s)
% obs end   : 2021/08/31 09:59:59.0 GPST (week2173 208799.0s)
% ref pos   :  -228352.3149  -5218253.1379   3648229.5700
%
% (x/y/z-ecef=WGS84,Q=1:fix,2:float,3:sbas,4:dgps,5:single,6:ppp,ns=# of satellites)
%  GPST              x-ecef(m)      y-ecef(m)      z-ecef(m)   Q  ns   sdx(m)   sdy(m)   sdz(m)  sdxy(m)  sdyz(m)  sdzx(m) age(s)  ratio
2173 206280.000   -218301.0842  -5246695.2628   3608099.6080   2   8   0.3825   0.9435   0.7404  -0.0840  -0.6710  -0.1677 -30.00    1.7
2173 206281.000   -218301.0671  -5246695.0337   3608099.5711   2   8   0.2720   0.6709   0.5263  -0.0612  -0.4770  -0.1187 -29.00    2.0
2173 206282.000   -218301.1238  -5246695.0011   3608099.5640   2   8   0.2227   0.5492   0.4308  -0.0504  -0.3905  -0.0971 -28.00    2.1
2173 206283.000   -218301.0881  -5246695.0009   3608099.5758   2   8   0.1932   0.4765   0.3737  -0.0437  -0.3388  -0.0843 -27.00    2.1
2173 206284.000   -218301.0797  -5246695.0631   3608099.6139   2   8   0.1731   0.4267   0.3347  -0.0392  -0.3034  -0.0755 -26.00    2.1
2173 206285.000   -218301.0882  -5246695.1459   3608099.6512   2   8   0.1581   0.3899   0.3059  -0.0358  -0.2772  -0.0691 -25.00    2.2
2173 206286.000   -218301.1012  -5246695.1553   3608099.6308   2   8   0.1465   0.3613   0.2834  -0.0332  -0.2568  -0.0640 -24.00    2.2
2173 206287.000   -218301.1029  -5246695.1370   3608099.6065   2   8   0.1372   0.3381   0.2652  -0.0312  -0.2404  -0.0599 -23.00    2.3
2173 206288.000   -218301.1047  -5246695.1745   3608099.6287   2   8   0.1294   0.3189   0.2501  -0.0295  -0.2267  -0.0565 -22.00    2.4
2173 206289.000   -218301.1082  -5246695.1493   3608099.6184   2   8   0.1228   0.3026   0.2373  -0.0280  -0.2151  -0.0536 -21.00    2.6
2173 206290.000   -218301.1248  -5246695.1394   3608099.6250   2   8   0.1171   0.2886   0.2263  -0.0268  -0.2051  -0.0511 -20.00    2.8
2173 206291.000   -218301.1242  -5246695.1377   3608099.6108   2   8   0.1121   0.2763   0.2166  -0.0258  -0.1964  -0.0489 -19.00    3.0
2173 206292.000   -218300.9787  -5246694.9054   3608099.7291   1   8   0.0132   0.0329   0.0278   0.0072  -0.0244  -0.0093 -18.00    3.2
2173 206293.000   -218300.9795  -5246694.8974   3608099.7193   1   8   0.0125   0.0313   0.0264   0.0067  -0.0231  -0.0088 -17.00    3.3
2173 206294.000   -218300.9791  -5246694.8977   3608099.7240   1   8   0.0119   0.0296   0.0249   0.0063  -0.0219  -0.0082 -16.00    3.6
2173 206295.000   -218300.9799  -5246694.8969   3608099.7238   1   8   0.0112   0.0280   0.0235   0.0059  -0.0206  -0.0078 -15.00    3.9
2173 206296.000   -218300.9799  -5246694.8942   3608099.7222   1   8   0.0106   0.0263   0.0221   0.0055  -0.0194  -0.0073 -14.00    4.2
2173 206297.000   -218300.9813  -5246694.8949   3608099.7224   1   8   0.0099   0.0247   0.0207   0.0051  -0.0182  -0.0068 -13.00    4.5
2173 206298.000   -218300.9803  -5246694.8958   3608099.7242   1   8   0.0093   0.0231   0.0193   0.0046  -0.0170  -0.0063 -12.00    4.7
2173 206299.000   -218300.9792  -5246694.8924   3608099.7241   1   8   0.0086   0.0215   0.0180   0.0042  -0.0158  -0.0058 -11.00    5.0
2173 206300.000   -218300.9783  -5246694.8917   3608099.7186   1   8   0.0080   0.0200   0.0166   0.0038  -0.0147  -0.0053 -10.00    5.3
2173 206301.000   -218300.9780  -5246694.8903   3608099.7151   1   8   0.0074   0.0185   0.0153   0.0035  -0.0135  -0.0048  -9.00    5.5
2173 206302.000   -218300.9769  -5246694.8906   3608099.7136   1   8   0.0069   0.0170   0.0140   0.0031  -0.0124  -0.0043  -8.00    5.7
2173 206303.000   -218300.9768  -5246694.8886   3608099.7078   1   8   0.0063   0.0156   0.0128   0.0026  -0.0113  -0.0039  -7.00    6.0
2173 206304.000   -218300.9761  -5246694.8914   3608099.7057   1   8   0.0057   0.0143   0.0116   0.0019  -0.0103  -0.0034  -6.00    6.3
2173 206305.000   -218300.9737  -5246694.8883   3608099.6996   1   8   0.0052   0.0130   0.0105   0.0017  -0.0094  -0.0032  -5.00    6.7
2173 206306.000   -218300.9722  -5246694.8868   3608099.6964   1   8   0.0049   0.0119   0.0095   0.0010  -0.0086  -0.0027  -4.00    7.2
2173 206307.000   -218300.9725  -5246694.8833   3608099.6927   1   8   0.0043   0.0109   0.0087   0.0013  -0.0078  -0.0024  -3.00    8.0
2173 206308.000   -218300.9731  -5246694.8809   3608099.6912   1   8   0.0041   0.0102   0.0080  -0.0013  -0.0072  -0.0016  -2.00    9.1
2173 206309.000   -218300.9729  -5246694.8839   3608099.6885   1   8   0.0037   0.0097   0.0075  -0.0018  -0.0068  -0.0017  -1.00   10.1
2173 206310.000   -218300.9733  -5246694.8826   3608099.6864   1   8   0.0039   0.0096   0.0075   0.0006  -0.0067  -0.0013   0.00   10.8
2173 206311.000   -218300.9710  -5246694.8833   3608099.6867   1   8   0.0043   0.0096   0.0073   0.0017  -0.0067  -0.0006   0.00   11.6
2173 206312.000   -218300.9705  -5246694.8819   3608099.6859   1   8   0.0038   0.0096   0.0074   0.0016  -0.0066  -0.0015   0.00   12.4
2173 206313.000   -218300.9721  -5246694.8824   3608099.6839   1   8   0.0040   0.0096   0.0074   0.0011  -0.0066  -0.0011   0.00   13.0
2173 206314.000   -218300.9714  -5246694.8837   3608099.6872   1   8   0.0037   0.0095   0.0075  -0.0002  -0.0067  -0.0016   0.00   13.7
2173 206315.000   -218300.9705  -5246694.8795   3608099.6847   1   8   0.0042   0.0096   0.0074  -0.0017  -0.0067  -0.0013   0.00   14.5
2173 206316.000   -218300.9693  -5246694.8841   3608099.6876   1   8   0.0037   0.0094   0.0072  -0.0016  -0.0068  -0.0014   0.00   15.0
2173 206317.000   -218300.9706  -5246694.8857   3608099.6863   1   8   0.0038   0.0094   0.0074  -0.0012  -0.0068  -0.0018   0.00   15.6
2173 206318.000   -218300.9695  -5246694.8898   3608099.6908   1   8   0.0034   0.0093   0.0076  -0.0018  -0.0068  -0.0022   0.00   16.2
2173 206319.000   -218300.9701  -5246694.8857   3608099.6881   1   8   0.0035   0.0095   0.0074  -0.0016  -0.0067  -0.0017   0.00   16.7
2173 206320.000   -218300.9726  -5246694.8863   3608099.6897   1   8   0.0042   0.0095   0.0076  -0.0013  -0.0067  -0.0019   0.00   17.1
2173 206321.000   -218300.9723  -5246694.8834   3608099.6861   1   8   0.0043   0.0095   0.0074  -0.0009  -0.0067  -0.0009   0.00   17.5
2173 206322.000   -218300.9715  -5246694.8842   3608099.6845   1   8   0.0042   0.0095   0.0075  -0.0010  -0.0068  -0.0011   0.00   17.8
2173 206323.000   -218300.9715  -5246694.8849   3608099.6884   1   8   0.0037   0.0094   0.0074  -0.0009  -0.0067  -0.0019   0.00   18.4
2173 206324.000   -218300.9721  -5246694.8904   3608099.6864   1   8   0.0041   0.0096   0.0075  -0.0021  -0.0067  -0.0013   0.00   18.9
2173 206325.000   -218300.9706  -5246694.8877   3608099.6890   1   8   0.0039   0.0097   0.0075  -0.0022  -0.0066  -0.0014   0.00   19.2
2173 206326.000   -218300.9705  -5246694.8871   3608099.6876   1   8   0.0040   0.0096   0.0074   0.0002  -0.0067  -0.0011   0.00   19.6
2173 206327.000   -218300.9715  -5246694.8860   3608099.6876   1   8   0.0033   0.0094   0.0073   0.0007  -0.0068  -0.0019   0.00   20.3
2173 206328.000   -218300.9728  -5246694.8865   3608099.6891   1   8   0.0039   0.0094   0.0073  -0.0006  -0.0068  -0.0018   0.00   20.7
2173 206329.000   -218300.9687  -5246694.8873   3608099.6851   1   8   0.0039   0.0094   0.0074  -0.0008  -0.0068  -0.0018   0.00   21.1
2173 206330.000   -218300.9724  -5246694.8857   3608099.6852   1   8   0.0034   0.0094   0.0072  -0.0021  -0.0068  -0.0018   0.00   21.3
2173 206331.000   -218300.9711  -5246694.8881   3608099.6836   1   8   0.0040   0.0096   0.0076   0.0008  -0.0067  -0.0013   0.00   22.0
2173 206332.000   -218300.9710  -5246694.8876   3608099.6828   1   8   0.0043   0.0095   0.0076   0.0007  -0.0067  -0.0015   0.00   22.5
2173 206333.000   -218300.9704  -5246694.8875   3608099.6845   1   8   0.0037   0.0095   0.0075  -0.0016  -0.0068  -0.0018   0.00   23.0
2173 206334.000   -218300.9715  -5246694.8882   3608099.6878   1   8   0.0039   0.0094   0.0073  -0.0020  -0.0068  -0.0019   0.00   23.7
2173 206335.000   -218300.9702  -5246694.8904   3608099.6867   1   8   0.0040   0.0096   0.0076  -0.0003  -0.0066  -0.0014   0.00   24.1
2173 206336.000   -218300.9700  -5246694.8902   3608099.6872   1   8   0.0037   0.0095   0.0074  -0.0020  -0.0068  -0.0019   0.00   24.7
2173 206337.000   -218300.9721  -5246694.8857   3608099.6817   1   8   0.0033   0.0094   0.0074  -0.0013  -0.0068  -0.0020   0.00   24.9
2173 206338.000   -218300.9702  -5246694.8844   3608099.6842   1   8   0.0045   0.0096   0.0073   0.0019  -0.0067  -0.0009   0.00   25.4
2173 206339.000   -218300.9696  -5246694.8888   3608099.6858   1   8   0.0037   0.0094   0.0073  -0.0018  -0.0068  -0.0017   0.00   25.9
2173 206340.000   -218300.9719  -5246694.8897   3608099.6821   1   8   0.0034   0.0094   0.0075  -0.0014  -0.0068  -0.0023   0.00   26.3
2173 206341.000   -218300.9690  -5246694.8898   3608099.6841   1   8   0.0043   0.0096   0.0074  -0.0007  -0.0067  -0.0014   0.00   26.5
2173 206342.000   -218300.9711  -5246694.8886   3608099.6840   1   8   0.0033   0.0094   0.0073  -0.0017  -0.0067  -0.0012   0.00   26.8
2173 206343.000   -218300.9699  -5246694.8925   3608099.6877   1   8   0.0034   0.0094   0.0074   0.0013  -0.0067  -0.0021   0.00   27.3
2173 206344.000   -218300.9712  -5246694.8870   3608099.6835   1   8   0.0039   0.0095   0.0073  -0.0017  -0.0068  -0.0007   0.00   27.7
2173 206345.000   -218300.9716  -5246694.8941   3608099.6873   1   8   0.0037   0.0095   0.0074   0.0009  -0.0067  -0.0014   0.00   28.1
2173 206346.000   -218300.9709  -5246694.8891   3608099.6861   1   8   0.0042   0.0094   0.0074   0.0024  -0.0067  -0.0013   0.00   28.3
2173 206347.000   -218300.9727  -5246694.8864   3608099.6857   1   8   0.0043   0.0095   0.0075  -0.0007  -0.0068  -0.0014   0.00   28.3
2173 206348.000   -218300.9700  -5246694.8930   3608099.6865   1   8   0.0040   0.0094   0.0074  -0.0011  -0.0067  -0.0019   0.00   28.6
2173 206349.000   -218300.9710  -5246694.8877   3608099.6822   1   8   0.0039   0.0095   0.0073  -0.0012  -0.0067  -0.0015   0.00   28.7
2173 206350.000   -218300.9728  -5246694.8844   3608099.6824   1   8   0.0035   0.0093   0.0074  -0.0015  -0.0068  -0.0024   0.00   28.9
2173 206351.000   -218300.9712  -5246694.8923   3608099.6858   1   8   0.0042   0.0096   0.0074   0.0008  -0.0066  -0.0005   0.00   29.1
2173 206352.000   -218300.9726  -5246694.8915   3608099.6874   1   8   0.0041   0.0094   0.0075  -0.0015  -0.0068  -0.0017   0.00   29.3
2173 206353.000   -218300.9724  -5246694.8930   3608099.6873   1   8   0.0038   0.0095   0.0074  -0.0018  -0.0067  -0.0018   0.00   29.5
2173 206354.000   -218300.9713  -5246694.8905   3608099.6845   1   8   0.0032   0.0094   0.0074  -0.0022  -0.0068  -0.0013   0.00   29.6
2173 206355.000   -218300.9705  -5246694.8971   3608099.6880   1   8   0.0030   0.0095   0.0075  -0.0018  -0.0067  -0.0022   0.00   29.7
2173 206356.000   -218300.9717  -5246694.8917   3608099.6864   1   8   0.0039   0.0095   0.0074  -0.0009  -0.0067  -0.0017   0.00   29.9
2173 206357.000   -218300.9720  -5246694.8898   3608099.6857   1   8   0.0041   0.0095   0.0074  -0.0021  -0.0068  -0.0020   0.00   30.3
2173 206358.000   -218300.9713  -5246694.8875   3608099.6847   1   8   0.0041   0.0096   0.0074  -0.0006  -0.0066  -0.0012   0.00   30.4
2173 206359.000   -218300.9709  -5246694.8898   3608099.6839   1   8   0.0035   0.0096   0.0075  -0.0018  -0.0067  -0.0015   0.00   30.7
2173 206360.000   -218300.9723  -5246694.8898   3608099.6867   1   8   0.0038   0.0095   0.0074  -0.0024  -0.0068  -0.0020   0.00   30.8
2173 206361.000   -218300.9710  -5246694.8927   3608099.6873   1   8   0.0042   0.0096   0.0073   0.0008  -0.0066  -0.0011   0.00   31.0
2173 206362.000   -218300.9705  -5246694.8887   3608099.6862   1   8   0.0040   0.0095   0.0073  -0.0006  -0.0068  -0.0016   0.00   31.1
2173 206363.000   -218300.9710  -5246694.8909   3608099.6840   1   8   0.0038   0.0095   0.0072  -0.0016  -0.0068  -0.0019   0.00   31.2
2173 206364.000   -218300.9702  -5246694.8919   3608099.6852   1   8   0.0035   0.0095   0.0075  -0.0018  -0.0068  -0.0015   0.00   31.4
2173 206365.000   -218300.9701  -5246694.8940   3608099.6844   1   8   0.0038   0.0094   0.0075  -0.0009  -0.0067  -0.0021   0.00   31.6
2173 206366.000   -218300.9699  -5246694.8937   3608099.6837   1   8   0.0042   0.0095   0.0073  -0.0019  -0.0068  -0.0018   0.00   31.8
2173 206367.000   -218300.9692  -5246694.8917   3608099.6859   1   8   0.0037   0.0095   0.0073  -0.0014  -0.0067  -0.0014   0.00   32.0
2173 206368.000   -218300.9705  -5246694.8941   3608099.6870   1   8   0.0043   0.0095   0.0076   0.0007  -0.0067  -0.0020   0.00   32.4
2173 206369.000   -218300.9690  -5246694.8910   3608099.6844   1   8   0.0039   0.0094   0.0074  -0.0010  -0.0067  -0.0017   0.00   32.7
2173 206370.000   -218300.9697  -5246694.8916   3608099.6828   1   8   0.0035   0.0094   0.0074  -0.0024  -0.0069  -0.0022   0.00   32.8
2173 206371.000   -218300.9695  -5246694.8943   3608099.6861   1   8   0.0040   0.0095   0.0074  -0.0015  -0.0067  -0.0018   0.00   33.1
2173 206372.000   -218300.9702  -5246694.8926   3608099.6830   1   8   0.0041   0.0095   0.0074  -0.0015  -0.0067  -0.0021   0.00   33.3
2173 206373.000   -218300.9701  -5246694.8921   3608099.6860   1   8   0.0039   0.0094   0.0074   0.0012  -0.0067  -0.0020   0.00   33.6
2173 206374.000   -218300.9698  -5246694.8941   3608099.6848   1   8   0.0036   0.0094   0.0074   0.0001  -0.0067  -0.0017   0.00   33.9
2173 206375.000   -218300.9703  -5246694.8872   3608099.6847   1   8   0.0040   0.0093   0.0073  -0.0011  -0.0069  -0.0017   0.00   34.1
2173 206376.000   -218300.9704  -5246694.8950   3608099.6847   1   8   0.0036   0.0093   0.0074  -0.0016  -0.0068  -0.0022   0.00   34.5
2173 206377.000   -218300.9727  -5246694.8935   3608099.6844   1   8   0.0043   0.0095   0.0074   0.0015  -0.0066  -0.0015   0.00   34.5
2173 206378.000   -218300.9696  -5246694.9003   3608099.6890   1   8   0.0034   0.0095   0.0074  -0.0020  -0.0067  -0.0018   0.00   34.8
2173 206379.000   -218300.9702  -5246694.8965   3608099.6859   1   8   0.0041   0.0094   0.0074  -0.0008  -0.0067  -0.0014   0.00   35.1
2173 206380.000   -218300.9703  -5246694.8961   3608099.6840   1   8   0.0042   0.0095   0.0074   0.0010  -0.0066  -0.0019   0.00   35.4
2173 206381.000   -218300.9689  -5246694.8946   3608099.6860   1   8   0.0039   0.0094   0.0074  -0.0016  -0.0068  -0.0017   0.00   35.5
2173 206382.000   -218300.9698  -5246694.8968   3608099.6879   1   8   0.0043   0.0095   0.0074  -0.0008  -0.0067  -0.0013   0.00   35.8
2173 206383.000   -218300.9688  -5246694.8937   3608099.6856   1   8   0.0040   0.0095   0.0074   0.0010  -0.0067  -0.0016   0.00   36.0
2173 206384.000   -218300.9716  -5246694.8974   3608099.6872   1   8   0.0035   0.0096   0.0074  -0.0020  -0.0067  -0.0018   0.00   36.2
2173 206385.000   -218300.9716  -5246694.8983   3608099.6875   1   8   0.0042   0.0095   0.0075  -0.0013  -0.0067  -0.0017   0.00   36.6
2173 206386.000   -218300.9729  -5246694.8949   3608099.6860   1   8   0.0039   0.0095   0.0074  -0.0017  -0.0068  -0.0019   0.00   36.8
2173 206387.000   -218300.9703  -5246694.8994   3608099.6863   1   8   0.0036   0.0094   0.0075   0.0009  -0.0067  -0.0023   0.00   37.2
2173 206388.000   -218300.9723  -5246694.8936   3608099.6844   1   8   0.0036   0.0094   0.0073  -0.0007  -0.0068  -0.0013   0.00   37.6
2173 206389.000   -218300.9712  -5246694.8988   3608099.6878   1   8   0.0040   0.0096   0.0074  -0.0016  -0.0068  -0.0013   0.00   37.9
2173 206390.000   -218300.9730  -5246694.9000   3608099.6880   1   8   0.0039   0.0095   0.0072   0.0013  -0.0066  -0.0023   0.00   38.2
2173 206391.000   -218300.9717  -5246694.8951   3608099.6860   1   8   0.0042   0.0096   0.0074  -0.0013  -0.0067  -0.0014   0.00   38.5
2173 206392.000   -218300.9720  -5246694.8900   3608099.6839   1   8   0.0037   0.0094   0.0073  -0.0023  -0.0068  -0.0016   0.00   38.8
2173 206393.000   -218300.9707  -5246694.8982   3608099.6829   1   8   0.0044   0.0096   0.0074   0.0007  -0.0067  -0.0018   0.00   39.0
2173 206394.000   -218300.9711  -5246694.8987   3608099.6882   1   8   0.0043   0.0096   0.0074   0.0019  -0.0066  -0.0009   0.00   39.5
2173 206395.000   -218300.9706  -5246694.8985   3608099.6880   1   8   0.0044   0.0094   0.0074   0.0012  -0.0067  -0.0020   0.00   39.9
2173 206396.000   -218300.9704  -5246694.8998   3608099.6868   1   8   0.0031   0.0095   0.0074  -0.0017  -0.0067  -0.0020   0.00   40.3
2173 206397.000   -218300.9724  -5246694.8945   3608099.6837   1   8   0.0035   0.0094   0.0074   0.0003  -0.0067  -0.0023   0.00   40.5
2173 206398.000   -218300.9686  -5246694.8984   3608099.6873   1   8   0.0040   0.0095   0.0074   0.0012  -0.0067  -0.0018   0.00   40.6
2173 206399.000   -218300.9707  -5246694.8960   3608099.6867   1   8   0.0034   0.0094   0.0075  -0.0002  -0.0067  -0.0018   0.00   40.8
2173 206400.000   -218300.9714  -5246694.8960   3608099.6863   1   8   0.0037   0.0096   0.0075  -0.0014  -0.0067  -0.0014   0.00   41.0
2173 206401.000   -218300.9691  -5246694.8953   3608099.6867   1   8   0.0034   0.0094   0.0074  -0.0020  -0.0068  -0.0019   0.00   41.0
2173 206402.000   -218300.9717  -5246694.9015   3608099.6888   1   8   0.0036   0.0094   0.0074  -0.0013  -0.0068  -0.0017   0.00   41.2
2173 206403.000   -218300.9716  -5246694.8978   3608099.6853   1   8   0.0038   0.0094   0.0073   0.0016  -0.0067  -0.0020   0.00   41.1
2173 206404.000   -218300.9695  -5246694.8977   3608099.6884   1   8   0.0040   0.0094   0.0072  -0.0018  -0.0067  -0.0018   0.00   41.1
2173 206405.000   -218300.9705  -5246694.9015   3608099.6895   1   8   0.0039   0.0094   0.0073   0.0003  -0.0067  -0.0014   0.00   41.1
2173 206406.000   -218300.9694  -5246694.8997   3608099.6877   1   8   0.0040   0.0095   0.0075   0.0014  -0.0066  -0.0011   0.00   41.2
2173 206407.000   -218300.9701  -5246694.8947   3608099.6860   1   8   0.0038   0.0096   0.0073  -0.0022  -0.0067  -0.0014   0.00   41.4
2173 206408.000   -218300.9716  -5246694.8935   3608099.6852   1   8   0.0040   0.0095   0.0075  -0.0010  -0.0067  -0.0018   0.00   41.4
2173 206409.000   -218300.9712  -5246694.9024   3608099.6901   1   8   0.0038   0.0096   0.0073  -0.0020  -0.0067  -0.0015   0.00   41.5
2173 206410.000   -218300.9700  -5246694.8987   3608099.6885   1   8   0.0035   0.0094   0.0075  -0.0015  -0.0068  -0.0021   0.00   41.5
2173 206411.000   -218300.9689  -5246694.9038   3608099.6885   1   8   0.0037   0.0096   0.0074  -0.0014  -0.0066  -0.0016   0.00   41.6
2173 206412.000   -218300.9688  -5246694.8990   3608099.6864   1   8   0.0044   0.0095   0.0074   0.0008  -0.0067  -0.0014   0.00   41.7
2173 206413.000   -218300.9702  -5246694.8966   3608099.6850   1   8   0.0034   0.0095   0.0072  -0.0021  -0.0068  -0.0022   0.00   41.8
2173 206414.000   -218300.9700  -5246694.9011   3608099.6904   1   8   0.0036   0.0094   0.0074  -0.0012  -0.0068  -0.0017   0.00   41.9
2173 206415.000   -218300.9699  -5246694.9036   3608099.6863   1   8   0.0037   0.0095   0.0073  -0.0006  -0.0067  -0.0014   0.00   41.9
2173 206416.000   -218300.9698  -5246694.8992   3608099.6898   1   8   0.0042   0.0096   0.0073   0.0012  -0.0066  -0.0016   0.00   41.7
2173 206417.000   -218300.9695  -5246694.8986   3608099.6898   1   8   0.0036   0.0095   0.0074   0.0002  -0.0067  -0.0016   0.00   41.7
2173 206418.000   -218300.9699  -5246694.9013   3608099.6866   1   8   0.0038   0.0096   0.0074  -0.0016  -0.0066  -0.0014   0.00   41.8
2173 206419.000   -218300.9679  -5246694.9033   3608099.6868   1   8   0.0046   0.0096   0.0073   0.0009  -0.0066  -0.0014   0.00   41.8
2173 206420.000   -218300.9690  -5246694.8996   3608099.6886   1   8   0.0042   0.0095   0.0073   0.0009  -0.0067  -0.0009   0.00   41.7
2173 206421.000   -218300.9698  -5246694.9048   3608099.6892   1   8   0.0033   0.0095   0.0073  -0.0009  -0.0067  -0.0020   0.00   41.8
2173 206422.000   -218300.9695  -5246694.8981   3608099.6898   1   8   0.0037   0.0096   0.0071  -0.0019  -0.0067  -0.0014   0.00   42.0
2173 206423.000   -218300.9700  -5246694.9020   3608099.6885   1   8   0.0038   0.0094   0.0073   0.0010  -0.0068  -0.0019   0.00   42.0
2173 206424.000   -218300.9695  -5246694.9017   3608099.6891   1   8   0.0035   0.0095   0.0074   0.0012  -0.0067  -0.0018   0.00   42.0
2173 206425.000   -218300.9715  -5246694.9006   3608099.6883   1   8   0.0032   0.0094   0.0074  -0.0019  -0.0068  -0.0019   0.00   42.1
2173 206426.000   -218300.9698  -5246694.9052   3608099.6905   1   8   0.0041   0.0095   0.0073   0.0007  -0.0067  -0.0011   0.00   42.3
2173 206427.000   -218300.9701  -5246694.9004   3608099.6871   1   8   0.0041   0.0094   0.0073  -0.0007  -0.0067  -0.0016   0.00   42.4
2173 206428.000   -218300.9719  -5246694.9041   3608099.6903   1   8   0.0039   0.0095   0.0073   0.0009  -0.0067  -0.0016   0.00   42.4
2173 206429.000   -218300.9697  -5246694.8993   3608099.6899   1   8   0.0038   0.0095   0.0073  -0.0016  -0.0067  -0.0017   0.00   42.3
2173 206430.000   -218300.9687  -5246694.8990   3608099.6901   1   8   0.0041   0.0096   0.0073  -0.0016  -0.0067  -0.0010   0.00   42.5
2173 206431.000   -218300.9709  -5246694.8955   3608099.6880   1   8   0.0041   0.0095   0.0075   0.0016  -0.0066  -0.0019   0.00   42.6
2173 206432.000   -218300.9694  -5246694.8993   3608099.6851   1   8   0.0038   0.0096   0.0072  -0.0017  -0.0067  -0.0016   0.00   42.6
2173 206433.000   -218300.9692  -5246694.9037   3608099.6884   1   8   0.0039   0.0095   0.0075  -0.0018  -0.0068  -0.0018   0.00   42.6
2173 206434.000   -218300.9696  -5246694.8980   3608099.6899   1   8   0.0045   0.0097   0.0075  -0.0012  -0.0066  -0.0001   0.00   42.7
2173 206435.000   -218300.9695  -5246694.8983   3608099.6885   1   8   0.0042   0.0095   0.0075  -0.0004  -0.0067  -0.0013   0.00   42.7
2173 206436.000   -218300.9699  -5246694.9006   3608099.6875   1   8   0.0043   0.0095   0.0075  -0.0015  -0.0067  -0.0016   0.00   42.7
2173 206437.000   -218300.9706  -5246694.8980   3608099.6858   1   8   0.0037   0.0094   0.0072  -0.0013  -0.0068  -0.0016   0.00   42.8
2173 206438.000   -218300.9694  -5246694.9055   3608099.6899   1   8   0.0040   0.0095   0.0074  -0.0008  -0.0066  -0.0020   0.00   42.8
2173 206439.000   -218300.9708  -5246694.9029   3608099.6877   1   8   0.0039   0.0095   0.0073   0.0019  -0.0065  -0.0009   0.00   43.0
2173 206440.000   -218300.9700  -5246694.9013   3608099.6878   1   8   0.0037   0.0095   0.0072  -0.0006  -0.0066  -0.0021   0.00   43.0
2173 206441.000   -218300.9685  -5246694.8997   3608099.6849   1   8   0.0040   0.0095   0.0074  -0.0010  -0.0067  -0.0014   0.00   42.9
2173 206442.000   -218300.9687  -5246694.9012   3608099.6858   1   8   0.0038   0.0095   0.0075  -0.0008  -0.0066  -0.0020   0.00   43.0
2173 206443.000   -218300.9704  -5246694.9026   3608099.6867   1   8   0.0039   0.0095   0.0073   0.0017  -0.0067  -0.0013   0.00   43.2
2173 206444.000   -218300.9691  -5246694.8993   3608099.6852   1   8   0.0036   0.0095   0.0075  -0.0010  -0.0067  -0.0020   0.00   43.4
2173 206445.000   -218300.9685  -5246694.9020   3608099.6870   1   8   0.0042   0.0095   0.0073  -0.0017  -0.0067  -0.0014   0.00   43.5
2173 206446.000   -218300.9692  -5246694.9001   3608099.6844   1   8   0.0035   0.0093   0.0073  -0.0009  -0.0068  -0.0016   0.00   43.5
2173 206447.000   -218300.9694  -5246694.9008   3608099.6856   1   8   0.0028   0.0094   0.0074  -0.0020  -0.0068  -0.0021   0.00   43.4
2173 206448.000   -218300.9699  -5246694.9034   3608099.6864   1   8   0.0038   0.0095   0.0074   0.0005  -0.0066  -0.0014   0.00   43.4
2173 206449.000   -218300.9686  -5246694.9022   3608099.6886   1   8   0.0039   0.0094   0.0075  -0.0005  -0.0068  -0.0019   0.00   43.5
2173 206450.000   -218300.9703  -5246694.9028   3608099.6855   1   8   0.0049   0.0096   0.0074   0.0013  -0.0067  -0.0011   0.00   43.5
2173 206451.000   -218300.9687  -5246694.9015   3608099.6878   1   8   0.0038   0.0096   0.0074  -0.0019  -0.0067  -0.0014   0.00   43.6
2173 206452.000   -218300.9684  -5246694.8987   3608099.6878   1   8   0.0039   0.0096   0.0074  -0.0009  -0.0066  -0.0017   0.00   43.5
2173 206453.000   -218300.9692  -5246694.9021   3608099.6864   1   8   0.0034   0.0094   0.0073  -0.0023  -0.0067  -0.0020   0.00   43.5
2173 206454.000   -218300.9705  -5246694.9018   3608099.6886   1   8   0.0038   0.0094   0.0075  -0.0014  -0.0067  -0.0018   0.00   43.5
2173 206455.000   -218300.9694  -5246694.9028   3608099.6902   1   8   0.0042   0.0095   0.0072  -0.0007  -0.0067  -0.0015   0.00   43.6
2173 206456.000   -218300.9686  -5246694.9021   3608099.6875   1   8   0.0037   0.0094   0.0073  -0.0014  -0.0067  -0.0020   0.00   43.6
2173 206457.000   -218300.9715  -5246694.9005   3608099.6877   1   8   0.0036   0.0093   0.0073  -0.0027  -0.0068  -0.0022   0.00   43.7
2173 206458.000   -218300.9687  -5246694.8999   3608099.6871   1   8   0.0042   0.0095   0.0073   0.0003  -0.0066  -0.0012   0.00   43.6
2173 206459.000   -218300.9694  -5246694.9029   3608099.6889   1   8   0.0041   0.0096   0.0074  -0.0022  -0.0067  -0.0014   0.00   43.6
2173 206460.000   -218300.9720  -5246694.9006   3608099.6889   1   8   0.0033   0.0095   0.0073   0.0002  -0.0066  -0.0017   0.00   43.7
2173 206461.000   -218300.9685  -5246694.9009   3608099.6881   1   8   0.0042   0.0096   0.0075   0.0014  -0.0066  -0.0011   0.00   43.6
2173 206462.000   -218300.9709  -5246694.9066   3608099.6899   1   8   0.0036   0.0096   0.0072  -0.0003  -0.0066  -0.0017   0.00   43.5
2173 206463.000   -218300.9705  -5246694.9052   3608099.6885   1   8   0.0042   0.0096   0.0074  -0.0010  -0.0066  -0.0019   0.00   43.5
2173 206464.000   -218300.9703  -5246694.9009   3608099.6913   1   8   0.0041   0.0095   0.0074  -0.0009  -0.0067  -0.0015   0.00   43.5
2173 206465.000   -218300.9691  -5246694.9033   3608099.6876   1   8   0.0035   0.0095   0.0074  -0.0017  -0.0067  -0.0018   0.00   43.4
2173 206466.000   -218300.9685  -5246694.9026   3608099.6869   1   8   0.0042   0.0094   0.0073  -0.0005  -0.0067  -0.0019   0.00   43.4
2173 206467.000   -218300.9698  -5246694.9028   3608099.6866   1   8   0.0034   0.0094   0.0072  -0.0021  -0.0068  -0.0016   0.00   43.5
2173 206468.000   -218300.9706  -5246694.8979   3608099.6843   1   8   0.0034   0.0093   0.0073  -0.0019  -0.0068  -0.0019   0.00   43.4
2173 206469.000   -218300.9693  -5246694.8914   3608099.6833   1   8   0.0036   0.0094   0.0072  -0.0018  -0.0068  -0.0021   0.00   43.5
2173 206470.000   -218300.9698  -5246694.8992   3608099.6846   1   8   0.0037   0.0095   0.0074  -0.0017  -0.0067  -0.0017   0.00   43.6
2173 206471.000   -218300.9697  -5246694.9032   3608099.6897   1   8   0.0034   0.0093   0.0074  -0.0021  -0.0068  -0.0019   0.00   43.6
2173 206472.000   -218300.9707  -5246694.9014   3608099.6866   1   8   0.0037   0.0095   0.0074  -0.0014  -0.0067  -0.0012   0.00   43.6
2173 206473.000   -218300.9720  -5246694.9008   3608099.6874   1   8   0.0039   0.0094   0.0074   0.0011  -0.0067  -0.0013   0.00   43.8
2173 206474.000   -218300.9714  -5246694.9015   3608099.6884   1   8   0.0039   0.0095   0.0073  -0.0007  -0.0066  -0.0019   0.00   43.8
2173 206475.000   -218300.9727  -5246694.9033   3608099.6890   1   8   0.0034   0.0095   0.0073  -0.0021  -0.0067  -0.0016   0.00   43.8
2173 206476.000   -218300.9701  -5246694.9034   3608099.6869   1   8   0.0037   0.0096   0.0073  -0.0019  -0.0067  -0.0017   0.00   43.8
2173 206477.000   -218300.9710  -5246694.9017   3608099.6865   1   8   0.0038   0.0095   0.0075  -0.0025  -0.0068  -0.0018   0.00   43.8
2173 206478.000   -218300.9703  -5246694.9036   3608099.6841   1   8   0.0041   0.0094   0.0073  -0.0005  -0.0067  -0.0013   0.00   43.9
2173 206479.000   -218300.9726  -5246694.9057   3608099.6887   1   8   0.0039   0.0094   0.0072  -0.0007  -0.0068  -0.0016   0.00   44.2
2173 206480.000   -218300.9710  -5246694.9005   3608099.6845   1   8   0.0036   0.0095   0.0072  -0.0009  -0.0067  -0.0019   0.00   44.3
2173 206481.000   -218300.9715  -5246694.9047   3608099.6903   1   8   0.0047   0.0094   0.0075   0.0011  -0.0067  -0.0016   0.00   44.4
2173 206482.000   -218300.9717  -5246694.8985   3608099.6833   1   8   0.0036   0.0094   0.0073  -0.0011  -0.0067  -0.0018   0.00   44.6
2173 206483.000   -218300.9713  -5246694.8979   3608099.6822   1   8   0.0033   0.0096   0.0073  -0.0020  -0.0066  -0.0020   0.00   44.7
2173 206484.000   -218300.9719  -5246694.8996   3608099.6854   1   8   0.0046   0.0096   0.0074  -0.0013  -0.0067   0.0006   0.00   44.8
2173 206485.000   -218300.9720  -5246694.9042   3608099.6873   1   8   0.0043   0.0096   0.0073   0.0012  -0.0066  -0.0012   0.00   44.9
2173 206486.000   -218300.9709  -5246694.9041   3608099.6882   1   8   0.0035   0.0095   0.0073  -0.0016  -0.0068  -0.0015   0.00   44.9
2173 206487.000   -218300.9701  -5246694.9039   3608099.6865   1   8   0.0032   0.0095   0.0073  -0.0016  -0.0067  -0.0014   0.00   44.9
2173 206488.000   -218300.9720  -5246694.9050   3608099.6854   1   8   0.0041   0.0096   0.0073  -0.0017  -0.0065  -0.0020   0.00   44.9
2173 206489.000   -218300.9723  -5246694.9070   3608099.6884   1   8   0.0042   0.0096   0.0076  -0.0021  -0.0066  -0.0008   0.00   45.1
2173 206490.000   -218300.9722  -5246694.9081   3608099.6919   1   8   0.0042   0.0096   0.0072  -0.0019  -0.0066  -0.0011   0.00   45.1
2173 206491.000   -218300.9728  -5246694.9043   3608099.6865   1   8   0.0039   0.0093   0.0074  -0.0002  -0.0068  -0.0017   0.00   45.1
2173 206492.000   -218300.9738  -5246694.9024   3608099.6861   1   8   0.0039   0.0096   0.0072  -0.0015  -0.0066  -0.0014   0.00   45.0
2173 206493.000   -218300.9744  -5246694.9049   3608099.6881   1   8   0.0038   0.0095   0.0074  -0.0016  -0.0067  -0.0015   0.00   45.0
2173 206494.000   -218300.9730  -5246694.9079   3608099.6905   1   8   0.0036   0.0095   0.0073  -0.0019  -0.0067  -0.0018   0.00   44.9
2173 206495.000   -218300.9734  -5246694.9027   3608099.6877   1   8   0.0038   0.0094   0.0073   0.0011  -0.0067  -0.0021   0.00   45.0
2173 206496.000   -218300.9710  -5246694.9012   3608099.6867   1   8   0.0040   0.0095   0.0072  -0.0015  -0.0068   0.0002   0.00   45.0
2173 206497.000   -218300.9737  -5246694.9052   3608099.6930   1   8   0.0038   0.0094   0.0073  -0.0017  -0.0068  -0.0015   0.00   44.9
2173 206498.000   -218300.9732  -5246694.9032   3608099.6892   1   8   0.0038   0.0096   0.0073   0.0002  -0.0066  -0.0018   0.00   45.0
2173 206499.000   -218300.9721  -5246694.9041   3608099.6900   1   8   0.0039   0.0095   0.0073  -0.0013  -0.0067  -0.0019   0.00   45.0
2173 206500.000   -218300.9730  -5246694.9028   3608099.6864   1   8   0.0037   0.0096   0.0073  -0.0021  -0.0067  -0.0018   0.00   45.0
2173 206501.000   -218300.9713  -5246694.9066   3608099.6885   1   8   0.0036   0.0095   0.0073  -0.0013  -0.0067  -0.0009   0.00   45.1
2173 206502.000   -218300.9739  -5246694.9022   3608099.6927   1   8   0.0035   0.0094   0.0074  -0.0016  -0.0068  -0.0022   0.00   45.1
2173 206503.000   -218300.9742  -5246694.8999   3608099.6887   1   8   0.0039   0.0093   0.0074   0.0011  -0.0068  -0.0015   0.00   45.1
2173 206504.000   -218300.9746  -5246694.9078   3608099.6927   1   8   0.0036   0.0094   0.0073  -0.0021  -0.0068  -0.0024   0.00   45.1
2173 206505.000   -218300.9737  -5246694.9078   3608099.6907   1   8   0.0040   0.0094   0.0074  -0.0008  -0.0067  -0.0018   0.00   45.2
2173 206506.000   -218300.9713  -5246694.9058   3608099.6899   1   8   0.0037   0.0094   0.0072   0.0006  -0.0067  -0.0018   0.00   45.1
2173 206507.000   -218300.9729  -5246694.9043   3608099.6869   1   8   0.0044   0.0096   0.0074   0.0014  -0.0066  -0.0010   0.00   45.1
2173 206508.000   -218300.9723  -5246694.9045   3608099.6904   1   8   0.0041   0.0095   0.0073  -0.0010  -0.0067  -0.0018   0.00   45.2
2173 206509.000   -218300.9726  -5246694.9059   3608099.6901   1   8   0.0040   0.0096   0.0074  -0.0019  -0.0066  -0.0018   0.00   45.2
2173 206510.000   -218300.9710  -5246694.9052   3608099.6909   1   8   0.0038   0.0095   0.0073  -0.0019  -0.0067  -0.0018   0.00   45.2
2173 206511.000   -218300.9715  -5246694.9004   3608099.6865   1   8   0.0040   0.0095   0.0074   0.0015  -0.0066  -0.0013   0.00   45.2
2173 206512.000   -218300.9709  -5246694.9080   3608099.6927   1   8   0.0036   0.0095   0.0073  -0.0015  -0.0067  -0.0017   0.00   45.3
2173 206513.000   -218300.9736  -5246694.9082   3608099.6911   1   8   0.0042   0.0097   0.0072   0.0007  -0.0065  -0.0010   0.00   45.2
2173 206514.000   -218300.9719  -5246694.9076   3608099.6930   1   8   0.0044   0.0096   0.0072   0.0010  -0.0066  -0.0009   0.00   45.1
2173 206515.000   -218300.9744  -5246694.9030   3608099.6908   1   8   0.0040   0.0095   0.0073  -0.0012  -0.0067  -0.0013   0.00   45.0
2173 206516.000   -218300.9732  -5246694.9000   3608099.6887   1   8   0.0039   0.0094   0.0073  -0.0004  -0.0067  -0.0018   0.00   44.9
2173 206517.000   -218300.9734  -5246694.8983   3608099.6877   1   8   0.0038   0.0095   0.0073  -0.0014  -0.0066  -0.0012   0.00   44.9
2173 206518.000   -218300.9737  -5246694.9009   3608099.6878   1   8   0.0030   0.0094   0.0073  -0.0018  -0.0067  -0.0021   0.00   44.8
2173 206519.000   -218300.9713  -5246694.9043   3608099.6916   1   8   0.0035   0.0093   0.0074  -0.0016  -0.0068  -0.0022   0.00   44.8
2173 206520.000   -218300.9734  -5246694.8973   3608099.6869   1   8   0.0043   0.0096   0.0072  -0.0007  -0.0066   0.0010   0.00   44.6
2173 206521.000   -218300.9729  -5246694.9005   3608099.6896   1   8   0.0039   0.0096   0.0072  -0.0014  -0.0065  -0.0012   0.00   44.5
2173 206522.000   -218300.9737  -5246694.9060   3608099.6935   1   8   0.0038   0.0095   0.0072  -0.0008  -0.0066  -0.0018   0.00   44.3
2173 206523.000   -218300.9730  -5246694.9005   3608099.6892   1   8   0.0042   0.0094   0.0074  -0.0006  -0.0066  -0.0020   0.00   44.2
2173 206524.000   -218300.9730  -5246694.8973   3608099.6858   1   8   0.0043   0.0096   0.0073  -0.0014  -0.0066  -0.0011   0.00   44.1
2173 206525.000   -218300.9728  -5246694.9008   3608099.6869   1   8   0.0039   0.0095   0.0072  -0.0023  -0.0067  -0.0011   0.00   44.0
2173 206526.000   -218300.9756  -5246694.8990   3608099.6884   1   8   0.0036   0.0094   0.0073  -0.0026  -0.0068  -0.0016   0.00   43.8
2173 206527.000   -218300.9749  -5246694.8999   3608099.6888   1   8   0.0035   0.0095   0.0073  -0.0019  -0.0067  -0.0017   0.00   43.7
2173 206528.000   -218300.9727  -5246694.8957   3608099.6852   1   8   0.0043   0.0096   0.0074   0.0006  -0.0065  -0.0002   0.00   43.4
2173 206529.000   -218300.9757  -5246694.8943   3608099.6845   1   8   0.0042   0.0096   0.0073  -0.0004  -0.0066  -0.0012   0.00   43.3
2173 206530.000   -218300.9752  -5246694.8986   3608099.6870   1   8   0.0037   0.0095   0.0074  -0.0017  -0.0067  -0.0015   0.00   43.2
2173 206531.000   -218300.9723  -5246694.8987   3608099.6848   1   8   0.0037   0.0094   0.0074  -0.0012  -0.0067  -0.0021   0.00   43.0
2173 206532.000   -218300.9739  -5246694.9027   3608099.6904   1   8   0.0034   0.0094   0.0072  -0.0008  -0.0066  -0.0015   0.00   42.7
2173 206533.000   -218300.9735  -5246694.9001   3608099.6909   1   8   0.0043   0.0096   0.0074  -0.0012  -0.0065  -0.0012   0.00   42.5
2173 206534.000   -218300.9738  -5246694.8988   3608099.6889   1   8   0.0039   0.0095   0.0072  -0.0016  -0.0067  -0.0022   0.00   42.4
2173 206535.000   -218300.9750  -5246694.8935   3608099.6880   1   8   0.0036   0.0095   0.0073  -0.0014  -0.0066  -0.0019   0.00   42.2
2173 206536.000   -218300.9736  -5246694.8964   3608099.6861   1   8   0.0044   0.0095   0.0073  -0.0004  -0.0067  -0.0013   0.00   42.0
2173 206537.000   -218300.9726  -5246694.9007   3608099.6897   1   8   0.0046   0.0097   0.0075  -0.0019  -0.0066  -0.0015   0.00   41.9
2173 206538.000   -218300.9741  -5246694.9023   3608099.6906   1   8   0.0043   0.0096   0.0073  -0.0017  -0.0066  -0.0015   0.00   41.7
2173 206539.000   -218300.9741  -5246694.9013   3608099.6910   1   8   0.0038   0.0095   0.0073  -0.0015  -0.0066  -0.0019   0.00   41.5
2173 206540.000   -218300.9732  -5246694.9003   3608099.6887   1   8   0.0038   0.0095   0.0073  -0.0018  -0.0067  -0.0018   0.00   41.4
2173 206541.000   -218300.9734  -5246694.8987   3608099.6890   1   8   0.0042   0.0095   0.0075  -0.0014  -0.0066  -0.0017   0.00   41.1
2173 206542.000   -218300.9736  -5246694.8988   3608099.6864   1   8   0.0039   0.0095   0.0074  -0.0015  -0.0066  -0.0016   0.00   40.9
2173 206543.000   -218300.9739  -5246694.8982   3608099.6886   1   8   0.0038   0.0094   0.0072  -0.0019  -0.0067  -0.0007   0.00   40.7
2173 206544.000   -218300.9728  -5246694.9034   3608099.6907   1   8   0.0045   0.0097   0.0072  -0.0010  -0.0064  -0.0012   0.00   40.5
2173 206545.000   -218300.9729  -5246694.9021   3608099.6891   1   8   0.0035   0.0093   0.0074  -0.0007  -0.0067  -0.0021   0.00   40.3
2173 206546.000   -218300.9746  -5246694.9006   3608099.6887   1   8   0.0038   0.0096   0.0071   0.0004  -0.0066  -0.0015   0.00   40.1
2173 206547.000   -218300.9737  -5246694.9011   3608099.6910   1   8   0.0035   0.0095   0.0071  -0.0021  -0.0068  -0.0015   0.00   39.9
2173 206548.000   -218300.9724  -5246694.8991   3608099.6842   1   8   0.0040   0.0096   0.0072  -0.0008  -0.0066  -0.0009   0.00   39.6
2173 206549.000   -218300.9754  -5246694.8987   3608099.6894   1   8   0.0040   0.0095   0.0073  -0.0019  -0.0067  -0.0013   0.00   39.4
2173 206550.000   -218300.9733  -5246694.8976   3608099.6849   1   8   0.0038   0.0094   0.0072  -0.0013  -0.0067  -0.0019   0.00   39.2
2173 206551.000   -218300.9729  -5246694.8978   3608099.6874   1   8   0.0041   0.0096   0.0074  -0.0003  -0.0065  -0.0006   0.00   39.1
2173 206552.000   -218300.9739  -5246694.9035   3608099.6912   1   8   0.0041   0.0095   0.0073   0.0007  -0.0066  -0.0012   0.00   38.9
2173 206553.000   -218300.9713  -5246694.9007   3608099.6866   1   8   0.0039   0.0095   0.0074  -0.0018  -0.0066  -0.0020   0.00   38.8
2173 206554.000   -218300.9716  -5246694.8989   3608099.6865   1   8   0.0038   0.0095   0.0075  -0.0019  -0.0067  -0.0020   0.00   38.7
2173 206555.000   -218300.9736  -5246694.8975   3608099.6861   1   8   0.0033   0.0095   0.0071  -0.0019  -0.0067  -0.0015   0.00   38.6
2173 206556.000   -218300.9739  -5246694.8955   3608099.6845   1   8   0.0042   0.0095   0.0072  -0.0006  -0.0066  -0.0010   0.00   38.5
2173 206557.000   -218300.9740  -5246694.8989   3608099.6871   1   8   0.0037   0.0095   0.0074  -0.0022  -0.0066  -0.0022   0.00   38.5
2173 206558.000   -218300.9726  -5246694.9012   3608099.6872   1   8   0.0043   0.0095   0.0073   0.0011  -0.0066  -0.0006   0.00   38.4
2173 206559.000   -218300.9727  -5246694.8996   3608099.6866   1   8   0.0034   0.0093   0.0073  -0.0018  -0.0067  -0.0019   0.00   38.3
2173 206560.000   -218300.9726  -5246694.8985   3608099.6853   1   8   0.0039   0.0095   0.0072   0.0009  -0.0066  -0.0010   0.00   38.4
2173 206561.000   -218300.9701  -5246694.8974   3608099.6844   1   8   0.0038   0.0095   0.0071  -0.0014  -0.0066  -0.0015   0.00   38.4
2173 206562.000   -218300.9751  -5246694.9031   3608099.6867   1   8   0.0043   0.0096   0.0073  -0.0014  -0.0066  -0.0015   0.00   38.3
2173 206563.000   -218300.9732  -5246694.9011   3608099.6886   1   8   0.0038   0.0094   0.0072  -0.0019  -0.0067  -0.0021   0.00   38.3
2173 206564.000   -218300.9750  -5246694.8993   3608099.6849   1   8   0.0038   0.0096   0.0074  -0.0017  -0.0066  -0.0017   0.00   38.4
2173 206565.000   -218300.9742  -5246694.9010   3608099.6858   1   8   0.0044   0.0095   0.0073   0.0012  -0.0065  -0.0014   0.00   38.4
2173 206566.000   -218300.9715  -5246694.8964   3608099.6847   1   8   0.0040   0.0095   0.0072  -0.0016  -0.0067  -0.0012   0.00   38.4
2173 206567.000   -218300.9728  -5246694.8979   3608099.6849   1   8   0.0045   0.0094   0.0072  -0.0010  -0.0066   0.0000   0.00   38.3
2173 206568.000   -218300.9724  -5246694.9007   3608099.6883   1   8   0.0037   0.0096   0.0073  -0.0015  -0.0065  -0.0016   0.00   38.3
2173 206569.000   -218300.9725  -5246694.9000   3608099.6837   1   8   0.0040   0.0094   0.0074  -0.0012  -0.0067  -0.0013   0.00   38.3
2173 206570.000   -218300.9725  -5246694.9015   3608099.6872   1   8   0.0038   0.0095   0.0073  -0.0014  -0.0066  -0.0020   0.00   38.3
2173 206571.000   -218300.9746  -5246694.9001   3608099.6864   1   8   0.0037   0.0094   0.0074  -0.0017  -0.0066  -0.0018   0.00   38.3
2173 206572.000   -218300.9737  -5246694.8962   3608099.6840   1   8   0.0044   0.0094   0.0073  -0.0017  -0.0067  -0.0013   0.00   38.3
2173 206573.000   -218300.9743  -5246694.9037   3608099.6856   1   8   0.0032   0.0095   0.0074  -0.0021  -0.0066  -0.0020   0.00   38.3
2173 206574.000   -218300.9741  -5246694.9002   3608099.6854   1   8   0.0045   0.0095   0.0074  -0.0014  -0.0066  -0.0012   0.00   38.3
2173 206575.000   -218300.9742  -5246694.8958   3608099.6842   1   8   0.0044   0.0095   0.0074  -0.0016  -0.0066  -0.0013   0.00   38.2
2173 206576.000   -218300.9714  -5246694.8995   3608099.6832   1   8   0.0042   0.0095   0.0072  -0.0009  -0.0066  -0.0016   0.00   38.2
2173 206577.000   -218300.9758  -5246694.8992   3608099.6839   1   8   0.0039   0.0095   0.0072   0.0008  -0.0066  -0.0014   0.00   38.1
2173 206578.000   -218300.9722  -5246694.8962   3608099.6824   1   8   0.0030   0.0095   0.0072  -0.0019  -0.0066  -0.0020   0.00   38.1
2173 206579.000   -218300.9729  -5246694.8960   3608099.6837   1   8   0.0034   0.0094   0.0072  -0.0022  -0.0067  -0.0020   0.00   38.1
2173 206580.000   -218300.9740  -5246694.8997   3608099.6868   1   8   0.0041   0.0096   0.0072  -0.0024  -0.0066  -0.0013   0.00   38.0
2173 206581.000   -218300.9729  -5246694.9025   3608099.6866   1   8   0.0041   0.0096   0.0073  -0.0002  -0.0065  -0.0011   0.00   38.0
2173 206582.000   -218300.9748  -5246694.8993   3608099.6844   1   8   0.0044   0.0096   0.0073   0.0004  -0.0065  -0.0014   0.00   38.0
2173 206583.000   -218300.9728  -5246694.9009   3608099.6853   1   8   0.0041   0.0096   0.0070  -0.0014  -0.0065  -0.0008   0.00   37.9
2173 206584.000   -218300.9717  -5246694.9013   3608099.6837   1   8   0.0038   0.0094   0.0071  -0.0022  -0.0067  -0.0011   0.00   37.8
2173 206585.000   -218300.9733  -5246694.9014   3608099.6849   1   8   0.0041   0.0095   0.0073  -0.0014  -0.0065  -0.0017   0.00   37.8
2173 206586.000   -218300.9758  -5246694.8960   3608099.6835   1   8   0.0038   0.0095   0.0071  -0.0014  -0.0066  -0.0018   0.00   37.7
2173 206587.000   -218300.9729  -5246694.8977   3608099.6805   1   8   0.0037   0.0095   0.0073  -0.0018  -0.0067  -0.0018   0.00   37.6
2173 206588.000   -218300.9723  -5246694.8989   3608099.6821   1   8   0.0035   0.0095   0.0073  -0.0019  -0.0066  -0.0021   0.00   37.7
2173 206589.000   -218300.9730  -5246694.8967   3608099.6823   1   8   0.0038   0.0095   0.0074  -0.0019  -0.0066  -0.0019   0.00   37.6
2173 206590.000   -218300.9726  -5246694.8988   3608099.6816   1   8   0.0044   0.0096   0.0073  -0.0021  -0.0066  -0.0019   0.00   37.5
2173 206591.000   -218300.9714  -5246694.8985   3608099.6833   1   8   0.0037   0.0094   0.0072  -0.0025  -0.0067  -0.0021   0.00   37.4
2173 206592.000   -218300.9710  -5246694.8990   3608099.6813   1   8   0.0040   0.0095   0.0074  -0.0007  -0.0066  -0.0016   0.00   37.3
2173 206593.000   -218300.9711  -5246694.9008   3608099.6837   1   8   0.0039   0.0095   0.0073  -0.0018  -0.0067  -0.0011   0.00   37.3
2173 206594.000   -218300.9733  -5246694.9019   3608099.6843   1   8   0.0031   0.0094   0.0071  -0.0020  -0.0067  -0.0024   0.00   37.4
2173 206595.000   -218300.9718  -5246694.9016   3608099.6845   1   8   0.0042   0.0096   0.0073  -0.0021  -0.0065  -0.0016   0.00   37.3
2173 206596.000   -218300.9726  -5246694.8992   3608099.6824   1   8   0.0032   0.0094   0.0072  -0.0021  -0.0067  -0.0017   0.00   37.3
2173 206597.000   -218300.9712  -5246694.8962   3608099.6789   1   8   0.0042   0.0095   0.0072   0.0006  -0.0066  -0.0009   0.00   37.2
2173 206598.000   -218300.9738  -5246694.8963   3608099.6817   1   8   0.0042   0.0097   0.0073   0.0007  -0.0065  -0.0002   0.00   37.1
2173 206599.000   -218300.9713  -5246694.9007   3608099.6817   1   8   0.0043   0.0095   0.0071  -0.0018  -0.0066   0.0009   0.00   37.1
2173 206600.000   -218300.9744  -5246694.8985   3608099.6833   1   8   0.0027   0.0094   0.0071  -0.0022  -0.0067  -0.0016   0.00   37.0
2173 206601.000   -218300.9718  -5246694.8974   3608099.6817   1   8   0.0041   0.0095   0.0073  -0.0001  -0.0065  -0.0016   0.00   37.0
2173 206602.000   -218300.9727  -5246694.8988   3608099.6820   1   8   0.0032   0.0094   0.0072  -0.0021  -0.0066  -0.0016   0.00   36.8
2173 206603.000   -218300.9721  -5246694.8939   3608099.6778   1   8   0.0042   0.0094   0.0074  -0.0022  -0.0068  -0.0015   0.00   36.7
2173 206604.000   -218300.9721  -5246694.8929   3608099.6807   1   8   0.0038   0.0096   0.0074  -0.0023  -0.0066  -0.0015   0.00   36.6
2173 206605.000   -218300.9729  -5246694.8924   3608099.6771   1   8   0.0039   0.0095   0.0071  -0.0022  -0.0067  -0.0019   0.00   36.6
2173 206606.000   -218300.9738  -5246694.8978   3608099.6804   1   8   0.0033   0.0094   0.0071  -0.0020  -0.0067  -0.0021   0.00   36.5
2173 206607.000   -218300.9720  -5246694.8960   3608099.6797   1   8   0.0039   0.0095   0.0074  -0.0015  -0.0066  -0.0016   0.00   36.4
2173 206608.000   -218300.9728  -5246694.8992   3608099.6813   1   8   0.0043   0.0095   0.0073  -0.0010  -0.0066  -0.0014   0.00   36.3
2173 206609.000   -218300.9731  -5246694.8980   3608099.6796   1   8   0.0042   0.0094   0.0072  -0.0023  -0.0067  -0.0017   0.00   36.2
2173 206610.000   -218300.9739  -5246694.8984   3608099.6822   1   8   0.0043   0.0095   0.0072  -0.0015  -0.0067  -0.0017   0.00   36.0
2173 206611.000   -218300.9728  -5246694.8955   3608099.6815   1   8   0.0040   0.0095   0.0073  -0.0023  -0.0067  -0.0016   0.00   35.9
2173 206612.000   -218300.9732  -5246694.8968   3608099.6814   1   8   0.0036   0.0095   0.0071  -0.0019  -0.0066  -0.0020   0.00   35.9
2173 206613.000   -218300.9735  -5246694.8934   3608099.6818   1   8   0.0042   0.0094   0.0074  -0.0006  -0.0066  -0.0020   0.00   35.9
2173 206614.000   -218300.9721  -5246694.8958   3608099.6819   1   8   0.0041   0.0094   0.0071   0.0010  -0.0066  -0.0011   0.00   35.7
2173 206615.000   -218300.9757  -5246694.8923   3608099.6809   1   8   0.0038   0.0095   0.0072  -0.0014  -0.0066  -0.0020   0.00   35.6
2173 206616.000   -218300.9748  -5246694.8913   3608099.6794   1   8   0.0041   0.0096   0.0075   0.0014  -0.0065  -0.0016   0.00   35.5
2173 206617.000   -218300.9743  -5246694.8939   3608099.6813   1   8   0.0035   0.0094   0.0072  -0.0022  -0.0067  -0.0020   0.00   35.4
2173 206618.000   -218300.9747  -5246694.8927   3608099.6775   1   8   0.0039   0.0096   0.0073  -0.0020  -0.0066  -0.0018   0.00   35.2
2173 206619.000   -218300.9746  -5246694.8938   3608099.6794   1   8   0.0036   0.0094   0.0073  -0.0021  -0.0067  -0.0017   0.00   35.1
2173 206620.000   -218300.9737  -5246694.8971   3608099.6810   1   8   0.0044   0.0095   0.0074  -0.0020  -0.0066  -0.0017   0.00   35.1
2173 206621.000   -218300.9735  -5246694.8912   3608099.6782   1   8   0.0036   0.0093   0.0071  -0.0011  -0.0067  -0.0018   0.00   34.9
2173 206622.000   -218300.9719  -5246694.8955   3608099.6796   1   8   0.0035   0.0094   0.0071  -0.0021  -0.0068  -0.0025   0.00   34.9
2173 206623.000   -218300.9731  -5246694.8926   3608099.6768   1   8   0.0038   0.0095   0.0073  -0.0020  -0.0067  -0.0021   0.00   34.8
2173 206624.000   -218300.9735  -5246694.8984   3608099.6815   1   8   0.0039   0.0096   0.0073  -0.0017  -0.0065  -0.0016   0.00   34.7
2173 206625.000   -218300.9735  -5246694.8918   3608099.6780   1   8   0.0042   0.0094   0.0072  -0.0011  -0.0067  -0.0019   0.00   34.6
2173 206626.000   -218300.9724  -5246694.8929   3608099.6763   1   8   0.0036   0.0095   0.0073  -0.0010  -0.0065  -0.0015   0.00   34.4
2173 206627.000   -218300.9732  -5246694.8957   3608099.6769   1   8   0.0037   0.0094   0.0072  -0.0020  -0.0067  -0.0018   0.00   34.2
2173 206628.000   -218300.9742  -5246694.8932   3608099.6755   1   8   0.0041   0.0095   0.0073  -0.0019  -0.0067  -0.0021   0.00   34.1
2173 206629.000   -218300.9725  -5246694.8893   3608099.6730   1   8   0.0037   0.0096   0.0072  -0.0015  -0.0065  -0.0011   0.00   34.1
2173 206630.000   -218300.9710  -5246694.8923   3608099.6780   1   8   0.0040   0.0095   0.0074   0.0005  -0.0065  -0.0020   0.00   34.0
2173 206631.000   -218300.9727  -5246694.8934   3608099.6768   1   8   0.0039   0.0094   0.0072  -0.0011  -0.0066  -0.0018   0.00   33.9
2173 206632.000   -218300.9730  -5246694.8896   3608099.6770   1   8   0.0037   0.0094   0.0072  -0.0015  -0.0067  -0.0012   0.00   33.8
2173 206633.000   -218300.9723  -5246694.8886   3608099.6734   1   8   0.0040   0.0095   0.0074  -0.0012  -0.0065  -0.0017   0.00   33.7
2173 206634.000   -218300.9735  -5246694.8921   3608099.6748   1   8   0.0036   0.0095   0.0072  -0.0021  -0.0067  -0.0020   0.00   33.4
2173 206635.000   -218300.9737  -5246694.8921   3608099.6743   1   8   0.0040   0.0095   0.0071  -0.0014  -0.0066  -0.0020   0.00   33.3
2173 206636.000   -218300.9730  -5246694.8916   3608099.6737   1   8   0.0036   0.0094   0.0070  -0.0020  -0.0067  -0.0020   0.00   33.1
2173 206637.000   -218300.9749  -5246694.8899   3608099.6746   1   8   0.0036   0.0095   0.0071  -0.0023  -0.0066  -0.0019   0.00   32.9
2173 206638.000   -218300.9733  -5246694.8857   3608099.6732   1   8   0.0038   0.0095   0.0073  -0.0015  -0.0066  -0.0019   0.00   32.7
2173 206639.000   -218300.9746  -5246694.8869   3608099.6711   1   8   0.0034   0.0094   0.0072  -0.0021  -0.0067  -0.0020   0.00   32.5
2173 206640.000   -218300.9761  -5246694.8894   3608099.6744   1   8   0.0041   0.0095   0.0073  -0.0006  -0.0066  -0.0016   0.00   32.4
2173 206641.000   -218300.9732  -5246694.8898   3608099.6715   1   8   0.0039   0.0095   0.0073  -0.0022  -0.0066  -0.0019   0.00   32.3
2173 206642.000   -218300.9736  -5246694.8911   3608099.6739   1   8   0.0037   0.0095   0.0071  -0.0020  -0.0066  -0.0018   0.00   32.1
2173 206643.000   -218300.9735  -5246694.8894   3608099.6734   1   8   0.0039   0.0094   0.0071  -0.0018  -0.0067  -0.0022   0.00   31.9
2173 206644.000   -218300.9743  -5246694.8865   3608099.6730   1   8   0.0046   0.0096   0.0073  -0.0009  -0.0065  -0.0012   0.00   31.7
2173 206645.000   -218300.9751  -5246694.8843   3608099.6739   1   8   0.0043   0.0095   0.0072  -0.0020  -0.0067  -0.0016   0.00   31.5
2173 206646.000   -218300.9726  -5246694.8886   3608099.6715   1   8   0.0044   0.0095   0.0073  -0.0011  -0.0066  -0.0018   0.00   31.3
2173 206647.000   -218300.9732  -5246694.8829   3608099.6683   1   8   0.0043   0.0095   0.0072  -0.0014  -0.0065  -0.0011   0.00   31.2
2173 206648.000   -218300.9731  -5246694.8897   3608099.6760   1   8   0.0039   0.0095   0.0072  -0.0016  -0.0067  -0.0018   0.00   31.1
2173 206649.000   -218300.9741  -5246694.8904   3608099.6785   1   8   0.0038   0.0095   0.0073  -0.0020  -0.0067  -0.0016   0.00   30.9
2173 206650.000   -218300.9738  -5246694.8877   3608099.6716   1   8   0.0044   0.0097   0.0073  -0.0010  -0.0064  -0.0016   0.00   30.8
2173 206651.000   -218300.9730  -5246694.8909   3608099.6756   1   8   0.0039   0.0094   0.0072  -0.0020  -0.0067  -0.0023   0.00   30.8
2173 206652.000   -218300.9742  -5246694.8917   3608099.6735   1   8   0.0031   0.0093   0.0071  -0.0019  -0.0067  -0.0019   0.00   30.7
2173 206653.000   -218300.9733  -5246694.8882   3608099.6733   1   8   0.0040   0.0095   0.0074  -0.0016  -0.0067  -0.0017   0.00   30.5
2173 206654.000   -218300.9741  -5246694.8945   3608099.6770   1   8   0.0039   0.0094   0.0072  -0.0008  -0.0066  -0.0018   0.00   30.4
2173 206655.000   -218300.9733  -5246694.8928   3608099.6723   1   8   0.0043   0.0095   0.0072  -0.0015  -0.0065  -0.0013   0.00   30.3
2173 206656.000   -218300.9738  -5246694.8893   3608099.6712   1   8   0.0042   0.0095   0.0072  -0.0012  -0.0066  -0.0013   0.00   30.2
2173 206657.000   -218300.9744  -5246694.8888   3608099.6774   1   8   0.0044   0.0095   0.0072   0.0005  -0.0066  -0.0017   0.00   30.0
2173 206658.000   -218300.9753  -5246694.8926   3608099.6782   1   8   0.0039   0.0096   0.0073  -0.0020  -0.0065  -0.0009   0.00   30.0
2173 206659.000   -218300.9742  -5246694.8910   3608099.6768   1   8   0.0036   0.0094   0.0072  -0.0010  -0.0067  -0.0020   0.00   29.8
2173 206660.000   -218300.9736  -5246694.8935   3608099.6740   1   8   0.0043   0.0095   0.0073   0.0015  -0.0066  -0.0009   0.00   29.7
2173 206661.000   -218300.9733  -5246694.8896   3608099.6733   1   8   0.0037   0.0094   0.0072  -0.0014  -0.0066  -0.0021   0.00   29.6
2173 206662.000   -218300.9750  -5246694.8937   3608099.6774   1   8   0.0042   0.0096   0.0072  -0.0017  -0.0065  -0.0008   0.00   29.4
2173 206663.000   -218300.9754  -5246694.8913   3608099.6775   1   8   0.0038   0.0096   0.0074  -0.0004  -0.0065  -0.0007   0.00   29.3
2173 206664.000   -218300.9735  -5246694.8960   3608099.6792   1   8   0.0037   0.0093   0.0072  -0.0009  -0.0067  -0.0012   0.00   29.1
2173 206665.000   -218300.9742  -5246694.8953   3608099.6788   1   8   0.0042   0.0095   0.0072  -0.0015  -0.0067  -0.0015   0.00   29.0
2173 206666.000   -218300.9729  -5246694.8932   3608099.6766   1   8   0.0040   0.0095   0.0074   0.0007  -0.0066  -0.0013   0.00   28.8
2173 206667.000   -218300.9733  -5246694.8959   3608099.6792   1   8   0.0044   0.0095   0.0072   0.0014  -0.0065  -0.0017   0.00   28.7
2173 206668.000   -218300.9731  -5246694.8915   3608099.6732   1   8   0.0038   0.0092   0.0072  -0.0011  -0.0068  -0.0021   0.00   28.6
2173 206669.000   -218300.9735  -5246694.8934   3608099.6764   1   8   0.0039   0.0094   0.0072  -0.0020  -0.0066  -0.0014   0.00   28.5
2173 206670.000   -218300.9734  -5246694.8961   3608099.6800   1   8   0.0041   0.0096   0.0073  -0.0016  -0.0065  -0.0017   0.00   28.3
2173 206671.000   -218300.9734  -5246694.8949   3608099.6759   1   8   0.0037   0.0093   0.0073  -0.0016  -0.0067  -0.0023   0.00   28.2
2173 206672.000   -218300.9729  -5246694.8887   3608099.6733   1   8   0.0040   0.0095   0.0071  -0.0020  -0.0067  -0.0018   0.00   28.1
2173 206673.000   -218300.9724  -5246694.8911   3608099.6744   1   8   0.0044   0.0096   0.0071  -0.0018  -0.0065  -0.0014   0.00   28.0
2173 206674.000   -218300.9733  -5246694.8910   3608099.6759   1   8   0.0040   0.0095   0.0071  -0.0024  -0.0067  -0.0011   0.00   27.9
2173 206675.000   -218300.9729  -5246694.8939   3608099.6776   1   8   0.0039   0.0095   0.0072  -0.0018  -0.0066  -0.0015   0.00   27.9
2173 206676.000   -218300.9737  -5246694.8872   3608099.6741   1   8   0.0040   0.0095   0.0071  -0.0021  -0.0066  -0.0010   0.00   27.7
2173 206677.000   -218300.9747  -5246694.8937   3608099.6764   1   8   0.0037   0.0093   0.0071  -0.0019  -0.0067  -0.0016   0.00   27.6
2173 206678.000   -218300.9745  -5246694.8946   3608099.6742   1   8   0.0036   0.0096   0.0072  -0.0021  -0.0065  -0.0005   0.00   27.5
2173 206679.000   -218300.9738  -5246694.8949   3608099.6764   1   8   0.0042   0.0095   0.0072  -0.0004  -0.0065  -0.0008   0.00   27.4
2173 206680.000   -218300.9736  -5246694.8934   3608099.6742   1   8   0.0042   0.0094   0.0073   0.0016  -0.0066  -0.0017   0.00   27.3
2173 206681.000   -218300.9737  -5246694.8958   3608099.6766   1   8   0.0048   0.0097   0.0073   0.0016  -0.0063  -0.0002   0.00   27.2
2173 206682.000   -218300.9747  -5246694.8957   3608099.6739   1   8   0.0039   0.0095   0.0071  -0.0027  -0.0067  -0.0019   0.00   27.1
2173 206683.000   -218300.9742  -5246694.8985   3608099.6775   1   8   0.0042   0.0096   0.0071   0.0003  -0.0064  -0.0004   0.00   27.0
2173 206684.000   -218300.9738  -5246694.8943   3608099.6716   1   8   0.0035   0.0094   0.0071  -0.0024  -0.0067  -0.0023   0.00   26.9
2173 206685.000   -218300.9736  -5246694.8963   3608099.6773   1   8   0.0039   0.0093   0.0071  -0.0012  -0.0066  -0.0015   0.00   26.7
2173 206686.000   -218300.9733  -5246694.8923   3608099.6744   1   8   0.0042   0.0095   0.0072  -0.0020  -0.0067  -0.0019   0.00   26.7
2173 206687.000   -218300.9736  -5246694.8977   3608099.6771   1   8   0.0037   0.0094   0.0072  -0.0018  -0.0067  -0.0017   0.00   26.6
2173 206688.000   -218300.9760  -5246694.8922   3608099.6738   1   8   0.0040   0.0095   0.0072  -0.0023  -0.0065  -0.0017   0.00   26.6
2173 206689.000   -218300.9740  -5246694.8980   3608099.6796   1   8   0.0040   0.0094   0.0074   0.0016  -0.0066  -0.0013   0.00   26.5
2173 206690.000   -218300.9741  -5246694.8972   3608099.6774   1   8   0.0034   0.0095   0.0072  -0.0020  -0.0067  -0.0020   0.00   26.4
2173 206691.000   -218300.9752  -5246694.8975   3608099.6795   1   8   0.0038   0.0095   0.0073   0.0011  -0.0064  -0.0021   0.00   26.3
2173 206692.000   -218300.9725  -5246694.8986   3608099.6772   1   8   0.0042   0.0095   0.0072   0.0012  -0.0065  -0.0017   0.00   26.2
2173 206693.000   -218300.9743  -5246694.8897   3608099.6712   1   8   0.0037   0.0094   0.0070  -0.0019  -0.0066  -0.0017   0.00   26.1
2173 206694.000   -218300.9755  -5246694.8965   3608099.6756   1   8   0.0042   0.0095   0.0072  -0.0019  -0.0066  -0.0016   0.00   26.0
2173 206695.000   -218300.9743  -5246694.8944   3608099.6771   1   8   0.0041   0.0096   0.0073  -0.0018  -0.0065  -0.0009   0.00   25.9
2173 206696.000   -218300.9748  -5246694.8974   3608099.6784   1   8   0.0038   0.0095   0.0069  -0.0028  -0.0066  -0.0020   0.00   25.8
2173 206697.000   -218300.9736  -5246694.8974   3608099.6770   1   8   0.0041   0.0095   0.0072  -0.0009  -0.0066  -0.0016   0.00   25.7
2173 206698.000   -218300.9738  -5246694.8962   3608099.6780   1   8   0.0042   0.0096   0.0072  -0.0007  -0.0064  -0.0020   0.00   25.7
2173 206699.000   -218300.9724  -5246694.8976   3608099.6749   1   8   0.0044   0.0094   0.0072  -0.0008  -0.0066  -0.0012   0.00   25.6
2173 206700.000   -218300.9751  -5246694.8995   3608099.6786   1   8   0.0042   0.0094   0.0071  -0.0017  -0.0068  -0.0015   0.00   25.5
2173 206701.000   -218300.9748  -5246694.8949   3608099.6740   1   8   0.0040   0.0095   0.0071  -0.0009  -0.0065  -0.0013   0.00   25.5
2173 206702.000   -218300.9764  -5246694.8926   3608099.6735   1   8   0.0044   0.0096   0.0074  -0.0017  -0.0065  -0.0009   0.00   25.3
2173 206703.000   -218300.9740  -5246694.8962   3608099.6769   1   8   0.0040   0.0095   0.0074  -0.0022  -0.0066  -0.0021   0.00   25.2
2173 206704.000   -218300.9753  -5246694.8950   3608099.6728   1   8   0.0039   0.0095   0.0072   0.0011  -0.0066  -0.0019   0.00   25.1
2173 206705.000   -218300.9740  -5246694.8942   3608099.6776   1   8   0.0038   0.0095   0.0070  -0.0016  -0.0066  -0.0015   0.00   24.9
2173 206706.000   -218300.9757  -5246694.9011   3608099.6794   1   8   0.0041   0.0094   0.0072  -0.0020  -0.0067  -0.0019   0.00   24.8
2173 206707.000   -218300.9770  -5246694.8970   3608099.6749   1   8   0.0039   0.0096   0.0073  -0.0020  -0.0065  -0.0015   0.00   24.6
2173 206708.000   -218300.9760  -5246694.8948   3608099.6744   1   8   0.0040   0.0094   0.0072  -0.0011  -0.0066   0.0003   0.00   24.5
2173 206709.000   -218300.9744  -5246694.8977   3608099.6749   1   8   0.0042   0.0095   0.0071  -0.0005  -0.0066   0.0008   0.00   24.4
2173 206710.000   -218300.9751  -5246694.8906   3608099.6758   1   8   0.0041   0.0096   0.0071  -0.0020  -0.0065  -0.0010   0.00   24.2
2173 206711.000   -218300.9740  -5246694.8987   3608099.6765   1   8   0.0041   0.0094   0.0071  -0.0011  -0.0066  -0.0012   0.00   24.1
2173 206712.000   -218300.9774  -5246694.8938   3608099.6760   1   8   0.0041   0.0096   0.0072  -0.0020  -0.0065  -0.0013   0.00   24.1
