% program   : rnx2rtkp ver.2.4.3 b31
% inp file  : ngs/21_08_31_18_18_23_okdt.obs
% inp file  : ngs/21_08_31_18_18_23_okdt_VZ.obs
% inp file  : ngs/21_08_31_18_18_23_brdc.nav
% obs start : 2021/08/31 18:00:00.0 GPST (week2173 237600.0s)
% obs end   : 2021/08/31 18:59:59.0 GPST (week2173 241199.0s)
% ref pos   :  -688033.7737  -5158311.4450   3675952.2011
%
% (x/y/z-ecef=WGS84,Q=1:fix,2:float,3:sbas,4:dgps,5:single,6:ppp,ns=# of satellites)
%  GPST              x-ecef(m)      y-ecef(m)      z-ecef(m)   Q  ns   sdx(m)   sdy(m)   sdz(m)  sdxy(m)  sdyz(m)  sdzx(m) age(s)  ratio
2173 238682.000   -679342.9072  -5154773.4904   3682489.4070   2   7   0.4452   1.1021   1.1340   0.4115  -0.9677  -0.4829 -30.00    1.7
2173 238683.000   -679342.9103  -5154773.4889   3682489.4177   2   7   0.3164   0.7858   0.8087   0.2925  -0.6908  -0.3431 -29.00    1.8
2173 238684.000   -679342.9122  -5154773.4894   3682489.4208   2   7   0.2590   0.6437   0.6625   0.2393  -0.5660  -0.2808 -28.00    1.9
2173 238685.000   -679342.9123  -5154773.4873   3682489.4172   2   7   0.2247   0.5586   0.5748   0.2075  -0.4911  -0.2436 -27.00    1.9
2173 238686.000   -679342.9148  -5154773.4872   3682489.4210   2   7   0.2013   0.5003   0.5148   0.1858  -0.4398  -0.2181 -26.00    2.0
2173 238687.000   -679342.9167  -5154773.4907   3682489.4253   2   7   0.1839   0.4571   0.4703   0.1697  -0.4018  -0.1993 -25.00    2.0
2173 238688.000   -679342.9182  -5154773.4948   3682489.4286   2   7   0.1704   0.4235   0.4357   0.1571  -0.3722  -0.1846 -24.00    2.1
2173 238689.000   -679342.9190  -5154773.4951   3682489.4305   2   7   0.1595   0.3964   0.4077   0.1470  -0.3483  -0.1727 -23.00    2.1
2173 238690.000   -679342.9195  -5154773.4969   3682489.4335   2   7   0.1504   0.3738   0.3845   0.1386  -0.3285  -0.1628 -22.00    2.2
2173 238691.000   -679342.9210  -5154773.4964   3682489.4369   2   7   0.1427   0.3548   0.3648   0.1314  -0.3117  -0.1545 -21.00    2.2
2173 238692.000   -679342.9208  -5154773.4967   3682489.4400   2   7   0.1361   0.3383   0.3478   0.1253  -0.2972  -0.1473 -20.00    2.3
2173 238693.000   -679342.9211  -5154773.4985   3682489.4436   2   7   0.1303   0.3239   0.3330   0.1199  -0.2845  -0.1409 -19.00    2.3
2173 238694.000   -679342.9199  -5154773.4962   3682489.4445   2   7   0.1251   0.3112   0.3198   0.1151  -0.2733  -0.1353 -18.00    2.3
2173 238695.000   -679342.9184  -5154773.4956   3682489.4469   2   7   0.1205   0.2998   0.3081   0.1109  -0.2633  -0.1303 -17.00    2.4
2173 238696.000   -679342.9184  -5154773.4949   3682489.4467   2   7   0.1164   0.2896   0.2975   0.1070  -0.2543  -0.1258 -16.00    2.3
2173 238697.000   -679342.9158  -5154773.4928   3682489.4500   2   7   0.1127   0.2804   0.2880   0.1036  -0.2462  -0.1217 -15.00    2.4
2173 238698.000   -679342.9161  -5154773.4932   3682489.4508   2   7   0.1092   0.2719   0.2792   0.1004  -0.2388  -0.1180 -14.00    2.3
2173 238699.000   -679342.9158  -5154773.4952   3682489.4549   2   7   0.1061   0.2642   0.2712   0.0975  -0.2319  -0.1145 -13.00    2.3
2173 238700.000   -679342.9146  -5154773.4964   3682489.4578   2   7   0.1032   0.2570   0.2638   0.0948  -0.2257  -0.1113 -12.00    2.3
2173 238701.000   -679342.9138  -5154773.4932   3682489.4555   2   7   0.1005   0.2504   0.2569   0.0923  -0.2198  -0.1084 -11.00    2.2
2173 238702.000   -679342.9139  -5154773.4936   3682489.4602   2   7   0.0980   0.2443   0.2505   0.0899  -0.2144  -0.1056 -10.00    2.2
2173 238703.000   -679342.9137  -5154773.4940   3682489.4616   2   7   0.0957   0.2386   0.2446   0.0878  -0.2094  -0.1031  -9.00    2.1
2173 238704.000   -679342.9112  -5154773.4881   3682489.4579   2   7   0.0935   0.2332   0.2390   0.0858  -0.2047  -0.1007  -8.00    2.1
2173 238705.000   -679342.9122  -5154773.4907   3682489.4614   2   7   0.0915   0.2282   0.2337   0.0838  -0.2002  -0.0984  -7.00    2.0
2173 238706.000   -679342.9116  -5154773.4914   3682489.4651   2   7   0.0896   0.2235   0.2288   0.0820  -0.1960  -0.0963  -6.00    1.9
2173 238707.000   -679342.9115  -5154773.4906   3682489.4684   2   7   0.0878   0.2190   0.2241   0.0803  -0.1921  -0.0943  -5.00    1.9
2173 238708.000   -679342.9133  -5154773.4952   3682489.4764   2   7   0.0861   0.2148   0.2196   0.0787  -0.1883  -0.0924  -4.00    1.8
2173 238709.000   -679342.9126  -5154773.4972   3682489.4796   2   7   0.0845   0.2108   0.2154   0.0772  -0.1847  -0.0906  -3.00    1.7
2173 238710.000   -679342.9132  -5154773.4960   3682489.4845   2   7   0.0830   0.2070   0.2114   0.0758  -0.1813  -0.0888  -2.00    1.6
2173 238711.000   -679342.9136  -5154773.4971   3682489.4906   2   7   0.0815   0.2035   0.2076   0.0744  -0.1781  -0.0872  -1.00    1.5
2173 238712.000   -679342.9157  -5154773.5054   3682489.5001   2   7   0.0802   0.2001   0.2040   0.0731  -0.1751  -0.0857   0.00    1.5
2173 238713.000   -679342.9155  -5154773.5053   3682489.5064   2   7   0.0789   0.1969   0.2006   0.0719  -0.1722  -0.0842   0.00    1.5
2173 238714.000   -679342.9165  -5154773.5041   3682489.5073   2   7   0.0777   0.1938   0.1973   0.0707  -0.1694  -0.0828   0.00    1.5
2173 238715.000   -679342.9174  -5154773.5054   3682489.5101   2   7   0.0765   0.1909   0.1942   0.0695  -0.1668  -0.0815   0.00    1.5
2173 238716.000   -679342.9176  -5154773.5030   3682489.5065   2   7   0.0753   0.1880   0.1911   0.0685  -0.1642  -0.0802   0.00    1.5
2173 238717.000   -679342.9173  -5154773.5038   3682489.5065   2   7   0.0743   0.1853   0.1882   0.0674  -0.1618  -0.0789   0.00    1.5
2173 238718.000   -679342.9180  -5154773.5009   3682489.5035   2   7   0.0732   0.1827   0.1854   0.0664  -0.1594  -0.0777   0.00    1.5
2173 238719.000   -679342.9178  -5154773.4953   3682489.4957   2   7   0.0722   0.1802   0.1827   0.0654  -0.1571  -0.0766   0.00    1.5
2173 238720.000   -679342.9203  -5154773.5026   3682489.5109   2   7   0.0713   0.1778   0.1801   0.0645  -0.1549  -0.0755   0.00    1.5
2173 238721.000   -679342.9222  -5154773.5049   3682489.5144   2   7   0.0704   0.1755   0.1775   0.0636  -0.1528  -0.0744   0.00    1.5
2173 238722.000   -679342.9214  -5154773.5074   3682489.5175   2   7   0.0694   0.1733   0.1750   0.0627  -0.1507  -0.0733   0.00    1.5
2173 238723.000   -679342.9214  -5154773.5037   3682489.5121   2   7   0.0686   0.1711   0.1726   0.0618  -0.1487  -0.0723   0.00    1.5
2173 238724.000   -679342.9221  -5154773.5078   3682489.5180   2   7   0.0678   0.1690   0.1703   0.0610  -0.1468  -0.0713   0.00    1.5
2173 238725.000   -679342.9248  -5154773.5172   3682489.5263   2   7   0.0670   0.1669   0.1680   0.0602  -0.1449  -0.0703   0.00    1.4
2173 238726.000   -679342.9249  -5154773.5204   3682489.5319   2   7   0.0662   0.1650   0.1658   0.0593  -0.1430  -0.0693   0.00    1.4
2173 238727.000   -679342.9262  -5154773.5196   3682489.5331   2   7   0.0654   0.1631   0.1636   0.0586  -0.1412  -0.0684   0.00    1.4
2173 238728.000   -679342.9257  -5154773.5223   3682489.5384   2   7   0.0647   0.1612   0.1615   0.0579  -0.1395  -0.0675   0.00    1.4
2173 238729.000   -679342.9229  -5154773.5166   3682489.5302   2   7   0.0640   0.1594   0.1594   0.0571  -0.1378  -0.0666   0.00    1.5
2173 238730.000   -679342.9229  -5154773.5140   3682489.5316   2   7   0.0633   0.1576   0.1574   0.0564  -0.1361  -0.0657   0.00    1.5
2173 238731.000   -679342.9230  -5154773.5195   3682489.5340   2   7   0.0626   0.1559   0.1554   0.0557  -0.1345  -0.0648   0.00    1.5
2173 238732.000   -679342.9241  -5154773.5188   3682489.5382   2   7   0.0620   0.1543   0.1534   0.0550  -0.1329  -0.0640   0.00    1.5
2173 238733.000   -679342.9241  -5154773.5218   3682489.5404   2   7   0.0613   0.1526   0.1515   0.0543  -0.1313  -0.0632   0.00    1.5
2173 238734.000   -679342.9256  -5154773.5222   3682489.5430   2   7   0.0607   0.1511   0.1496   0.0537  -0.1298  -0.0624   0.00    1.5
2173 238735.000   -679342.9277  -5154773.5275   3682489.5496   2   7   0.0601   0.1495   0.1478   0.0530  -0.1283  -0.0616   0.00    1.4
2173 238736.000   -679342.9303  -5154773.5329   3682489.5577   2   7   0.0595   0.1480   0.1460   0.0524  -0.1268  -0.0608   0.00    1.4
2173 238737.000   -679342.9292  -5154773.5333   3682489.5590   2   7   0.0589   0.1465   0.1442   0.0518  -0.1254  -0.0600   0.00    1.5
2173 238738.000   -679342.9269  -5154773.5343   3682489.5618   2   7   0.0583   0.1451   0.1425   0.0511  -0.1240  -0.0593   0.00    1.5
2173 238739.000   -679342.9261  -5154773.5328   3682489.5571   2   7   0.0578   0.1437   0.1408   0.0506  -0.1226  -0.0585   0.00    1.4
2173 238740.000   -679342.9302  -5154773.5396   3682489.5684   2   7   0.0572   0.1423   0.1391   0.0500  -0.1212  -0.0578   0.00    1.4
2173 238741.000   -679342.9302  -5154773.5405   3682489.5704   2   7   0.0567   0.1410   0.1374   0.0494  -0.1199  -0.0571   0.00    1.4
2173 238742.000   -679342.9316  -5154773.5438   3682489.5761   2   7   0.0562   0.1397   0.1358   0.0488  -0.1186  -0.0564   0.00    1.4
2173 238743.000   -679342.9346  -5154773.5466   3682489.5820   2   7   0.0557   0.1384   0.1342   0.0482  -0.1173  -0.0557   0.00    1.4
2173 238744.000   -679342.9323  -5154773.5470   3682489.5823   2   7   0.0553   0.1371   0.1326   0.0477  -0.1160  -0.0550   0.00    1.4
2173 238745.000   -679342.9332  -5154773.5473   3682489.5863   2   7   0.0548   0.1359   0.1310   0.0471  -0.1148  -0.0543   0.00    1.4
2173 238746.000   -679342.9371  -5154773.5534   3682489.5929   2   7   0.0543   0.1347   0.1295   0.0466  -0.1136  -0.0536   0.00    1.4
2173 238747.000   -679342.9363  -5154773.5557   3682489.5970   2   7   0.0538   0.1335   0.1280   0.0461  -0.1124  -0.0530   0.00    1.4
2173 238748.000   -679342.9381  -5154773.5577   3682489.6041   2   7   0.0534   0.1323   0.1265   0.0456  -0.1112  -0.0523   0.00    1.4
2173 238749.000   -679342.9387  -5154773.5592   3682489.6107   2   7   0.0529   0.1312   0.1251   0.0451  -0.1101  -0.0517   0.00    1.4
2173 238750.000   -679342.9385  -5154773.5584   3682489.6123   2   7   0.0525   0.1301   0.1236   0.0446  -0.1089  -0.0510   0.00    1.4
2173 238751.000   -679342.9369  -5154773.5625   3682489.6171   2   7   0.0521   0.1290   0.1222   0.0441  -0.1078  -0.0505   0.00    1.4
2173 238752.000   -679342.9391  -5154773.5689   3682489.6257   2   7   0.0516   0.1279   0.1208   0.0436  -0.1067  -0.0498   0.00    1.4
2173 238753.000   -679342.9410  -5154773.5740   3682489.6291   2   7   0.0513   0.1269   0.1194   0.0431  -0.1056  -0.0492   0.00    1.4
2173 238754.000   -679342.9393  -5154773.5711   3682489.6271   2   7   0.0508   0.1258   0.1181   0.0426  -0.1046  -0.0486   0.00    1.4
2173 238755.000   -679342.9399  -5154773.5680   3682489.6291   2   7   0.0504   0.1248   0.1167   0.0422  -0.1035  -0.0480   0.00    1.4
2173 238756.000   -679342.9394  -5154773.5735   3682489.6338   2   7   0.0501   0.1238   0.1154   0.0417  -0.1025  -0.0475   0.00    1.4
2173 238757.000   -679342.9374  -5154773.5693   3682489.6276   2   7   0.0497   0.1228   0.1141   0.0413  -0.1015  -0.0469   0.00    1.5
2173 238758.000   -679342.9368  -5154773.5694   3682489.6271   2   7   0.0493   0.1219   0.1128   0.0409  -0.1005  -0.0463   0.00    1.5
2173 238759.000   -679342.9364  -5154773.5695   3682489.6260   2   7   0.0490   0.1209   0.1116   0.0404  -0.0995  -0.0458   0.00    1.5
2173 238760.000   -679342.9362  -5154773.5656   3682489.6218   2   7   0.0486   0.1200   0.1103   0.0400  -0.0985  -0.0452   0.00    1.5
2173 238761.000   -679342.9353  -5154773.5642   3682489.6222   2   7   0.0483   0.1191   0.1091   0.0396  -0.0976  -0.0447   0.00    1.5
2173 238762.000   -679342.9344  -5154773.5626   3682489.6172   2   7   0.0479   0.1182   0.1079   0.0392  -0.0966  -0.0442   0.00    1.5
2173 238763.000   -679342.9337  -5154773.5597   3682489.6130   2   7   0.0476   0.1173   0.1067   0.0387  -0.0957  -0.0436   0.00    1.5
2173 238764.000   -679342.9310  -5154773.5562   3682489.6117   2   7   0.0472   0.1165   0.1056   0.0384  -0.0948  -0.0431   0.00    1.5
2173 238765.000   -679342.9312  -5154773.5546   3682489.6110   2   7   0.0468   0.1156   0.1044   0.0380  -0.0939  -0.0427   0.00    1.5
2173 238766.000   -679342.9302  -5154773.5534   3682489.6082   2   7   0.0466   0.1148   0.1033   0.0376  -0.0931  -0.0421   0.00    1.5
2173 238767.000   -679342.9296  -5154773.5497   3682489.6029   2   7   0.0462   0.1140   0.1021   0.0372  -0.0922  -0.0416   0.00    1.5
2173 238768.000   -679342.9276  -5154773.5469   3682489.5992   2   7   0.0459   0.1132   0.1010   0.0368  -0.0913  -0.0411   0.00    1.5
2173 238769.000   -679342.9275  -5154773.5421   3682489.5974   2   7   0.0456   0.1124   0.0999   0.0365  -0.0905  -0.0406   0.00    1.5
2173 238770.000   -679342.9278  -5154773.5472   3682489.6020   2   7   0.0453   0.1116   0.0989   0.0361  -0.0897  -0.0402   0.00    1.5
2173 238771.000   -679342.9272  -5154773.5432   3682489.5966   2   7   0.0451   0.1108   0.0978   0.0358  -0.0889  -0.0397   0.00    1.5
2173 238772.000   -679342.9269  -5154773.5387   3682489.5926   2   7   0.0448   0.1101   0.0968   0.0354  -0.0881  -0.0392   0.00    1.5
2173 238773.000   -679342.9272  -5154773.5399   3682489.5930   2   7   0.0445   0.1093   0.0958   0.0350  -0.0873  -0.0388   0.00    1.5
2173 238774.000   -679342.9253  -5154773.5407   3682489.5906   2   7   0.0442   0.1086   0.0948   0.0348  -0.0865  -0.0383   0.00    1.5
2173 238775.000   -679342.9215  -5154773.5364   3682489.5828   2   7   0.0439   0.1079   0.0937   0.0343  -0.0858  -0.0379   0.00    1.5
2173 238776.000   -679342.9195  -5154773.5369   3682489.5816   2   7   0.0436   0.1072   0.0928   0.0341  -0.0850  -0.0375   0.00    1.5
2173 238777.000   -679342.9200  -5154773.5334   3682489.5788   2   7   0.0434   0.1065   0.0918   0.0337  -0.0843  -0.0370   0.00    1.5
2173 238778.000   -679342.9193  -5154773.5322   3682489.5776   2   7   0.0431   0.1058   0.0909   0.0333  -0.0835  -0.0366   0.00    1.6
2173 238779.000   -679342.9205  -5154773.5380   3682489.5860   2   7   0.0429   0.1051   0.0899   0.0330  -0.0828  -0.0362   0.00    1.6
2173 238780.000   -679342.9200  -5154773.5407   3682489.5832   2   7   0.0426   0.1044   0.0890   0.0327  -0.0821  -0.0357   0.00    1.6
2173 238781.000   -679342.9198  -5154773.5417   3682489.5845   2   7   0.0424   0.1038   0.0881   0.0324  -0.0814  -0.0354   0.00    1.6
2173 238782.000   -679342.9170  -5154773.5405   3682489.5817   2   7   0.0421   0.1031   0.0872   0.0321  -0.0807  -0.0350   0.00    1.6
2173 238783.000   -679342.9171  -5154773.5446   3682489.5838   2   7   0.0418   0.1025   0.0863   0.0318  -0.0801  -0.0346   0.00    1.6
2173 238784.000   -679342.9157  -5154773.5395   3682489.5829   2   7   0.0416   0.1019   0.0854   0.0315  -0.0794  -0.0342   0.00    1.6
2173 238785.000   -679342.9177  -5154773.5416   3682489.5840   2   7   0.0414   0.1012   0.0846   0.0313  -0.0788  -0.0338   0.00    1.6
2173 238786.000   -679342.9151  -5154773.5470   3682489.5880   2   7   0.0411   0.1006   0.0837   0.0310  -0.0781  -0.0334   0.00    1.6
2173 238787.000   -679342.9141  -5154773.5458   3682489.5836   2   7   0.0409   0.1000   0.0829   0.0307  -0.0775  -0.0331   0.00    1.6
2173 238788.000   -679342.9123  -5154773.5464   3682489.5844   2   7   0.0407   0.0994   0.0821   0.0304  -0.0769  -0.0326   0.00    1.6
2173 238789.000   -679342.9145  -5154773.5590   3682489.5922   2   7   0.0405   0.0989   0.0813   0.0301  -0.0763  -0.0323   0.00    1.6
2173 238790.000   -679342.9141  -5154773.5566   3682489.5925   2   7   0.0403   0.0983   0.0805   0.0298  -0.0757  -0.0320   0.00    1.6
2173 238791.000   -679342.9125  -5154773.5586   3682489.5980   2   7   0.0400   0.0977   0.0797   0.0296  -0.0751  -0.0316   0.00    1.6
2173 238792.000   -679342.9132  -5154773.5577   3682489.5972   2   7   0.0398   0.0972   0.0790   0.0293  -0.0745  -0.0313   0.00    1.6
2173 238793.000   -679342.9134  -5154773.5625   3682489.6008   2   7   0.0396   0.0966   0.0782   0.0291  -0.0739  -0.0310   0.00    1.6
2173 238794.000   -679342.9151  -5154773.5617   3682489.6061   2   7   0.0394   0.0961   0.0775   0.0288  -0.0733  -0.0306   0.00    1.6
2173 238795.000   -679342.9163  -5154773.5635   3682489.6102   2   7   0.0391   0.0955   0.0767   0.0285  -0.0728  -0.0303   0.00    1.6
2173 238796.000   -679342.9173  -5154773.5702   3682489.6167   2   7   0.0390   0.0950   0.0760   0.0283  -0.0722  -0.0300   0.00    1.6
2173 238797.000   -679342.9183  -5154773.5740   3682489.6236   2   7   0.0388   0.0945   0.0753   0.0281  -0.0717  -0.0296   0.00    1.6
2173 238798.000   -679342.9180  -5154773.5824   3682489.6346   2   7   0.0386   0.0940   0.0746   0.0278  -0.0712  -0.0293   0.00    1.6
2173 238799.000   -679342.9203  -5154773.5799   3682489.6399   2   7   0.0384   0.0935   0.0739   0.0276  -0.0706  -0.0290   0.00    1.6
2173 238800.000   -679342.9211  -5154773.5823   3682489.6390   2   7   0.0382   0.0930   0.0732   0.0273  -0.0701  -0.0287   0.00    1.7
2173 238801.000   -679342.9206  -5154773.5853   3682489.6428   2   7   0.0380   0.0925   0.0725   0.0272  -0.0696  -0.0284   0.00    1.7
2173 238802.000   -679342.9187  -5154773.5799   3682489.6350   2   7   0.0378   0.0920   0.0718   0.0269  -0.0691  -0.0281   0.00    1.7
2173 238803.000   -679342.9166  -5154773.5815   3682489.6328   2   7   0.0376   0.0915   0.0712   0.0267  -0.0686  -0.0278   0.00    1.7
2173 238804.000   -679342.9177  -5154773.5804   3682489.6333   2   7   0.0375   0.0911   0.0706   0.0264  -0.0681  -0.0275   0.00    1.7
2173 238805.000   -679342.9151  -5154773.5785   3682489.6348   2   7   0.0373   0.0906   0.0699   0.0263  -0.0676  -0.0272   0.00    1.7
2173 238806.000   -679342.9172  -5154773.5847   3682489.6405   2   7   0.0372   0.0901   0.0693   0.0259  -0.0672  -0.0270   0.00    1.7
2173 238807.000   -679342.9177  -5154773.5895   3682489.6439   2   7   0.0370   0.0897   0.0687   0.0258  -0.0667  -0.0267   0.00    1.7
2173 238808.000   -679342.9166  -5154773.5819   3682489.6382   2   7   0.0368   0.0892   0.0681   0.0256  -0.0663  -0.0264   0.00    1.7
2173 238809.000   -679342.9172  -5154773.5938   3682489.6480   2   7   0.0366   0.0888   0.0675   0.0255  -0.0658  -0.0261   0.00    1.7
2173 238810.000   -679342.9163  -5154773.5937   3682489.6510   2   7   0.0365   0.0883   0.0669   0.0253  -0.0654  -0.0259   0.00    1.7
2173 238811.000   -679342.9159  -5154773.5943   3682489.6516   2   7   0.0363   0.0879   0.0663   0.0250  -0.0649  -0.0256   0.00    1.7
2173 238812.000   -679342.9158  -5154773.5948   3682489.6537   2   7   0.0361   0.0875   0.0657   0.0249  -0.0645  -0.0254   0.00    1.7
2173 238813.000   -679342.9162  -5154773.5930   3682489.6510   2   7   0.0360   0.0870   0.0652   0.0247  -0.0641  -0.0251   0.00    1.7
2173 238814.000   -679342.9162  -5154773.5936   3682489.6517   2   7   0.0358   0.0866   0.0646   0.0244  -0.0636  -0.0249   0.00    1.7
2173 238815.000   -679342.9158  -5154773.5902   3682489.6534   2   7   0.0357   0.0862   0.0641   0.0242  -0.0632  -0.0246   0.00    1.7
2173 238816.000   -679342.9130  -5154773.5871   3682489.6482   2   7   0.0355   0.0858   0.0635   0.0242  -0.0628  -0.0244   0.00    1.7
2173 238817.000   -679342.9118  -5154773.5896   3682489.6475   2   7   0.0354   0.0854   0.0630   0.0240  -0.0624  -0.0241   0.00    1.7
2173 238818.000   -679342.9155  -5154773.5925   3682489.6528   2   7   0.0352   0.0850   0.0625   0.0237  -0.0620  -0.0239   0.00    1.7
2173 238819.000   -679342.9173  -5154773.5965   3682489.6562   2   7   0.0350   0.0846   0.0620   0.0235  -0.0616  -0.0236   0.00    1.7
2173 238820.000   -679342.9141  -5154773.5973   3682489.6555   2   7   0.0349   0.0842   0.0615   0.0234  -0.0612  -0.0235   0.00    1.8
2173 238821.000   -679342.9150  -5154773.5988   3682489.6610   2   7   0.0347   0.0838   0.0610   0.0232  -0.0608  -0.0232   0.00    1.8
2173 238822.000   -679342.9135  -5154773.6006   3682489.6634   2   7   0.0346   0.0835   0.0605   0.0230  -0.0605  -0.0230   0.00    1.8
2173 238823.000   -679342.9126  -5154773.5983   3682489.6611   2   7   0.0345   0.0831   0.0600   0.0230  -0.0601  -0.0228   0.00    1.8
2173 238824.000   -679342.9128  -5154773.6027   3682489.6667   2   7   0.0343   0.0827   0.0595   0.0227  -0.0597  -0.0225   0.00    1.8
2173 238825.000   -679342.9106  -5154773.6036   3682489.6675   2   7   0.0342   0.0824   0.0590   0.0225  -0.0594  -0.0222   0.00    1.8
2173 238826.000   -679342.9112  -5154773.6058   3682489.6697   2   7   0.0341   0.0820   0.0586   0.0223  -0.0590  -0.0221   0.00    1.8
2173 238827.000   -679342.9101  -5154773.6056   3682489.6675   2   7   0.0339   0.0816   0.0581   0.0223  -0.0587  -0.0219   0.00    1.8
2173 238828.000   -679342.9114  -5154773.6099   3682489.6764   2   7   0.0338   0.0813   0.0577   0.0221  -0.0583  -0.0217   0.00    1.8
2173 238829.000   -679342.9109  -5154773.6132   3682489.6795   2   7   0.0337   0.0809   0.0572   0.0219  -0.0580  -0.0215   0.00    1.8
2173 238830.000   -679342.9113  -5154773.6136   3682489.6794   2   7   0.0336   0.0806   0.0568   0.0217  -0.0577  -0.0213   0.00    1.8
2173 238831.000   -679342.9127  -5154773.6165   3682489.6838   2   7   0.0334   0.0802   0.0563   0.0217  -0.0573  -0.0210   0.00    1.8
2173 238832.000   -679342.9104  -5154773.6206   3682489.6868   2   7   0.0332   0.0799   0.0559   0.0215  -0.0570  -0.0209   0.00    1.8
2173 238833.000   -679342.9107  -5154773.6264   3682489.6936   2   7   0.0332   0.0796   0.0555   0.0214  -0.0567  -0.0207   0.00    1.8
2173 238834.000   -679342.9125  -5154773.6305   3682489.6970   2   7   0.0330   0.0792   0.0551   0.0212  -0.0563  -0.0205   0.00    1.8
2173 238835.000   -679342.9170  -5154773.6405   3682489.7095   2   7   0.0329   0.0789   0.0547   0.0210  -0.0560  -0.0203   0.00    1.8
2173 238836.000   -679342.9151  -5154773.6417   3682489.7124   2   7   0.0327   0.0786   0.0543   0.0210  -0.0557  -0.0201   0.00    1.8
2173 238837.000   -679342.9161  -5154773.6476   3682489.7230   2   7   0.0327   0.0783   0.0539   0.0208  -0.0554  -0.0200   0.00    1.8
2173 238838.000   -679342.9188  -5154773.6525   3682489.7306   2   7   0.0325   0.0779   0.0535   0.0208  -0.0551  -0.0198   0.00    1.8
2173 238839.000   -679342.9203  -5154773.6591   3682489.7344   2   7   0.0324   0.0776   0.0531   0.0205  -0.0548  -0.0196   0.00    1.8
2173 238840.000   -679342.9205  -5154773.6643   3682489.7409   2   7   0.0323   0.0773   0.0527   0.0203  -0.0545  -0.0194   0.00    1.8
2173 238841.000   -679342.9191  -5154773.6645   3682489.7399   2   7   0.0322   0.0770   0.0523   0.0203  -0.0542  -0.0193   0.00    1.8
2173 238842.000   -679342.9191  -5154773.6694   3682489.7462   2   7   0.0321   0.0767   0.0520   0.0201  -0.0539  -0.0191   0.00    1.8
2173 238843.000   -679342.9212  -5154773.6733   3682489.7491   2   7   0.0319   0.0764   0.0516   0.0200  -0.0536  -0.0189   0.00    1.8
2173 238844.000   -679342.9197  -5154773.6780   3682489.7561   2   7   0.0319   0.0761   0.0512   0.0198  -0.0534  -0.0187   0.00    1.8
2173 238845.000   -679342.9198  -5154773.6834   3682489.7599   2   7   0.0318   0.0758   0.0509   0.0197  -0.0531  -0.0186   0.00    1.8
2173 238846.000   -679342.9196  -5154773.6848   3682489.7655   2   7   0.0317   0.0755   0.0505   0.0196  -0.0528  -0.0183   0.00    1.8
2173 238847.000   -679342.9223  -5154773.6890   3682489.7733   2   7   0.0315   0.0752   0.0502   0.0195  -0.0526  -0.0183   0.00    1.8
2173 238848.000   -679342.9220  -5154773.6972   3682489.7811   2   7   0.0314   0.0749   0.0498   0.0194  -0.0523  -0.0181   0.00    1.8
2173 238849.000   -679342.9210  -5154773.6968   3682489.7863   2   7   0.0313   0.0746   0.0495   0.0192  -0.0520  -0.0180   0.00    1.8
2173 238850.000   -679342.9226  -5154773.6974   3682489.7909   2   7   0.0312   0.0743   0.0492   0.0191  -0.0517  -0.0178   0.00    1.8
2173 238851.000   -679342.9232  -5154773.7020   3682489.7988   2   7   0.0311   0.0741   0.0488   0.0190  -0.0515  -0.0177   0.00    1.8
2173 238852.000   -679342.9236  -5154773.7087   3682489.8085   2   7   0.0311   0.0738   0.0485   0.0188  -0.0512  -0.0174   0.00    1.8
2173 238853.000   -679342.9243  -5154773.7089   3682489.8111   2   7   0.0309   0.0735   0.0482   0.0187  -0.0510  -0.0173   0.00    1.8
2173 238854.000   -679342.9257  -5154773.7172   3682489.8165   2   7   0.0308   0.0732   0.0478   0.0187  -0.0507  -0.0172   0.00    1.8
2173 238855.000   -679342.9269  -5154773.7212   3682489.8176   2   7   0.0307   0.0730   0.0475   0.0186  -0.0505  -0.0170   0.00    1.8
2173 238856.000   -679342.9275  -5154773.7262   3682489.8262   2   7   0.0305   0.0727   0.0472   0.0185  -0.0502  -0.0170   0.00    1.8
2173 238857.000   -679342.9263  -5154773.7270   3682489.8258   2   7   0.0305   0.0724   0.0469   0.0184  -0.0500  -0.0168   0.00    1.8
2173 238858.000   -679342.9266  -5154773.7281   3682489.8259   2   7   0.0305   0.0722   0.0466   0.0181  -0.0498  -0.0166   0.00    1.8
2173 238859.000   -679342.9264  -5154773.7263   3682489.8265   2   7   0.0303   0.0719   0.0463   0.0181  -0.0495  -0.0165   0.00    1.8
2173 238860.000   -679342.9240  -5154773.7208   3682489.8233   2   7   0.0302   0.0717   0.0460   0.0181  -0.0493  -0.0164   0.00    1.8
2173 238861.000   -679342.9242  -5154773.7234   3682489.8267   2   7   0.0301   0.0714   0.0457   0.0180  -0.0491  -0.0162   0.00    1.8
2173 238862.000   -679342.9235  -5154773.7248   3682489.8278   2   7   0.0300   0.0711   0.0455   0.0178  -0.0488  -0.0161   0.00    1.8
2173 238863.000   -679342.9251  -5154773.7314   3682489.8342   2   7   0.0299   0.0709   0.0452   0.0177  -0.0486  -0.0160   0.00    1.8
2173 238864.000   -679342.9261  -5154773.7325   3682489.8340   2   7   0.0297   0.0706   0.0449   0.0177  -0.0484  -0.0159   0.00    1.8
2173 238865.000   -679342.9261  -5154773.7354   3682489.8351   2   7   0.0298   0.0704   0.0446   0.0175  -0.0482  -0.0157   0.00    1.8
2173 238866.000   -679342.9268  -5154773.7383   3682489.8413   2   7   0.0297   0.0702   0.0444   0.0175  -0.0479  -0.0155   0.00    1.8
2173 238867.000   -679342.9264  -5154773.7380   3682489.8391   2   7   0.0295   0.0699   0.0441   0.0173  -0.0477  -0.0154   0.00    1.8
2173 238868.000   -679342.9264  -5154773.7449   3682489.8487   2   7   0.0295   0.0696   0.0438   0.0172  -0.0475  -0.0154   0.00    1.8
2173 238869.000   -679342.9277  -5154773.7440   3682489.8507   2   7   0.0294   0.0694   0.0435   0.0171  -0.0473  -0.0152   0.00    1.8
2173 238870.000   -679342.9249  -5154773.7465   3682489.8479   2   7   0.0293   0.0692   0.0433   0.0169  -0.0471  -0.0149   0.00    1.8
2173 238871.000   -679342.9276  -5154773.7488   3682489.8536   2   7   0.0292   0.0689   0.0430   0.0168  -0.0469  -0.0149   0.00    1.8
2173 238872.000   -679342.9239  -5154773.7486   3682489.8488   2   7   0.0291   0.0687   0.0428   0.0169  -0.0467  -0.0149   0.00    1.8
2173 238873.000   -679342.9232  -5154773.7516   3682489.8531   2   7   0.0290   0.0685   0.0425   0.0168  -0.0465  -0.0147   0.00    1.8
2173 238874.000   -679342.9225  -5154773.7502   3682489.8529   2   7   0.0289   0.0683   0.0423   0.0167  -0.0463  -0.0146   0.00    1.8
2173 238875.000   -679342.9249  -5154773.7527   3682489.8563   2   7   0.0289   0.0680   0.0421   0.0166  -0.0461  -0.0146   0.00    1.8
2173 238876.000   -679342.9223  -5154773.7534   3682489.8587   2   7   0.0287   0.0678   0.0418   0.0165  -0.0459  -0.0144   0.00    1.8
2173 238877.000   -679342.9245  -5154773.7556   3682489.8621   2   7   0.0287   0.0676   0.0416   0.0165  -0.0457  -0.0143   0.00    1.8
2173 238878.000   -679342.9235  -5154773.7599   3682489.8644   2   7   0.0285   0.0673   0.0413   0.0165  -0.0455  -0.0143   0.00    1.8
2173 238879.000   -679342.9238  -5154773.7597   3682489.8684   2   7   0.0285   0.0671   0.0411   0.0162  -0.0453  -0.0141   0.00    1.8
2173 238880.000   -679342.9249  -5154773.7612   3682489.8703   2   7   0.0284   0.0669   0.0409   0.0163  -0.0451  -0.0140   0.00    1.8
2173 238881.000   -679342.9238  -5154773.7563   3682489.8698   2   7   0.0283   0.0667   0.0407   0.0161  -0.0449  -0.0138   0.00    1.8
2173 238882.000   -679342.9238  -5154773.7591   3682489.8709   2   7   0.0282   0.0665   0.0404   0.0160  -0.0448  -0.0138   0.00    1.8
2173 238883.000   -679342.9246  -5154773.7635   3682489.8749   2   7   0.0282   0.0662   0.0402   0.0159  -0.0446  -0.0137   0.00    1.8
2173 238884.000   -679342.9246  -5154773.7557   3682489.8721   2   7   0.0281   0.0660   0.0400   0.0159  -0.0444  -0.0136   0.00    1.8
2173 238885.000   -679342.9232  -5154773.7565   3682489.8683   2   7   0.0280   0.0658   0.0398   0.0157  -0.0442  -0.0134   0.00    1.8
2173 238886.000   -679342.9233  -5154773.7614   3682489.8729   2   7   0.0280   0.0656   0.0396   0.0157  -0.0441  -0.0133   0.00    1.8
2173 238887.000   -679342.9235  -5154773.7577   3682489.8719   2   7   0.0279   0.0654   0.0393   0.0156  -0.0439  -0.0133   0.00    1.8
2173 238888.000   -679342.9237  -5154773.7598   3682489.8756   2   7   0.0278   0.0652   0.0392   0.0156  -0.0437  -0.0132   0.00    1.8
2173 238889.000   -679342.9249  -5154773.7617   3682489.8773   2   7   0.0278   0.0650   0.0389   0.0155  -0.0435  -0.0131   0.00    1.8
2173 238890.000   -679342.9251  -5154773.7628   3682489.8794   2   7   0.0276   0.0648   0.0387   0.0155  -0.0433  -0.0130   0.00    1.8
2173 238891.000   -679342.9260  -5154773.7640   3682489.8846   2   7   0.0276   0.0646   0.0385   0.0153  -0.0432  -0.0129   0.00    1.8
2173 238892.000   -679342.9279  -5154773.7660   3682489.8863   2   7   0.0276   0.0644   0.0383   0.0152  -0.0430  -0.0128   0.00    1.8
2173 238893.000   -679342.9281  -5154773.7661   3682489.8883   2   7   0.0275   0.0642   0.0381   0.0151  -0.0429  -0.0126   0.00    1.8
2173 238894.000   -679342.9281  -5154773.7651   3682489.8888   2   7   0.0273   0.0640   0.0379   0.0151  -0.0427  -0.0125   0.00    1.8
2173 238895.000   -679342.9276  -5154773.7630   3682489.8902   2   7   0.0273   0.0638   0.0377   0.0149  -0.0425  -0.0126   0.00    1.8
2173 238896.000   -679342.9273  -5154773.7612   3682489.8872   2   7   0.0272   0.0636   0.0375   0.0150  -0.0424  -0.0124   0.00    1.8
2173 238897.000   -679342.9271  -5154773.7588   3682489.8856   2   7   0.0272   0.0634   0.0374   0.0148  -0.0422  -0.0122   0.00    1.8
2173 238898.000   -679342.9264  -5154773.7621   3682489.8882   2   7   0.0270   0.0632   0.0372   0.0148  -0.0420  -0.0123   0.00    1.7
2173 238899.000   -679342.9283  -5154773.7647   3682489.8904   2   7   0.0270   0.0630   0.0370   0.0148  -0.0419  -0.0122   0.00    1.7
2173 238900.000   -679342.9258  -5154773.7604   3682489.8885   2   7   0.0269   0.0628   0.0368   0.0147  -0.0417  -0.0121   0.00    1.7
2173 238901.000   -679342.9266  -5154773.7626   3682489.8931   2   7   0.0268   0.0626   0.0366   0.0146  -0.0416  -0.0120   0.00    1.7
2173 238902.000   -679342.9264  -5154773.7612   3682489.8922   2   7   0.0268   0.0625   0.0364   0.0145  -0.0414  -0.0119   0.00    1.7
2173 238903.000   -679342.9273  -5154773.7631   3682489.8950   2   7   0.0267   0.0623   0.0363   0.0145  -0.0413  -0.0119   0.00    1.7
2173 238904.000   -679342.9299  -5154773.7626   3682489.8939   2   7   0.0267   0.0621   0.0361   0.0144  -0.0411  -0.0117   0.00    1.7
2173 238905.000   -679342.9275  -5154773.7617   3682489.8905   2   7   0.0266   0.0619   0.0359   0.0145  -0.0410  -0.0117   0.00    1.7
2173 238906.000   -679342.9271  -5154773.7607   3682489.8891   2   7   0.0265   0.0617   0.0358   0.0144  -0.0408  -0.0116   0.00    1.7
2173 238907.000   -679342.9271  -5154773.7610   3682489.8899   2   7   0.0264   0.0615   0.0356   0.0142  -0.0407  -0.0115   0.00    1.7
2173 238908.000   -679342.9295  -5154773.7640   3682489.8910   2   7   0.0264   0.0613   0.0354   0.0141  -0.0405  -0.0115   0.00    1.7
2173 238909.000   -679342.9291  -5154773.7639   3682489.8932   2   7   0.0264   0.0612   0.0353   0.0142  -0.0404  -0.0114   0.00    1.7
2173 238910.000   -679342.9275  -5154773.7652   3682489.8931   2   7   0.0263   0.0610   0.0351   0.0140  -0.0403  -0.0114   0.00    1.7
2173 238911.000   -679342.9269  -5154773.7629   3682489.8929   2   7   0.0262   0.0608   0.0349   0.0141  -0.0401  -0.0113   0.00    1.7
2173 238912.000   -679342.9286  -5154773.7632   3682489.8929   2   7   0.0261   0.0606   0.0348   0.0140  -0.0400  -0.0111   0.00    1.7
2173 238913.000   -679342.9292  -5154773.7648   3682489.8964   2   7   0.0261   0.0605   0.0346   0.0139  -0.0398  -0.0110   0.00    1.7
2173 238914.000   -679342.9289  -5154773.7631   3682489.8961   2   7   0.0261   0.0603   0.0344   0.0138  -0.0397  -0.0109   0.00    1.7
2173 238915.000   -679342.9291  -5154773.7603   3682489.8927   2   7   0.0260   0.0601   0.0343   0.0137  -0.0396  -0.0109   0.00    1.7
2173 238916.000   -679342.9312  -5154773.7661   3682489.9016   2   7   0.0258   0.0599   0.0341   0.0138  -0.0394  -0.0109   0.00    1.7
2173 238917.000   -679342.9293  -5154773.7629   3682489.8977   2   7   0.0258   0.0598   0.0340   0.0137  -0.0393  -0.0109   0.00    1.7
2173 238918.000   -679342.9299  -5154773.7606   3682489.8949   2   7   0.0258   0.0596   0.0338   0.0136  -0.0392  -0.0107   0.00    1.7
2173 238919.000   -679342.9322  -5154773.7652   3682489.8981   2   7   0.0257   0.0594   0.0337   0.0137  -0.0390  -0.0107   0.00    1.7
2173 238920.000   -679342.9329  -5154773.7658   3682489.9026   2   7   0.0256   0.0593   0.0336   0.0134  -0.0389  -0.0106   0.00    1.7
2173 238921.000   -679342.9330  -5154773.7670   3682489.9038   2   7   0.0255   0.0591   0.0334   0.0135  -0.0388  -0.0105   0.00    1.7
2173 238922.000   -679342.9325  -5154773.7658   3682489.9015   2   7   0.0254   0.0589   0.0332   0.0136  -0.0386  -0.0107   0.00    1.7
2173 238923.000   -679342.9321  -5154773.7622   3682489.9011   2   7   0.0254   0.0588   0.0331   0.0134  -0.0385  -0.0104   0.00    1.7
2173 238924.000   -679342.9352  -5154773.7674   3682489.9059   2   7   0.0252   0.0586   0.0330   0.0134  -0.0384  -0.0104   0.00    1.7
2173 238925.000   -679342.9334  -5154773.7632   3682489.9021   2   7   0.0253   0.0584   0.0328   0.0132  -0.0382  -0.0103   0.00    1.7
2173 238926.000   -679342.9357  -5154773.7658   3682489.9036   2   7   0.0253   0.0583   0.0327   0.0131  -0.0381  -0.0101   0.00    1.7
2173 238927.000   -679342.9348  -5154773.7653   3682489.9029   2   7   0.0252   0.0581   0.0325   0.0131  -0.0380  -0.0102   0.00    1.7
2173 238928.000   -679342.9392  -5154773.7629   3682489.9051   2   7   0.0252   0.0580   0.0324   0.0131  -0.0379  -0.0101   0.00    1.7
2173 238929.000   -679342.9361  -5154773.7628   3682489.9042   2   7   0.0251   0.0578   0.0323   0.0129  -0.0378  -0.0100   0.00    1.7
2173 238930.000   -679342.9364  -5154773.7578   3682489.9004   2   7   0.0250   0.0576   0.0321   0.0129  -0.0376  -0.0099   0.00    1.7
2173 238931.000   -679342.9370  -5154773.7630   3682489.9047   2   7   0.0250   0.0575   0.0320   0.0129  -0.0375  -0.0099   0.00    1.7
2173 238932.000   -679342.9371  -5154773.7619   3682489.9027   2   7   0.0250   0.0573   0.0319   0.0128  -0.0374  -0.0099   0.00    1.7
2173 238933.000   -679342.9352  -5154773.7606   3682489.9020   2   7   0.0248   0.0572   0.0318   0.0129  -0.0373  -0.0097   0.00    1.7
2173 238934.000   -679342.9349  -5154773.7553   3682489.8994   2   7   0.0248   0.0570   0.0316   0.0127  -0.0372  -0.0097   0.00    1.7
2173 238935.000   -679342.9345  -5154773.7546   3682489.8977   2   7   0.0247   0.0569   0.0315   0.0127  -0.0371  -0.0097   0.00    1.7
2173 238936.000   -679342.9345  -5154773.7487   3682489.8924   2   7   0.0246   0.0567   0.0314   0.0128  -0.0369  -0.0097   0.00    1.7
2173 238937.000   -679342.9332  -5154773.7517   3682489.8945   2   7   0.0246   0.0566   0.0313   0.0125  -0.0368  -0.0095   0.00    1.7
2173 238938.000   -679342.9345  -5154773.7488   3682489.8949   2   7   0.0246   0.0564   0.0311   0.0124  -0.0367  -0.0094   0.00    1.7
2173 238939.000   -679342.9345  -5154773.7457   3682489.8941   2   7   0.0246   0.0563   0.0310   0.0126  -0.0366  -0.0093   0.00    1.7
2173 238940.000   -679342.9361  -5154773.7462   3682489.8995   2   7   0.0245   0.0561   0.0309   0.0124  -0.0365  -0.0094   0.00    1.7
2173 238941.000   -679342.9358  -5154773.7413   3682489.8903   2   7   0.0245   0.0560   0.0307   0.0123  -0.0364  -0.0092   0.00    1.7
2173 238942.000   -679342.9363  -5154773.7430   3682489.8909   2   7   0.0244   0.0558   0.0306   0.0123  -0.0363  -0.0091   0.00    1.7
2173 238943.000   -679342.9357  -5154773.7415   3682489.8881   2   7   0.0243   0.0557   0.0305   0.0123  -0.0362  -0.0092   0.00    1.7
2173 238944.000   -679342.9361  -5154773.7426   3682489.8893   2   7   0.0243   0.0555   0.0304   0.0123  -0.0360  -0.0092   0.00    1.7
2173 238945.000   -679342.9361  -5154773.7426   3682489.8887   2   7   0.0243   0.0554   0.0303   0.0121  -0.0360  -0.0090   0.00    1.7
2173 238946.000   -679342.9368  -5154773.7460   3682489.8934   2   7   0.0242   0.0552   0.0301   0.0121  -0.0358  -0.0090   0.00    1.7
2173 238947.000   -679342.9376  -5154773.7433   3682489.8916   2   7   0.0241   0.0551   0.0300   0.0120  -0.0357  -0.0089   0.00    1.7
2173 238948.000   -679342.9367  -5154773.7422   3682489.8912   2   7   0.0241   0.0549   0.0300   0.0121  -0.0356  -0.0089   0.00    1.7
2173 238949.000   -679342.9377  -5154773.7424   3682489.8904   2   7   0.0240   0.0548   0.0298   0.0120  -0.0355  -0.0088   0.00    1.7
2173 238950.000   -679342.9347  -5154773.7377   3682489.8838   2   7   0.0238   0.0547   0.0297   0.0120  -0.0354  -0.0089   0.00    1.7
2173 238951.000   -679342.9398  -5154773.7481   3682489.8943   2   7   0.0239   0.0545   0.0296   0.0120  -0.0353  -0.0088   0.00    1.7
2173 238952.000   -679342.9377  -5154773.7448   3682489.8909   2   7   0.0238   0.0544   0.0295   0.0119  -0.0352  -0.0087   0.00    1.7
2173 238953.000   -679342.9388  -5154773.7403   3682489.8858   2   7   0.0239   0.0542   0.0294   0.0119  -0.0351  -0.0088   0.00    1.7
2173 238954.000   -679342.9378  -5154773.7381   3682489.8842   2   7   0.0237   0.0541   0.0293   0.0119  -0.0350  -0.0087   0.00    1.7
2173 238955.000   -679342.9394  -5154773.7384   3682489.8847   2   7   0.0237   0.0539   0.0292   0.0118  -0.0349  -0.0087   0.00    1.7
2173 238956.000   -679342.9389  -5154773.7375   3682489.8836   2   7   0.0237   0.0538   0.0291   0.0117  -0.0348  -0.0085   0.00    1.7
2173 238957.000   -679342.9403  -5154773.7348   3682489.8818   2   7   0.0236   0.0537   0.0290   0.0117  -0.0347  -0.0085   0.00    1.7
2173 238958.000   -679342.9382  -5154773.7338   3682489.8821   2   7   0.0237   0.0535   0.0288   0.0116  -0.0346  -0.0084   0.00    1.7
2173 238959.000   -679342.9425  -5154773.7325   3682489.8797   2   7   0.0235   0.0534   0.0288   0.0117  -0.0345  -0.0085   0.00    1.7
2173 238960.000   -679342.9407  -5154773.7322   3682489.8779   2   7   0.0235   0.0533   0.0287   0.0117  -0.0344  -0.0084   0.00    1.7
2173 238961.000   -679342.9405  -5154773.7332   3682489.8804   2   7   0.0235   0.0531   0.0285   0.0115  -0.0343  -0.0083   0.00    1.7
2173 238962.000   -679342.9428  -5154773.7338   3682489.8791   2   7   0.0232   0.0530   0.0284   0.0115  -0.0342  -0.0083   0.00    1.7
2173 238963.000   -679342.9429  -5154773.7350   3682489.8795   2   7   0.0234   0.0529   0.0283   0.0115  -0.0341  -0.0084   0.00    1.7
2173 238964.000   -679342.9407  -5154773.7264   3682489.8701   2   7   0.0234   0.0528   0.0283   0.0114  -0.0340  -0.0081   0.00    1.7
2173 238965.000   -679342.9401  -5154773.7232   3682489.8667   2   7   0.0232   0.0526   0.0282   0.0116  -0.0339  -0.0082   0.00    1.7
2173 238966.000   -679342.9378  -5154773.7212   3682489.8619   2   7   0.0232   0.0525   0.0281   0.0112  -0.0338  -0.0081   0.00    1.7
2173 238967.000   -679342.9410  -5154773.7219   3682489.8627   2   7   0.0231   0.0524   0.0280   0.0113  -0.0337  -0.0081   0.00    1.7
2173 238968.000   -679342.9405  -5154773.7239   3682489.8641   2   7   0.0231   0.0522   0.0279   0.0112  -0.0336  -0.0080   0.00    1.7
2173 238969.000   -679342.9403  -5154773.7207   3682489.8569   2   7   0.0230   0.0521   0.0278   0.0112  -0.0335  -0.0080   0.00    1.7
2173 238970.000   -679342.9412  -5154773.7226   3682489.8626   2   7   0.0230   0.0520   0.0277   0.0111  -0.0334  -0.0080   0.00    1.7
2173 238971.000   -679342.9415  -5154773.7144   3682489.8581   2   7   0.0229   0.0519   0.0276   0.0112  -0.0333  -0.0079   0.00    1.7
2173 238972.000   -679342.9428  -5154773.7180   3682489.8585   2   7   0.0229   0.0517   0.0275   0.0113  -0.0333  -0.0080   0.00    1.7
2173 238973.000   -679342.9428  -5154773.7165   3682489.8576   2   7   0.0229   0.0516   0.0274   0.0110  -0.0332  -0.0076   0.00    1.7
2173 238974.000   -679342.9437  -5154773.7121   3682489.8568   2   7   0.0228   0.0514   0.0273   0.0110  -0.0331  -0.0078   0.00    1.7
2173 238975.000   -679342.9426  -5154773.7095   3682489.8541   2   7   0.0227   0.0513   0.0272   0.0110  -0.0330  -0.0076   0.00    1.7
2173 238976.000   -679342.9442  -5154773.7095   3682489.8552   2   7   0.0227   0.0512   0.0271   0.0110  -0.0329  -0.0078   0.00    1.7
2173 238977.000   -679342.9441  -5154773.7076   3682489.8542   2   7   0.0227   0.0511   0.0271   0.0109  -0.0328  -0.0077   0.00    1.7
2173 238978.000   -679342.9445  -5154773.7091   3682489.8542   2   7   0.0226   0.0509   0.0269   0.0110  -0.0327  -0.0078   0.00    1.7
2173 238979.000   -679342.9465  -5154773.7127   3682489.8532   2   7   0.0226   0.0508   0.0268   0.0108  -0.0326  -0.0075   0.00    1.7
2173 238980.000   -679342.9459  -5154773.7079   3682489.8499   2   7   0.0226   0.0507   0.0268   0.0108  -0.0326  -0.0075   0.00    1.7
2173 238981.000   -679342.9452  -5154773.7090   3682489.8522   2   7   0.0225   0.0506   0.0267   0.0107  -0.0324  -0.0073   0.00    1.7
2173 238982.000   -679342.9458  -5154773.7050   3682489.8479   2   7   0.0224   0.0505   0.0266   0.0107  -0.0324  -0.0074   0.00    1.7
2173 238983.000   -679342.9487  -5154773.7134   3682489.8565   2   7   0.0225   0.0504   0.0265   0.0107  -0.0323  -0.0074   0.00    1.7
2173 238984.000   -679342.9449  -5154773.7029   3682489.8437   2   7   0.0225   0.0503   0.0264   0.0106  -0.0322  -0.0074   0.00    1.7
2173 238985.000   -679342.9473  -5154773.6960   3682489.8422   2   7   0.0223   0.0501   0.0264   0.0107  -0.0321  -0.0074   0.00    1.7
2173 238986.000   -679342.9481  -5154773.6993   3682489.8439   2   7   0.0223   0.0500   0.0263   0.0105  -0.0320  -0.0072   0.00    1.7
2173 238987.000   -679342.9487  -5154773.7003   3682489.8457   2   7   0.0222   0.0498   0.0262   0.0106  -0.0320  -0.0073   0.00    1.7
2173 238988.000   -679342.9495  -5154773.6987   3682489.8422   2   7   0.0223   0.0498   0.0261   0.0104  -0.0319  -0.0072   0.00    1.7
2173 238989.000   -679342.9519  -5154773.7043   3682489.8494   2   7   0.0222   0.0496   0.0261   0.0104  -0.0318  -0.0071   0.00    1.7
2173 238990.000   -679342.9535  -5154773.7045   3682489.8489   2   7   0.0222   0.0495   0.0260   0.0102  -0.0317  -0.0071   0.00    1.7
2173 238991.000   -679342.9516  -5154773.7015   3682489.8445   2   7   0.0221   0.0494   0.0259   0.0106  -0.0316  -0.0072   0.00    1.7
2173 238992.000   -679342.9536  -5154773.7021   3682489.8493   2   7   0.0222   0.0493   0.0258   0.0104  -0.0316  -0.0070   0.00    1.7
2173 238993.000   -679342.9532  -5154773.6992   3682489.8463   2   7   0.0220   0.0492   0.0257   0.0103  -0.0315  -0.0071   0.00    1.7
2173 238994.000   -679342.9538  -5154773.6984   3682489.8439   2   7   0.0220   0.0491   0.0257   0.0102  -0.0314  -0.0070   0.00    1.7
2173 238995.000   -679342.9559  -5154773.6989   3682489.8452   2   7   0.0220   0.0490   0.0256   0.0102  -0.0313  -0.0067   0.00    1.7
2173 238996.000   -679342.9551  -5154773.6976   3682489.8431   2   7   0.0220   0.0488   0.0255   0.0101  -0.0312  -0.0069   0.00    1.7
2173 238997.000   -679342.9551  -5154773.6946   3682489.8421   2   7   0.0219   0.0487   0.0254   0.0103  -0.0312  -0.0069   0.00    1.7
2173 238998.000   -679342.9572  -5154773.6995   3682489.8440   2   7   0.0219   0.0486   0.0254   0.0102  -0.0311  -0.0069   0.00    1.7
2173 238999.000   -679342.9562  -5154773.6894   3682489.8369   2   7   0.0219   0.0485   0.0253   0.0101  -0.0310  -0.0069   0.00    1.7
2173 239000.000   -679342.9576  -5154773.6896   3682489.8387   2   7   0.0217   0.0484   0.0252   0.0103  -0.0309  -0.0068   0.00    1.7
2173 239001.000   -679342.9585  -5154773.6859   3682489.8381   2   7   0.0217   0.0483   0.0252   0.0102  -0.0308  -0.0069   0.00    1.7
2173 239002.000   -679342.9578  -5154773.6839   3682489.8316   2   7   0.0216   0.0481   0.0250   0.0102  -0.0307  -0.0070   0.00    1.7
2173 239003.000   -679342.9592  -5154773.6828   3682489.8326   2   7   0.0217   0.0481   0.0250   0.0100  -0.0307  -0.0066   0.00    1.7
2173 239004.000   -679342.9593  -5154773.6837   3682489.8308   2   7   0.0216   0.0479   0.0249   0.0101  -0.0306  -0.0067   0.00    1.7
2173 239005.000   -679342.9629  -5154773.6848   3682489.8349   2   7   0.0216   0.0478   0.0249   0.0100  -0.0306  -0.0067   0.00    1.7
2173 239006.000   -679342.9619  -5154773.6802   3682489.8280   2   7   0.0215   0.0477   0.0248   0.0099  -0.0305  -0.0068   0.00    1.7
2173 239007.000   -679342.9631  -5154773.6791   3682489.8285   2   7   0.0215   0.0476   0.0247   0.0100  -0.0304  -0.0067   0.00    1.7
2173 239008.000   -679342.9640  -5154773.6807   3682489.8308   2   7   0.0214   0.0475   0.0246   0.0098  -0.0303  -0.0066   0.00    1.7
2173 239009.000   -679342.9645  -5154773.6796   3682489.8277   2   7   0.0214   0.0474   0.0246   0.0099  -0.0302  -0.0066   0.00    1.7
2173 239010.000   -679342.9656  -5154773.6786   3682489.8246   2   7   0.0214   0.0473   0.0245   0.0096  -0.0302  -0.0063   0.00    1.7
2173 239011.000   -679342.9650  -5154773.6773   3682489.8236   2   7   0.0213   0.0472   0.0244   0.0096  -0.0301  -0.0065   0.00    1.7
2173 239012.000   -679342.9664  -5154773.6765   3682489.8219   2   7   0.0213   0.0471   0.0244   0.0097  -0.0300  -0.0064   0.00    1.8
2173 239013.000   -679342.9654  -5154773.6705   3682489.8129   2   7   0.0214   0.0470   0.0243   0.0097  -0.0300  -0.0063   0.00    1.8
2173 239014.000   -679342.9675  -5154773.6737   3682489.8213   2   7   0.0213   0.0469   0.0242   0.0098  -0.0299  -0.0064   0.00    1.8
2173 239015.000   -679342.9694  -5154773.6714   3682489.8208   2   7   0.0213   0.0468   0.0241   0.0096  -0.0298  -0.0062   0.00    1.8
2173 239016.000   -679342.9701  -5154773.6690   3682489.8146   2   7   0.0211   0.0466   0.0241   0.0097  -0.0297  -0.0065   0.00    1.8
2173 239017.000   -679342.9711  -5154773.6656   3682489.8146   2   7   0.0210   0.0465   0.0240   0.0098  -0.0297  -0.0064   0.00    1.8
2173 239018.000   -679342.9715  -5154773.6653   3682489.8139   2   7   0.0211   0.0464   0.0240   0.0096  -0.0296  -0.0063   0.00    1.8
2173 239019.000   -679342.9700  -5154773.6653   3682489.8132   2   7   0.0209   0.0464   0.0239   0.0096  -0.0295  -0.0064   0.00    1.8
2173 239020.000   -679342.9729  -5154773.6643   3682489.8141   2   7   0.0211   0.0463   0.0239   0.0095  -0.0295  -0.0061   0.00    1.8
2173 239021.000   -679342.9736  -5154773.6626   3682489.8118   2   7   0.0209   0.0461   0.0238   0.0097  -0.0294  -0.0063   0.00    1.8
2173 239022.000   -679342.9739  -5154773.6642   3682489.8131   2   7   0.0209   0.0460   0.0237   0.0097  -0.0293  -0.0063   0.00    1.8
2173 239023.000   -679342.9736  -5154773.6548   3682489.8034   2   7   0.0209   0.0459   0.0236   0.0095  -0.0292  -0.0060   0.00    1.8
2173 239024.000   -679342.9749  -5154773.6584   3682489.8039   2   7   0.0208   0.0458   0.0236   0.0096  -0.0292  -0.0062   0.00    1.8
2173 239025.000   -679342.9725  -5154773.6560   3682489.8010   2   7   0.0208   0.0457   0.0235   0.0095  -0.0291  -0.0062   0.00    1.8
2173 239026.000   -679342.9747  -5154773.6574   3682489.8043   2   7   0.0208   0.0456   0.0235   0.0093  -0.0291  -0.0060   0.00    1.8
2173 239027.000   -679342.9759  -5154773.6590   3682489.8055   2   7   0.0208   0.0455   0.0234   0.0094  -0.0290  -0.0060   0.00    1.8
2173 239028.000   -679342.9755  -5154773.6506   3682489.7969   2   7   0.0206   0.0454   0.0233   0.0096  -0.0289  -0.0062   0.00    1.8
2173 239029.000   -679342.9768  -5154773.6531   3682489.8036   2   7   0.0206   0.0453   0.0233   0.0093  -0.0288  -0.0062   0.00    1.8
2173 239030.000   -679342.9780  -5154773.6508   3682489.8025   2   7   0.0206   0.0452   0.0233   0.0093  -0.0288  -0.0060   0.00    1.8
2173 239031.000   -679342.9785  -5154773.6491   3682489.8002   2   7   0.0206   0.0452   0.0231   0.0092  -0.0287  -0.0062   0.00    1.8
2173 239032.000   -679342.9784  -5154773.6480   3682489.8007   2   7   0.0206   0.0450   0.0231   0.0091  -0.0287  -0.0060   0.00    1.8
2173 239033.000   -679342.9800  -5154773.6453   3682489.7982   2   7   0.0207   0.0450   0.0230   0.0092  -0.0286  -0.0057   0.00    1.8
2173 239034.000   -679342.9812  -5154773.6413   3682489.7909   2   7   0.0206   0.0449   0.0230   0.0089  -0.0285  -0.0058   0.00    1.8
2173 239035.000   -679342.9803  -5154773.6419   3682489.7917   2   7   0.0205   0.0447   0.0229   0.0093  -0.0285  -0.0060   0.00    1.8
2173 239036.000   -679342.9806  -5154773.6404   3682489.7881   2   7   0.0204   0.0447   0.0229   0.0093  -0.0284  -0.0058   0.00    1.8
2173 239037.000   -679342.9803  -5154773.6346   3682489.7852   2   7   0.0204   0.0446   0.0228   0.0092  -0.0283  -0.0058   0.00    1.8
2173 239038.000   -679342.9805  -5154773.6359   3682489.7857   2   7   0.0204   0.0445   0.0228   0.0091  -0.0283  -0.0056   0.00    1.8
2173 239039.000   -679342.9848  -5154773.6423   3682489.7894   2   7   0.0202   0.0443   0.0227   0.0092  -0.0282  -0.0059   0.00    1.8
2173 239040.000   -679342.9837  -5154773.6442   3682489.7911   2   7   0.0203   0.0443   0.0226   0.0090  -0.0281  -0.0058   0.00    1.8
2173 239041.000   -679342.9846  -5154773.6433   3682489.7885   2   7   0.0203   0.0442   0.0226   0.0090  -0.0281  -0.0058   0.00    1.8
2173 239042.000   -679342.9840  -5154773.6404   3682489.7843   2   7   0.0203   0.0441   0.0226   0.0091  -0.0280  -0.0058   0.00    1.8
2173 239043.000   -679342.9856  -5154773.6406   3682489.7858   2   7   0.0202   0.0440   0.0225   0.0090  -0.0280  -0.0058   0.00    1.8
2173 239044.000   -679342.9821  -5154773.6347   3682489.7806   2   7   0.0203   0.0439   0.0225   0.0089  -0.0279  -0.0055   0.00    1.8
2173 239045.000   -679342.9821  -5154773.6290   3682489.7755   2   7   0.0202   0.0438   0.0224   0.0089  -0.0278  -0.0057   0.00    1.8
2173 239046.000   -679342.9842  -5154773.6290   3682489.7760   2   7   0.0203   0.0437   0.0223   0.0087  -0.0278  -0.0053   0.00    1.8
2173 239047.000   -679342.9843  -5154773.6240   3682489.7707   2   7   0.0200   0.0436   0.0223   0.0090  -0.0277  -0.0056   0.00    1.8
2173 239048.000   -679342.9849  -5154773.6208   3682489.7702   2   7   0.0200   0.0435   0.0222   0.0088  -0.0276  -0.0054   0.00    1.8
2173 239049.000   -679342.9873  -5154773.6200   3682489.7691   2   7   0.0201   0.0434   0.0222   0.0089  -0.0276  -0.0056   0.00    1.8
2173 239050.000   -679342.9880  -5154773.6156   3682489.7665   2   7   0.0200   0.0434   0.0221   0.0088  -0.0275  -0.0055   0.00    1.8
2173 239051.000   -679342.9869  -5154773.6112   3682489.7623   2   7   0.0200   0.0432   0.0220   0.0088  -0.0275  -0.0055   0.00    1.8
2173 239052.000   -679342.9878  -5154773.6104   3682489.7621   2   7   0.0201   0.0432   0.0220   0.0086  -0.0274  -0.0053   0.00    1.8
2173 239053.000   -679342.9919  -5154773.6103   3682489.7610   2   7   0.0199   0.0431   0.0219   0.0088  -0.0273  -0.0055   0.00    1.8
2173 239054.000   -679342.9927  -5154773.6162   3682489.7653   2   7   0.0198   0.0430   0.0219   0.0089  -0.0273  -0.0055   0.00    1.8
2173 239055.000   -679342.9928  -5154773.6133   3682489.7636   2   7   0.0198   0.0429   0.0218   0.0086  -0.0272  -0.0052   0.00    1.8
2173 239056.000   -679342.9940  -5154773.6081   3682489.7572   2   7   0.0198   0.0428   0.0218   0.0087  -0.0272  -0.0054   0.00    1.8
2173 239057.000   -679342.9948  -5154773.6056   3682489.7565   2   7   0.0199   0.0427   0.0217   0.0085  -0.0271  -0.0052   0.00    1.8
2173 239058.000   -679342.9947  -5154773.6043   3682489.7557   2   7   0.0198   0.0426   0.0217   0.0087  -0.0270  -0.0053   0.00    1.8
2173 239059.000   -679342.9966  -5154773.6054   3682489.7560   2   7   0.0198   0.0426   0.0217   0.0085  -0.0270  -0.0052   0.00    1.8
2173 239060.000   -679342.9981  -5154773.6064   3682489.7596   2   7   0.0197   0.0425   0.0216   0.0085  -0.0270  -0.0053   0.00    1.8
2173 239061.000   -679342.9977  -5154773.6073   3682489.7571   2   7   0.0196   0.0424   0.0215   0.0085  -0.0269  -0.0053   0.00    1.8
2173 239062.000   -679342.9979  -5154773.5994   3682489.7488   2   7   0.0197   0.0423   0.0215   0.0085  -0.0268  -0.0053   0.00    1.8
2173 239063.000   -679342.9984  -5154773.5980   3682489.7474   2   7   0.0196   0.0422   0.0214   0.0085  -0.0267  -0.0051   0.00    1.8
2173 239064.000   -679342.9988  -5154773.5990   3682489.7445   2   7   0.0195   0.0421   0.0214   0.0086  -0.0267  -0.0053   0.00    1.8
2173 239065.000   -679343.0015  -5154773.5991   3682489.7469   2   7   0.0195   0.0420   0.0214   0.0086  -0.0267  -0.0052   0.00    1.8
2173 239066.000   -679342.9995  -5154773.5906   3682489.7374   2   7   0.0195   0.0419   0.0213   0.0085  -0.0266  -0.0052   0.00    1.8
2173 239067.000   -679342.9997  -5154773.5844   3682489.7353   2   7   0.0194   0.0418   0.0213   0.0085  -0.0266  -0.0051   0.00    1.8
2173 239068.000   -679343.0016  -5154773.5863   3682489.7338   2   7   0.0195   0.0418   0.0212   0.0084  -0.0265  -0.0051   0.00    1.8
2173 239069.000   -679343.0054  -5154773.5875   3682489.7344   2   7   0.0195   0.0417   0.0211   0.0085  -0.0264  -0.0049   0.00    1.8
2173 239070.000   -679343.0046  -5154773.5868   3682489.7325   2   7   0.0194   0.0416   0.0211   0.0084  -0.0264  -0.0054   0.00    1.8
2173 239071.000   -679343.0032  -5154773.5885   3682489.7373   2   7   0.0193   0.0415   0.0211   0.0086  -0.0263  -0.0053   0.00    1.8
2173 239072.000   -679343.0065  -5154773.5852   3682489.7293   2   7   0.0193   0.0414   0.0210   0.0085  -0.0263  -0.0051   0.00    1.8
2173 239073.000   -679343.0058  -5154773.5819   3682489.7263   2   7   0.0192   0.0414   0.0210   0.0084  -0.0262  -0.0053   0.00    1.8
2173 239074.000   -679343.0042  -5154773.5790   3682489.7259   2   7   0.0191   0.0413   0.0209   0.0085  -0.0261  -0.0052   0.00    1.8
2173 239075.000   -679343.0066  -5154773.5800   3682489.7264   2   7   0.0192   0.0412   0.0209   0.0084  -0.0261  -0.0051   0.00    1.8
2173 239076.000   -679343.0086  -5154773.5811   3682489.7241   2   7   0.0192   0.0411   0.0209   0.0083  -0.0260  -0.0049   0.00    1.9
2173 239077.000   -679343.0070  -5154773.5757   3682489.7215   2   7   0.0191   0.0410   0.0208   0.0083  -0.0260  -0.0051   0.00    1.9
2173 239078.000   -679343.0085  -5154773.5742   3682489.7202   2   7   0.0192   0.0409   0.0207   0.0083  -0.0259  -0.0050   0.00    1.9
2173 239079.000   -679343.0059  -5154773.5715   3682489.7203   2   7   0.0192   0.0409   0.0207   0.0081  -0.0259  -0.0047   0.00    1.9
2173 239080.000   -679343.0082  -5154773.5717   3682489.7177   2   7   0.0190   0.0408   0.0206   0.0083  -0.0258  -0.0051   0.00    1.9
2173 239081.000   -679343.0069  -5154773.5708   3682489.7172   2   7   0.0192   0.0407   0.0206   0.0079  -0.0258  -0.0048   0.00    1.9
2173 239082.000   -679343.0073  -5154773.5706   3682489.7164   2   7   0.0190   0.0406   0.0206   0.0082  -0.0257  -0.0051   0.00    1.9
2173 239083.000   -679343.0072  -5154773.5664   3682489.7147   2   7   0.0189   0.0405   0.0205   0.0081  -0.0257  -0.0051   0.00    1.9
2173 239084.000   -679343.0098  -5154773.5644   3682489.7136   2   7   0.0190   0.0405   0.0205   0.0082  -0.0256  -0.0052   0.00    1.9
2173 239085.000   -679343.0102  -5154773.5674   3682489.7147   2   7   0.0191   0.0404   0.0205   0.0078  -0.0256  -0.0048   0.00    1.9
2173 239086.000   -679343.0114  -5154773.5650   3682489.7160   2   7   0.0188   0.0403   0.0204   0.0082  -0.0255  -0.0047   0.00    1.9
2173 239087.000   -679343.0119  -5154773.5603   3682489.7087   2   7   0.0187   0.0402   0.0204   0.0082  -0.0255  -0.0052   0.00    1.9
2173 239088.000   -679343.0124  -5154773.5576   3682489.7085   2   7   0.0189   0.0401   0.0203   0.0079  -0.0254  -0.0047   0.00    1.9
2173 239089.000   -679343.0132  -5154773.5615   3682489.7128   2   7   0.0189   0.0400   0.0203   0.0079  -0.0254  -0.0047   0.00    1.9
2173 239090.000   -679343.0153  -5154773.5588   3682489.7115   2   7   0.0187   0.0400   0.0203   0.0080  -0.0253  -0.0047   0.00    1.9
2173 239091.000   -679343.0138  -5154773.5569   3682489.7083   2   7   0.0188   0.0399   0.0202   0.0079  -0.0253  -0.0048   0.00    1.9
2173 239092.000   -679343.0143  -5154773.5584   3682489.7085   2   7   0.0187   0.0398   0.0202   0.0081  -0.0252  -0.0049   0.00    1.9
2173 239093.000   -679343.0161  -5154773.5572   3682489.7087   2   7   0.0186   0.0397   0.0201   0.0082  -0.0251  -0.0050   0.00    1.9
2173 239094.000   -679343.0178  -5154773.5519   3682489.7012   2   7   0.0188   0.0397   0.0201   0.0078  -0.0251  -0.0048   0.00    1.9
2173 239095.000   -679343.0179  -5154773.5518   3682489.6999   2   7   0.0188   0.0396   0.0200   0.0079  -0.0251  -0.0045   0.00    1.9
2173 239096.000   -679343.0178  -5154773.5470   3682489.6959   2   7   0.0187   0.0395   0.0200   0.0077  -0.0250  -0.0045   0.00    1.9
2173 239097.000   -679343.0209  -5154773.5479   3682489.6971   2   7   0.0186   0.0394   0.0200   0.0079  -0.0250  -0.0046   0.00    1.9
2173 239098.000   -679343.0196  -5154773.5490   3682489.6984   2   7   0.0185   0.0394   0.0199   0.0078  -0.0249  -0.0047   0.00    1.9
2173 239099.000   -679343.0181  -5154773.5445   3682489.6938   2   7   0.0185   0.0393   0.0199   0.0080  -0.0249  -0.0048   0.00    1.9
2173 239100.000   -679343.0192  -5154773.5421   3682489.6928   2   7   0.0184   0.0392   0.0198   0.0081  -0.0248  -0.0050   0.00    1.9
2173 239101.000   -679343.0185  -5154773.5427   3682489.6960   2   7   0.0184   0.0391   0.0198   0.0079  -0.0248  -0.0046   0.00    1.9
2173 239102.000   -679343.0186  -5154773.5433   3682489.6927   2   7   0.0185   0.0390   0.0198   0.0078  -0.0247  -0.0047   0.00    1.9
2173 239103.000   -679343.0197  -5154773.5433   3682489.6953   2   7   0.0185   0.0390   0.0197   0.0078  -0.0247  -0.0048   0.00    1.9
2173 239104.000   -679343.0186  -5154773.5362   3682489.6837   2   7   0.0184   0.0389   0.0197   0.0078  -0.0246  -0.0045   0.00    1.9
2173 239105.000   -679343.0193  -5154773.5366   3682489.6836   2   7   0.0184   0.0388   0.0197   0.0078  -0.0246  -0.0045   0.00    1.9
2173 239106.000   -679343.0198  -5154773.5371   3682489.6855   2   7   0.0183   0.0388   0.0196   0.0077  -0.0245  -0.0046   0.00    1.9
2173 239107.000   -679343.0192  -5154773.5356   3682489.6807   2   7   0.0182   0.0387   0.0196   0.0079  -0.0245  -0.0049   0.00    1.9
2173 239108.000   -679343.0209  -5154773.5346   3682489.6829   2   7   0.0183   0.0386   0.0196   0.0076  -0.0245  -0.0045   0.00    1.9
2173 239109.000   -679343.0196  -5154773.5349   3682489.6844   2   7   0.0183   0.0386   0.0195   0.0078  -0.0244  -0.0044   0.00    1.9
2173 239110.000   -679343.0218  -5154773.5350   3682489.6829   2   7   0.0183   0.0385   0.0195   0.0077  -0.0244  -0.0045   0.00    1.9
2173 239111.000   -679343.0193  -5154773.5299   3682489.6784   2   7   0.0182   0.0384   0.0194   0.0077  -0.0243  -0.0045   0.00    1.9
2173 239112.000   -679343.0213  -5154773.5366   3682489.6839   2   7   0.0182   0.0383   0.0194   0.0077  -0.0243  -0.0047   0.00    1.9
2173 239113.000   -679343.0216  -5154773.5311   3682489.6783   2   7   0.0181   0.0383   0.0194   0.0078  -0.0242  -0.0045   0.00    2.0
2173 239114.000   -679343.0229  -5154773.5369   3682489.6786   2   7   0.0182   0.0382   0.0193   0.0077  -0.0241  -0.0045   0.00    2.0
