% program   : rnx2rtkp ver.2.4.3 b31
% inp file  : ngs/21_09_01_07_11_47_wylc.obs
% inp file  : ngs/21_09_01_07_11_47_wylc_SW.obs
% inp file  : ngs/21_09_01_07_11_47_brdc.nav
% obs start : 2021/09/01 07:00:00.0 GPST (week2173 284400.0s)
% obs end   : 2021/09/01 07:59:59.0 GPST (week2173 287999.0s)
% ref pos   : -1244028.4331  -4716671.0943   4095509.2832
%
% (x/y/z-ecef=WGS84,Q=1:fix,2:float,3:sbas,4:dgps,5:single,6:ppp,ns=# of satellites)
%  GPST              x-ecef(m)      y-ecef(m)      z-ecef(m)   Q  ns   sdx(m)   sdy(m)   sdz(m)  sdxy(m)  sdyz(m)  sdzx(m) age(s)  ratio
2173 285082.000  -1227802.0296  -4655145.7191   4172376.6013   2   7   0.4499   1.0853   0.7202   0.3249  -0.6627  -0.2980 -30.00    1.0
2173 285083.000  -1227802.0883  -4655145.4339   4172376.4033   2   7   0.3205   0.7728   0.5125   0.2327  -0.4716  -0.2129 -29.00    1.1
2173 285084.000  -1227802.1801  -4655145.4561   4172376.3961   2   7   0.2625   0.6328   0.4196   0.1908  -0.3861  -0.1744 -28.00    1.2
2173 285085.000  -1227802.1928  -4655145.4816   4172376.4137   2   7   0.2277   0.5491   0.3641   0.1655  -0.3350  -0.1513 -27.00    1.2
2173 285086.000  -1227802.2311  -4655145.5913   4172376.4620   2   7   0.2040   0.4917   0.3261   0.1481  -0.3000  -0.1354 -26.00    1.2
2173 285087.000  -1227802.2145  -4655145.6193   4172376.4687   2   7   0.1864   0.4493   0.2980   0.1353  -0.2742  -0.1237 -25.00    1.2
2173 285088.000  -1227802.2260  -4655145.6108   4172376.4456   2   7   0.1727   0.4163   0.2761   0.1253  -0.2540  -0.1146 -24.00    1.2
2173 285089.000  -1227802.2129  -4655145.5975   4172376.4489   2   7   0.1616   0.3896   0.2584   0.1172  -0.2377  -0.1072 -23.00    1.1
2173 285090.000  -1227802.2283  -4655145.6214   4172376.4261   2   7   0.1524   0.3675   0.2437   0.1105  -0.2242  -0.1011 -22.00    1.2
2173 285091.000  -1227802.2219  -4655145.6323   4172376.4218   2   7   0.1446   0.3487   0.2312   0.1048  -0.2128  -0.0959 -21.00    1.1
2173 285092.000  -1227802.2175  -4655145.6188   4172376.4150   2   7   0.1379   0.3325   0.2205   0.0999  -0.2029  -0.0914 -20.00    1.1
2173 285093.000  -1227802.2218  -4655145.6314   4172376.4305   2   7   0.1321   0.3184   0.2111   0.0957  -0.1942  -0.0875 -19.00    1.1
2173 285094.000  -1227802.2167  -4655145.6246   4172376.4176   2   7   0.1269   0.3058   0.2028   0.0919  -0.1866  -0.0841 -18.00    1.1
2173 285095.000  -1227802.2299  -4655145.6497   4172376.4313   2   7   0.1223   0.2947   0.1954   0.0885  -0.1797  -0.0810 -17.00    1.1
2173 285096.000  -1227802.2282  -4655145.6841   4172376.4445   2   7   0.1181   0.2846   0.1887   0.0855  -0.1736  -0.0782 -16.00    1.1
2173 285097.000  -1227802.2340  -4655145.7352   4172376.4813   2   7   0.1143   0.2755   0.1827   0.0828  -0.1680  -0.0757 -15.00    1.1
2173 285098.000  -1227802.2224  -4655145.7463   4172376.5012   2   7   0.1109   0.2671   0.1771   0.0803  -0.1629  -0.0735 -14.00    1.0
2173 285099.000  -1227802.2234  -4655145.7550   4172376.5070   2   7   0.1077   0.2595   0.1721   0.0781  -0.1582  -0.0714 -13.00    1.0
2173 285100.000  -1227802.2107  -4655145.7688   4172376.5155   2   7   0.1048   0.2524   0.1674   0.0760  -0.1538  -0.0695 -12.00    1.0
2173 285101.000  -1227802.2113  -4655145.7834   4172376.5271   2   7   0.1021   0.2459   0.1631   0.0740  -0.1498  -0.0677 -11.00    1.1
2173 285102.000  -1227802.2169  -4655145.7811   4172376.5329   2   7   0.0996   0.2399   0.1590   0.0722  -0.1461  -0.0660 -10.00    1.1
2173 285103.000  -1227802.2158  -4655145.7672   4172376.5227   2   7   0.0973   0.2342   0.1553   0.0705  -0.1426  -0.0645  -9.00    1.2
2173 285104.000  -1227802.2230  -4655145.7683   4172376.5440   2   7   0.0951   0.2289   0.1518   0.0690  -0.1393  -0.0630  -8.00    1.2
2173 285105.000  -1227802.2252  -4655145.7799   4172376.5647   2   7   0.0931   0.2239   0.1485   0.0675  -0.1363  -0.0617  -7.00    1.3
2173 285106.000  -1227802.2251  -4655145.7754   4172376.5572   2   7   0.0912   0.2193   0.1454   0.0661  -0.1334  -0.0604  -6.00    1.3
2173 285107.000  -1227802.2215  -4655145.7617   4172376.5389   2   7   0.0894   0.2149   0.1424   0.0648  -0.1307  -0.0592  -5.00    1.3
2173 285108.000  -1227802.2291  -4655145.7518   4172376.5368   2   7   0.0877   0.2107   0.1397   0.0635  -0.1281  -0.0580  -4.00    1.3
2173 285109.000  -1227802.2222  -4655145.7517   4172376.5355   2   7   0.0861   0.2067   0.1371   0.0623  -0.1257  -0.0570  -3.00    1.2
2173 285110.000  -1227802.2230  -4655145.7540   4172376.5371   2   7   0.0846   0.2030   0.1346   0.0612  -0.1234  -0.0559  -2.00    1.1
2173 285111.000  -1227802.2202  -4655145.7508   4172376.5445   2   7   0.0832   0.1995   0.1323   0.0601  -0.1212  -0.0550  -1.00    1.1
2173 285112.000  -1227802.2177  -4655145.7400   4172376.5447   2   7   0.0818   0.1961   0.1300   0.0591  -0.1191  -0.0540   0.00    1.0
2173 285113.000  -1227802.2095  -4655145.7428   4172376.5445   2   7   0.0805   0.1929   0.1279   0.0581  -0.1172  -0.0531   0.00    1.1
2173 285114.000  -1227802.2110  -4655145.7439   4172376.5447   2   7   0.0793   0.1899   0.1259   0.0572  -0.1153  -0.0523   0.00    1.1
2173 285115.000  -1227802.2045  -4655145.7355   4172376.5351   2   7   0.0781   0.1870   0.1240   0.0563  -0.1135  -0.0515   0.00    1.1
2173 285116.000  -1227802.1991  -4655145.7398   4172376.5323   2   7   0.0770   0.1842   0.1222   0.0554  -0.1118  -0.0507   0.00    1.1
2173 285117.000  -1227802.1926  -4655145.7483   4172376.5366   2   7   0.0759   0.1815   0.1204   0.0546  -0.1101  -0.0500   0.00    1.1
2173 285118.000  -1227802.1848  -4655145.7433   4172376.5313   2   7   0.0749   0.1790   0.1187   0.0538  -0.1085  -0.0492   0.00    1.1
2173 285119.000  -1227802.1760  -4655145.7458   4172376.5264   2   7   0.0738   0.1765   0.1171   0.0531  -0.1070  -0.0486   0.00    1.1
2173 285120.000  -1227802.1711  -4655145.7524   4172376.5296   2   7   0.0729   0.1741   0.1155   0.0523  -0.1055  -0.0479   0.00    1.1
2173 285121.000  -1227802.1694  -4655145.7438   4172376.5190   2   7   0.0720   0.1718   0.1140   0.0516  -0.1041  -0.0473   0.00    1.1
2173 285122.000  -1227802.1749  -4655145.7489   4172376.5189   2   7   0.0711   0.1695   0.1125   0.0509  -0.1027  -0.0466   0.00    1.1
2173 285123.000  -1227802.1763  -4655145.7503   4172376.5117   2   7   0.0702   0.1674   0.1111   0.0503  -0.1013  -0.0460   0.00    1.1
2173 285124.000  -1227802.1791  -4655145.7568   4172376.5014   2   7   0.0694   0.1653   0.1097   0.0497  -0.1000  -0.0454   0.00    1.1
2173 285125.000  -1227802.1749  -4655145.7618   4172376.4911   2   7   0.0686   0.1633   0.1084   0.0490  -0.0988  -0.0449   0.00    1.0
2173 285126.000  -1227802.1736  -4655145.7681   4172376.4842   2   7   0.0678   0.1613   0.1071   0.0484  -0.0976  -0.0444   0.00    1.0
2173 285127.000  -1227802.1703  -4655145.7713   4172376.4840   2   7   0.0671   0.1594   0.1058   0.0478  -0.0964  -0.0438   0.00    1.0
2173 285128.000  -1227802.1704  -4655145.7701   4172376.4814   2   7   0.0664   0.1576   0.1046   0.0472  -0.0952  -0.0433   0.00    1.0
2173 285129.000  -1227802.1611  -4655145.7543   4172376.4637   2   7   0.0657   0.1557   0.1034   0.0467  -0.0941  -0.0428   0.00    1.0
2173 285130.000  -1227802.1550  -4655145.7529   4172376.4649   2   7   0.0650   0.1540   0.1023   0.0462  -0.0930  -0.0423   0.00    1.0
2173 285131.000  -1227802.1523  -4655145.7545   4172376.4623   2   7   0.0643   0.1523   0.1012   0.0456  -0.0919  -0.0418   0.00    1.0
2173 285132.000  -1227802.1448  -4655145.7446   4172376.4495   2   7   0.0637   0.1506   0.1001   0.0451  -0.0909  -0.0414   0.00    1.0
2173 285133.000  -1227802.1424  -4655145.7477   4172376.4467   2   7   0.0631   0.1490   0.0990   0.0446  -0.0899  -0.0409   0.00    1.0
2173 285134.000  -1227802.1468  -4655145.7529   4172376.4493   2   7   0.0625   0.1474   0.0980   0.0441  -0.0889  -0.0405   0.00    1.0
2173 285135.000  -1227802.1419  -4655145.7499   4172376.4394   2   7   0.0619   0.1458   0.0970   0.0436  -0.0879  -0.0401   0.00    1.0
2173 285136.000  -1227802.1384  -4655145.7543   4172376.4688   2   7   0.0613   0.1443   0.0960   0.0432  -0.0869  -0.0396   0.00    1.0
2173 285137.000  -1227802.1369  -4655145.7707   4172376.4762   2   7   0.0607   0.1428   0.0950   0.0427  -0.0860  -0.0393   0.00    1.0
2173 285138.000  -1227802.1383  -4655145.7878   4172376.4847   2   7   0.0602   0.1414   0.0941   0.0423  -0.0851  -0.0389   0.00    1.0
2173 285139.000  -1227802.1399  -4655145.8157   4172376.4966   2   7   0.0597   0.1400   0.0932   0.0418  -0.0842  -0.0384   0.00    1.0
2173 285140.000  -1227802.1400  -4655145.8360   4172376.5042   2   7   0.0592   0.1386   0.0923   0.0414  -0.0833  -0.0381   0.00    1.0
2173 285141.000  -1227802.1367  -4655145.8473   4172376.5077   2   7   0.0587   0.1372   0.0914   0.0410  -0.0825  -0.0377   0.00    1.0
2173 285142.000  -1227802.1387  -4655145.8542   4172376.5122   2   7   0.0582   0.1359   0.0905   0.0406  -0.0816  -0.0373   0.00    1.0
2173 285143.000  -1227802.1363  -4655145.8582   4172376.5142   2   7   0.0577   0.1346   0.0897   0.0402  -0.0808  -0.0370   0.00    1.0
2173 285144.000  -1227802.1348  -4655145.8709   4172376.5187   2   7   0.0573   0.1333   0.0889   0.0398  -0.0800  -0.0366   0.00    1.0
2173 285145.000  -1227802.1318  -4655145.8676   4172376.5149   2   7   0.0568   0.1320   0.0881   0.0394  -0.0792  -0.0362   0.00    1.0
2173 285146.000  -1227802.1318  -4655145.8727   4172376.5218   2   7   0.0564   0.1308   0.0872   0.0390  -0.0784  -0.0359   0.00    1.0
2173 285147.000  -1227802.1311  -4655145.8789   4172376.5257   2   7   0.0559   0.1296   0.0865   0.0387  -0.0776  -0.0356   0.00    1.0
2173 285148.000  -1227802.1337  -4655145.8931   4172376.5300   2   7   0.0555   0.1284   0.0857   0.0383  -0.0769  -0.0353   0.00    1.0
2173 285149.000  -1227802.1330  -4655145.8888   4172376.5307   2   7   0.0551   0.1272   0.0850   0.0380  -0.0761  -0.0349   0.00    1.0
2173 285150.000  -1227802.1369  -4655145.8967   4172376.5401   2   7   0.0547   0.1260   0.0842   0.0376  -0.0754  -0.0346   0.00    1.0
2173 285151.000  -1227802.1366  -4655145.9063   4172376.5390   2   7   0.0543   0.1249   0.0835   0.0372  -0.0747  -0.0343   0.00    1.0
2173 285152.000  -1227802.1327  -4655145.9179   4172376.5416   2   7   0.0539   0.1238   0.0828   0.0369  -0.0739  -0.0340   0.00    1.0
2173 285153.000  -1227802.1301  -4655145.9210   4172376.5441   2   7   0.0535   0.1227   0.0821   0.0366  -0.0732  -0.0337   0.00    1.0
2173 285154.000  -1227802.1282  -4655145.9261   4172376.5472   2   7   0.0531   0.1216   0.0814   0.0362  -0.0725  -0.0334   0.00    1.0
2173 285155.000  -1227802.1260  -4655145.9307   4172376.5511   2   7   0.0528   0.1205   0.0807   0.0359  -0.0719  -0.0331   0.00    1.0
2173 285156.000  -1227802.1199  -4655145.9309   4172376.5543   2   7   0.0524   0.1195   0.0800   0.0356  -0.0712  -0.0328   0.00    1.0
2173 285157.000  -1227802.1191  -4655145.9360   4172376.5582   2   7   0.0520   0.1184   0.0793   0.0353  -0.0705  -0.0326   0.00    1.0
2173 285158.000  -1227802.1154  -4655145.9430   4172376.5601   2   7   0.0517   0.1174   0.0787   0.0349  -0.0699  -0.0323   0.00    1.0
2173 285159.000  -1227802.1103  -4655145.9534   4172376.5657   2   7   0.0514   0.1164   0.0781   0.0346  -0.0692  -0.0320   0.00    1.0
2173 285160.000  -1227802.1082  -4655145.9630   4172376.5712   2   7   0.0510   0.1154   0.0774   0.0343  -0.0686  -0.0317   0.00    1.0
2173 285161.000  -1227802.1072  -4655145.9828   4172376.5790   2   7   0.0507   0.1144   0.0768   0.0341  -0.0680  -0.0315   0.00    1.0
2173 285162.000  -1227802.1065  -4655145.9920   4172376.5771   2   7   0.0504   0.1135   0.0762   0.0338  -0.0674  -0.0312   0.00    1.0
2173 285163.000  -1227802.1055  -4655146.0086   4172376.5799   2   7   0.0501   0.1125   0.0756   0.0335  -0.0667  -0.0310   0.00    1.0
2173 285164.000  -1227802.1071  -4655146.0234   4172376.5785   2   7   0.0498   0.1116   0.0750   0.0332  -0.0661  -0.0307   0.00    1.0
2173 285165.000  -1227802.1050  -4655146.0524   4172376.5823   2   7   0.0495   0.1107   0.0744   0.0330  -0.0655  -0.0305   0.00    1.0
2173 285166.000  -1227802.1031  -4655146.0795   4172376.5847   2   7   0.0492   0.1097   0.0738   0.0326  -0.0650  -0.0302   0.00    1.0
2173 285167.000  -1227802.1044  -4655146.1123   4172376.5903   2   7   0.0489   0.1088   0.0733   0.0324  -0.0644  -0.0300   0.00    1.1
2173 285168.000  -1227802.1056  -4655146.1287   4172376.5803   2   7   0.0486   0.1080   0.0727   0.0321  -0.0638  -0.0297   0.00    1.1
2173 285169.000  -1227802.0981  -4655146.1446   4172376.5759   2   7   0.0483   0.1071   0.0721   0.0319  -0.0632  -0.0295   0.00    1.1
2173 285170.000  -1227802.0952  -4655146.1555   4172376.5721   2   7   0.0481   0.1062   0.0716   0.0316  -0.0627  -0.0293   0.00    1.1
2173 285171.000  -1227802.0927  -4655146.1562   4172376.5704   2   7   0.0478   0.1053   0.0711   0.0314  -0.0621  -0.0290   0.00    1.1
2173 285172.000  -1227802.0873  -4655146.1501   4172376.5641   2   7   0.0475   0.1045   0.0705   0.0311  -0.0616  -0.0288   0.00    1.1
2173 285173.000  -1227802.0849  -4655146.1383   4172376.5588   2   7   0.0473   0.1037   0.0700   0.0308  -0.0611  -0.0286   0.00    1.1
2173 285174.000  -1227802.0846  -4655146.1239   4172376.5503   2   7   0.0470   0.1028   0.0695   0.0306  -0.0605  -0.0284   0.00    1.1
2173 285175.000  -1227802.0818  -4655146.1094   4172376.5401   2   7   0.0467   0.1020   0.0690   0.0303  -0.0600  -0.0281   0.00    1.1
2173 285176.000  -1227802.0820  -4655146.1066   4172376.5349   2   7   0.0465   0.1012   0.0685   0.0301  -0.0595  -0.0279   0.00    1.1
2173 285177.000  -1227802.0820  -4655146.1070   4172376.5299   2   7   0.0462   0.1004   0.0680   0.0298  -0.0590  -0.0277   0.00    1.1
2173 285178.000  -1227802.0781  -4655146.1045   4172376.5161   2   7   0.0460   0.0996   0.0675   0.0297  -0.0584  -0.0275   0.00    1.1
2173 285179.000  -1227802.0760  -4655146.1045   4172376.5114   2   7   0.0457   0.0988   0.0670   0.0294  -0.0580  -0.0273   0.00    1.1
2173 285180.000  -1227802.0746  -4655146.1111   4172376.5080   2   7   0.0455   0.0981   0.0665   0.0292  -0.0574  -0.0271   0.00    1.1
2173 285181.000  -1227802.0702  -4655146.1193   4172376.5038   2   7   0.0453   0.0973   0.0660   0.0289  -0.0570  -0.0269   0.00    1.1
2173 285182.000  -1227802.0676  -4655146.1222   4172376.5033   2   7   0.0450   0.0966   0.0656   0.0287  -0.0565  -0.0267   0.00    1.1
2173 285183.000  -1227802.0673  -4655146.1232   4172376.4980   2   7   0.0448   0.0958   0.0651   0.0285  -0.0560  -0.0265   0.00    1.1
2173 285184.000  -1227802.0632  -4655146.1199   4172376.4897   2   7   0.0446   0.0951   0.0646   0.0283  -0.0555  -0.0263   0.00    1.1
2173 285185.000  -1227802.0623  -4655146.1190   4172376.4806   2   7   0.0443   0.0943   0.0642   0.0281  -0.0550  -0.0261   0.00    1.1
2173 285186.000  -1227802.0605  -4655146.1147   4172376.4747   2   7   0.0441   0.0936   0.0637   0.0279  -0.0546  -0.0259   0.00    1.1
2173 285187.000  -1227802.0565  -4655146.1122   4172376.4681   2   7   0.0439   0.0929   0.0633   0.0276  -0.0541  -0.0257   0.00    1.1
2173 285188.000  -1227802.0584  -4655146.1107   4172376.4663   2   7   0.0437   0.0922   0.0629   0.0274  -0.0537  -0.0255   0.00    1.1
2173 285189.000  -1227802.0583  -4655146.1058   4172376.4572   2   7   0.0435   0.0915   0.0624   0.0273  -0.0532  -0.0253   0.00    1.1
2173 285190.000  -1227802.0595  -4655146.1100   4172376.4510   2   7   0.0433   0.0908   0.0620   0.0270  -0.0528  -0.0252   0.00    1.1
2173 285191.000  -1227802.0642  -4655146.1166   4172376.4481   2   7   0.0431   0.0902   0.0616   0.0268  -0.0523  -0.0249   0.00    1.1
2173 285192.000  -1227802.0652  -4655146.1231   4172376.4442   2   7   0.0429   0.0895   0.0611   0.0267  -0.0519  -0.0248   0.00    1.1
2173 285193.000  -1227802.0641  -4655146.1266   4172376.4364   2   7   0.0427   0.0888   0.0607   0.0265  -0.0515  -0.0246   0.00    1.1
2173 285194.000  -1227802.0632  -4655146.1343   4172376.4306   2   7   0.0425   0.0881   0.0603   0.0262  -0.0510  -0.0244   0.00    1.1
2173 285195.000  -1227802.0598  -4655146.1275   4172376.4236   2   7   0.0423   0.0875   0.0599   0.0260  -0.0506  -0.0243   0.00    1.1
2173 285196.000  -1227802.0578  -4655146.1013   4172376.4146   2   7   0.0421   0.0869   0.0595   0.0259  -0.0502  -0.0241   0.00    1.2
2173 285197.000  -1227802.0559  -4655146.0908   4172376.4035   2   7   0.0419   0.0862   0.0591   0.0257  -0.0498  -0.0239   0.00    1.2
2173 285198.000  -1227802.0530  -4655146.0747   4172376.3965   2   7   0.0418   0.0856   0.0587   0.0255  -0.0494  -0.0238   0.00    1.2
2173 285199.000  -1227802.0513  -4655146.0494   4172376.3855   2   7   0.0416   0.0849   0.0583   0.0253  -0.0490  -0.0235   0.00    1.2
2173 285200.000  -1227802.0533  -4655146.0394   4172376.3788   2   7   0.0414   0.0843   0.0580   0.0251  -0.0486  -0.0234   0.00    1.2
2173 285201.000  -1227802.0522  -4655146.0232   4172376.3647   2   7   0.0412   0.0837   0.0576   0.0249  -0.0482  -0.0232   0.00    1.2
2173 285202.000  -1227802.0525  -4655146.0102   4172376.3532   2   7   0.0410   0.0831   0.0572   0.0248  -0.0478  -0.0231   0.00    1.2
2173 285203.000  -1227802.0556  -4655146.0010   4172376.3393   2   7   0.0408   0.0825   0.0568   0.0247  -0.0474  -0.0229   0.00    1.2
2173 285204.000  -1227802.0573  -4655145.9941   4172376.3293   2   7   0.0407   0.0819   0.0564   0.0245  -0.0470  -0.0228   0.00    1.2
2173 285205.000  -1227802.0553  -4655145.9849   4172376.3173   2   7   0.0405   0.0813   0.0561   0.0242  -0.0466  -0.0226   0.00    1.2
2173 285206.000  -1227802.0535  -4655145.9758   4172376.3085   2   7   0.0404   0.0807   0.0557   0.0241  -0.0463  -0.0224   0.00    1.2
2173 285207.000  -1227802.0520  -4655145.9592   4172376.3027   2   7   0.0402   0.0802   0.0554   0.0240  -0.0459  -0.0223   0.00    1.2
2173 285208.000  -1227802.0481  -4655145.9504   4172376.2929   2   7   0.0401   0.0796   0.0550   0.0238  -0.0455  -0.0222   0.00    1.2
2173 285209.000  -1227802.0473  -4655145.9426   4172376.2868   2   7   0.0399   0.0790   0.0546   0.0236  -0.0451  -0.0220   0.00    1.3
2173 285210.000  -1227802.0481  -4655145.9276   4172376.2756   2   7   0.0397   0.0785   0.0543   0.0235  -0.0448  -0.0219   0.00    1.3
2173 285211.000  -1227802.0461  -4655145.9190   4172376.2683   2   7   0.0395   0.0779   0.0540   0.0233  -0.0444  -0.0217   0.00    1.3
2173 285212.000  -1227802.0474  -4655145.9151   4172376.2621   2   7   0.0394   0.0774   0.0536   0.0232  -0.0441  -0.0216   0.00    1.3
2173 285213.000  -1227802.0468  -4655145.9111   4172376.2541   2   7   0.0393   0.0768   0.0533   0.0230  -0.0437  -0.0214   0.00    1.3
2173 285214.000  -1227802.0474  -4655145.9064   4172376.2428   2   7   0.0391   0.0763   0.0529   0.0228  -0.0434  -0.0213   0.00    1.3
2173 285215.000  -1227802.0459  -4655145.9041   4172376.2347   2   7   0.0389   0.0757   0.0526   0.0227  -0.0430  -0.0212   0.00    1.3
2173 285216.000  -1227802.0486  -4655145.9091   4172376.2282   2   7   0.0388   0.0752   0.0523   0.0225  -0.0427  -0.0210   0.00    1.3
2173 285217.000  -1227802.0478  -4655145.9046   4172376.2185   2   7   0.0386   0.0747   0.0520   0.0224  -0.0424  -0.0209   0.00    1.3
2173 285218.000  -1227802.0468  -4655145.8997   4172376.2129   2   7   0.0385   0.0742   0.0516   0.0223  -0.0420  -0.0207   0.00    1.3
2173 285219.000  -1227802.0435  -4655145.8925   4172376.2042   2   7   0.0384   0.0737   0.0513   0.0221  -0.0417  -0.0206   0.00    1.4
2173 285220.000  -1227802.0391  -4655145.8765   4172376.1944   2   7   0.0382   0.0732   0.0510   0.0220  -0.0414  -0.0204   0.00    1.4
2173 285221.000  -1227802.0372  -4655145.8628   4172376.1893   2   7   0.0381   0.0727   0.0507   0.0217  -0.0411  -0.0203   0.00    1.4
2173 285222.000  -1227802.0374  -4655145.8427   4172376.1770   2   7   0.0380   0.0722   0.0504   0.0217  -0.0407  -0.0202   0.00    1.4
2173 285223.000  -1227802.0378  -4655145.8246   4172376.1698   2   7   0.0378   0.0717   0.0501   0.0216  -0.0404  -0.0201   0.00    1.4
2173 285224.000  -1227802.0479  -4655145.8114   4172376.1404   2   7   0.0377   0.0712   0.0498   0.0214  -0.0401  -0.0199   0.00    1.4
2173 285225.000  -1227802.0488  -4655145.7891   4172376.1241   2   7   0.0375   0.0707   0.0494   0.0213  -0.0398  -0.0198   0.00    1.4
2173 285226.000  -1227802.0482  -4655145.7834   4172376.1099   2   7   0.0374   0.0702   0.0491   0.0211  -0.0395  -0.0197   0.00    1.4
2173 285227.000  -1227802.0494  -4655145.7821   4172376.1016   2   7   0.0373   0.0698   0.0488   0.0210  -0.0392  -0.0196   0.00    1.4
2173 285228.000  -1227802.0474  -4655145.7767   4172376.0909   2   7   0.0371   0.0693   0.0486   0.0209  -0.0389  -0.0194   0.00    1.4
2173 285229.000  -1227802.0459  -4655145.7769   4172376.0803   2   7   0.0370   0.0688   0.0483   0.0208  -0.0386  -0.0193   0.00    1.5
2173 285230.000  -1227802.0488  -4655145.7820   4172376.0706   2   7   0.0369   0.0684   0.0480   0.0206  -0.0383  -0.0192   0.00    1.5
2173 285231.000  -1227802.0490  -4655145.7879   4172376.0613   2   7   0.0367   0.0679   0.0477   0.0205  -0.0380  -0.0190   0.00    1.5
2173 285232.000  -1227802.0497  -4655145.7981   4172376.0596   2   7   0.0366   0.0675   0.0474   0.0203  -0.0377  -0.0189   0.00    1.5
2173 285233.000  -1227802.0519  -4655145.8110   4172376.0568   2   7   0.0365   0.0670   0.0471   0.0203  -0.0374  -0.0188   0.00    1.5
2173 285234.000  -1227802.0550  -4655145.8193   4172376.0474   2   7   0.0364   0.0666   0.0468   0.0202  -0.0372  -0.0187   0.00    1.5
2173 285235.000  -1227802.0546  -4655145.8264   4172376.0451   2   7   0.0363   0.0662   0.0465   0.0200  -0.0369  -0.0186   0.00    1.5
2173 285236.000  -1227802.0542  -4655145.8362   4172376.0402   2   7   0.0361   0.0657   0.0463   0.0199  -0.0366  -0.0184   0.00    1.5
2173 285237.000  -1227802.0517  -4655145.8388   4172376.0328   2   7   0.0360   0.0653   0.0460   0.0198  -0.0363  -0.0184   0.00    1.5
2173 285238.000  -1227802.0528  -4655145.8450   4172376.0275   2   7   0.0359   0.0649   0.0458   0.0196  -0.0361  -0.0182   0.00    1.5
2173 285239.000  -1227802.0511  -4655145.8423   4172376.0212   2   7   0.0358   0.0644   0.0455   0.0196  -0.0358  -0.0181   0.00    1.5
2173 285240.000  -1227802.0491  -4655145.8441   4172376.0136   2   7   0.0357   0.0640   0.0453   0.0194  -0.0355  -0.0180   0.00    1.5
2173 285241.000  -1227802.0509  -4655145.8387   4172376.0049   2   7   0.0356   0.0636   0.0450   0.0193  -0.0353  -0.0179   0.00    1.5
2173 285242.000  -1227802.0501  -4655145.8362   4172375.9968   2   7   0.0354   0.0632   0.0447   0.0192  -0.0350  -0.0178   0.00    1.5
2173 285243.000  -1227802.0484  -4655145.8303   4172375.9846   2   7   0.0353   0.0628   0.0444   0.0191  -0.0347  -0.0177   0.00    1.5
2173 285244.000  -1227802.0509  -4655145.8328   4172375.9767   2   7   0.0352   0.0624   0.0442   0.0190  -0.0345  -0.0176   0.00    1.5
2173 285245.000  -1227802.0512  -4655145.8328   4172375.9724   2   7   0.0352   0.0620   0.0440   0.0189  -0.0343  -0.0174   0.00    1.5
2173 285246.000  -1227802.0479  -4655145.8385   4172375.9625   2   7   0.0350   0.0616   0.0437   0.0188  -0.0340  -0.0173   0.00    1.5
2173 285247.000  -1227802.0475  -4655145.8495   4172375.9561   2   7   0.0349   0.0612   0.0435   0.0187  -0.0337  -0.0172   0.00    1.5
2173 285248.000  -1227802.0496  -4655145.8534   4172375.9494   2   7   0.0348   0.0609   0.0432   0.0186  -0.0335  -0.0171   0.00    1.5
2173 285249.000  -1227802.0483  -4655145.8652   4172375.9441   2   7   0.0347   0.0605   0.0430   0.0184  -0.0333  -0.0171   0.00    1.5
2173 285250.000  -1227802.0502  -4655145.8783   4172375.9372   2   7   0.0346   0.0601   0.0428   0.0183  -0.0330  -0.0169   0.00    1.5
2173 285251.000  -1227802.0536  -4655145.8977   4172375.9341   2   7   0.0345   0.0597   0.0425   0.0182  -0.0328  -0.0168   0.00    1.5
2173 285252.000  -1227802.0510  -4655145.9108   4172375.9302   2   7   0.0344   0.0593   0.0423   0.0182  -0.0325  -0.0168   0.00    1.5
2173 285253.000  -1227802.0515  -4655145.9222   4172375.9246   2   7   0.0342   0.0590   0.0420   0.0181  -0.0323  -0.0167   0.00    1.5
2173 285254.000  -1227802.0505  -4655145.9223   4172375.9210   2   7   0.0341   0.0586   0.0418   0.0180  -0.0321  -0.0166   0.00    1.5
2173 285255.000  -1227802.0430  -4655145.9265   4172375.9224   2   7   0.0340   0.0583   0.0415   0.0178  -0.0319  -0.0164   0.00    1.5
2173 285256.000  -1227802.0425  -4655145.9116   4172375.9132   2   7   0.0340   0.0579   0.0413   0.0178  -0.0317  -0.0163   0.00    1.5
2173 285257.000  -1227802.0432  -4655145.9021   4172375.9049   2   7   0.0338   0.0575   0.0411   0.0177  -0.0314  -0.0162   0.00    1.5
2173 285258.000  -1227802.0484  -4655145.8943   4172375.8952   2   7   0.0337   0.0572   0.0409   0.0176  -0.0312  -0.0162   0.00    1.5
2173 285259.000  -1227802.0488  -4655145.8996   4172375.8897   2   7   0.0336   0.0568   0.0406   0.0176  -0.0310  -0.0161   0.00    1.5
2173 285260.000  -1227802.0537  -4655145.8982   4172375.8791   2   7   0.0335   0.0565   0.0404   0.0174  -0.0308  -0.0160   0.00    1.5
2173 285261.000  -1227802.0521  -4655145.9034   4172375.8766   2   7   0.0335   0.0562   0.0402   0.0173  -0.0306  -0.0159   0.00    1.5
2173 285262.000  -1227802.0520  -4655145.9034   4172375.8717   2   7   0.0334   0.0558   0.0400   0.0172  -0.0303  -0.0158   0.00    1.5
2173 285263.000  -1227802.0503  -4655145.9003   4172375.8663   2   7   0.0333   0.0555   0.0398   0.0171  -0.0302  -0.0157   0.00    1.5
2173 285264.000  -1227802.0493  -4655145.8964   4172375.8673   2   7   0.0332   0.0551   0.0395   0.0171  -0.0299  -0.0156   0.00    1.5
2173 285265.000  -1227802.0501  -4655145.8979   4172375.8594   2   7   0.0331   0.0548   0.0394   0.0169  -0.0297  -0.0155   0.00    1.5
2173 285266.000  -1227802.0505  -4655145.8956   4172375.8544   2   7   0.0330   0.0545   0.0391   0.0169  -0.0295  -0.0154   0.00    1.5
2173 285267.000  -1227802.0491  -4655145.8962   4172375.8515   2   7   0.0329   0.0542   0.0389   0.0168  -0.0293  -0.0154   0.00    1.5
2173 285268.000  -1227802.0498  -4655145.8923   4172375.8430   2   7   0.0328   0.0538   0.0387   0.0168  -0.0291  -0.0153   0.00    1.5
2173 285269.000  -1227802.0517  -4655145.8961   4172375.8377   2   7   0.0328   0.0536   0.0385   0.0166  -0.0289  -0.0152   0.00    1.4
2173 285270.000  -1227802.0527  -4655145.8974   4172375.8336   2   7   0.0326   0.0532   0.0383   0.0165  -0.0287  -0.0151   0.00    1.4
2173 285271.000  -1227802.0522  -4655145.8960   4172375.8247   2   7   0.0325   0.0529   0.0381   0.0165  -0.0285  -0.0150   0.00    1.4
2173 285272.000  -1227802.0512  -4655145.9047   4172375.8216   2   7   0.0325   0.0526   0.0379   0.0165  -0.0284  -0.0150   0.00    1.4
2173 285273.000  -1227802.0502  -4655145.9052   4172375.8200   2   7   0.0324   0.0523   0.0377   0.0163  -0.0281  -0.0148   0.00    1.4
2173 285274.000  -1227802.0449  -4655145.8964   4172375.8176   2   7   0.0323   0.0520   0.0376   0.0162  -0.0280  -0.0147   0.00    1.4
2173 285275.000  -1227802.0433  -4655145.8906   4172375.8128   2   7   0.0322   0.0517   0.0373   0.0162  -0.0278  -0.0146   0.00    1.4
2173 285276.000  -1227802.0409  -4655145.8832   4172375.8099   2   8   0.0321   0.0514   0.0372   0.0161  -0.0276  -0.0146   0.00    1.0
2173 285277.000  -1227802.0399  -4655145.8737   4172375.8044   2   8   0.0321   0.0508   0.0369   0.0160  -0.0273  -0.0144   0.00    1.0
2173 285278.000  -1227802.0400  -4655145.8619   4172375.7982   2   8   0.0319   0.0504   0.0367   0.0160  -0.0270  -0.0144   0.00    1.0
2173 285279.000  -1227802.0397  -4655145.8515   4172375.7908   2   8   0.0319   0.0501   0.0366   0.0159  -0.0268  -0.0143   0.00    1.0
2173 285280.000  -1227802.0358  -4655145.8350   4172375.7850   2   8   0.0318   0.0497   0.0364   0.0159  -0.0267  -0.0143   0.00    1.0
2173 285281.000  -1227802.0339  -4655145.8259   4172375.7796   2   8   0.0317   0.0494   0.0362   0.0158  -0.0264  -0.0142   0.00    1.1
2173 285282.000  -1227802.0336  -4655145.8155   4172375.7720   2   8   0.0316   0.0491   0.0360   0.0157  -0.0263  -0.0141   0.00    1.1
2173 285283.000  -1227802.0335  -4655145.7998   4172375.7661   2   8   0.0315   0.0488   0.0358   0.0156  -0.0261  -0.0140   0.00    1.1
2173 285284.000  -1227802.0307  -4655145.7918   4172375.7607   2   8   0.0315   0.0485   0.0356   0.0156  -0.0259  -0.0140   0.00    1.1
2173 285285.000  -1227802.0301  -4655145.7834   4172375.7587   2   8   0.0314   0.0482   0.0354   0.0156  -0.0257  -0.0138   0.00    1.1
2173 285286.000  -1227802.0327  -4655145.7772   4172375.7537   2   8   0.0313   0.0479   0.0353   0.0155  -0.0255  -0.0138   0.00    1.1
2173 285287.000  -1227802.0312  -4655145.7669   4172375.7460   2   8   0.0312   0.0476   0.0351   0.0153  -0.0254  -0.0137   0.00    1.1
2173 285288.000  -1227802.0309  -4655145.7608   4172375.7359   2   8   0.0311   0.0473   0.0349   0.0154  -0.0252  -0.0136   0.00    1.1
2173 285289.000  -1227802.0309  -4655145.7572   4172375.7317   2   8   0.0311   0.0470   0.0347   0.0154  -0.0250  -0.0136   0.00    1.1
2173 285290.000  -1227802.0295  -4655145.7573   4172375.7240   2   8   0.0309   0.0467   0.0346   0.0152  -0.0249  -0.0134   0.00    1.1
2173 285291.000  -1227802.0241  -4655145.7455   4172375.7157   2   8   0.0309   0.0465   0.0344   0.0152  -0.0247  -0.0135   0.00    1.1
2173 285292.000  -1227802.0194  -4655145.7363   4172375.7156   2   8   0.0309   0.0462   0.0342   0.0151  -0.0245  -0.0134   0.00    1.1
2173 285293.000  -1227802.0173  -4655145.7255   4172375.7114   2   8   0.0308   0.0459   0.0340   0.0151  -0.0244  -0.0133   0.00    1.1
2173 285294.000  -1227802.0147  -4655145.7141   4172375.7043   2   8   0.0307   0.0456   0.0339   0.0151  -0.0242  -0.0132   0.00    1.1
2173 285295.000  -1227802.0139  -4655145.7061   4172375.6984   2   8   0.0306   0.0454   0.0337   0.0149  -0.0241  -0.0132   0.00    1.2
2173 285296.000  -1227802.0151  -4655145.7038   4172375.6957   2   8   0.0305   0.0451   0.0336   0.0150  -0.0239  -0.0131   0.00    1.2
2173 285297.000  -1227802.0123  -4655145.6979   4172375.6875   2   8   0.0305   0.0449   0.0334   0.0148  -0.0238  -0.0131   0.00    1.2
2173 285298.000  -1227802.0134  -4655145.6975   4172375.6826   2   8   0.0304   0.0446   0.0332   0.0148  -0.0236  -0.0129   0.00    1.2
2173 285299.000  -1227802.0105  -4655145.6962   4172375.6772   2   8   0.0303   0.0443   0.0331   0.0148  -0.0235  -0.0129   0.00    1.2
2173 285300.000  -1227802.0084  -4655145.6918   4172375.6712   2   8   0.0302   0.0441   0.0329   0.0147  -0.0233  -0.0128   0.00    1.2
2173 285301.000  -1227802.0067  -4655145.6847   4172375.6687   2   8   0.0302   0.0438   0.0327   0.0146  -0.0232  -0.0128   0.00    1.2
2173 285302.000  -1227802.0053  -4655145.6860   4172375.6642   2   8   0.0301   0.0436   0.0326   0.0146  -0.0230  -0.0127   0.00    1.2
2173 285303.000  -1227802.0039  -4655145.6812   4172375.6604   2   8   0.0301   0.0433   0.0325   0.0145  -0.0229  -0.0125   0.00    1.2
2173 285304.000  -1227802.0043  -4655145.6769   4172375.6564   2   8   0.0299   0.0431   0.0323   0.0145  -0.0227  -0.0126   0.00    1.2
2173 285305.000  -1227802.0040  -4655145.6810   4172375.6536   2   8   0.0299   0.0428   0.0321   0.0144  -0.0226  -0.0125   0.00    1.2
2173 285306.000  -1227802.0026  -4655145.6854   4172375.6547   2   8   0.0298   0.0426   0.0320   0.0144  -0.0224  -0.0125   0.00    1.2
2173 285307.000  -1227802.0001  -4655145.6857   4172375.6527   2   8   0.0298   0.0424   0.0318   0.0144  -0.0223  -0.0125   0.00    1.2
2173 285308.000  -1227802.0050  -4655145.6766   4172375.6399   2   8   0.0297   0.0421   0.0317   0.0142  -0.0222  -0.0124   0.00    1.2
2173 285309.000  -1227802.0049  -4655145.6758   4172375.6349   2   8   0.0296   0.0419   0.0315   0.0143  -0.0220  -0.0122   0.00    1.2
2173 285310.000  -1227802.0036  -4655145.6750   4172375.6283   2   8   0.0295   0.0417   0.0314   0.0141  -0.0219  -0.0122   0.00    1.2
2173 285311.000  -1227802.0040  -4655145.6765   4172375.6221   2   8   0.0294   0.0414   0.0312   0.0141  -0.0218  -0.0122   0.00    1.2
2173 285312.000  -1227802.0014  -4655145.6789   4172375.6210   2   8   0.0295   0.0413   0.0311   0.0141  -0.0216  -0.0121   0.00    1.2
2173 285313.000  -1227801.9962  -4655145.6734   4172375.6126   2   8   0.0293   0.0410   0.0310   0.0140  -0.0215  -0.0119   0.00    1.2
2173 285314.000  -1227801.9921  -4655145.6775   4172375.6137   2   8   0.0293   0.0408   0.0308   0.0139  -0.0214  -0.0121   0.00    1.2
2173 285315.000  -1227801.9886  -4655145.6767   4172375.6100   2   8   0.0292   0.0406   0.0306   0.0139  -0.0212  -0.0119   0.00    1.2
2173 285316.000  -1227801.9954  -4655145.6870   4172375.6098   2   8   0.0292   0.0403   0.0305   0.0139  -0.0211  -0.0119   0.00    1.2
2173 285317.000  -1227801.9940  -4655145.6841   4172375.6082   2   8   0.0291   0.0401   0.0304   0.0139  -0.0210  -0.0118   0.00    1.2
2173 285318.000  -1227801.9921  -4655145.6795   4172375.6063   2   8   0.0291   0.0399   0.0302   0.0138  -0.0209  -0.0117   0.00    1.2
2173 285319.000  -1227801.9942  -4655145.6764   4172375.6022   2   8   0.0290   0.0397   0.0301   0.0138  -0.0208  -0.0116   0.00    1.2
2173 285320.000  -1227801.9938  -4655145.6765   4172375.5989   2   8   0.0289   0.0395   0.0300   0.0138  -0.0206  -0.0116   0.00    1.2
2173 285321.000  -1227801.9924  -4655145.6728   4172375.5941   2   8   0.0288   0.0393   0.0298   0.0136  -0.0205  -0.0116   0.00    1.2
2173 285322.000  -1227801.9928  -4655145.6727   4172375.5909   2   8   0.0288   0.0391   0.0297   0.0137  -0.0204  -0.0115   0.00    1.2
2173 285323.000  -1227801.9935  -4655145.6700   4172375.5856   2   8   0.0287   0.0389   0.0295   0.0135  -0.0203  -0.0114   0.00    1.2
2173 285324.000  -1227801.9929  -4655145.6642   4172375.5808   2   8   0.0287   0.0387   0.0294   0.0135  -0.0202  -0.0114   0.00    1.2
2173 285325.000  -1227801.9938  -4655145.6619   4172375.5783   2   8   0.0286   0.0385   0.0293   0.0134  -0.0200  -0.0113   0.00    1.2
2173 285326.000  -1227801.9929  -4655145.6601   4172375.5742   2   8   0.0286   0.0383   0.0291   0.0134  -0.0200  -0.0113   0.00    1.2
2173 285327.000  -1227801.9957  -4655145.6608   4172375.5684   2   8   0.0285   0.0381   0.0290   0.0134  -0.0198  -0.0112   0.00    1.2
2173 285328.000  -1227801.9940  -4655145.6601   4172375.5629   2   8   0.0284   0.0379   0.0288   0.0134  -0.0197  -0.0112   0.00    1.1
2173 285329.000  -1227801.9966  -4655145.6636   4172375.5609   2   8   0.0284   0.0377   0.0288   0.0132  -0.0196  -0.0111   0.00    1.1
2173 285330.000  -1227801.9947  -4655145.6655   4172375.5518   2   8   0.0283   0.0376   0.0287   0.0132  -0.0195  -0.0111   0.00    1.1
2173 285331.000  -1227801.9981  -4655145.6699   4172375.5499   2   8   0.0283   0.0374   0.0285   0.0131  -0.0194  -0.0110   0.00    1.1
2173 285332.000  -1227801.9994  -4655145.6779   4172375.5462   2   8   0.0282   0.0372   0.0284   0.0132  -0.0193  -0.0110   0.00    1.1
2173 285333.000  -1227802.0009  -4655145.6840   4172375.5398   2   8   0.0281   0.0370   0.0283   0.0132  -0.0192  -0.0109   0.00    1.1
2173 285334.000  -1227802.0033  -4655145.6976   4172375.5351   2   8   0.0281   0.0368   0.0282   0.0130  -0.0191  -0.0109   0.00    1.1
2173 285335.000  -1227802.0042  -4655145.7099   4172375.5314   2   8   0.0281   0.0366   0.0280   0.0130  -0.0190  -0.0108   0.00    1.1
2173 285336.000  -1227802.0023  -4655145.7111   4172375.5203   2   8   0.0280   0.0364   0.0279   0.0130  -0.0189  -0.0108   0.00    1.1
2173 285337.000  -1227802.0022  -4655145.7163   4172375.5151   2   8   0.0279   0.0363   0.0278   0.0129  -0.0188  -0.0108   0.00    1.1
2173 285338.000  -1227801.9965  -4655145.7182   4172375.5106   2   8   0.0278   0.0361   0.0277   0.0129  -0.0186  -0.0107   0.00    1.1
2173 285339.000  -1227801.9937  -4655145.7146   4172375.5056   2   8   0.0278   0.0359   0.0277   0.0129  -0.0186  -0.0106   0.00    1.1
2173 285340.000  -1227801.9908  -4655145.7119   4172375.5043   2   8   0.0278   0.0358   0.0274   0.0127  -0.0185  -0.0107   0.00    1.1
2173 285341.000  -1227801.9891  -4655145.7102   4172375.5022   2   8   0.0277   0.0356   0.0273   0.0127  -0.0184  -0.0106   0.00    1.1
2173 285342.000  -1227801.9873  -4655145.7054   4172375.5016   2   8   0.0277   0.0354   0.0272   0.0128  -0.0183  -0.0106   0.00    1.1
2173 285343.000  -1227801.9879  -4655145.7027   4172375.4978   2   8   0.0276   0.0352   0.0271   0.0127  -0.0182  -0.0105   0.00    1.1
2173 285344.000  -1227801.9904  -4655145.7028   4172375.4961   2   8   0.0275   0.0350   0.0270   0.0126  -0.0181  -0.0104   0.00    1.1
2173 285345.000  -1227801.9899  -4655145.7035   4172375.4914   2   8   0.0275   0.0349   0.0269   0.0126  -0.0180  -0.0104   0.00    1.0
2173 285346.000  -1227801.9898  -4655145.6994   4172375.4869   2   8   0.0274   0.0347   0.0268   0.0126  -0.0179  -0.0104   0.00    1.0
2173 285347.000  -1227801.9923  -4655145.7012   4172375.4844   2   8   0.0274   0.0346   0.0266   0.0125  -0.0178  -0.0103   0.00    1.0
2173 285348.000  -1227801.9898  -4655145.6991   4172375.4850   2   8   0.0274   0.0344   0.0265   0.0125  -0.0177  -0.0102   0.00    1.0
2173 285349.000  -1227801.9859  -4655145.6914   4172375.4724   2   8   0.0273   0.0342   0.0264   0.0126  -0.0176  -0.0102   0.00    1.0
2173 285350.000  -1227801.9882  -4655145.6922   4172375.4730   2   8   0.0272   0.0341   0.0263   0.0124  -0.0175  -0.0102   0.00    1.0
2173 285351.000  -1227801.9888  -4655145.6943   4172375.4653   2   8   0.0272   0.0340   0.0262   0.0123  -0.0174  -0.0100   0.00    1.0
2173 285352.000  -1227801.9899  -4655145.6948   4172375.4623   2   8   0.0271   0.0338   0.0261   0.0125  -0.0173  -0.0100   0.00    1.0
2173 285353.000  -1227801.9915  -4655145.6971   4172375.4559   2   8   0.0270   0.0336   0.0260   0.0123  -0.0173  -0.0099   0.00    1.0
2173 285354.000  -1227801.9898  -4655145.6940   4172375.4505   2   8   0.0271   0.0335   0.0259   0.0122  -0.0172  -0.0100   0.00    1.0
2173 285355.000  -1227801.9901  -4655145.6963   4172375.4467   2   8   0.0269   0.0333   0.0258   0.0122  -0.0171  -0.0098   0.00    1.0
2173 285356.000  -1227801.9885  -4655145.6968   4172375.4429   2   8   0.0269   0.0332   0.0257   0.0122  -0.0170  -0.0099   0.00    1.0
2173 285357.000  -1227801.9881  -4655145.6954   4172375.4437   2   8   0.0269   0.0330   0.0255   0.0122  -0.0169  -0.0098   0.00    1.0
2173 285358.000  -1227801.9865  -4655145.6939   4172375.4401   2   8   0.0269   0.0328   0.0255   0.0121  -0.0169  -0.0097   0.00    1.0
2173 285359.000  -1227801.9830  -4655145.6910   4172375.4376   2   8   0.0268   0.0328   0.0253   0.0121  -0.0168  -0.0097   0.00    1.0
2173 285360.000  -1227801.9829  -4655145.6864   4172375.4370   2   8   0.0268   0.0326   0.0253   0.0120  -0.0167  -0.0098   0.00    1.0
2173 285361.000  -1227801.9853  -4655145.6817   4172375.4370   2   8   0.0266   0.0324   0.0252   0.0121  -0.0166  -0.0096   0.00    1.0
2173 285362.000  -1227801.9841  -4655145.6814   4172375.4352   2   8   0.0266   0.0323   0.0251   0.0120  -0.0165  -0.0097   0.00    1.0
2173 285363.000  -1227801.9856  -4655145.6839   4172375.4364   2   8   0.0266   0.0321   0.0250   0.0120  -0.0165  -0.0096   0.00    1.0
2173 285364.000  -1227801.9878  -4655145.6822   4172375.4329   2   8   0.0265   0.0320   0.0248   0.0119  -0.0164  -0.0096   0.00    1.0
2173 285365.000  -1227801.9898  -4655145.6843   4172375.4331   2   8   0.0264   0.0318   0.0247   0.0119  -0.0163  -0.0095   0.00    1.0
2173 285366.000  -1227801.9908  -4655145.6852   4172375.4332   2   8   0.0264   0.0317   0.0247   0.0119  -0.0162  -0.0094   0.00    1.0
2173 285367.000  -1227801.9876  -4655145.6871   4172375.4363   2   8   0.0263   0.0316   0.0246   0.0119  -0.0162  -0.0093   0.00    1.0
2173 285368.000  -1227801.9900  -4655145.6711   4172375.4275   2   8   0.0263   0.0314   0.0245   0.0119  -0.0161  -0.0094   0.00    1.0
2173 285369.000  -1227801.9912  -4655145.6725   4172375.4293   2   8   0.0263   0.0313   0.0243   0.0117  -0.0160  -0.0094   0.00    1.0
2173 285370.000  -1227801.9948  -4655145.6757   4172375.4254   2   8   0.0262   0.0312   0.0242   0.0118  -0.0159  -0.0093   0.00    1.0
2173 285371.000  -1227801.9974  -4655145.6782   4172375.4239   2   8   0.0261   0.0310   0.0243   0.0116  -0.0158  -0.0093   0.00    1.0
2173 285372.000  -1227802.0002  -4655145.6839   4172375.4229   2   8   0.0261   0.0309   0.0240   0.0117  -0.0158  -0.0093   0.00    1.0
2173 285373.000  -1227802.0013  -4655145.6897   4172375.4194   2   8   0.0261   0.0308   0.0240   0.0117  -0.0157  -0.0092   0.00    1.0
2173 285374.000  -1227802.0034  -4655145.6936   4172375.4202   2   8   0.0261   0.0307   0.0239   0.0116  -0.0156  -0.0091   0.00    1.0
2173 285375.000  -1227802.0006  -4655145.6965   4172375.4201   2   8   0.0260   0.0305   0.0239   0.0116  -0.0156  -0.0090   0.00    1.0
2173 285376.000  -1227801.9999  -4655145.7018   4172375.4217   2   8   0.0260   0.0304   0.0237   0.0116  -0.0155  -0.0091   0.00    1.0
2173 285377.000  -1227801.9920  -4655145.7006   4172375.4303   2   8   0.0259   0.0302   0.0236   0.0115  -0.0154  -0.0091   0.00    1.0
2173 285378.000  -1227801.9912  -4655145.6973   4172375.4239   2   8   0.0259   0.0302   0.0235   0.0115  -0.0153  -0.0091   0.00    1.0
2173 285379.000  -1227801.9916  -4655145.6921   4172375.4193   2   8   0.0258   0.0300   0.0235   0.0116  -0.0152  -0.0089   0.00    1.0
2173 285380.000  -1227801.9913  -4655145.6943   4172375.4150   2   8   0.0258   0.0299   0.0234   0.0114  -0.0152  -0.0090   0.00    1.0
2173 285381.000  -1227801.9927  -4655145.6956   4172375.4141   2   8   0.0258   0.0298   0.0233   0.0114  -0.0151  -0.0089   0.00    1.0
2173 285382.000  -1227801.9939  -4655145.6928   4172375.4054   2   8   0.0257   0.0297   0.0232   0.0113  -0.0151  -0.0089   0.00    1.0
2173 285383.000  -1227801.9930  -4655145.6920   4172375.4017   2   8   0.0256   0.0295   0.0231   0.0114  -0.0150  -0.0088   0.00    1.0
2173 285384.000  -1227801.9898  -4655145.6908   4172375.3974   2   8   0.0256   0.0294   0.0230   0.0113  -0.0149  -0.0087   0.00    1.0
2173 285385.000  -1227801.9893  -4655145.6906   4172375.3957   2   8   0.0255   0.0293   0.0230   0.0113  -0.0149  -0.0086   0.00    1.0
2173 285386.000  -1227801.9854  -4655145.6841   4172375.3906   2   8   0.0254   0.0292   0.0228   0.0111  -0.0148  -0.0088   0.00    1.0
2173 285387.000  -1227801.9862  -4655145.6842   4172375.3854   2   8   0.0255   0.0290   0.0228   0.0112  -0.0148  -0.0086   0.00    1.0
2173 285388.000  -1227801.9870  -4655145.6822   4172375.3835   2   8   0.0254   0.0289   0.0227   0.0113  -0.0147  -0.0085   0.00    1.0
2173 285389.000  -1227801.9868  -4655145.6784   4172375.3777   2   8   0.0254   0.0288   0.0226   0.0111  -0.0146  -0.0087   0.00    1.0
2173 285390.000  -1227801.9862  -4655145.6786   4172375.3698   2   8   0.0254   0.0287   0.0226   0.0112  -0.0146  -0.0085   0.00    1.0
2173 285391.000  -1227801.9880  -4655145.6764   4172375.3652   2   8   0.0254   0.0286   0.0225   0.0111  -0.0145  -0.0086   0.00    1.0
2173 285392.000  -1227801.9913  -4655145.6606   4172375.3354   2   8   0.0253   0.0284   0.0223   0.0111  -0.0144  -0.0086   0.00    1.0
2173 285393.000  -1227801.9913  -4655145.6598   4172375.3394   2   8   0.0253   0.0283   0.0222   0.0111  -0.0144  -0.0086   0.00    1.0
2173 285394.000  -1227801.9913  -4655145.6561   4172375.3376   2   8   0.0252   0.0282   0.0222   0.0110  -0.0143  -0.0085   0.00    1.0
2173 285395.000  -1227801.9908  -4655145.6593   4172375.3447   2   8   0.0251   0.0281   0.0220   0.0110  -0.0142  -0.0086   0.00    1.0
2173 285396.000  -1227801.9918  -4655145.6548   4172375.3467   2   8   0.0251   0.0280   0.0220   0.0109  -0.0142  -0.0084   0.00    1.0
2173 285397.000  -1227801.9910  -4655145.6522   4172375.3445   2   8   0.0251   0.0279   0.0219   0.0109  -0.0141  -0.0084   0.00    1.0
2173 285398.000  -1227801.9908  -4655145.6520   4172375.3477   2   8   0.0251   0.0278   0.0218   0.0109  -0.0141  -0.0083   0.00    1.0
2173 285399.000  -1227801.9919  -4655145.6524   4172375.3492   2   8   0.0250   0.0277   0.0218   0.0108  -0.0140  -0.0084   0.00    1.0
2173 285400.000  -1227801.9932  -4655145.6513   4172375.3522   2   8   0.0249   0.0276   0.0218   0.0108  -0.0140  -0.0082   0.00    1.0
2173 285401.000  -1227801.9952  -4655145.6536   4172375.3520   2   8   0.0249   0.0274   0.0216   0.0108  -0.0139  -0.0082   0.00    1.0
2173 285402.000  -1227801.9973  -4655145.6555   4172375.3551   2   8   0.0249   0.0274   0.0215   0.0108  -0.0139  -0.0082   0.00    1.0
2173 285403.000  -1227801.9957  -4655145.6569   4172375.3584   2   8   0.0248   0.0272   0.0215   0.0109  -0.0138  -0.0083   0.00    1.0
2173 285404.000  -1227801.9967  -4655145.6616   4172375.3641   2   8   0.0248   0.0272   0.0214   0.0107  -0.0138  -0.0081   0.00    1.0
2173 285405.000  -1227801.9971  -4655145.6585   4172375.3649   2   8   0.0248   0.0270   0.0213   0.0107  -0.0137  -0.0082   0.00    1.0
2173 285406.000  -1227801.9952  -4655145.6587   4172375.3651   2   8   0.0248   0.0270   0.0212   0.0106  -0.0136  -0.0081   0.00    1.0
2173 285407.000  -1227801.9889  -4655145.6511   4172375.3636   2   8   0.0247   0.0269   0.0212   0.0107  -0.0136  -0.0080   0.00    1.0
2173 285408.000  -1227801.9865  -4655145.6424   4172375.3618   2   8   0.0247   0.0268   0.0211   0.0105  -0.0135  -0.0080   0.00    1.0
2173 285409.000  -1227801.9859  -4655145.6344   4172375.3617   2   8   0.0245   0.0266   0.0210   0.0106  -0.0135  -0.0081   0.00    1.0
2173 285410.000  -1227801.9848  -4655145.6306   4172375.3650   2   8   0.0245   0.0265   0.0210   0.0106  -0.0134  -0.0079   0.00    1.0
2173 285411.000  -1227801.9831  -4655145.6211   4172375.3655   2   8   0.0245   0.0265   0.0209   0.0104  -0.0134  -0.0079   0.00    1.0
2173 285412.000  -1227801.9870  -4655145.6184   4172375.3692   2   8   0.0245   0.0264   0.0208   0.0106  -0.0133  -0.0079   0.00    1.0
2173 285413.000  -1227801.9878  -4655145.6183   4172375.3713   2   8   0.0245   0.0263   0.0207   0.0106  -0.0133  -0.0080   0.00    1.0
2173 285414.000  -1227801.9860  -4655145.6150   4172375.3730   2   8   0.0244   0.0261   0.0207   0.0106  -0.0132  -0.0079   0.00    1.0
2173 285415.000  -1227801.9887  -4655145.6113   4172375.3787   2   8   0.0243   0.0260   0.0206   0.0106  -0.0132  -0.0078   0.00    1.0
2173 285416.000  -1227801.9877  -4655145.6096   4172375.3788   2   8   0.0243   0.0260   0.0206   0.0105  -0.0131  -0.0078   0.00    1.0
2173 285417.000  -1227801.9872  -4655145.6108   4172375.3795   2   8   0.0243   0.0258   0.0205   0.0103  -0.0131  -0.0078   0.00    1.0
2173 285418.000  -1227801.9879  -4655145.6067   4172375.3809   2   8   0.0242   0.0258   0.0205   0.0105  -0.0131  -0.0076   0.00    1.0
2173 285419.000  -1227801.9881  -4655145.6046   4172375.3829   2   8   0.0242   0.0257   0.0204   0.0104  -0.0130  -0.0077   0.00    1.0
2173 285420.000  -1227801.9886  -4655145.6030   4172375.3850   2   8   0.0241   0.0256   0.0202   0.0103  -0.0129  -0.0078   0.00    1.0
2173 285421.000  -1227801.9920  -4655145.6004   4172375.3860   2   8   0.0242   0.0255   0.0203   0.0103  -0.0129  -0.0077   0.00    1.0
2173 285422.000  -1227801.9939  -4655145.6013   4172375.3902   2   8   0.0241   0.0254   0.0201   0.0102  -0.0128  -0.0076   0.00    1.0
2173 285423.000  -1227801.9937  -4655145.6038   4172375.3890   2   8   0.0241   0.0253   0.0201   0.0102  -0.0128  -0.0075   0.00    1.0
2173 285424.000  -1227801.9981  -4655145.6060   4172375.3932   2   8   0.0241   0.0252   0.0200   0.0102  -0.0127  -0.0075   0.00    1.0
2173 285425.000  -1227802.0012  -4655145.6094   4172375.3950   2   8   0.0240   0.0252   0.0199   0.0102  -0.0127  -0.0076   0.00    1.0
2173 285426.000  -1227801.9993  -4655145.6124   4172375.3998   2   8   0.0240   0.0250   0.0199   0.0103  -0.0127  -0.0075   0.00    1.0
2173 285427.000  -1227801.9991  -4655145.6142   4172375.4062   2   8   0.0239   0.0250   0.0197   0.0102  -0.0126  -0.0077   0.00    1.0
2173 285428.000  -1227802.0001  -4655145.6051   4172375.3964   2   8   0.0239   0.0249   0.0198   0.0101  -0.0126  -0.0076   0.00    1.0
2173 285429.000  -1227802.0011  -4655145.6041   4172375.4010   2   8   0.0239   0.0248   0.0197   0.0100  -0.0125  -0.0075   0.00    1.0
2173 285430.000  -1227802.0030  -4655145.6055   4172375.4030   2   8   0.0239   0.0247   0.0195   0.0100  -0.0125  -0.0075   0.00    1.0
2173 285431.000  -1227802.0031  -4655145.6027   4172375.4026   2   8   0.0238   0.0246   0.0196   0.0100  -0.0124  -0.0075   0.00    1.0
2173 285432.000  -1227802.0038  -4655145.6029   4172375.4036   2   8   0.0237   0.0245   0.0195   0.0101  -0.0124  -0.0074   0.00    1.0
2173 285433.000  -1227802.0063  -4655145.6034   4172375.4009   2   8   0.0237   0.0245   0.0194   0.0099  -0.0123  -0.0075   0.00    1.0
2173 285434.000  -1227802.0059  -4655145.6045   4172375.4013   2   8   0.0237   0.0244   0.0194   0.0099  -0.0123  -0.0075   0.00    1.0
2173 285435.000  -1227802.0054  -4655145.6042   4172375.4002   2   8   0.0236   0.0243   0.0193   0.0099  -0.0123  -0.0073   0.00    1.0
2173 285436.000  -1227802.0073  -4655145.6014   4172375.4034   2   8   0.0236   0.0242   0.0193   0.0099  -0.0122  -0.0073   0.00    1.0
2173 285437.000  -1227802.0115  -4655145.6159   4172375.4058   2   8   0.0236   0.0241   0.0191   0.0099  -0.0122  -0.0075   0.00    1.0
2173 285438.000  -1227802.0109  -4655145.6204   4172375.4039   2   8   0.0236   0.0240   0.0191   0.0099  -0.0121  -0.0073   0.00    1.0
2173 285439.000  -1227802.0104  -4655145.6202   4172375.4034   2   8   0.0236   0.0241   0.0191   0.0097  -0.0121  -0.0072   0.00    1.0
2173 285440.000  -1227802.0093  -4655145.6190   4172375.4060   2   8   0.0235   0.0239   0.0191   0.0098  -0.0121  -0.0072   0.00    1.0
2173 285441.000  -1227802.0098  -4655145.6210   4172375.4058   2   8   0.0235   0.0238   0.0190   0.0099  -0.0120  -0.0073   0.00    1.0
2173 285442.000  -1227802.0122  -4655145.6204   4172375.4058   2   8   0.0234   0.0238   0.0189   0.0096  -0.0120  -0.0072   0.00    1.0
2173 285443.000  -1227802.0115  -4655145.6165   4172375.4055   2   8   0.0233   0.0236   0.0189   0.0098  -0.0120  -0.0072   0.00    1.0
2173 285444.000  -1227802.0126  -4655145.6170   4172375.4082   2   8   0.0233   0.0236   0.0189   0.0097  -0.0120  -0.0071   0.00    1.1
2173 285445.000  -1227802.0139  -4655145.6172   4172375.4070   2   8   0.0232   0.0235   0.0187   0.0098  -0.0119  -0.0072   0.00    1.1
2173 285446.000  -1227802.0132  -4655145.6129   4172375.4040   2   8   0.0233   0.0234   0.0186   0.0098  -0.0118  -0.0072   0.00    1.1
2173 285447.000  -1227802.0137  -4655145.6148   4172375.4123   2   8   0.0232   0.0234   0.0185   0.0096  -0.0118  -0.0072   0.00    1.1
2173 285448.000  -1227802.0142  -4655145.6090   4172375.4057   2   8   0.0232   0.0233   0.0185   0.0096  -0.0118  -0.0071   0.00    1.1
2173 285449.000  -1227802.0148  -4655145.6079   4172375.4099   2   8   0.0232   0.0232   0.0185   0.0096  -0.0117  -0.0070   0.00    1.1
2173 285450.000  -1227802.0126  -4655145.6023   4172375.4069   2   8   0.0231   0.0231   0.0185   0.0095  -0.0117  -0.0071   0.00    1.1
2173 285451.000  -1227802.0130  -4655145.6002   4172375.4082   2   8   0.0231   0.0230   0.0184   0.0096  -0.0117  -0.0070   0.00    1.1
2173 285452.000  -1227802.0109  -4655145.5988   4172375.4057   2   8   0.0231   0.0229   0.0184   0.0095  -0.0116  -0.0069   0.00    1.1
2173 285453.000  -1227802.0137  -4655145.6038   4172375.4114   2   8   0.0230   0.0229   0.0183   0.0095  -0.0116  -0.0070   0.00    1.1
2173 285454.000  -1227802.0134  -4655145.6007   4172375.4108   2   8   0.0231   0.0228   0.0182   0.0096  -0.0115  -0.0070   0.00    1.1
2173 285455.000  -1227802.0148  -4655145.6003   4172375.4113   2   8   0.0229   0.0227   0.0182   0.0096  -0.0115  -0.0070   0.00    1.1
2173 285456.000  -1227802.0165  -4655145.6045   4172375.4125   2   8   0.0229   0.0226   0.0180   0.0095  -0.0114  -0.0070   0.00    1.1
2173 285457.000  -1227802.0203  -4655145.6040   4172375.4110   2   8   0.0229   0.0226   0.0180   0.0093  -0.0114  -0.0069   0.00    1.1
2173 285458.000  -1227802.0200  -4655145.6071   4172375.4122   2   8   0.0230   0.0225   0.0180   0.0094  -0.0114  -0.0069   0.00    1.1
2173 285459.000  -1227802.0214  -4655145.6094   4172375.4137   2   8   0.0228   0.0225   0.0180   0.0095  -0.0113  -0.0067   0.00    1.1
2173 285460.000  -1227802.0198  -4655145.6096   4172375.4143   2   8   0.0229   0.0224   0.0179   0.0094  -0.0113  -0.0068   0.00    1.1
2173 285461.000  -1227802.0201  -4655145.6073   4172375.4145   2   8   0.0228   0.0223   0.0178   0.0094  -0.0113  -0.0068   0.00    1.1
2173 285462.000  -1227802.0210  -4655145.6095   4172375.4191   2   8   0.0228   0.0223   0.0177   0.0094  -0.0112  -0.0069   0.00    1.1
2173 285463.000  -1227802.0196  -4655145.6095   4172375.4171   2   8   0.0227   0.0222   0.0177   0.0093  -0.0112  -0.0068   0.00    1.1
2173 285464.000  -1227802.0228  -4655145.6132   4172375.4172   2   8   0.0226   0.0221   0.0177   0.0093  -0.0112  -0.0067   0.00    1.1
2173 285465.000  -1227802.0271  -4655145.6130   4172375.4163   2   8   0.0227   0.0220   0.0177   0.0093  -0.0112  -0.0066   0.00    1.0
2173 285466.000  -1227802.0320  -4655145.6182   4172375.4132   2   8   0.0227   0.0220   0.0175   0.0092  -0.0111  -0.0068   0.00    1.0
2173 285467.000  -1227802.0343  -4655145.6256   4172375.4113   2   8   0.0226   0.0219   0.0175   0.0092  -0.0111  -0.0067   0.00    1.0
2173 285468.000  -1227802.0336  -4655145.6275   4172375.4106   2   8   0.0225   0.0218   0.0174   0.0093  -0.0110  -0.0066   0.00    1.0
2173 285469.000  -1227802.0336  -4655145.6305   4172375.4100   2   8   0.0225   0.0218   0.0173   0.0092  -0.0110  -0.0069   0.00    1.0
2173 285470.000  -1227802.0342  -4655145.6331   4172375.4102   2   8   0.0225   0.0217   0.0174   0.0091  -0.0110  -0.0066   0.00    1.0
2173 285471.000  -1227802.0332  -4655145.6351   4172375.4105   2   8   0.0225   0.0216   0.0174   0.0091  -0.0110  -0.0066   0.00    1.0
2173 285472.000  -1227802.0334  -4655145.6391   4172375.4133   2   8   0.0224   0.0216   0.0173   0.0092  -0.0110  -0.0066   0.00    1.0
2173 285473.000  -1227802.0321  -4655145.6428   4172375.4139   2   8   0.0224   0.0215   0.0173   0.0092  -0.0109  -0.0065   0.00    1.0
2173 285474.000  -1227802.0315  -4655145.6430   4172375.4119   2   8   0.0225   0.0215   0.0172   0.0090  -0.0109  -0.0067   0.00    1.0
2173 285475.000  -1227802.0330  -4655145.6450   4172375.4123   2   8   0.0224   0.0214   0.0172   0.0090  -0.0108  -0.0065   0.00    1.0
2173 285476.000  -1227802.0303  -4655145.6527   4172375.4167   2   8   0.0224   0.0214   0.0170   0.0090  -0.0107  -0.0066   0.00    1.0
2173 285477.000  -1227802.0291  -4655145.6522   4172375.4189   2   8   0.0222   0.0213   0.0171   0.0089  -0.0108  -0.0065   0.00    1.0
2173 285478.000  -1227802.0279  -4655145.6488   4172375.4158   2   8   0.0223   0.0212   0.0170   0.0089  -0.0107  -0.0066   0.00    1.0
2173 285479.000  -1227802.0274  -4655145.6506   4172375.4180   2   8   0.0222   0.0211   0.0169   0.0089  -0.0107  -0.0065   0.00    1.0
2173 285480.000  -1227802.0281  -4655145.6529   4172375.4152   2   8   0.0222   0.0211   0.0170   0.0090  -0.0107  -0.0064   0.00    1.0
2173 285481.000  -1227802.0304  -4655145.6574   4172375.4191   2   8   0.0223   0.0210   0.0169   0.0090  -0.0106  -0.0065   0.00    1.0
2173 285482.000  -1227802.0301  -4655145.6554   4172375.4153   2   8   0.0222   0.0209   0.0168   0.0089  -0.0107  -0.0066   0.00    1.0
2173 285483.000  -1227802.0315  -4655145.6571   4172375.4151   2   8   0.0222   0.0209   0.0168   0.0089  -0.0106  -0.0063   0.00    1.0
2173 285484.000  -1227802.0326  -4655145.6628   4172375.4104   2   8   0.0221   0.0208   0.0167   0.0090  -0.0106  -0.0064   0.00    1.0
2173 285485.000  -1227802.0335  -4655145.6664   4172375.4129   2   8   0.0221   0.0208   0.0167   0.0089  -0.0105  -0.0064   0.00    1.0
2173 285486.000  -1227802.0303  -4655145.6691   4172375.4152   2   8   0.0221   0.0208   0.0167   0.0088  -0.0105  -0.0065   0.00    1.0
2173 285487.000  -1227802.0300  -4655145.6752   4172375.4185   2   8   0.0220   0.0206   0.0165   0.0088  -0.0105  -0.0064   0.00    1.0
2173 285488.000  -1227802.0306  -4655145.6709   4172375.4104   2   8   0.0221   0.0206   0.0165   0.0089  -0.0104  -0.0064   0.00    1.0
2173 285489.000  -1227802.0333  -4655145.6743   4172375.4109   2   8   0.0221   0.0206   0.0165   0.0087  -0.0104  -0.0065   0.00    1.0
2173 285490.000  -1227802.0319  -4655145.6719   4172375.4066   2   8   0.0220   0.0205   0.0165   0.0089  -0.0104  -0.0062   0.00    1.0
2173 285491.000  -1227802.0345  -4655145.6768   4172375.4070   2   8   0.0219   0.0204   0.0164   0.0089  -0.0104  -0.0063   0.00    1.0
2173 285492.000  -1227802.0366  -4655145.6791   4172375.4075   2   8   0.0218   0.0203   0.0163   0.0087  -0.0104  -0.0063   0.00    1.1
2173 285493.000  -1227802.0328  -4655145.6790   4172375.4044   2   8   0.0219   0.0203   0.0163   0.0086  -0.0103  -0.0063   0.00    1.1
2173 285494.000  -1227802.0313  -4655145.6801   4172375.4060   2   8   0.0219   0.0203   0.0162   0.0087  -0.0103  -0.0063   0.00    1.1
2173 285495.000  -1227802.0397  -4655145.6780   4172375.4166   2   8   0.0219   0.0202   0.0163   0.0088  -0.0103  -0.0061   0.00    1.1
2173 285496.000  -1227802.0385  -4655145.6817   4172375.4191   2   8   0.0218   0.0202   0.0162   0.0087  -0.0102  -0.0062   0.00    1.1
2173 285497.000  -1227802.0372  -4655145.6859   4172375.4187   2   8   0.0217   0.0201   0.0161   0.0086  -0.0102  -0.0062   0.00    1.1
2173 285498.000  -1227802.0421  -4655145.6881   4172375.4215   2   8   0.0217   0.0200   0.0162   0.0086  -0.0102  -0.0060   0.00    1.1
2173 285499.000  -1227802.0410  -4655145.6905   4172375.4195   2   8   0.0217   0.0200   0.0161   0.0087  -0.0101  -0.0062   0.00    1.1
2173 285500.000  -1227802.0425  -4655145.6969   4172375.4228   2   8   0.0217   0.0200   0.0160   0.0086  -0.0102  -0.0062   0.00    1.1
2173 285501.000  -1227802.0451  -4655145.7029   4172375.4254   2   8   0.0217   0.0199   0.0161   0.0085  -0.0102  -0.0060   0.00    1.1
2173 285502.000  -1227802.0464  -4655145.7118   4172375.4267   2   8   0.0215   0.0198   0.0160   0.0086  -0.0100  -0.0062   0.00    1.1
2173 285503.000  -1227802.0485  -4655145.7182   4172375.4276   2   8   0.0216   0.0197   0.0160   0.0085  -0.0101  -0.0060   0.00    1.1
2173 285504.000  -1227802.0503  -4655145.7272   4172375.4299   2   8   0.0216   0.0197   0.0158   0.0086  -0.0100  -0.0062   0.00    1.1
2173 285505.000  -1227802.0521  -4655145.7254   4172375.4245   2   8   0.0215   0.0197   0.0159   0.0085  -0.0100  -0.0060   0.00    1.1
2173 285506.000  -1227802.0553  -4655145.7365   4172375.4265   2   8   0.0216   0.0196   0.0158   0.0085  -0.0099  -0.0061   0.00    1.1
2173 285507.000  -1227802.0528  -4655145.7403   4172375.4255   2   8   0.0215   0.0196   0.0158   0.0084  -0.0099  -0.0060   0.00    1.1
2173 285508.000  -1227802.0515  -4655145.7480   4172375.4302   2   8   0.0215   0.0196   0.0157   0.0083  -0.0099  -0.0059   0.00    1.1
2173 285509.000  -1227802.0507  -4655145.7515   4172375.4296   2   8   0.0214   0.0195   0.0157   0.0083  -0.0099  -0.0060   0.00    1.1
2173 285510.000  -1227802.0508  -4655145.7551   4172375.4326   2   8   0.0214   0.0194   0.0156   0.0085  -0.0099  -0.0059   0.00    1.1
2173 285511.000  -1227802.0475  -4655145.7527   4172375.4330   2   8   0.0214   0.0193   0.0156   0.0084  -0.0099  -0.0059   0.00    1.1
2173 285512.000  -1227802.0503  -4655145.7587   4172375.4333   2   8   0.0214   0.0193   0.0156   0.0085  -0.0099  -0.0059   0.00    1.1
2173 285513.000  -1227802.0515  -4655145.7642   4172375.4309   2   8   0.0213   0.0192   0.0155   0.0084  -0.0098  -0.0060   0.00    1.1
2173 285514.000  -1227802.0550  -4655145.7681   4172375.4322   2   8   0.0213   0.0192   0.0155   0.0085  -0.0098  -0.0060   0.00    1.1
