% program   : rnx2rtkp ver.2.4.3 b31
% inp file  : ngs/21_08_31_07_48_01_txan.obs
% inp file  : ngs/21_08_31_07_48_01_txan_VZ.obs
% inp file  : ngs/21_08_31_07_48_01_brdc.nav
% obs start : 2021/08/31 07:00:00.0 GPST (week2173 198000.0s)
% obs end   : 2021/08/31 07:59:59.0 GPST (week2173 201599.0s)
% ref pos   :  -825313.9323  -5495769.0867   3119776.4298
%
% (x/y/z-ecef=WGS84,Q=1:fix,2:float,3:sbas,4:dgps,5:single,6:ppp,ns=# of satellites)
%  GPST              x-ecef(m)      y-ecef(m)      z-ecef(m)   Q  ns   sdx(m)   sdy(m)   sdz(m)  sdxy(m)  sdyz(m)  sdzx(m) age(s)  ratio
2173 200860.000   -828648.7062  -5494332.1176   3121536.7941   2   8   0.4004   1.1658   0.5507   0.2768  -0.6322  -0.1490 -30.00    1.3
2173 200861.000   -828648.6755  -5494332.1190   3121536.7504   2   8   0.2848   0.8286   0.3914   0.1971  -0.4491  -0.1059 -29.00    1.4
2173 200862.000   -828648.6612  -5494332.0170   3121536.7571   2   8   0.2332   0.6782   0.3205   0.1613  -0.3676  -0.0866 -28.00    1.5
2173 200863.000   -828648.6768  -5494332.0192   3121536.8026   2   8   0.2023   0.5884   0.2781   0.1399  -0.3190  -0.0751 -27.00    1.5
2173 200864.000   -828648.6839  -5494332.0107   3121536.8171   2   8   0.1812   0.5270   0.2491   0.1252  -0.2857  -0.0672 -26.00    1.6
2173 200865.000   -828648.6618  -5494331.9618   3121536.8270   2   8   0.1655   0.4815   0.2276   0.1143  -0.2611  -0.0614 -25.00    1.7
2173 200866.000   -828648.6623  -5494331.9329   3121536.8216   2   8   0.1534   0.4461   0.2109   0.1058  -0.2419  -0.0568 -24.00    1.7
2173 200867.000   -828648.6426  -5494331.9615   3121536.8414   2   8   0.1435   0.4175   0.1974   0.0990  -0.2264  -0.0532 -23.00    1.8
2173 200868.000   -828648.6382  -5494331.8934   3121536.8184   2   8   0.1354   0.3938   0.1862   0.0933  -0.2136  -0.0501 -22.00    1.9
2173 200869.000   -828648.6405  -5494331.9177   3121536.8352   2   8   0.1285   0.3736   0.1767   0.0885  -0.2026  -0.0475 -21.00    1.9
2173 200870.000   -828648.6190  -5494331.8769   3121536.8272   2   8   0.1225   0.3562   0.1685   0.0843  -0.1932  -0.0453 -20.00    2.0
2173 200871.000   -828648.6091  -5494331.8701   3121536.8225   2   8   0.1173   0.3410   0.1613   0.0807  -0.1849  -0.0434 -19.00    2.1
2173 200872.000   -828648.6073  -5494331.8567   3121536.8266   2   8   0.1127   0.3275   0.1550   0.0775  -0.1776  -0.0416 -18.00    2.1
2173 200873.000   -828648.5986  -5494331.8606   3121536.8290   2   8   0.1086   0.3154   0.1493   0.0747  -0.1710  -0.0401 -17.00    2.2
2173 200874.000   -828648.6024  -5494331.8331   3121536.8320   2   8   0.1049   0.3046   0.1442   0.0721  -0.1651  -0.0387 -16.00    2.3
2173 200875.000   -828648.6058  -5494331.8180   3121536.8333   2   8   0.1015   0.2947   0.1395   0.0698  -0.1598  -0.0374 -15.00    2.5
2173 200876.000   -828648.6062  -5494331.8002   3121536.8371   2   8   0.0985   0.2857   0.1353   0.0676  -0.1549  -0.0363 -14.00    2.6
2173 200877.000   -828648.6005  -5494331.7776   3121536.8303   2   8   0.0957   0.2774   0.1314   0.0657  -0.1503  -0.0352 -13.00    2.8
2173 200878.000   -828648.5958  -5494331.7754   3121536.8451   2   8   0.0931   0.2698   0.1278   0.0639  -0.1462  -0.0342 -12.00    2.9
2173 200879.000   -828648.6688  -5494331.6751   3121536.6822   1   8   0.0086   0.0292   0.0137   0.0040  -0.0170  -0.0029 -11.00    3.1
2173 200880.000   -828648.6663  -5494331.6753   3121536.6806   1   8   0.0080   0.0270   0.0126   0.0038  -0.0156  -0.0029 -10.00    3.3
2173 200881.000   -828648.6655  -5494331.6792   3121536.6829   1   8   0.0074   0.0249   0.0117   0.0036  -0.0144  -0.0026  -9.00    3.5
2173 200882.000   -828648.6654  -5494331.6778   3121536.6847   1   8   0.0068   0.0228   0.0107   0.0035  -0.0131  -0.0024  -8.00    3.8
2173 200883.000   -828648.6654  -5494331.6845   3121536.6860   1   8   0.0063   0.0207   0.0097   0.0032  -0.0119  -0.0021  -7.00    4.1
2173 200884.000   -828648.6640  -5494331.6848   3121536.6871   1   8   0.0057   0.0188   0.0088   0.0032  -0.0106  -0.0019  -6.00    4.5
2173 200885.000   -828648.6620  -5494331.6813   3121536.6874   1   8   0.0054   0.0169   0.0080   0.0032  -0.0095  -0.0015  -5.00    4.9
2173 200886.000   -828648.6595  -5494331.6829   3121536.6877   1   8   0.0049   0.0152   0.0072   0.0030  -0.0086  -0.0018  -4.00    5.3
2173 200887.000   -828648.6602  -5494331.6868   3121536.6887   1   8   0.0047   0.0138   0.0065   0.0026  -0.0077  -0.0012  -3.00    5.8
2173 200888.000   -828648.6593  -5494331.6806   3121536.6888   1   8   0.0041   0.0127   0.0059   0.0031  -0.0070  -0.0017  -2.00    6.3
2173 200889.000   -828648.6568  -5494331.6836   3121536.6911   1   8   0.0039   0.0120   0.0054   0.0029  -0.0064  -0.0015  -1.00    6.9
2173 200890.000   -828648.6548  -5494331.6801   3121536.6898   1   8   0.0041   0.0117   0.0056   0.0026  -0.0063  -0.0018   0.00    7.7
2173 200891.000   -828648.6589  -5494331.6784   3121536.6886   1   8   0.0041   0.0117   0.0056   0.0026  -0.0062  -0.0023   0.00    8.4
2173 200892.000   -828648.6582  -5494331.6793   3121536.6873   1   8   0.0039   0.0116   0.0054   0.0030  -0.0063  -0.0020   0.00    8.9
2173 200893.000   -828648.6588  -5494331.6796   3121536.6866   1   8   0.0040   0.0117   0.0054   0.0025  -0.0063  -0.0015   0.00    9.2
2173 200894.000   -828648.6585  -5494331.6840   3121536.6922   1   8   0.0039   0.0116   0.0050   0.0030  -0.0060  -0.0023   0.00    9.7
2173 200895.000   -828648.6598  -5494331.6869   3121536.6919   1   8   0.0039   0.0116   0.0055   0.0030  -0.0063  -0.0018   0.00   10.6
2173 200896.000   -828648.6575  -5494331.6842   3121536.6905   1   8   0.0041   0.0117   0.0056   0.0027  -0.0062  -0.0016   0.00   11.0
2173 200897.000   -828648.6591  -5494331.6852   3121536.6905   1   8   0.0040   0.0116   0.0055   0.0031  -0.0064  -0.0020   0.00   11.6
2173 200898.000   -828648.6600  -5494331.6871   3121536.6932   1   8   0.0041   0.0116   0.0056   0.0028  -0.0065  -0.0020   0.00   11.9
2173 200899.000   -828648.6599  -5494331.6879   3121536.6877   1   8   0.0040   0.0116   0.0056   0.0029  -0.0063   0.0012   0.00   13.0
2173 200900.000   -828648.6599  -5494331.6999   3121536.6904   1   8   0.0042   0.0117   0.0054   0.0024  -0.0064   0.0012   0.00   14.3
2173 200901.000   -828648.6613  -5494331.6925   3121536.6893   1   8   0.0037   0.0116   0.0057   0.0026  -0.0062  -0.0010   0.00   15.3
2173 200902.000   -828648.6618  -5494331.6965   3121536.6895   1   8   0.0043   0.0117   0.0054   0.0028  -0.0064  -0.0021   0.00   16.6
2173 200903.000   -828648.6617  -5494331.6970   3121536.6873   1   8   0.0041   0.0117   0.0057   0.0024  -0.0064  -0.0005   0.00   17.6
2173 200904.000   -828648.6576  -5494331.6819   3121536.6881   1   8   0.0042   0.0117   0.0057   0.0027  -0.0064  -0.0018   0.00   18.0
2173 200905.000   -828648.6594  -5494331.6847   3121536.6894   1   8   0.0040   0.0117   0.0052   0.0027  -0.0061  -0.0018   0.00   18.6
2173 200906.000   -828648.6573  -5494331.6783   3121536.6866   1   8   0.0042   0.0117   0.0057   0.0027  -0.0064  -0.0014   0.00   18.9
2173 200907.000   -828648.6582  -5494331.6835   3121536.6896   1   8   0.0040   0.0117   0.0055   0.0028  -0.0064  -0.0015   0.00   19.6
2173 200908.000   -828648.6575  -5494331.6825   3121536.6884   1   8   0.0040   0.0117   0.0054   0.0027  -0.0062  -0.0015   0.00   20.1
2173 200909.000   -828648.6589  -5494331.6834   3121536.6899   1   8   0.0043   0.0116   0.0058   0.0027  -0.0063  -0.0008   0.00   20.4
2173 200910.000   -828648.6604  -5494331.6902   3121536.6888   1   8   0.0040   0.0117   0.0055   0.0026  -0.0063  -0.0013   0.00   20.7
2173 200911.000   -828648.6596  -5494331.6892   3121536.6895   1   8   0.0040   0.0117   0.0055   0.0021  -0.0063  -0.0017   0.00   20.6
2173 200912.000   -828648.6586  -5494331.6878   3121536.6904   1   8   0.0041   0.0117   0.0059   0.0029  -0.0063  -0.0013   0.00   20.7
2173 200913.000   -828648.6598  -5494331.6882   3121536.6908   1   8   0.0040   0.0116   0.0055   0.0028  -0.0063  -0.0019   0.00   21.0
2173 200914.000   -828648.6574  -5494331.6830   3121536.6906   1   8   0.0042   0.0117   0.0057   0.0023  -0.0064   0.0012   0.00   21.1
2173 200915.000   -828648.6575  -5494331.6786   3121536.6890   1   8   0.0041   0.0117   0.0057   0.0026  -0.0065  -0.0015   0.00   21.3
2173 200916.000   -828648.6589  -5494331.6801   3121536.6898   1   8   0.0039   0.0117   0.0057   0.0030  -0.0062  -0.0014   0.00   21.4
2173 200917.000   -828648.6567  -5494331.6825   3121536.6883   1   8   0.0041   0.0117   0.0053   0.0027  -0.0063  -0.0021   0.00   21.6
2173 200918.000   -828648.6574  -5494331.6801   3121536.6891   1   8   0.0036   0.0116   0.0056   0.0026  -0.0065  -0.0019   0.00   21.6
2173 200919.000   -828648.6575  -5494331.6834   3121536.6888   1   8   0.0039   0.0117   0.0054   0.0025  -0.0064  -0.0015   0.00   22.2
2173 200920.000   -828648.6568  -5494331.6812   3121536.6875   1   8   0.0040   0.0116   0.0054   0.0025  -0.0062  -0.0014   0.00   22.7
2173 200921.000   -828648.6586  -5494331.6800   3121536.6891   1   8   0.0041   0.0117   0.0058   0.0032  -0.0062  -0.0018   0.00   23.2
2173 200922.000   -828648.6585  -5494331.6827   3121536.6900   1   8   0.0042   0.0116   0.0056   0.0027  -0.0064  -0.0016   0.00   23.7
2173 200923.000   -828648.6588  -5494331.6811   3121536.6901   1   8   0.0039   0.0117   0.0055   0.0027  -0.0064  -0.0006   0.00   24.2
2173 200924.000   -828648.6576  -5494331.6801   3121536.6886   1   8   0.0041   0.0116   0.0055   0.0026  -0.0064  -0.0015   0.00   24.4
2173 200925.000   -828648.6580  -5494331.6788   3121536.6871   1   8   0.0037   0.0117   0.0054   0.0025  -0.0063   0.0014   0.00   24.7
2173 200926.000   -828648.6585  -5494331.6770   3121536.6854   1   8   0.0040   0.0116   0.0056   0.0027  -0.0063  -0.0011   0.00   24.8
2173 200927.000   -828648.6587  -5494331.6791   3121536.6869   1   8   0.0039   0.0116   0.0055   0.0031  -0.0062  -0.0013   0.00   25.1
2173 200928.000   -828648.6587  -5494331.6795   3121536.6860   1   8   0.0038   0.0116   0.0056   0.0026  -0.0063  -0.0010   0.00   25.3
2173 200929.000   -828648.6619  -5494331.6962   3121536.6901   1   8   0.0044   0.0116   0.0059   0.0026  -0.0064   0.0014   0.00   26.0
2173 200930.000   -828648.6602  -5494331.6927   3121536.6903   1   8   0.0046   0.0117   0.0059   0.0024  -0.0064   0.0014   0.00   26.3
2173 200931.000   -828648.6611  -5494331.6894   3121536.6865   1   8   0.0039   0.0116   0.0054   0.0028  -0.0063   0.0010   0.00   26.8
2173 200932.000   -828648.6601  -5494331.6917   3121536.6883   1   8   0.0042   0.0116   0.0054   0.0021  -0.0063  -0.0004   0.00   27.5
2173 200933.000   -828648.6615  -5494331.6940   3121536.6875   1   8   0.0038   0.0116   0.0057   0.0025  -0.0063  -0.0018   0.00   28.2
2173 200934.000   -828648.6612  -5494331.6893   3121536.6859   1   8   0.0040   0.0116   0.0057   0.0028  -0.0064  -0.0018   0.00   28.8
2173 200935.000   -828648.6620  -5494331.6869   3121536.6902   1   8   0.0037   0.0116   0.0054   0.0028  -0.0063   0.0006   0.00   29.5
2173 200936.000   -828648.6626  -5494331.6896   3121536.6875   1   8   0.0042   0.0117   0.0056   0.0028  -0.0063  -0.0019   0.00   30.1
2173 200937.000   -828648.6613  -5494331.6889   3121536.6888   1   8   0.0036   0.0116   0.0055   0.0030  -0.0063  -0.0015   0.00   30.7
2173 200938.000   -828648.6626  -5494331.6906   3121536.6888   1   8   0.0038   0.0115   0.0053   0.0031  -0.0062  -0.0020   0.00   31.1
2173 200939.000   -828648.6618  -5494331.6855   3121536.6852   1   8   0.0040   0.0116   0.0054   0.0027  -0.0064  -0.0018   0.00   31.9
2173 200940.000   -828648.6611  -5494331.6849   3121536.6852   1   8   0.0043   0.0116   0.0058   0.0026  -0.0064  -0.0011   0.00   32.7
2173 200941.000   -828648.6631  -5494331.6866   3121536.6865   1   8   0.0042   0.0116   0.0058   0.0027  -0.0063  -0.0015   0.00   33.5
2173 200942.000   -828648.6622  -5494331.6849   3121536.6883   1   8   0.0043   0.0117   0.0054   0.0030  -0.0062  -0.0014   0.00   34.0
2173 200943.000   -828648.6614  -5494331.6875   3121536.6888   1   8   0.0038   0.0116   0.0055   0.0028  -0.0062  -0.0015   0.00   34.8
2173 200944.000   -828648.6626  -5494331.6958   3121536.6896   1   8   0.0038   0.0116   0.0057   0.0028  -0.0062  -0.0006   0.00   35.3
2173 200945.000   -828648.6633  -5494331.6921   3121536.6890   1   8   0.0041   0.0116   0.0055   0.0030  -0.0063   0.0002   0.00   36.0
2173 200946.000   -828648.6628  -5494331.6917   3121536.6879   1   8   0.0042   0.0117   0.0055   0.0025  -0.0061  -0.0021   0.00   36.6
2173 200947.000   -828648.6604  -5494331.6953   3121536.6893   1   8   0.0037   0.0116   0.0056   0.0027  -0.0064  -0.0020   0.00   37.1
2173 200948.000   -828648.6643  -5494331.7023   3121536.6916   1   8   0.0039   0.0116   0.0058   0.0029  -0.0063  -0.0016   0.00   37.6
2173 200949.000   -828648.6590  -5494331.6806   3121536.6877   1   8   0.0038   0.0116   0.0055   0.0023  -0.0064  -0.0016   0.00   38.0
2173 200950.000   -828648.6597  -5494331.6784   3121536.6869   1   8   0.0039   0.0116   0.0056   0.0023  -0.0063  -0.0009   0.00   38.5
2173 200951.000   -828648.6588  -5494331.6805   3121536.6887   1   8   0.0037   0.0116   0.0054   0.0024  -0.0062  -0.0010   0.00   38.9
2173 200952.000   -828648.6593  -5494331.6806   3121536.6882   1   8   0.0034   0.0116   0.0054   0.0029  -0.0062  -0.0022   0.00   39.3
2173 200953.000   -828648.6606  -5494331.6799   3121536.6892   1   8   0.0040   0.0117   0.0058   0.0026  -0.0062  -0.0012   0.00   39.7
2173 200954.000   -828648.6638  -5494331.6924   3121536.6905   1   8   0.0043   0.0116   0.0058   0.0027  -0.0063  -0.0011   0.00   40.4
2173 200955.000   -828648.6644  -5494331.6973   3121536.6895   1   8   0.0041   0.0115   0.0055   0.0030  -0.0064  -0.0022   0.00   41.3
2173 200956.000   -828648.6650  -5494331.6957   3121536.6905   1   8   0.0041   0.0116   0.0056   0.0029  -0.0062  -0.0011   0.00   42.3
2173 200957.000   -828648.6637  -5494331.6917   3121536.6902   1   8   0.0039   0.0116   0.0057   0.0033  -0.0061  -0.0020   0.00   43.2
2173 200958.000   -828648.6638  -5494331.6968   3121536.6908   1   8   0.0039   0.0115   0.0058   0.0027  -0.0062  -0.0016   0.00   44.0
2173 200959.000   -828648.6621  -5494331.6860   3121536.6863   1   8   0.0039   0.0116   0.0055   0.0028  -0.0062  -0.0017   0.00   44.8
2173 200960.000   -828648.6645  -5494331.6917   3121536.6886   1   8   0.0039   0.0116   0.0056   0.0030  -0.0063   0.0008   0.00   45.4
2173 200961.000   -828648.6650  -5494331.6935   3121536.6889   1   8   0.0038   0.0116   0.0054   0.0027  -0.0063  -0.0008   0.00   46.3
2173 200962.000   -828648.6651  -5494331.6891   3121536.6869   1   8   0.0037   0.0116   0.0055   0.0028  -0.0062   0.0005   0.00   47.1
2173 200963.000   -828648.6616  -5494331.6899   3121536.6876   1   8   0.0036   0.0116   0.0057   0.0029  -0.0064  -0.0015   0.00   48.1
2173 200964.000   -828648.6645  -5494331.6936   3121536.6908   1   8   0.0044   0.0117   0.0056   0.0023  -0.0063  -0.0015   0.00   48.7
2173 200965.000   -828648.6665  -5494331.6934   3121536.6893   1   8   0.0041   0.0116   0.0057   0.0027  -0.0064  -0.0020   0.00   49.3
2173 200966.000   -828648.6641  -5494331.6913   3121536.6896   1   8   0.0041   0.0116   0.0057   0.0024  -0.0064  -0.0018   0.00   49.9
2173 200967.000   -828648.6650  -5494331.6937   3121536.6887   1   8   0.0038   0.0115   0.0055   0.0033  -0.0062   0.0013   0.00   50.9
2173 200968.000   -828648.6642  -5494331.6875   3121536.6894   1   8   0.0044   0.0116   0.0060   0.0024  -0.0064  -0.0015   0.00   51.7
2173 200969.000   -828648.6604  -5494331.6740   3121536.6858   1   8   0.0041   0.0116   0.0055   0.0024  -0.0064  -0.0016   0.00   52.0
2173 200970.000   -828648.6606  -5494331.6791   3121536.6875   1   8   0.0041   0.0116   0.0058   0.0029  -0.0062  -0.0007   0.00   52.4
2173 200971.000   -828648.6624  -5494331.6794   3121536.6883   1   8   0.0040   0.0116   0.0053   0.0031  -0.0064  -0.0013   0.00   52.7
2173 200972.000   -828648.6614  -5494331.6795   3121536.6893   1   8   0.0040   0.0115   0.0058   0.0030  -0.0063  -0.0018   0.00   52.8
2173 200973.000   -828648.6619  -5494331.6787   3121536.6873   1   8   0.0039   0.0116   0.0055   0.0029  -0.0060  -0.0012   0.00   53.1
2173 200974.000   -828648.6623  -5494331.6802   3121536.6884   1   8   0.0044   0.0116   0.0058   0.0025  -0.0065   0.0007   0.00   53.6
2173 200975.000   -828648.6601  -5494331.6839   3121536.6879   1   8   0.0040   0.0116   0.0055   0.0025  -0.0063  -0.0022   0.00   54.2
2173 200976.000   -828648.6621  -5494331.6866   3121536.6910   1   8   0.0038   0.0115   0.0055   0.0025  -0.0062  -0.0006   0.00   54.9
2173 200977.000   -828648.6622  -5494331.6820   3121536.6880   1   8   0.0043   0.0116   0.0056   0.0026  -0.0063  -0.0018   0.00   55.3
2173 200978.000   -828648.6604  -5494331.6810   3121536.6860   1   8   0.0038   0.0116   0.0054   0.0029  -0.0062  -0.0018   0.00   55.5
2173 200979.000   -828648.6622  -5494331.6838   3121536.6890   1   8   0.0042   0.0116   0.0058   0.0029  -0.0064  -0.0016   0.00   56.0
2173 200980.000   -828648.6621  -5494331.6859   3121536.6897   1   8   0.0039   0.0116   0.0057   0.0026  -0.0061  -0.0015   0.00   56.6
2173 200981.000   -828648.6615  -5494331.6830   3121536.6875   1   8   0.0043   0.0116   0.0058   0.0026  -0.0064  -0.0017   0.00   57.0
2173 200982.000   -828648.6619  -5494331.6844   3121536.6890   1   8   0.0044   0.0116   0.0055   0.0030  -0.0062   0.0008   0.00   57.5
2173 200983.000   -828648.6608  -5494331.6798   3121536.6889   1   8   0.0043   0.0115   0.0058   0.0029  -0.0063  -0.0021   0.00   57.8
2173 200984.000   -828648.6637  -5494331.6994   3121536.6924   1   8   0.0040   0.0115   0.0056   0.0026  -0.0064  -0.0013   0.00   58.6
2173 200985.000   -828648.6651  -5494331.6997   3121536.6904   1   8   0.0041   0.0116   0.0054   0.0026  -0.0062  -0.0015   0.00   59.2
2173 200986.000   -828648.6640  -5494331.6966   3121536.6894   1   8   0.0042   0.0116   0.0057   0.0024  -0.0062  -0.0003   0.00   59.7
2173 200987.000   -828648.6660  -5494331.6992   3121536.6910   1   8   0.0040   0.0115   0.0055   0.0027  -0.0061  -0.0020   0.00   60.4
2173 200988.000   -828648.6666  -5494331.7048   3121536.6903   1   8   0.0040   0.0116   0.0056   0.0029  -0.0062  -0.0018   0.00   61.1
2173 200989.000   -828648.6664  -5494331.6964   3121536.6905   1   8   0.0042   0.0115   0.0054   0.0027  -0.0063  -0.0010   0.00   61.5
2173 200990.000   -828648.6654  -5494331.6946   3121536.6884   1   8   0.0041   0.0115   0.0057   0.0026  -0.0064  -0.0018   0.00   61.9
2173 200991.000   -828648.6658  -5494331.6940   3121536.6896   1   8   0.0044   0.0116   0.0057   0.0028  -0.0062  -0.0021   0.00   62.4
2173 200992.000   -828648.6660  -5494331.6963   3121536.6922   1   8   0.0038   0.0116   0.0056   0.0029  -0.0062  -0.0016   0.00   63.0
2173 200993.000   -828648.6685  -5494331.6975   3121536.6916   1   8   0.0038   0.0116   0.0056   0.0027  -0.0060   0.0014   0.00   64.0
2173 200994.000   -828648.6653  -5494331.6976   3121536.6918   1   8   0.0040   0.0115   0.0057   0.0027  -0.0064   0.0007   0.00   64.5
2173 200995.000   -828648.6632  -5494331.6931   3121536.6891   1   8   0.0037   0.0116   0.0054   0.0025  -0.0062  -0.0010   0.00   65.0
2173 200996.000   -828648.6654  -5494331.6965   3121536.6891   1   8   0.0042   0.0116   0.0056   0.0026  -0.0064  -0.0008   0.00   65.5
2173 200997.000   -828648.6652  -5494331.6950   3121536.6894   1   8   0.0038   0.0116   0.0058   0.0024  -0.0062  -0.0011   0.00   66.4
2173 200998.000   -828648.6661  -5494331.6999   3121536.6910   1   8   0.0042   0.0115   0.0057   0.0031  -0.0063  -0.0005   0.00   67.0
2173 200999.000   -828648.6649  -5494331.6954   3121536.6914   1   8   0.0040   0.0116   0.0056   0.0028  -0.0063  -0.0013   0.00   67.4
2173 201000.000   -828648.6654  -5494331.6899   3121536.6905   1   8   0.0037   0.0115   0.0056   0.0031  -0.0060  -0.0019   0.00   67.7
2173 201001.000   -828648.6653  -5494331.6955   3121536.6899   1   8   0.0042   0.0115   0.0053   0.0026  -0.0062  -0.0008   0.00   68.0
2173 201002.000   -828648.6656  -5494331.6916   3121536.6912   1   8   0.0040   0.0116   0.0055   0.0030  -0.0062  -0.0022   0.00   68.3
2173 201003.000   -828648.6654  -5494331.6932   3121536.6919   1   8   0.0038   0.0115   0.0055   0.0027  -0.0062  -0.0008   0.00   68.4
2173 201004.000   -828648.6663  -5494331.6941   3121536.6897   1   8   0.0041   0.0115   0.0055   0.0024  -0.0062  -0.0004   0.00   68.8
2173 201005.000   -828648.6670  -5494331.6946   3121536.6904   1   8   0.0037   0.0116   0.0054   0.0028  -0.0062  -0.0015   0.00   69.3
2173 201006.000   -828648.6683  -5494331.6993   3121536.6919   1   8   0.0043   0.0115   0.0058   0.0030  -0.0062  -0.0004   0.00   69.7
2173 201007.000   -828648.6657  -5494331.6966   3121536.6900   1   8   0.0037   0.0115   0.0056   0.0023  -0.0065  -0.0018   0.00   70.2
2173 201008.000   -828648.6675  -5494331.6940   3121536.6896   1   8   0.0036   0.0115   0.0056   0.0032  -0.0063  -0.0019   0.00   70.6
2173 201009.000   -828648.6658  -5494331.6974   3121536.6915   1   8   0.0043   0.0115   0.0055   0.0023  -0.0063   0.0007   0.00   70.9
2173 201010.000   -828648.6652  -5494331.6947   3121536.6905   1   8   0.0040   0.0116   0.0055   0.0021  -0.0062  -0.0016   0.00   71.4
2173 201011.000   -828648.6649  -5494331.6948   3121536.6914   1   8   0.0040   0.0116   0.0054   0.0023  -0.0061  -0.0020   0.00   71.8
2173 201012.000   -828648.6647  -5494331.6980   3121536.6914   1   8   0.0041   0.0115   0.0054   0.0029  -0.0062  -0.0018   0.00   72.0
2173 201013.000   -828648.6636  -5494331.6894   3121536.6890   1   8   0.0037   0.0115   0.0054   0.0027  -0.0064  -0.0009   0.00   72.1
2173 201014.000   -828648.6655  -5494331.6992   3121536.6953   1   8   0.0042   0.0115   0.0058   0.0027  -0.0062  -0.0019   0.00   72.5
2173 201015.000   -828648.6647  -5494331.7003   3121536.6941   1   8   0.0040   0.0116   0.0053   0.0026  -0.0062  -0.0013   0.00   72.9
2173 201016.000   -828648.6651  -5494331.6998   3121536.6948   1   8   0.0041   0.0116   0.0056   0.0027  -0.0062   0.0006   0.00   73.5
2173 201017.000   -828648.6678  -5494331.7046   3121536.6974   1   8   0.0042   0.0115   0.0056   0.0027  -0.0064  -0.0017   0.00   73.9
2173 201018.000   -828648.6655  -5494331.7026   3121536.6967   1   8   0.0039   0.0115   0.0056   0.0024  -0.0065  -0.0013   0.00   74.5
2173 201019.000   -828648.6652  -5494331.6980   3121536.6948   1   8   0.0041   0.0115   0.0057   0.0028  -0.0061  -0.0012   0.00   75.2
2173 201020.000   -828648.6652  -5494331.6939   3121536.6931   1   8   0.0044   0.0115   0.0055   0.0025  -0.0063  -0.0017   0.00   75.6
2173 201021.000   -828648.6649  -5494331.6922   3121536.6930   1   8   0.0039   0.0116   0.0056   0.0024  -0.0064  -0.0013   0.00   76.3
2173 201022.000   -828648.6653  -5494331.6900   3121536.6910   1   8   0.0038   0.0116   0.0057   0.0026  -0.0064  -0.0016   0.00   76.6
2173 201023.000   -828648.6652  -5494331.6903   3121536.6892   1   8   0.0035   0.0115   0.0055   0.0022  -0.0063  -0.0014   0.00   76.9
2173 201024.000   -828648.6655  -5494331.6972   3121536.6949   1   8   0.0039   0.0115   0.0057   0.0028  -0.0063  -0.0018   0.00   77.0
2173 201025.000   -828648.6639  -5494331.6971   3121536.6943   1   8   0.0040   0.0115   0.0054   0.0028  -0.0062  -0.0019   0.00   77.5
2173 201026.000   -828648.6623  -5494331.6890   3121536.6892   1   8   0.0040   0.0115   0.0054   0.0028  -0.0062  -0.0010   0.00   77.9
2173 201027.000   -828648.6633  -5494331.6914   3121536.6914   1   8   0.0040   0.0115   0.0053   0.0025  -0.0063  -0.0021   0.00   78.0
2173 201028.000   -828648.6617  -5494331.6895   3121536.6914   1   8   0.0038   0.0115   0.0055   0.0028  -0.0062  -0.0010   0.00   78.3
2173 201029.000   -828648.6654  -5494331.6980   3121536.6925   1   8   0.0039   0.0115   0.0053   0.0023  -0.0062  -0.0015   0.00   78.7
2173 201030.000   -828648.6658  -5494331.6916   3121536.6914   1   8   0.0039   0.0115   0.0056   0.0022  -0.0064   0.0011   0.00   78.7
2173 201031.000   -828648.6661  -5494331.6922   3121536.6905   1   8   0.0039   0.0115   0.0055   0.0024  -0.0062  -0.0003   0.00   79.0
2173 201032.000   -828648.6644  -5494331.6899   3121536.6896   1   8   0.0042   0.0115   0.0054   0.0030  -0.0063  -0.0012   0.00   79.1
2173 201033.000   -828648.6648  -5494331.6923   3121536.6920   1   8   0.0034   0.0115   0.0053   0.0026  -0.0063  -0.0021   0.00   79.6
2173 201034.000   -828648.6640  -5494331.6949   3121536.6902   1   8   0.0042   0.0115   0.0055   0.0024  -0.0063  -0.0009   0.00   79.7
2173 201035.000   -828648.6639  -5494331.6935   3121536.6906   1   8   0.0037   0.0114   0.0057   0.0028  -0.0062  -0.0016   0.00   79.6
2173 201036.000   -828648.6630  -5494331.6918   3121536.6906   1   8   0.0045   0.0116   0.0058   0.0022  -0.0063   0.0012   0.00   79.4
2173 201037.000   -828648.6637  -5494331.6939   3121536.6918   1   8   0.0040   0.0115   0.0056   0.0027  -0.0065  -0.0017   0.00   79.3
2173 201038.000   -828648.6652  -5494331.6967   3121536.6918   1   8   0.0039   0.0115   0.0056   0.0026  -0.0063  -0.0013   0.00   79.0
2173 201039.000   -828648.6631  -5494331.6937   3121536.6918   1   8   0.0039   0.0115   0.0056   0.0029  -0.0064   0.0013   0.00   79.0
2173 201040.000   -828648.6641  -5494331.6891   3121536.6912   1   8   0.0043   0.0115   0.0056   0.0028  -0.0063  -0.0014   0.00   79.0
2173 201041.000   -828648.6629  -5494331.6920   3121536.6911   1   8   0.0041   0.0115   0.0055   0.0027  -0.0060  -0.0017   0.00   79.2
2173 201042.000   -828648.6644  -5494331.6922   3121536.6902   1   8   0.0039   0.0114   0.0055   0.0027  -0.0062  -0.0018   0.00   79.1
2173 201043.000   -828648.6631  -5494331.6852   3121536.6874   1   8   0.0040   0.0114   0.0057   0.0027  -0.0062  -0.0016   0.00   78.9
2173 201044.000   -828648.6645  -5494331.7013   3121536.6942   1   8   0.0040   0.0116   0.0057   0.0023  -0.0063  -0.0017   0.00   78.6
2173 201045.000   -828648.6657  -5494331.6963   3121536.6926   1   8   0.0037   0.0115   0.0056   0.0031  -0.0061  -0.0014   0.00   78.5
2173 201046.000   -828648.6636  -5494331.6927   3121536.6919   1   8   0.0040   0.0115   0.0056   0.0026  -0.0063  -0.0024   0.00   78.4
2173 201047.000   -828648.6650  -5494331.6938   3121536.6916   1   8   0.0041   0.0115   0.0058   0.0028  -0.0063  -0.0011   0.00   78.3
2173 201048.000   -828648.6644  -5494331.6942   3121536.6928   1   8   0.0038   0.0115   0.0058   0.0023  -0.0064  -0.0012   0.00   78.2
2173 201049.000   -828648.6637  -5494331.6940   3121536.6917   1   8   0.0042   0.0115   0.0058   0.0027  -0.0062  -0.0009   0.00   77.9
2173 201050.000   -828648.6652  -5494331.6970   3121536.6925   1   8   0.0034   0.0115   0.0054   0.0025  -0.0062   0.0012   0.00   77.9
2173 201051.000   -828648.6645  -5494331.6939   3121536.6931   1   8   0.0041   0.0114   0.0056   0.0024  -0.0064  -0.0011   0.00   77.5
2173 201052.000   -828648.6650  -5494331.6986   3121536.6956   1   8   0.0037   0.0115   0.0055   0.0026  -0.0062  -0.0008   0.00   77.2
2173 201053.000   -828648.6633  -5494331.7004   3121536.6935   1   8   0.0041   0.0115   0.0052   0.0025  -0.0061  -0.0011   0.00   76.9
2173 201054.000   -828648.6654  -5494331.6908   3121536.6917   1   8   0.0042   0.0115   0.0057   0.0029  -0.0062  -0.0009   0.00   76.8
2173 201055.000   -828648.6646  -5494331.6904   3121536.6919   1   8   0.0040   0.0115   0.0057   0.0025  -0.0064  -0.0012   0.00   76.7
2173 201056.000   -828648.6653  -5494331.6877   3121536.6907   1   8   0.0044   0.0115   0.0056   0.0018  -0.0064  -0.0020   0.00   77.0
2173 201057.000   -828648.6662  -5494331.6849   3121536.6892   1   8   0.0041   0.0114   0.0057   0.0023  -0.0064  -0.0011   0.00   77.0
2173 201058.000   -828648.6658  -5494331.6935   3121536.6934   1   8   0.0040   0.0114   0.0055   0.0027  -0.0061  -0.0006   0.00   76.8
2173 201059.000   -828648.6642  -5494331.6903   3121536.6918   1   8   0.0040   0.0115   0.0058   0.0026  -0.0063   0.0010   0.00   76.9
2173 201060.000   -828648.6632  -5494331.6893   3121536.6891   1   8   0.0042   0.0115   0.0055   0.0021  -0.0062  -0.0018   0.00   77.0
2173 201061.000   -828648.6642  -5494331.6930   3121536.6909   1   8   0.0040   0.0115   0.0056   0.0024  -0.0065  -0.0007   0.00   77.2
2173 201062.000   -828648.6641  -5494331.6929   3121536.6907   1   8   0.0040   0.0114   0.0055   0.0026  -0.0063  -0.0015   0.00   77.2
2173 201063.000   -828648.6630  -5494331.6884   3121536.6902   1   8   0.0041   0.0115   0.0056   0.0027  -0.0061  -0.0011   0.00   77.1
2173 201064.000   -828648.6620  -5494331.6932   3121536.6902   1   8   0.0036   0.0115   0.0054   0.0027  -0.0061  -0.0015   0.00   76.7
2173 201065.000   -828648.6642  -5494331.6990   3121536.6926   1   8   0.0038   0.0115   0.0056   0.0022  -0.0063   0.0008   0.00   76.1
2173 201066.000   -828648.6639  -5494331.6980   3121536.6926   1   8   0.0043   0.0114   0.0057   0.0027  -0.0062  -0.0010   0.00   75.7
2173 201067.000   -828648.6650  -5494331.6981   3121536.6906   1   8   0.0040   0.0115   0.0056   0.0024  -0.0061  -0.0006   0.00   75.1
2173 201068.000   -828648.6629  -5494331.6947   3121536.6917   1   8   0.0039   0.0114   0.0055   0.0032  -0.0061  -0.0014   0.00   74.7
2173 201069.000   -828648.6656  -5494331.6962   3121536.6916   1   8   0.0043   0.0114   0.0057   0.0027  -0.0065  -0.0022   0.00   74.6
2173 201070.000   -828648.6678  -5494331.6973   3121536.6917   1   8   0.0041   0.0116   0.0056   0.0025  -0.0063  -0.0007   0.00   74.2
2173 201071.000   -828648.6663  -5494331.6930   3121536.6920   1   8   0.0043   0.0114   0.0055   0.0029  -0.0061  -0.0009   0.00   74.0
2173 201072.000   -828648.6665  -5494331.6950   3121536.6920   1   8   0.0043   0.0115   0.0056   0.0025  -0.0063  -0.0004   0.00   73.8
2173 201073.000   -828648.6668  -5494331.6906   3121536.6924   1   8   0.0039   0.0114   0.0055   0.0025  -0.0061  -0.0017   0.00   73.6
2173 201074.000   -828648.6652  -5494331.6956   3121536.6938   1   8   0.0039   0.0114   0.0055   0.0025  -0.0063  -0.0013   0.00   73.5
2173 201075.000   -828648.6662  -5494331.6955   3121536.6909   1   8   0.0039   0.0115   0.0054   0.0028  -0.0059   0.0004   0.00   73.3
2173 201076.000   -828648.6645  -5494331.6937   3121536.6886   1   8   0.0043   0.0115   0.0056   0.0025  -0.0062  -0.0007   0.00   73.1
2173 201077.000   -828648.6655  -5494331.6977   3121536.6907   1   8   0.0042   0.0115   0.0054   0.0025  -0.0061  -0.0016   0.00   72.9
2173 201078.000   -828648.6655  -5494331.6939   3121536.6919   1   8   0.0042   0.0115   0.0056   0.0027  -0.0062  -0.0015   0.00   72.7
2173 201079.000   -828648.6651  -5494331.6959   3121536.6925   1   8   0.0042   0.0115   0.0057   0.0025  -0.0061  -0.0004   0.00   72.7
2173 201080.000   -828648.6656  -5494331.6984   3121536.6941   1   8   0.0041   0.0115   0.0057   0.0029  -0.0063  -0.0012   0.00   72.5
2173 201081.000   -828648.6634  -5494331.6992   3121536.6928   1   8   0.0040   0.0115   0.0058   0.0025  -0.0062   0.0006   0.00   72.4
2173 201082.000   -828648.6652  -5494331.6914   3121536.6921   1   8   0.0042   0.0114   0.0056   0.0030  -0.0063  -0.0018   0.00   72.3
2173 201083.000   -828648.6635  -5494331.6968   3121536.6933   1   8   0.0038   0.0114   0.0054   0.0024  -0.0063  -0.0013   0.00   72.1
2173 201084.000   -828648.6663  -5494331.6954   3121536.6907   1   8   0.0039   0.0115   0.0056   0.0028  -0.0061  -0.0005   0.00   71.9
2173 201085.000   -828648.6657  -5494331.6899   3121536.6888   1   8   0.0042   0.0114   0.0056   0.0023  -0.0064  -0.0004   0.00   71.6
2173 201086.000   -828648.6663  -5494331.6977   3121536.6922   1   8   0.0041   0.0114   0.0056   0.0022  -0.0061  -0.0012   0.00   71.4
2173 201087.000   -828648.6676  -5494331.6995   3121536.6910   1   8   0.0038   0.0115   0.0054   0.0028  -0.0062  -0.0012   0.00   71.2
2173 201088.000   -828648.6662  -5494331.6974   3121536.6908   1   8   0.0042   0.0114   0.0057   0.0010  -0.0063   0.0015   0.00   71.0
2173 201089.000   -828648.6648  -5494331.6952   3121536.6921   1   8   0.0040   0.0114   0.0056   0.0025  -0.0063  -0.0012   0.00   70.5
2173 201090.000   -828648.6644  -5494331.6898   3121536.6899   1   8   0.0039   0.0114   0.0055   0.0029  -0.0063  -0.0020   0.00   70.4
2173 201091.000   -828648.6626  -5494331.6908   3121536.6904   1   8   0.0043   0.0114   0.0055   0.0026  -0.0063   0.0003   0.00   70.1
2173 201092.000   -828648.6627  -5494331.6929   3121536.6908   1   8   0.0042   0.0115   0.0056   0.0024  -0.0062  -0.0016   0.00   69.9
2173 201093.000   -828648.6634  -5494331.6892   3121536.6894   1   8   0.0036   0.0114   0.0054   0.0025  -0.0061  -0.0012   0.00   69.5
2173 201094.000   -828648.6629  -5494331.6967   3121536.6893   1   8   0.0042   0.0114   0.0057   0.0024  -0.0063  -0.0011   0.00   69.1
2173 201095.000   -828648.6650  -5494331.6916   3121536.6868   1   8   0.0035   0.0115   0.0055   0.0027  -0.0062  -0.0006   0.00   68.8
2173 201096.000   -828648.6637  -5494331.6990   3121536.6873   1   8   0.0040   0.0114   0.0057   0.0024  -0.0063  -0.0014   0.00   68.5
2173 201097.000   -828648.6645  -5494331.6995   3121536.6883   1   8   0.0039   0.0114   0.0054   0.0027  -0.0062  -0.0017   0.00   68.3
2173 201098.000   -828648.6659  -5494331.6955   3121536.6876   1   8   0.0036   0.0114   0.0056   0.0026  -0.0061  -0.0012   0.00   68.1
2173 201099.000   -828648.6659  -5494331.6994   3121536.6897   1   8   0.0046   0.0114   0.0055   0.0022  -0.0062  -0.0007   0.00   67.8
2173 201100.000   -828648.6644  -5494331.6972   3121536.6883   1   8   0.0043   0.0114   0.0056   0.0028  -0.0061  -0.0014   0.00   67.7
2173 201101.000   -828648.6650  -5494331.7004   3121536.6907   1   8   0.0041   0.0114   0.0057   0.0024  -0.0062  -0.0015   0.00   67.4
2173 201102.000   -828648.6657  -5494331.7042   3121536.6919   1   8   0.0041   0.0114   0.0056   0.0028  -0.0062  -0.0010   0.00   67.1
2173 201103.000   -828648.6636  -5494331.7026   3121536.6901   1   8   0.0039   0.0114   0.0057   0.0027  -0.0063  -0.0009   0.00   67.1
2173 201104.000   -828648.6648  -5494331.6928   3121536.6901   1   8   0.0040   0.0114   0.0053   0.0023  -0.0062  -0.0015   0.00   66.7
2173 201105.000   -828648.6623  -5494331.6886   3121536.6857   1   8   0.0042   0.0114   0.0057   0.0019  -0.0064   0.0011   0.00   66.4
2173 201106.000   -828648.6643  -5494331.6902   3121536.6869   1   8   0.0043   0.0115   0.0058   0.0022  -0.0062  -0.0011   0.00   65.9
2173 201107.000   -828648.6638  -5494331.6923   3121536.6870   1   8   0.0043   0.0114   0.0054   0.0026  -0.0063  -0.0012   0.00   65.7
2173 201108.000   -828648.6637  -5494331.6903   3121536.6865   1   8   0.0043   0.0115   0.0058   0.0026  -0.0063  -0.0009   0.00   65.5
2173 201109.000   -828648.6638  -5494331.6938   3121536.6905   1   8   0.0041   0.0114   0.0055   0.0025  -0.0061   0.0004   0.00   65.2
2173 201110.000   -828648.6637  -5494331.6973   3121536.6889   1   8   0.0041   0.0114   0.0053   0.0024  -0.0062  -0.0018   0.00   65.0
2173 201111.000   -828648.6632  -5494331.6991   3121536.6910   1   8   0.0040   0.0113   0.0057   0.0026  -0.0064  -0.0020   0.00   64.7
2173 201112.000   -828648.6642  -5494331.6958   3121536.6881   1   8   0.0039   0.0114   0.0056   0.0031  -0.0061  -0.0014   0.00   64.2
2173 201113.000   -828648.6644  -5494331.6971   3121536.6888   1   8   0.0036   0.0113   0.0053   0.0028  -0.0062  -0.0009   0.00   63.9
2173 201114.000   -828648.6630  -5494331.6969   3121536.6892   1   8   0.0038   0.0114   0.0056   0.0026  -0.0062  -0.0021   0.00   63.5
2173 201115.000   -828648.6626  -5494331.6908   3121536.6856   1   8   0.0038   0.0114   0.0056   0.0026  -0.0061  -0.0009   0.00   63.1
2173 201116.000   -828648.6639  -5494331.6935   3121536.6883   1   8   0.0038   0.0114   0.0058   0.0030  -0.0061  -0.0011   0.00   62.8
2173 201117.000   -828648.6630  -5494331.6935   3121536.6873   1   8   0.0041   0.0114   0.0054   0.0026  -0.0060  -0.0014   0.00   62.3
2173 201118.000   -828648.6620  -5494331.6927   3121536.6881   1   8   0.0036   0.0114   0.0057   0.0025  -0.0062  -0.0005   0.00   62.0
2173 201119.000   -828648.6664  -5494331.7050   3121536.6891   1   8   0.0041   0.0114   0.0056   0.0022  -0.0062   0.0008   0.00   61.9
2173 201120.000   -828648.6645  -5494331.6997   3121536.6864   1   8   0.0038   0.0115   0.0056   0.0023  -0.0061  -0.0016   0.00   61.5
2173 201121.000   -828648.6673  -5494331.7013   3121536.6894   1   8   0.0033   0.0113   0.0054   0.0028  -0.0062   0.0005   0.00   61.2
2173 201122.000   -828648.6652  -5494331.6997   3121536.6882   1   8   0.0037   0.0113   0.0054   0.0024  -0.0062  -0.0012   0.00   60.9
2173 201123.000   -828648.6655  -5494331.7018   3121536.6899   1   8   0.0042   0.0115   0.0055   0.0021  -0.0062   0.0004   0.00   60.5
2173 201124.000   -828648.6637  -5494331.6962   3121536.6890   1   8   0.0039   0.0114   0.0057   0.0026  -0.0063  -0.0011   0.00   60.4
2173 201125.000   -828648.6643  -5494331.6983   3121536.6883   1   8   0.0043   0.0114   0.0054   0.0024  -0.0062  -0.0003   0.00   60.1
2173 201126.000   -828648.6644  -5494331.7018   3121536.6882   1   8   0.0040   0.0114   0.0061   0.0028  -0.0062  -0.0015   0.00   60.1
2173 201127.000   -828648.6638  -5494331.6998   3121536.6891   1   8   0.0040   0.0114   0.0058   0.0023  -0.0062  -0.0010   0.00   60.0
2173 201128.000   -828648.6642  -5494331.6982   3121536.6867   1   8   0.0042   0.0113   0.0057   0.0026  -0.0064  -0.0009   0.00   59.7
2173 201129.000   -828648.6636  -5494331.6914   3121536.6895   1   8   0.0038   0.0113   0.0054   0.0027  -0.0063  -0.0009   0.00   59.6
2173 201130.000   -828648.6637  -5494331.6979   3121536.6894   1   8   0.0040   0.0113   0.0056   0.0018  -0.0065   0.0011   0.00   59.5
2173 201131.000   -828648.6620  -5494331.6991   3121536.6905   1   8   0.0042   0.0113   0.0057   0.0027  -0.0062  -0.0022   0.00   59.4
2173 201132.000   -828648.6638  -5494331.6959   3121536.6892   1   8   0.0040   0.0114   0.0053   0.0021  -0.0061   0.0005   0.00   59.2
2173 201133.000   -828648.6649  -5494331.6998   3121536.6896   1   8   0.0037   0.0114   0.0054   0.0021  -0.0062  -0.0018   0.00   59.1
2173 201134.000   -828648.6635  -5494331.6918   3121536.6861   1   8   0.0046   0.0114   0.0059   0.0025  -0.0063  -0.0016   0.00   59.0
2173 201135.000   -828648.6643  -5494331.6916   3121536.6862   1   8   0.0043   0.0114   0.0057   0.0016  -0.0064  -0.0002   0.00   59.0
2173 201136.000   -828648.6617  -5494331.6908   3121536.6880   1   8   0.0040   0.0114   0.0056   0.0024  -0.0064  -0.0014   0.00   58.9
2173 201137.000   -828648.6625  -5494331.6967   3121536.6882   1   8   0.0040   0.0114   0.0058   0.0027  -0.0061  -0.0010   0.00   58.9
2173 201138.000   -828648.6636  -5494331.7000   3121536.6888   1   8   0.0040   0.0114   0.0057   0.0026  -0.0063  -0.0015   0.00   59.2
2173 201139.000   -828648.6616  -5494331.6972   3121536.6891   1   8   0.0045   0.0114   0.0055   0.0022  -0.0062  -0.0019   0.00   59.2
2173 201140.000   -828648.6642  -5494331.7025   3121536.6906   1   8   0.0035   0.0114   0.0055   0.0025  -0.0063  -0.0013   0.00   59.1
2173 201141.000   -828648.6624  -5494331.6956   3121536.6874   1   8   0.0038   0.0113   0.0057   0.0026  -0.0061  -0.0007   0.00   59.1
2173 201142.000   -828648.6635  -5494331.6998   3121536.6903   1   8   0.0037   0.0114   0.0053   0.0022  -0.0062  -0.0008   0.00   59.0
2173 201143.000   -828648.6645  -5494331.6996   3121536.6895   1   8   0.0045   0.0114   0.0055   0.0029  -0.0060  -0.0013   0.00   58.9
2173 201144.000   -828648.6634  -5494331.6959   3121536.6867   1   8   0.0038   0.0113   0.0052   0.0022  -0.0061  -0.0022   0.00   58.9
2173 201145.000   -828648.6623  -5494331.6994   3121536.6884   1   8   0.0043   0.0114   0.0056   0.0025  -0.0064  -0.0009   0.00   58.8
2173 201146.000   -828648.6628  -5494331.6978   3121536.6890   1   8   0.0045   0.0114   0.0057   0.0023  -0.0061  -0.0006   0.00   58.7
2173 201147.000   -828648.6633  -5494331.6982   3121536.6880   1   8   0.0038   0.0113   0.0057   0.0025  -0.0061  -0.0011   0.00   58.7
2173 201148.000   -828648.6623  -5494331.6991   3121536.6891   1   8   0.0038   0.0114   0.0055   0.0028  -0.0060  -0.0017   0.00   58.8
2173 201149.000   -828648.6628  -5494331.6944   3121536.6862   1   8   0.0040   0.0113   0.0056   0.0024  -0.0064  -0.0019   0.00   58.7
2173 201150.000   -828648.6626  -5494331.6969   3121536.6875   1   8   0.0039   0.0113   0.0056   0.0023  -0.0063  -0.0017   0.00   58.7
2173 201151.000   -828648.6633  -5494331.6998   3121536.6889   1   8   0.0042   0.0114   0.0056   0.0021  -0.0062  -0.0017   0.00   58.9
2173 201152.000   -828648.6643  -5494331.6973   3121536.6868   1   8   0.0042   0.0114   0.0057   0.0022  -0.0064  -0.0006   0.00   58.9
2173 201153.000   -828648.6645  -5494331.6957   3121536.6856   1   8   0.0043   0.0114   0.0057   0.0024  -0.0061  -0.0013   0.00   58.9
2173 201154.000   -828648.6622  -5494331.6969   3121536.6876   1   8   0.0044   0.0113   0.0057   0.0027  -0.0063  -0.0019   0.00   59.2
2173 201155.000   -828648.6623  -5494331.7006   3121536.6878   1   8   0.0038   0.0113   0.0057   0.0025  -0.0063  -0.0008   0.00   59.2
2173 201156.000   -828648.6617  -5494331.6919   3121536.6853   1   8   0.0042   0.0113   0.0056   0.0028  -0.0061  -0.0010   0.00   59.2
2173 201157.000   -828648.6618  -5494331.6928   3121536.6864   1   8   0.0040   0.0113   0.0056   0.0020  -0.0062  -0.0014   0.00   59.2
2173 201158.000   -828648.6610  -5494331.6955   3121536.6855   1   8   0.0041   0.0113   0.0055   0.0026  -0.0061  -0.0018   0.00   59.2
2173 201159.000   -828648.6620  -5494331.6936   3121536.6866   1   8   0.0036   0.0113   0.0055   0.0025  -0.0061  -0.0015   0.00   59.3
2173 201160.000   -828648.6629  -5494331.6970   3121536.6879   1   8   0.0044   0.0114   0.0057   0.0022  -0.0063  -0.0007   0.00   59.3
2173 201161.000   -828648.6628  -5494331.6961   3121536.6863   1   8   0.0035   0.0114   0.0057   0.0025  -0.0062  -0.0007   0.00   59.3
2173 201162.000   -828648.6628  -5494331.6954   3121536.6855   1   8   0.0039   0.0113   0.0055   0.0027  -0.0060  -0.0014   0.00   59.3
2173 201163.000   -828648.6632  -5494331.6950   3121536.6857   1   8   0.0040   0.0113   0.0053   0.0029  -0.0059  -0.0014   0.00   59.3
2173 201164.000   -828648.6619  -5494331.6973   3121536.6848   1   8   0.0037   0.0113   0.0055   0.0028  -0.0061   0.0010   0.00   59.2
2173 201165.000   -828648.6644  -5494331.6966   3121536.6869   1   8   0.0041   0.0113   0.0058   0.0023  -0.0063   0.0013   0.00   59.2
2173 201166.000   -828648.6646  -5494331.6942   3121536.6848   1   8   0.0040   0.0113   0.0060   0.0024  -0.0062   0.0011   0.00   59.3
2173 201167.000   -828648.6643  -5494331.6957   3121536.6848   1   8   0.0045   0.0113   0.0056   0.0025  -0.0063  -0.0020   0.00   59.4
2173 201168.000   -828648.6655  -5494331.6954   3121536.6869   1   8   0.0041   0.0114   0.0055   0.0025  -0.0060  -0.0015   0.00   59.4
2173 201169.000   -828648.6624  -5494331.6960   3121536.6858   1   8   0.0043   0.0114   0.0056   0.0026  -0.0061  -0.0016   0.00   59.3
2173 201170.000   -828648.6637  -5494331.6964   3121536.6901   1   8   0.0042   0.0113   0.0057   0.0029  -0.0061  -0.0012   0.00   59.3
2173 201171.000   -828648.6634  -5494331.7023   3121536.6870   1   8   0.0038   0.0113   0.0057   0.0027  -0.0061  -0.0013   0.00   59.3
2173 201172.000   -828648.6649  -5494331.7029   3121536.6893   1   8   0.0036   0.0113   0.0052   0.0026  -0.0061  -0.0014   0.00   59.3
2173 201173.000   -828648.6639  -5494331.6972   3121536.6864   1   8   0.0042   0.0114   0.0055   0.0022  -0.0062  -0.0014   0.00   59.4
2173 201174.000   -828648.6633  -5494331.6947   3121536.6837   1   8   0.0038   0.0113   0.0055   0.0026  -0.0062  -0.0008   0.00   59.5
2173 201175.000   -828648.6621  -5494331.7008   3121536.6859   1   8   0.0039   0.0113   0.0055   0.0026  -0.0062   0.0012   0.00   59.5
2173 201176.000   -828648.6642  -5494331.6971   3121536.6841   1   8   0.0040   0.0113   0.0053   0.0024  -0.0062  -0.0008   0.00   59.6
2173 201177.000   -828648.6634  -5494331.7026   3121536.6875   1   8   0.0041   0.0113   0.0057   0.0029  -0.0061  -0.0014   0.00   59.7
2173 201178.000   -828648.6645  -5494331.7029   3121536.6872   1   8   0.0041   0.0113   0.0054   0.0024  -0.0062  -0.0012   0.00   59.7
2173 201179.000   -828648.6632  -5494331.6989   3121536.6840   1   8   0.0040   0.0113   0.0056   0.0026  -0.0060  -0.0015   0.00   59.6
2173 201180.000   -828648.6634  -5494331.6988   3121536.6863   1   8   0.0039   0.0114   0.0056   0.0027  -0.0059  -0.0011   0.00   59.6
2173 201181.000   -828648.6629  -5494331.6959   3121536.6860   1   8   0.0036   0.0113   0.0056   0.0024  -0.0063  -0.0009   0.00   59.5
2173 201182.000   -828648.6642  -5494331.6983   3121536.6853   1   8   0.0038   0.0113   0.0056   0.0020  -0.0063  -0.0019   0.00   59.6
2173 201183.000   -828648.6626  -5494331.7011   3121536.6872   1   8   0.0040   0.0113   0.0054   0.0024  -0.0063  -0.0012   0.00   59.6
2173 201184.000   -828648.6661  -5494331.6981   3121536.6872   1   8   0.0039   0.0113   0.0058   0.0027  -0.0061  -0.0018   0.00   59.7
2173 201185.000   -828648.6660  -5494331.6957   3121536.6859   1   8   0.0037   0.0113   0.0056   0.0019  -0.0061  -0.0018   0.00   59.8
2173 201186.000   -828648.6653  -5494331.6992   3121536.6855   1   8   0.0041   0.0113   0.0055   0.0024  -0.0061  -0.0015   0.00   59.8
2173 201187.000   -828648.6662  -5494331.7009   3121536.6879   1   8   0.0043   0.0113   0.0056   0.0023  -0.0063  -0.0019   0.00   59.9
2173 201188.000   -828648.6658  -5494331.7024   3121536.6871   1   8   0.0042   0.0114   0.0056   0.0019  -0.0063  -0.0012   0.00   60.0
2173 201189.000   -828648.6622  -5494331.7024   3121536.6873   1   8   0.0043   0.0114   0.0058   0.0024  -0.0062   0.0012   0.00   60.3
2173 201190.000   -828648.6610  -5494331.7009   3121536.6873   1   8   0.0040   0.0114   0.0054   0.0027  -0.0062  -0.0013   0.00   60.6
2173 201191.000   -828648.6615  -5494331.7012   3121536.6861   1   8   0.0042   0.0113   0.0055   0.0023  -0.0062  -0.0015   0.00   60.7
2173 201192.000   -828648.6612  -5494331.6998   3121536.6863   1   8   0.0043   0.0113   0.0057   0.0025  -0.0061  -0.0019   0.00   60.9
2173 201193.000   -828648.6624  -5494331.6998   3121536.6872   1   8   0.0033   0.0113   0.0053   0.0027  -0.0060  -0.0001   0.00   61.2
2173 201194.000   -828648.6620  -5494331.7018   3121536.6873   1   8   0.0039   0.0113   0.0059   0.0024  -0.0062  -0.0017   0.00   61.1
2173 201195.000   -828648.6609  -5494331.6942   3121536.6856   1   8   0.0045   0.0113   0.0058   0.0028  -0.0061  -0.0015   0.00   61.4
2173 201196.000   -828648.6629  -5494331.7006   3121536.6856   1   8   0.0040   0.0114   0.0058   0.0023  -0.0063  -0.0013   0.00   61.5
2173 201197.000   -828648.6617  -5494331.6968   3121536.6870   1   8   0.0038   0.0113   0.0052   0.0027  -0.0060  -0.0015   0.00   61.7
2173 201198.000   -828648.6630  -5494331.6966   3121536.6850   1   8   0.0036   0.0113   0.0055   0.0026  -0.0061  -0.0018   0.00   62.0
2173 201199.000   -828648.6609  -5494331.6936   3121536.6874   1   8   0.0035   0.0113   0.0054   0.0024  -0.0061   0.0007   0.00   62.3
2173 201200.000   -828648.6627  -5494331.6925   3121536.6852   1   8   0.0042   0.0113   0.0053   0.0025  -0.0063  -0.0020   0.00   62.6
2173 201201.000   -828648.6631  -5494331.6976   3121536.6880   1   8   0.0038   0.0113   0.0053   0.0021  -0.0061  -0.0009   0.00   62.8
2173 201202.000   -828648.6629  -5494331.6988   3121536.6901   1   8   0.0037   0.0113   0.0056   0.0027  -0.0060  -0.0011   0.00   63.1
2173 201203.000   -828648.6623  -5494331.6967   3121536.6877   1   8   0.0039   0.0112   0.0059   0.0025  -0.0062  -0.0021   0.00   63.2
2173 201204.000   -828648.6626  -5494331.6997   3121536.6881   1   8   0.0041   0.0113   0.0055   0.0029  -0.0061  -0.0016   0.00   63.4
2173 201205.000   -828648.6624  -5494331.6964   3121536.6863   1   8   0.0043   0.0112   0.0054   0.0024  -0.0063  -0.0021   0.00   63.6
2173 201206.000   -828648.6621  -5494331.6973   3121536.6873   1   8   0.0042   0.0113   0.0056   0.0024  -0.0063  -0.0004   0.00   63.9
2173 201207.000   -828648.6646  -5494331.6965   3121536.6862   1   8   0.0041   0.0113   0.0058   0.0026  -0.0062  -0.0020   0.00   64.0
2173 201208.000   -828648.6627  -5494331.6939   3121536.6876   1   8   0.0043   0.0114   0.0054   0.0023  -0.0061  -0.0019   0.00   64.3
2173 201209.000   -828648.6630  -5494331.6991   3121536.6867   1   8   0.0037   0.0113   0.0054   0.0022  -0.0061  -0.0007   0.00   64.4
2173 201210.000   -828648.6636  -5494331.6975   3121536.6873   1   8   0.0042   0.0113   0.0056   0.0022  -0.0063  -0.0008   0.00   64.5
2173 201211.000   -828648.6615  -5494331.6933   3121536.6878   1   8   0.0041   0.0112   0.0056   0.0025  -0.0063  -0.0010   0.00   64.5
2173 201212.000   -828648.6644  -5494331.6984   3121536.6897   1   8   0.0040   0.0112   0.0057   0.0024  -0.0063  -0.0019   0.00   64.6
2173 201213.000   -828648.6655  -5494331.6979   3121536.6881   1   8   0.0041   0.0112   0.0058   0.0024  -0.0063  -0.0015   0.00   64.7
2173 201214.000   -828648.6634  -5494331.6991   3121536.6872   1   8   0.0034   0.0113   0.0055   0.0022  -0.0061   0.0012   0.00   64.8
2173 201215.000   -828648.6637  -5494331.6942   3121536.6877   1   8   0.0044   0.0113   0.0054   0.0028  -0.0061  -0.0022   0.00   65.0
2173 201216.000   -828648.6627  -5494331.6911   3121536.6851   1   8   0.0041   0.0113   0.0056   0.0026  -0.0061  -0.0017   0.00   65.0
2173 201217.000   -828648.6624  -5494331.6965   3121536.6869   1   8   0.0039   0.0113   0.0059   0.0024  -0.0062   0.0010   0.00   65.2
2173 201218.000   -828648.6600  -5494331.6945   3121536.6873   1   8   0.0040   0.0113   0.0054   0.0024  -0.0062  -0.0022   0.00   65.3
2173 201219.000   -828648.6632  -5494331.6971   3121536.6861   1   8   0.0041   0.0112   0.0053   0.0026  -0.0061  -0.0015   0.00   65.4
2173 201220.000   -828648.6634  -5494331.6916   3121536.6848   1   8   0.0039   0.0113   0.0056   0.0024  -0.0062  -0.0012   0.00   65.5
2173 201221.000   -828648.6634  -5494331.6945   3121536.6860   1   8   0.0040   0.0113   0.0055   0.0020  -0.0060   0.0010   0.00   65.7
2173 201222.000   -828648.6647  -5494331.6902   3121536.6849   1   8   0.0039   0.0112   0.0055   0.0022  -0.0061   0.0003   0.00   65.9
2173 201223.000   -828648.6639  -5494331.6953   3121536.6852   1   8   0.0040   0.0112   0.0053   0.0027  -0.0061  -0.0021   0.00   66.1
2173 201224.000   -828648.6648  -5494331.6933   3121536.6858   1   8   0.0040   0.0113   0.0055   0.0023  -0.0063  -0.0010   0.00   66.3
2173 201225.000   -828648.6635  -5494331.6960   3121536.6880   1   8   0.0038   0.0113   0.0057   0.0022  -0.0061   0.0005   0.00   66.6
2173 201226.000   -828648.6629  -5494331.6963   3121536.6881   1   8   0.0040   0.0113   0.0055   0.0025  -0.0060  -0.0014   0.00   66.8
2173 201227.000   -828648.6640  -5494331.6981   3121536.6883   1   8   0.0045   0.0113   0.0055   0.0024  -0.0061   0.0004   0.00   67.1
2173 201228.000   -828648.6647  -5494331.6950   3121536.6878   1   8   0.0041   0.0112   0.0055   0.0024  -0.0061  -0.0019   0.00   67.4
2173 201229.000   -828648.6632  -5494331.6926   3121536.6865   1   8   0.0033   0.0112   0.0056   0.0024  -0.0063  -0.0015   0.00   67.6
2173 201230.000   -828648.6651  -5494331.6957   3121536.6875   1   8   0.0036   0.0113   0.0056   0.0022  -0.0061  -0.0010   0.00   67.8
2173 201231.000   -828648.6644  -5494331.6957   3121536.6878   1   8   0.0042   0.0113   0.0055   0.0025  -0.0062  -0.0009   0.00   68.1
2173 201232.000   -828648.6646  -5494331.6966   3121536.6863   1   8   0.0039   0.0113   0.0056   0.0024  -0.0061  -0.0005   0.00   68.3
2173 201233.000   -828648.6649  -5494331.6937   3121536.6864   1   8   0.0043   0.0113   0.0053   0.0024  -0.0059  -0.0010   0.00   68.5
2173 201234.000   -828648.6674  -5494331.7030   3121536.6906   1   8   0.0042   0.0112   0.0056   0.0023  -0.0061   0.0008   0.00   69.0
2173 201235.000   -828648.6666  -5494331.7006   3121536.6893   1   8   0.0041   0.0112   0.0056   0.0025  -0.0062  -0.0007   0.00   69.2
2173 201236.000   -828648.6675  -5494331.7010   3121536.6881   1   8   0.0042   0.0113   0.0056   0.0024  -0.0061  -0.0014   0.00   69.4
2173 201237.000   -828648.6662  -5494331.6933   3121536.6863   1   8   0.0041   0.0113   0.0057   0.0027  -0.0060  -0.0015   0.00   69.7
2173 201238.000   -828648.6669  -5494331.7007   3121536.6912   1   8   0.0042   0.0113   0.0054   0.0022  -0.0061  -0.0021   0.00   69.9
2173 201239.000   -828648.6611  -5494331.6860   3121536.6883   1   8   0.0039   0.0112   0.0054   0.0022  -0.0061   0.0006   0.00   70.3
2173 201240.000   -828648.6625  -5494331.6792   3121536.6874   1   8   0.0044   0.0113   0.0054   0.0022  -0.0063  -0.0021   0.00   70.5
2173 201241.000   -828648.6626  -5494331.6854   3121536.6879   1   8   0.0040   0.0112   0.0058   0.0025  -0.0062  -0.0010   0.00   70.7
2173 201242.000   -828648.6613  -5494331.6859   3121536.6880   1   8   0.0042   0.0113   0.0055   0.0022  -0.0063  -0.0013   0.00   71.1
2173 201243.000   -828648.6616  -5494331.6849   3121536.6882   1   8   0.0043   0.0112   0.0058   0.0025  -0.0062  -0.0018   0.00   71.2
2173 201244.000   -828648.6619  -5494331.6863   3121536.6891   1   8   0.0043   0.0113   0.0058   0.0017  -0.0062  -0.0014   0.00   71.4
2173 201245.000   -828648.6604  -5494331.6837   3121536.6875   1   8   0.0041   0.0113   0.0058   0.0021  -0.0062  -0.0007   0.00   71.8
2173 201246.000   -828648.6599  -5494331.6814   3121536.6871   1   8   0.0045   0.0112   0.0056   0.0022  -0.0062   0.0006   0.00   72.1
2173 201247.000   -828648.6608  -5494331.6860   3121536.6882   1   8   0.0041   0.0113   0.0057   0.0024  -0.0061  -0.0003   0.00   72.4
2173 201248.000   -828648.6616  -5494331.6868   3121536.6902   1   8   0.0040   0.0113   0.0054   0.0022  -0.0062  -0.0009   0.00   72.8
2173 201249.000   -828648.6594  -5494331.6855   3121536.6900   1   8   0.0037   0.0113   0.0057   0.0024  -0.0060  -0.0013   0.00   73.0
2173 201250.000   -828648.6605  -5494331.6849   3121536.6870   1   8   0.0044   0.0113   0.0057   0.0023  -0.0062   0.0011   0.00   73.0
2173 201251.000   -828648.6615  -5494331.6798   3121536.6869   1   8   0.0038   0.0112   0.0056   0.0026  -0.0061  -0.0016   0.00   73.0
2173 201252.000   -828648.6620  -5494331.6825   3121536.6888   1   8   0.0040   0.0112   0.0059   0.0020  -0.0062  -0.0004   0.00   73.2
2173 201253.000   -828648.6600  -5494331.6804   3121536.6859   1   8   0.0037   0.0112   0.0055   0.0021  -0.0061   0.0003   0.00   73.2
2173 201254.000   -828648.6639  -5494331.6800   3121536.6891   1   8   0.0038   0.0112   0.0055   0.0028  -0.0061  -0.0016   0.00   73.2
2173 201255.000   -828648.6615  -5494331.6799   3121536.6870   1   8   0.0042   0.0112   0.0057   0.0027  -0.0061  -0.0011   0.00   73.3
2173 201256.000   -828648.6634  -5494331.6809   3121536.6882   1   8   0.0040   0.0112   0.0056   0.0022  -0.0063   0.0011   0.00   73.3
2173 201257.000   -828648.6631  -5494331.6851   3121536.6898   1   8   0.0044   0.0112   0.0056   0.0023  -0.0063  -0.0013   0.00   73.2
2173 201258.000   -828648.6620  -5494331.6899   3121536.6912   1   8   0.0037   0.0112   0.0059   0.0024  -0.0061  -0.0010   0.00   73.1
2173 201259.000   -828648.6678  -5494331.7022   3121536.6918   1   8   0.0037   0.0113   0.0057   0.0025  -0.0062  -0.0020   0.00   73.1
2173 201260.000   -828648.6674  -5494331.7028   3121536.6927   1   8   0.0042   0.0112   0.0057   0.0027  -0.0061  -0.0015   0.00   73.2
2173 201261.000   -828648.6658  -5494331.6922   3121536.6890   1   8   0.0041   0.0112   0.0055   0.0021  -0.0061  -0.0025   0.00   73.2
2173 201262.000   -828648.6650  -5494331.6979   3121536.6905   1   8   0.0043   0.0112   0.0055   0.0025  -0.0060  -0.0013   0.00   73.2
2173 201263.000   -828648.6673  -5494331.6973   3121536.6903   1   8   0.0042   0.0112   0.0056   0.0028  -0.0060  -0.0020   0.00   73.5
2173 201264.000   -828648.6646  -5494331.6981   3121536.6922   1   8   0.0042   0.0112   0.0056   0.0022  -0.0063  -0.0016   0.00   73.3
2173 201265.000   -828648.6648  -5494331.6957   3121536.6908   1   8   0.0040   0.0113   0.0056   0.0025  -0.0061  -0.0020   0.00   73.5
2173 201266.000   -828648.6674  -5494331.6961   3121536.6901   1   8   0.0038   0.0112   0.0057   0.0022  -0.0062   0.0009   0.00   73.4
2173 201267.000   -828648.6654  -5494331.6971   3121536.6902   1   8   0.0043   0.0111   0.0057   0.0026  -0.0061  -0.0017   0.00   73.3
2173 201268.000   -828648.6650  -5494331.6934   3121536.6881   1   8   0.0039   0.0112   0.0058   0.0024  -0.0062   0.0009   0.00   73.1
2173 201269.000   -828648.6680  -5494331.6978   3121536.6896   1   8   0.0042   0.0112   0.0055   0.0024  -0.0061  -0.0013   0.00   73.1
2173 201270.000   -828648.6667  -5494331.7019   3121536.6930   1   8   0.0036   0.0113   0.0055   0.0026  -0.0059  -0.0011   0.00   72.9
2173 201271.000   -828648.6044  -5494331.7656   3121536.7022   2   9   0.0189   0.0266   0.0128   0.0016   0.0063   0.0058   0.00    1.2
2173 201272.000   -828648.6050  -5494331.7597   3121536.7006   2   9   0.0188   0.0262   0.0126   0.0025   0.0067   0.0061   0.00    1.4
2173 201273.000   -828648.6051  -5494331.7594   3121536.7002   2   9   0.0188   0.0261   0.0128   0.0029   0.0069   0.0060   0.00    1.6
2173 201274.000   -828648.6022  -5494331.7539   3121536.6967   2   9   0.0188   0.0259   0.0126   0.0024   0.0068   0.0058   0.00    1.8
2173 201275.000   -828648.6047  -5494331.7520   3121536.6966   2   9   0.0188   0.0258   0.0126   0.0028   0.0069   0.0060   0.00    2.1
2173 201276.000   -828648.6047  -5494331.7580   3121536.7006   2   9   0.0187   0.0258   0.0126   0.0027   0.0068   0.0060   0.00    2.3
2173 201277.000   -828648.6037  -5494331.7536   3121536.6990   2   9   0.0187   0.0257   0.0126   0.0023   0.0067   0.0060   0.00    2.5
2173 201278.000   -828648.6036  -5494331.7518   3121536.6963   2   9   0.0187   0.0256   0.0125   0.0024   0.0067   0.0055   0.00    2.7
2173 201279.000   -828648.6028  -5494331.7533   3121536.6989   2   9   0.0187   0.0255   0.0126   0.0027   0.0068   0.0053   0.00    2.9
2173 201280.000   -828648.6669  -5494331.6846   3121536.6893   1   9   0.0033   0.0095   0.0057   0.0027  -0.0057  -0.0014   0.00    3.1
2173 201281.000   -828648.6662  -5494331.6809   3121536.6897   1   9   0.0036   0.0096   0.0056   0.0028  -0.0054   0.0016   0.00    3.3
2173 201282.000   -828648.6660  -5494331.6825   3121536.6874   1   9   0.0038   0.0095   0.0054   0.0027  -0.0053  -0.0011   0.00    3.4
2173 201283.000   -828648.6661  -5494331.6789   3121536.6877   1   9   0.0041   0.0095   0.0057   0.0027  -0.0057  -0.0014   0.00    3.6
2173 201284.000   -828648.6685  -5494331.6885   3121536.6914   1   9   0.0036   0.0096   0.0055   0.0029  -0.0054   0.0018   0.00    3.8
2173 201285.000   -828648.6669  -5494331.6894   3121536.6904   1   9   0.0042   0.0094   0.0054   0.0024  -0.0057  -0.0010   0.00    4.0
2173 201286.000   -828648.6682  -5494331.6879   3121536.6890   1   9   0.0038   0.0096   0.0053   0.0024  -0.0056  -0.0004   0.00    4.1
2173 201287.000   -828648.6684  -5494331.6823   3121536.6885   1   9   0.0039   0.0096   0.0053   0.0025  -0.0055  -0.0014   0.00    4.3
2173 201288.000   -828648.6680  -5494331.6872   3121536.6885   1   9   0.0044   0.0096   0.0054   0.0030  -0.0053  -0.0025   0.00    4.4
2173 201289.000   -828648.6671  -5494331.6835   3121536.6887   1   9   0.0042   0.0096   0.0052   0.0028  -0.0054   0.0005   0.00    4.6
2173 201290.000   -828648.6671  -5494331.6833   3121536.6870   1   9   0.0041   0.0095   0.0056   0.0031  -0.0056  -0.0008   0.00    4.8
2173 201291.000   -828648.6652  -5494331.6832   3121536.6890   1   9   0.0042   0.0096   0.0056   0.0026  -0.0054   0.0003   0.00    4.9
2173 201292.000   -828648.6660  -5494331.6830   3121536.6879   1   9   0.0037   0.0094   0.0053   0.0029  -0.0054   0.0011   0.00    5.1
