% program   : rnx2rtkp ver.2.4.3 b31
% inp file  : ngs/21_08_31_02_34_41_ncrd.obs
% inp file  : ngs/21_08_31_02_34_41_ncrd_SW.obs
% inp file  : ngs/21_08_31_02_34_41_brdc.nav
% obs start : 2021/08/31 02:00:00.0 GPST (week2173 180000.0s)
% obs end   : 2021/08/31 02:59:59.0 GPST (week2173 183599.0s)
% ref pos   :  1037409.8152  -5135263.9011   3625647.9202
%
% (x/y/z-ecef=WGS84,Q=1:fix,2:float,3:sbas,4:dgps,5:single,6:ppp,ns=# of satellites)
%  GPST              x-ecef(m)      y-ecef(m)      z-ecef(m)   Q  ns   sdx(m)   sdy(m)   sdz(m)  sdxy(m)  sdyz(m)  sdzx(m) age(s)  ratio
2173 182056.000   1026003.6515  -5078804.8102   3706983.2734   2   8   0.4238   0.8505   0.7956  -0.3301  -0.6548   0.1883 -30.00    1.1
2173 182057.000   1026003.6242  -5078804.6897   3706983.3162   2   8   0.3016   0.6056   0.5662  -0.2341  -0.4662   0.1322 -29.00    1.1
2173 182058.000   1026003.6726  -5078804.7838   3706983.3786   2   8   0.2469   0.4959   0.4636  -0.1915  -0.3818   0.1080 -28.00    1.2
2173 182059.000   1026003.6769  -5078804.8301   3706983.3753   2   8   0.2143   0.4303   0.4023  -0.1662  -0.3313   0.0937 -27.00    1.2
2173 182060.000   1026003.6617  -5078804.8236   3706983.3505   2   8   0.1919   0.3853   0.3603  -0.1489  -0.2967   0.0840 -26.00    1.2
2173 182061.000   1026003.6368  -5078804.8148   3706983.3075   2   8   0.1754   0.3521   0.3292  -0.1361  -0.2711   0.0768 -25.00    1.3
2173 182062.000   1026003.6266  -5078804.8515   3706983.3265   2   8   0.1625   0.3262   0.3050  -0.1261  -0.2512   0.0712 -24.00    1.3
2173 182063.000   1026003.6475  -5078804.8890   3706983.3475   2   8   0.1521   0.3053   0.2855  -0.1180  -0.2351   0.0666 -23.00    1.4
2173 182064.000   1026003.6759  -5078804.8818   3706983.3693   2   8   0.1435   0.2880   0.2692  -0.1114  -0.2217   0.0628 -22.00    1.4
2173 182065.000   1026003.6846  -5078804.8764   3706983.3839   2   8   0.1362   0.2733   0.2555  -0.1057  -0.2104   0.0596 -21.00    1.5
2173 182066.000   1026003.6817  -5078804.8709   3706983.3859   2   8   0.1299   0.2606   0.2436  -0.1008  -0.2006   0.0568 -20.00    1.5
2173 182067.000   1026003.6856  -5078804.8906   3706983.3916   2   8   0.1243   0.2495   0.2332  -0.0965  -0.1921   0.0544 -19.00    1.6
2173 182068.000   1026003.6776  -5078804.8930   3706983.3968   2   8   0.1195   0.2397   0.2241  -0.0927  -0.1845   0.0522 -18.00    1.7
2173 182069.000   1026003.6737  -5078804.8912   3706983.3752   2   8   0.1151   0.2310   0.2158  -0.0893  -0.1778   0.0502 -17.00    1.8
2173 182070.000   1026003.6643  -5078804.8793   3706983.3586   2   8   0.1112   0.2231   0.2085  -0.0862  -0.1717   0.0484 -16.00    1.8
2173 182071.000   1026003.6555  -5078804.8793   3706983.3607   2   8   0.1076   0.2160   0.2017  -0.0835  -0.1662   0.0468 -15.00    1.9
2173 182072.000   1026003.6577  -5078804.8831   3706983.3658   2   8   0.1044   0.2095   0.1956  -0.0809  -0.1611   0.0453 -14.00    1.9
2173 182073.000   1026003.6639  -5078804.8902   3706983.3732   2   8   0.1014   0.2035   0.1900  -0.0786  -0.1565   0.0439 -13.00    1.9
2173 182074.000   1026003.6638  -5078804.8845   3706983.3712   2   8   0.0987   0.1980   0.1848  -0.0764  -0.1523   0.0426 -12.00    1.9
2173 182075.000   1026003.6660  -5078804.8688   3706983.3557   2   8   0.0961   0.1929   0.1800  -0.0744  -0.1483   0.0414 -11.00    2.0
2173 182076.000   1026003.6619  -5078804.8713   3706983.3695   2   8   0.0938   0.1882   0.1755  -0.0726  -0.1446   0.0403 -10.00    2.0
2173 182077.000   1026003.6582  -5078804.8627   3706983.3618   2   8   0.0916   0.1837   0.1714  -0.0709  -0.1412   0.0392  -9.00    2.1
2173 182078.000   1026003.6541  -5078804.8612   3706983.3531   2   8   0.0895   0.1796   0.1675  -0.0693  -0.1380   0.0383  -8.00    2.1
2173 182079.000   1026003.6515  -5078804.8605   3706983.3540   2   8   0.0876   0.1757   0.1638  -0.0678  -0.1349   0.0374  -7.00    2.2
2173 182080.000   1026003.6494  -5078804.8470   3706983.3455   2   8   0.0858   0.1721   0.1603  -0.0663  -0.1321   0.0365  -6.00    2.3
2173 182081.000   1026003.6435  -5078804.8354   3706983.3358   2   8   0.0841   0.1687   0.1571  -0.0650  -0.1294   0.0357  -5.00    2.4
2173 182082.000   1026003.6432  -5078804.8377   3706983.3386   2   8   0.0825   0.1654   0.1540  -0.0638  -0.1269   0.0349  -4.00    2.4
2173 182083.000   1026003.6369  -5078804.8221   3706983.3236   2   8   0.0810   0.1623   0.1510  -0.0626  -0.1244   0.0342  -3.00    2.5
2173 182084.000   1026003.6401  -5078804.8270   3706983.3195   2   8   0.0796   0.1594   0.1483  -0.0614  -0.1222   0.0335  -2.00    2.5
2173 182085.000   1026003.6391  -5078804.8195   3706983.3144   2   8   0.0782   0.1567   0.1456  -0.0604  -0.1200   0.0329  -1.00    2.4
2173 182086.000   1026003.6352  -5078804.8144   3706983.3130   2   8   0.0769   0.1541   0.1431  -0.0594  -0.1179   0.0323   0.00    2.3
2173 182087.000   1026003.6386  -5078804.8137   3706983.3087   2   8   0.0758   0.1516   0.1408  -0.0585  -0.1160   0.0318   0.00    2.1
2173 182088.000   1026003.6386  -5078804.8257   3706983.3135   2   8   0.0746   0.1492   0.1385  -0.0576  -0.1141   0.0312   0.00    2.1
2173 182089.000   1026003.6322  -5078804.8256   3706983.3066   2   8   0.0735   0.1470   0.1363  -0.0567  -0.1123   0.0308   0.00    2.0
2173 182090.000   1026003.6255  -5078804.8249   3706983.3084   2   8   0.0724   0.1448   0.1342  -0.0559  -0.1106   0.0303   0.00    2.0
2173 182091.000   1026003.6285  -5078804.8310   3706983.3172   2   8   0.0714   0.1427   0.1322  -0.0551  -0.1089   0.0298   0.00    1.9
2173 182092.000   1026003.6309  -5078804.8278   3706983.3127   2   8   0.0704   0.1407   0.1303  -0.0543  -0.1073   0.0293   0.00    1.8
2173 182093.000   1026003.6372  -5078804.8324   3706983.3066   2   8   0.0695   0.1388   0.1284  -0.0536  -0.1058   0.0289   0.00    1.8
2173 182094.000   1026003.6403  -5078804.8374   3706983.3010   2   8   0.0687   0.1370   0.1266  -0.0529  -0.1043   0.0285   0.00    1.8
2173 182095.000   1026003.6441  -5078804.8393   3706983.3001   2   8   0.0677   0.1352   0.1249  -0.0522  -0.1029   0.0281   0.00    1.7
2173 182096.000   1026003.6464  -5078804.8402   3706983.3063   2   8   0.0669   0.1334   0.1232  -0.0516  -0.1015   0.0277   0.00    1.7
2173 182097.000   1026003.6485  -5078804.8444   3706983.3074   2   8   0.0662   0.1318   0.1215  -0.0509  -0.1001   0.0273   0.00    1.7
2173 182098.000   1026003.6540  -5078804.8488   3706983.3075   2   8   0.0654   0.1301   0.1199  -0.0503  -0.0988   0.0270   0.00    1.7
2173 182099.000   1026003.6542  -5078804.8430   3706983.3074   2   8   0.0646   0.1286   0.1183  -0.0497  -0.0975   0.0266   0.00    1.8
2173 182100.000   1026003.6605  -5078804.8493   3706983.3200   2   8   0.0639   0.1270   0.1168  -0.0492  -0.0962   0.0263   0.00    1.8
2173 182101.000   1026003.6575  -5078804.8423   3706983.3113   2   8   0.0632   0.1256   0.1153  -0.0486  -0.0950   0.0260   0.00    1.8
2173 182102.000   1026003.6560  -5078804.8432   3706983.3126   2   8   0.0625   0.1241   0.1139  -0.0481  -0.0938   0.0256   0.00    1.8
2173 182103.000   1026003.6518  -5078804.8337   3706983.3030   2   8   0.0618   0.1228   0.1125  -0.0476  -0.0927   0.0253   0.00    1.8
2173 182104.000   1026003.6520  -5078804.8336   3706983.2998   2   8   0.0612   0.1214   0.1111  -0.0471  -0.0915   0.0250   0.00    1.9
2173 182105.000   1026003.6490  -5078804.8341   3706983.3017   2   8   0.0606   0.1201   0.1097  -0.0466  -0.0904   0.0247   0.00    1.9
2173 182106.000   1026003.6519  -5078804.8394   3706983.2968   2   8   0.0601   0.1188   0.1084  -0.0461  -0.0893   0.0244   0.00    1.9
2173 182107.000   1026003.6497  -5078804.8433   3706983.3000   2   8   0.0595   0.1175   0.1071  -0.0456  -0.0883   0.0241   0.00    1.9
2173 182108.000   1026003.6423  -5078804.8449   3706983.2959   2   8   0.0589   0.1163   0.1059  -0.0452  -0.0872   0.0238   0.00    1.9
2173 182109.000   1026003.6412  -5078804.8515   3706983.2941   2   8   0.0583   0.1151   0.1046  -0.0447  -0.0862   0.0235   0.00    1.9
2173 182110.000   1026003.6431  -5078804.8524   3706983.2912   2   8   0.0578   0.1140   0.1034  -0.0443  -0.0852   0.0232   0.00    2.0
2173 182111.000   1026003.6407  -5078804.8481   3706983.2810   2   8   0.0573   0.1128   0.1022  -0.0439  -0.0842   0.0229   0.00    1.9
2173 182112.000   1026003.6405  -5078804.8415   3706983.2718   2   8   0.0567   0.1117   0.1010  -0.0435  -0.0832   0.0227   0.00    1.9
2173 182113.000   1026003.6372  -5078804.8347   3706983.2656   2   8   0.0563   0.1106   0.0999  -0.0431  -0.0823   0.0225   0.00    1.9
2173 182114.000   1026003.6361  -5078804.8347   3706983.2604   2   8   0.0558   0.1096   0.0987  -0.0427  -0.0813   0.0221   0.00    1.9
2173 182115.000   1026003.6292  -5078804.8387   3706983.2596   2   8   0.0553   0.1085   0.0976  -0.0423  -0.0804   0.0219   0.00    1.9
2173 182116.000   1026003.6294  -5078804.8507   3706983.2708   2   8   0.0548   0.1075   0.0965  -0.0419  -0.0795   0.0217   0.00    1.9
2173 182117.000   1026003.6347  -5078804.8707   3706983.2858   2   8   0.0544   0.1065   0.0954  -0.0416  -0.0786   0.0214   0.00    1.9
2173 182118.000   1026003.6333  -5078804.8803   3706983.2909   2   8   0.0539   0.1055   0.0943  -0.0412  -0.0778   0.0212   0.00    1.9
2173 182119.000   1026003.6339  -5078804.8882   3706983.2951   2   8   0.0536   0.1046   0.0933  -0.0409  -0.0769   0.0209   0.00    1.9
2173 182120.000   1026003.6302  -5078804.8913   3706983.3052   2   8   0.0531   0.1036   0.0923  -0.0405  -0.0760   0.0207   0.00    1.9
2173 182121.000   1026003.6281  -5078804.8927   3706983.3040   2   8   0.0526   0.1027   0.0912  -0.0402  -0.0752   0.0205   0.00    1.9
2173 182122.000   1026003.6326  -5078804.8968   3706983.3076   2   8   0.0523   0.1018   0.0902  -0.0399  -0.0744   0.0203   0.00    1.9
2173 182123.000   1026003.6344  -5078804.9032   3706983.3116   2   8   0.0518   0.1009   0.0892  -0.0396  -0.0736   0.0200   0.00    1.9
2173 182124.000   1026003.6327  -5078804.9074   3706983.3166   2   8   0.0516   0.1000   0.0883  -0.0392  -0.0727   0.0198   0.00    1.9
2173 182125.000   1026003.6290  -5078804.9022   3706983.3109   2   8   0.0512   0.0992   0.0873  -0.0389  -0.0720   0.0197   0.00    1.9
2173 182126.000   1026003.6297  -5078804.9026   3706983.3098   2   8   0.0508   0.0984   0.0864  -0.0386  -0.0712   0.0194   0.00    1.9
2173 182127.000   1026003.6267  -5078804.9026   3706983.3064   2   8   0.0505   0.0976   0.0854  -0.0383  -0.0704   0.0192   0.00    1.9
2173 182128.000   1026003.6261  -5078804.9021   3706983.3055   2   8   0.0501   0.0967   0.0845  -0.0380  -0.0697   0.0190   0.00    1.9
2173 182129.000   1026003.6225  -5078804.8951   3706983.3000   2   8   0.0497   0.0959   0.0836  -0.0378  -0.0689   0.0188   0.00    1.9
2173 182130.000   1026003.6209  -5078804.8909   3706983.2905   2   8   0.0494   0.0952   0.0827  -0.0375  -0.0682   0.0186   0.00    1.9
2173 182131.000   1026003.6167  -5078804.8852   3706983.2847   2   8   0.0491   0.0944   0.0818  -0.0372  -0.0674   0.0184   0.00    1.9
2173 182132.000   1026003.6145  -5078804.8773   3706983.2781   2   8   0.0487   0.0936   0.0810  -0.0369  -0.0667   0.0182   0.00    2.0
2173 182133.000   1026003.6147  -5078804.8739   3706983.2764   2   8   0.0485   0.0929   0.0801  -0.0367  -0.0660   0.0180   0.00    2.0
2173 182134.000   1026003.6135  -5078804.8731   3706983.2799   2   8   0.0481   0.0922   0.0792  -0.0364  -0.0653   0.0178   0.00    2.0
2173 182135.000   1026003.6109  -5078804.8662   3706983.2778   2   8   0.0478   0.0915   0.0784  -0.0361  -0.0646   0.0176   0.00    2.0
2173 182136.000   1026003.6125  -5078804.8680   3706983.2817   2   8   0.0475   0.0907   0.0776  -0.0359  -0.0639   0.0175   0.00    2.0
2173 182137.000   1026003.6102  -5078804.8697   3706983.2836   2   8   0.0472   0.0900   0.0768  -0.0356  -0.0633   0.0173   0.00    2.0
2173 182138.000   1026003.6059  -5078804.8729   3706983.2886   2   8   0.0469   0.0894   0.0760  -0.0354  -0.0626   0.0171   0.00    2.0
2173 182139.000   1026003.6058  -5078804.8725   3706983.2892   2   8   0.0466   0.0887   0.0752  -0.0351  -0.0620   0.0170   0.00    2.0
2173 182140.000   1026003.6070  -5078804.8757   3706983.2959   2   8   0.0463   0.0880   0.0744  -0.0349  -0.0613   0.0167   0.00    2.0
2173 182141.000   1026003.6061  -5078804.8766   3706983.2953   2   8   0.0460   0.0874   0.0736  -0.0347  -0.0607   0.0166   0.00    2.0
2173 182142.000   1026003.6030  -5078804.8750   3706983.2970   2   8   0.0458   0.0867   0.0729  -0.0344  -0.0601   0.0165   0.00    2.0
2173 182143.000   1026003.5944  -5078804.8607   3706983.2878   2   8   0.0456   0.0861   0.0721  -0.0342  -0.0595   0.0163   0.00    2.0
2173 182144.000   1026003.5919  -5078804.8554   3706983.2791   2   8   0.0452   0.0855   0.0714  -0.0340  -0.0589   0.0161   0.00    2.0
2173 182145.000   1026003.5897  -5078804.8523   3706983.2777   2   8   0.0450   0.0849   0.0706  -0.0338  -0.0583   0.0160   0.00    2.0
2173 182146.000   1026003.5884  -5078804.8458   3706983.2691   2   8   0.0447   0.0843   0.0699  -0.0335  -0.0577   0.0158   0.00    2.0
2173 182147.000   1026003.5912  -5078804.8455   3706983.2671   2   8   0.0444   0.0837   0.0692  -0.0333  -0.0571   0.0156   0.00    2.0
2173 182148.000   1026003.5877  -5078804.8439   3706983.2683   2   8   0.0442   0.0831   0.0685  -0.0332  -0.0565   0.0155   0.00    2.0
2173 182149.000   1026003.5858  -5078804.8388   3706983.2661   2   8   0.0440   0.0825   0.0678  -0.0329  -0.0559   0.0153   0.00    2.0
2173 182150.000   1026003.5828  -5078804.8333   3706983.2678   2   8   0.0438   0.0819   0.0671  -0.0327  -0.0554   0.0152   0.00    2.1
2173 182151.000   1026003.5795  -5078804.8315   3706983.2708   2   8   0.0435   0.0814   0.0664  -0.0325  -0.0548   0.0150   0.00    2.1
2173 182152.000   1026003.5745  -5078804.8231   3706983.2669   2   8   0.0433   0.0808   0.0658  -0.0323  -0.0542   0.0149   0.00    2.1
2173 182153.000   1026003.5716  -5078804.8149   3706983.2672   2   8   0.0430   0.0803   0.0651  -0.0321  -0.0537   0.0147   0.00    2.1
2173 182154.000   1026003.5691  -5078804.8094   3706983.2653   2   8   0.0428   0.0798   0.0644  -0.0319  -0.0532   0.0146   0.00    2.1
2173 182155.000   1026003.5656  -5078804.8029   3706983.2605   2   8   0.0426   0.0792   0.0638  -0.0318  -0.0526   0.0145   0.00    2.1
2173 182156.000   1026003.5642  -5078804.7982   3706983.2565   2   8   0.0424   0.0787   0.0632  -0.0316  -0.0521   0.0144   0.00    2.1
2173 182157.000   1026003.5620  -5078804.7901   3706983.2486   2   8   0.0422   0.0782   0.0625  -0.0314  -0.0516   0.0142   0.00    2.1
2173 182158.000   1026003.5583  -5078804.7793   3706983.2392   2   8   0.0419   0.0777   0.0619  -0.0312  -0.0511   0.0141   0.00    2.1
2173 182159.000   1026003.5581  -5078804.7739   3706983.2346   2   8   0.0417   0.0772   0.0613  -0.0310  -0.0506   0.0139   0.00    2.1
2173 182160.000   1026003.5548  -5078804.7565   3706983.2224   2   8   0.0415   0.0767   0.0607  -0.0309  -0.0501   0.0138   0.00    2.2
2173 182161.000   1026003.5544  -5078804.7524   3706983.2157   2   8   0.0412   0.0762   0.0601  -0.0306  -0.0496   0.0137   0.00    2.2
2173 182162.000   1026003.5506  -5078804.7411   3706983.2074   2   8   0.0411   0.0757   0.0595  -0.0305  -0.0491   0.0136   0.00    2.2
2173 182163.000   1026003.5505  -5078804.7359   3706983.2021   2   8   0.0409   0.0753   0.0589  -0.0303  -0.0487   0.0134   0.00    2.2
2173 182164.000   1026003.5479  -5078804.7305   3706983.1991   2   8   0.0407   0.0748   0.0584  -0.0302  -0.0482   0.0133   0.00    2.2
2173 182165.000   1026003.5465  -5078804.7265   3706983.1929   2   8   0.0405   0.0743   0.0578  -0.0300  -0.0477   0.0132   0.00    2.2
2173 182166.000   1026003.5462  -5078804.7185   3706983.1885   2   8   0.0404   0.0739   0.0572  -0.0298  -0.0473   0.0131   0.00    2.2
2173 182167.000   1026003.5463  -5078804.7174   3706983.1873   2   8   0.0401   0.0734   0.0567  -0.0296  -0.0468   0.0129   0.00    2.3
2173 182168.000   1026003.5404  -5078804.7101   3706983.1772   2   8   0.0400   0.0730   0.0561  -0.0295  -0.0464   0.0128   0.00    2.3
2173 182169.000   1026003.5385  -5078804.7001   3706983.1690   2   8   0.0397   0.0725   0.0556  -0.0293  -0.0459   0.0127   0.00    2.3
2173 182170.000   1026003.5368  -5078804.6956   3706983.1625   2   8   0.0396   0.0721   0.0551  -0.0292  -0.0455   0.0126   0.00    2.3
2173 182171.000   1026003.5373  -5078804.6912   3706983.1585   2   8   0.0393   0.0717   0.0546  -0.0290  -0.0451   0.0125   0.00    2.4
2173 182172.000   1026003.5335  -5078804.6799   3706983.1501   2   8   0.0392   0.0713   0.0541  -0.0289  -0.0446   0.0123   0.00    2.4
2173 182173.000   1026003.5318  -5078804.6739   3706983.1396   2   8   0.0391   0.0709   0.0535  -0.0287  -0.0442   0.0123   0.00    2.4
2173 182174.000   1026003.5313  -5078804.6649   3706983.1313   2   8   0.0388   0.0705   0.0530  -0.0286  -0.0438   0.0121   0.00    2.4
2173 182175.000   1026003.5289  -5078804.6531   3706983.1218   2   8   0.0387   0.0701   0.0525  -0.0284  -0.0434   0.0120   0.00    2.4
2173 182176.000   1026003.5245  -5078804.6469   3706983.1166   2   8   0.0385   0.0697   0.0521  -0.0283  -0.0430   0.0120   0.00    2.5
2173 182177.000   1026003.5031  -5078804.6411   3706983.1041   2   8   0.0383   0.0693   0.0516  -0.0281  -0.0426   0.0118   0.00    2.5
2173 182178.000   1026003.4967  -5078804.6362   3706983.1017   2   8   0.0382   0.0689   0.0511  -0.0280  -0.0422   0.0117   0.00    2.5
2173 182179.000   1026003.4907  -5078804.6229   3706983.0920   2   8   0.0380   0.0685   0.0506  -0.0278  -0.0418   0.0116   0.00    2.5
2173 182180.000   1026003.4830  -5078804.6053   3706983.0822   2   8   0.0378   0.0681   0.0502  -0.0277  -0.0414   0.0116   0.00    2.5
2173 182181.000   1026003.4776  -5078804.5954   3706983.0741   2   8   0.0377   0.0678   0.0497  -0.0275  -0.0411   0.0115   0.00    2.6
2173 182182.000   1026003.4715  -5078804.5813   3706983.0668   2   8   0.0375   0.0674   0.0493  -0.0274  -0.0407   0.0114   0.00    2.6
2173 182183.000   1026003.4669  -5078804.5701   3706983.0599   2   8   0.0373   0.0670   0.0488  -0.0273  -0.0404   0.0112   0.00    2.6
2173 182184.000   1026003.4604  -5078804.5600   3706983.0502   2   8   0.0372   0.0667   0.0484  -0.0271  -0.0400   0.0111   0.00    2.6
2173 182185.000   1026003.4562  -5078804.5520   3706983.0460   2   8   0.0370   0.0663   0.0480  -0.0270  -0.0396   0.0110   0.00    2.6
2173 182186.000   1026003.4490  -5078804.5379   3706983.0408   2   8   0.0370   0.0660   0.0475  -0.0269  -0.0393   0.0110   0.00    2.6
2173 182187.000   1026003.4409  -5078804.5250   3706983.0326   2   8   0.0367   0.0656   0.0471  -0.0268  -0.0389   0.0108   0.00    2.6
2173 182188.000   1026003.4366  -5078804.5137   3706983.0276   2   8   0.0366   0.0653   0.0467  -0.0266  -0.0386   0.0109   0.00    2.7
2173 182189.000   1026003.4324  -5078804.5063   3706983.0261   2   8   0.0364   0.0650   0.0463  -0.0265  -0.0383   0.0106   0.00    2.7
2173 182190.000   1026003.4258  -5078804.4938   3706983.0187   2   8   0.0363   0.0646   0.0459  -0.0263  -0.0379   0.0107   0.00    2.7
2173 182191.000   1026003.4212  -5078804.4890   3706983.0184   2   8   0.0361   0.0643   0.0454  -0.0262  -0.0376   0.0105   0.00    2.7
2173 182192.000   1026003.4167  -5078804.4778   3706983.0129   2   8   0.0361   0.0640   0.0451  -0.0261  -0.0373   0.0105   0.00    2.7
2173 182193.000   1026003.4103  -5078804.4682   3706983.0076   2   8   0.0358   0.0637   0.0447  -0.0260  -0.0369   0.0103   0.00    2.7
2173 182194.000   1026003.4061  -5078804.4615   3706983.0079   2   8   0.0357   0.0633   0.0443  -0.0259  -0.0366   0.0102   0.00    2.7
2173 182195.000   1026003.3991  -5078804.4520   3706983.0032   2   8   0.0356   0.0630   0.0439  -0.0257  -0.0363   0.0102   0.00    2.7
2173 182196.000   1026003.3930  -5078804.4409   3706982.9974   2   8   0.0355   0.0627   0.0435  -0.0256  -0.0360   0.0100   0.00    2.8
2173 182197.000   1026003.3880  -5078804.4362   3706982.9950   2   8   0.0353   0.0624   0.0432  -0.0255  -0.0357   0.0100   0.00    2.8
2173 182198.000   1026003.3834  -5078804.4249   3706982.9871   2   8   0.0351   0.0621   0.0428  -0.0254  -0.0354   0.0099   0.00    2.8
2173 182199.000   1026003.3614  -5078804.4512   3706983.0219   2   8   0.0350   0.0618   0.0424  -0.0253  -0.0351   0.0099   0.00    2.7
2173 182200.000   1026003.3506  -5078804.4611   3706983.0507   2   8   0.0349   0.0615   0.0421  -0.0252  -0.0348   0.0098   0.00    2.7
2173 182201.000   1026003.3410  -5078804.4638   3706983.0758   2   8   0.0348   0.0612   0.0417  -0.0250  -0.0346   0.0098   0.00    2.6
2173 182202.000   1026003.3313  -5078804.4724   3706983.1037   2   8   0.0346   0.0609   0.0414  -0.0249  -0.0343   0.0097   0.00    2.5
2173 182203.000   1026003.3215  -5078804.4757   3706983.1279   2   8   0.0346   0.0607   0.0410  -0.0249  -0.0340   0.0095   0.00    2.5
2173 182204.000   1026003.3147  -5078804.4880   3706983.1558   2   8   0.0344   0.0604   0.0407  -0.0247  -0.0337   0.0096   0.00    2.4
2173 182205.000   1026003.3034  -5078804.4914   3706983.1821   2   8   0.0343   0.0601   0.0403  -0.0246  -0.0334   0.0095   0.00    2.4
2173 182206.000   1026003.2943  -5078804.4964   3706983.2032   2   8   0.0341   0.0598   0.0400  -0.0245  -0.0331   0.0094   0.00    2.3
2173 182207.000   1026003.2846  -5078804.5014   3706983.2292   2   8   0.0340   0.0595   0.0397  -0.0244  -0.0329   0.0093   0.00    2.3
2173 182208.000   1026003.2752  -5078804.5035   3706983.2496   2   8   0.0338   0.0593   0.0394  -0.0242  -0.0326   0.0092   0.00    2.2
2173 182209.000   1026003.2652  -5078804.5051   3706983.2675   2   8   0.0338   0.0590   0.0390  -0.0241  -0.0324   0.0092   0.00    2.2
2173 182210.000   1026003.2581  -5078804.5066   3706983.2854   2   8   0.0336   0.0587   0.0388  -0.0241  -0.0321   0.0091   0.00    2.1
2173 182211.000   1026003.2472  -5078804.5033   3706983.2968   2   8   0.0335   0.0585   0.0384  -0.0239  -0.0318   0.0090   0.00    2.1
2173 182212.000   1026003.2393  -5078804.5052   3706983.3127   2   8   0.0333   0.0582   0.0381  -0.0239  -0.0316   0.0090   0.00    2.1
2173 182213.000   1026003.2289  -5078804.5020   3706983.3263   2   8   0.0332   0.0580   0.0378  -0.0237  -0.0313   0.0088   0.00    2.0
2173 182214.000   1026003.2221  -5078804.5053   3706983.3412   2   8   0.0331   0.0577   0.0375  -0.0236  -0.0311   0.0088   0.00    2.0
2173 182215.000   1026003.2134  -5078804.5004   3706983.3497   2   8   0.0330   0.0575   0.0372  -0.0235  -0.0308   0.0087   0.00    1.9
2173 182216.000   1026003.2068  -5078804.5030   3706983.3678   2   8   0.0329   0.0572   0.0370  -0.0234  -0.0307   0.0087   0.00    1.9
2173 182217.000   1026003.1980  -5078804.5009   3706983.3785   2   8   0.0328   0.0570   0.0367  -0.0233  -0.0304   0.0087   0.00    1.9
2173 182218.000   1026003.1880  -5078804.4919   3706983.3837   2   8   0.0327   0.0567   0.0364  -0.0232  -0.0302   0.0086   0.00    1.8
2173 182219.000   1026003.1799  -5078804.4910   3706983.3937   2   8   0.0325   0.0565   0.0361  -0.0231  -0.0299   0.0085   0.00    1.8
2173 182220.000   1026003.1696  -5078804.4856   3706983.4038   2   8   0.0324   0.0562   0.0358  -0.0230  -0.0297   0.0085   0.00    1.8
2173 182221.000   1026003.1601  -5078804.4816   3706983.4137   2   8   0.0323   0.0560   0.0355  -0.0229  -0.0295   0.0083   0.00    1.7
2173 182222.000   1026003.1560  -5078804.4773   3706983.4177   2   8   0.0323   0.0558   0.0353  -0.0229  -0.0292   0.0083   0.00    1.7
2173 182223.000   1026003.1464  -5078804.4737   3706983.4267   2   8   0.0321   0.0555   0.0350  -0.0227  -0.0290   0.0083   0.00    1.7
2173 182224.000   1026003.1389  -5078804.4669   3706983.4311   2   8   0.0320   0.0553   0.0347  -0.0227  -0.0288   0.0082   0.00    1.6
2173 182225.000   1026003.1313  -5078804.4658   3706983.4418   2   8   0.0319   0.0551   0.0345  -0.0226  -0.0286   0.0081   0.00    1.6
2173 182226.000   1026003.1259  -5078804.4650   3706983.4532   2   8   0.0319   0.0548   0.0342  -0.0225  -0.0284   0.0082   0.00    1.6
2173 182227.000   1026003.1175  -5078804.4678   3706983.4654   2   8   0.0316   0.0546   0.0340  -0.0224  -0.0282   0.0080   0.00    1.6
2173 182228.000   1026003.1080  -5078804.4622   3706983.4700   2   8   0.0316   0.0544   0.0337  -0.0223  -0.0280   0.0079   0.00    1.5
2173 182229.000   1026003.1005  -5078804.4635   3706983.4785   2   8   0.0315   0.0542   0.0335  -0.0222  -0.0278   0.0079   0.00    1.5
2173 182230.000   1026003.0939  -5078804.4671   3706983.4872   2   8   0.0313   0.0540   0.0332  -0.0221  -0.0276   0.0080   0.00    1.5
2173 182231.000   1026003.0874  -5078804.4730   3706983.4989   2   8   0.0312   0.0538   0.0330  -0.0220  -0.0274   0.0078   0.00    1.5
2173 182232.000   1026003.0809  -5078804.4712   3706983.5077   2   8   0.0311   0.0536   0.0328  -0.0218  -0.0271   0.0079   0.00    1.4
2173 182233.000   1026003.0757  -5078804.4722   3706983.5165   2   8   0.0311   0.0533   0.0325  -0.0218  -0.0270   0.0077   0.00    1.4
2173 182234.000   1026003.0711  -5078804.4800   3706983.5324   2   8   0.0309   0.0531   0.0323  -0.0217  -0.0268   0.0077   0.00    1.4
2173 182235.000   1026003.0657  -5078804.4838   3706983.5515   2   8   0.0309   0.0529   0.0321  -0.0217  -0.0267   0.0076   0.00    1.4
2173 182236.000   1026003.0602  -5078804.4774   3706983.5416   2   8   0.0307   0.0527   0.0318  -0.0216  -0.0264   0.0077   0.00    1.4
2173 182237.000   1026003.0554  -5078804.4777   3706983.5507   2   8   0.0306   0.0525   0.0316  -0.0215  -0.0262   0.0077   0.00    1.4
2173 182238.000   1026003.0529  -5078804.4910   3706983.5679   2   8   0.0305   0.0523   0.0314  -0.0214  -0.0261   0.0075   0.00    1.4
2173 182239.000   1026003.0508  -5078804.5035   3706983.5830   2   8   0.0303   0.0521   0.0312  -0.0213  -0.0259   0.0074   0.00    1.4
2173 182240.000   1026003.0459  -5078804.5085   3706983.5899   2   8   0.0303   0.0519   0.0309  -0.0212  -0.0257   0.0073   0.00    1.4
2173 182241.000   1026003.0443  -5078804.5246   3706983.6071   2   8   0.0303   0.0517   0.0308  -0.0212  -0.0255   0.0073   0.00    1.4
2173 182242.000   1026003.0393  -5078804.5379   3706983.6198   2   8   0.0302   0.0515   0.0305  -0.0211  -0.0254   0.0074   0.00    1.4
2173 182243.000   1026003.0327  -5078804.5475   3706983.6284   2   8   0.0301   0.0513   0.0303  -0.0209  -0.0252   0.0074   0.00    1.4
2173 182244.000   1026003.0298  -5078804.5627   3706983.6414   2   8   0.0300   0.0512   0.0301  -0.0209  -0.0250   0.0073   0.00    1.4
2173 182245.000   1026003.0247  -5078804.5725   3706983.6486   2   8   0.0299   0.0510   0.0299  -0.0209  -0.0249   0.0073   0.00    1.4
2173 182246.000   1026003.0203  -5078804.5803   3706983.6605   2   8   0.0298   0.0508   0.0297  -0.0208  -0.0247   0.0071   0.00    1.3
2173 182247.000   1026003.0165  -5078804.5888   3706983.6663   2   8   0.0296   0.0506   0.0295  -0.0207  -0.0245   0.0071   0.00    1.3
2173 182248.000   1026003.0094  -5078804.5937   3706983.6732   2   8   0.0296   0.0504   0.0293  -0.0205  -0.0244   0.0071   0.00    1.3
2173 182249.000   1026003.0049  -5078804.5977   3706983.6787   2   8   0.0295   0.0502   0.0291  -0.0205  -0.0243   0.0069   0.00    1.3
2173 182250.000   1026003.0004  -5078804.6030   3706983.6861   2   8   0.0294   0.0501   0.0289  -0.0204  -0.0240   0.0070   0.00    1.3
2173 182251.000   1026002.9952  -5078804.6126   3706983.6976   2   8   0.0293   0.0499   0.0287  -0.0203  -0.0239   0.0070   0.00    1.3
2173 182252.000   1026002.9930  -5078804.6227   3706983.7095   2   8   0.0292   0.0497   0.0285  -0.0202  -0.0238   0.0069   0.00    1.3
2173 182253.000   1026002.9907  -5078804.6246   3706983.7152   2   8   0.0291   0.0495   0.0284  -0.0202  -0.0236   0.0068   0.00    1.3
2173 182254.000   1026002.9851  -5078804.6312   3706983.7246   2   8   0.0291   0.0493   0.0282  -0.0201  -0.0235   0.0069   0.00    1.3
2173 182255.000   1026002.9722  -5078804.6266   3706983.7252   2   8   0.0290   0.0492   0.0280  -0.0199  -0.0233   0.0068   0.00    1.3
2173 182256.000   1026002.9678  -5078804.6278   3706983.7249   2   8   0.0290   0.0490   0.0278  -0.0199  -0.0232   0.0068   0.00    1.3
2173 182257.000   1026002.9592  -5078804.6335   3706983.7291   2   8   0.0288   0.0488   0.0276  -0.0198  -0.0230   0.0066   0.00    1.3
2173 182258.000   1026002.9523  -5078804.6345   3706983.7342   2   8   0.0287   0.0487   0.0275  -0.0198  -0.0228   0.0066   0.00    1.2
2173 182259.000   1026002.9462  -5078804.6379   3706983.7374   2   8   0.0286   0.0485   0.0273  -0.0197  -0.0227   0.0066   0.00    1.2
2173 182260.000   1026002.9402  -5078804.6433   3706983.7411   2   8   0.0286   0.0483   0.0271  -0.0197  -0.0225   0.0066   0.00    1.2
2173 182261.000   1026002.9323  -5078804.6410   3706983.7391   2   8   0.0283   0.0481   0.0270  -0.0196  -0.0224   0.0064   0.00    1.2
2173 182262.000   1026002.9265  -5078804.6379   3706983.7378   2   8   0.0284   0.0480   0.0268  -0.0195  -0.0223   0.0065   0.00    1.2
2173 182263.000   1026002.9163  -5078804.6319   3706983.7343   2   8   0.0283   0.0478   0.0266  -0.0195  -0.0222   0.0064   0.00    1.2
2173 182264.000   1026002.9121  -5078804.6312   3706983.7329   2   8   0.0281   0.0477   0.0265  -0.0193  -0.0220   0.0065   0.00    1.2
2173 182265.000   1026002.9030  -5078804.6206   3706983.7235   2   8   0.0282   0.0475   0.0263  -0.0193  -0.0219   0.0064   0.00    1.2
2173 182266.000   1026002.8991  -5078804.6215   3706983.7239   2   8   0.0281   0.0473   0.0261  -0.0192  -0.0218   0.0065   0.00    1.2
2173 182267.000   1026002.8917  -5078804.6126   3706983.7156   2   8   0.0279   0.0472   0.0260  -0.0191  -0.0216   0.0061   0.00    1.2
2173 182268.000   1026002.8861  -5078804.6061   3706983.7104   2   8   0.0279   0.0470   0.0258  -0.0191  -0.0215   0.0062   0.00    1.2
2173 182269.000   1026002.8834  -5078804.6013   3706983.7070   2   8   0.0278   0.0469   0.0257  -0.0190  -0.0213   0.0063   0.00    1.1
2173 182270.000   1026002.8764  -5078804.5940   3706983.6987   2   8   0.0276   0.0467   0.0255  -0.0189  -0.0212   0.0061   0.00    1.1
2173 182271.000   1026002.8724  -5078804.5859   3706983.6910   2   8   0.0277   0.0466   0.0254  -0.0188  -0.0211   0.0061   0.00    1.1
2173 182272.000   1026002.8685  -5078804.5791   3706983.6866   2   8   0.0276   0.0464   0.0252  -0.0187  -0.0210   0.0063   0.00    1.1
2173 182273.000   1026002.8648  -5078804.5751   3706983.6846   2   8   0.0273   0.0463   0.0251  -0.0186  -0.0208   0.0061   0.00    1.1
2173 182274.000   1026002.8595  -5078804.5669   3706983.6729   2   8   0.0274   0.0461   0.0249  -0.0187  -0.0208   0.0062   0.00    1.1
2173 182275.000   1026002.8559  -5078804.5641   3706983.6699   2   8   0.0273   0.0460   0.0248  -0.0186  -0.0206   0.0062   0.00    1.1
2173 182276.000   1026002.8530  -5078804.5571   3706983.6618   2   8   0.0273   0.0458   0.0247  -0.0185  -0.0205   0.0061   0.00    1.1
2173 182277.000   1026002.8485  -5078804.5470   3706983.6515   2   8   0.0272   0.0457   0.0245  -0.0184  -0.0204   0.0061   0.00    1.1
2173 182278.000   1026002.8450  -5078804.5411   3706983.6461   2   8   0.0272   0.0455   0.0244  -0.0183  -0.0203   0.0061   0.00    1.1
2173 182279.000   1026002.8384  -5078804.5292   3706983.6350   2   8   0.0270   0.0454   0.0242  -0.0183  -0.0202   0.0060   0.00    1.1
2173 182280.000   1026002.8367  -5078804.5237   3706983.6279   2   8   0.0268   0.0453   0.0241  -0.0182  -0.0200   0.0058   0.00    1.1
2173 182281.000   1026002.8316  -5078804.5139   3706983.6151   2   8   0.0268   0.0451   0.0240  -0.0181  -0.0199   0.0059   0.00    1.1
2173 182282.000   1026002.8276  -5078804.5071   3706983.6072   2   8   0.0266   0.0450   0.0238  -0.0181  -0.0198   0.0056   0.00    1.1
2173 182283.000   1026002.8242  -5078804.4966   3706983.5955   2   8   0.0268   0.0448   0.0237  -0.0180  -0.0197   0.0059   0.00    1.1
2173 182284.000   1026002.8202  -5078804.4877   3706983.5822   2   8   0.0266   0.0447   0.0235  -0.0180  -0.0196   0.0057   0.00    1.0
2173 182285.000   1026002.8170  -5078804.4756   3706983.5697   2   8   0.0265   0.0445   0.0234  -0.0179  -0.0195   0.0056   0.00    1.0
2173 182286.000   1026002.8150  -5078804.4720   3706983.5610   2   8   0.0264   0.0444   0.0233  -0.0178  -0.0194   0.0056   0.00    1.0
2173 182287.000   1026002.8129  -5078804.4623   3706983.5489   2   8   0.0264   0.0443   0.0232  -0.0178  -0.0193   0.0057   0.00    1.0
2173 182288.000   1026002.8045  -5078804.4516   3706983.5403   2   8   0.0263   0.0441   0.0230  -0.0177  -0.0192   0.0056   0.00    1.0
2173 182289.000   1026002.8025  -5078804.4458   3706983.5289   2   8   0.0263   0.0440   0.0229  -0.0176  -0.0191   0.0056   0.00    1.0
2173 182290.000   1026002.7976  -5078804.4358   3706983.5186   2   8   0.0263   0.0439   0.0228  -0.0175  -0.0190   0.0058   0.00    1.0
2173 182291.000   1026002.7922  -5078804.4251   3706983.5071   2   8   0.0262   0.0438   0.0227  -0.0175  -0.0189   0.0054   0.00    1.0
2173 182292.000   1026002.7876  -5078804.4154   3706983.4922   2   8   0.0261   0.0436   0.0226  -0.0175  -0.0188   0.0055   0.00    1.0
2173 182293.000   1026002.7821  -5078804.4009   3706983.4777   2   8   0.0260   0.0435   0.0224  -0.0174  -0.0187   0.0055   0.00    1.0
2173 182294.000   1026002.7794  -5078804.3926   3706983.4674   2   8   0.0259   0.0434   0.0223  -0.0172  -0.0186   0.0055   0.00    1.0
2173 182295.000   1026002.7790  -5078804.3773   3706983.4539   2   8   0.0258   0.0432   0.0222  -0.0172  -0.0185   0.0054   0.00    1.0
2173 182296.000   1026002.7778  -5078804.3711   3706983.4414   2   8   0.0258   0.0431   0.0221  -0.0172  -0.0184   0.0055   0.00    1.0
2173 182297.000   1026002.7763  -5078804.3609   3706983.4267   2   8   0.0255   0.0430   0.0220  -0.0171  -0.0183   0.0053   0.00    1.0
2173 182298.000   1026002.7754  -5078804.3549   3706983.4129   2   8   0.0258   0.0429   0.0218  -0.0171  -0.0183   0.0055   0.00    1.0
2173 182299.000   1026002.7728  -5078804.3461   3706983.3975   2   8   0.0255   0.0427   0.0218  -0.0169  -0.0182   0.0053   0.00    1.0
2173 182300.000   1026002.7719  -5078804.3423   3706983.3843   2   8   0.0256   0.0426   0.0217  -0.0170  -0.0181   0.0054   0.00    1.0
2173 182301.000   1026002.7699  -5078804.3339   3706983.3730   2   8   0.0254   0.0425   0.0216  -0.0169  -0.0180   0.0054   0.00    1.0
2173 182302.000   1026002.7702  -5078804.3329   3706983.3637   2   8   0.0254   0.0423   0.0214  -0.0168  -0.0179   0.0053   0.00    1.0
2173 182303.000   1026002.7702  -5078804.3245   3706983.3516   2   8   0.0254   0.0422   0.0213  -0.0167  -0.0178   0.0054   0.00    1.0
2173 182304.000   1026002.7652  -5078804.3156   3706983.3346   2   8   0.0252   0.0421   0.0212  -0.0167  -0.0177   0.0052   0.00    1.0
2173 182305.000   1026002.7665  -5078804.3098   3706983.3223   2   8   0.0251   0.0420   0.0211  -0.0167  -0.0177   0.0051   0.00    1.0
2173 182306.000   1026002.7658  -5078804.3042   3706983.3099   2   8   0.0251   0.0419   0.0210  -0.0166  -0.0176   0.0051   0.00    1.0
2173 182307.000   1026002.7645  -5078804.2983   3706983.2997   2   8   0.0252   0.0417   0.0209  -0.0165  -0.0175   0.0053   0.00    1.0
2173 182308.000   1026002.7660  -5078804.2961   3706983.2881   2   8   0.0250   0.0416   0.0208  -0.0165  -0.0174   0.0053   0.00    1.1
2173 182309.000   1026002.7659  -5078804.2935   3706983.2801   2   8   0.0250   0.0415   0.0207  -0.0164  -0.0173   0.0050   0.00    1.1
2173 182310.000   1026002.7656  -5078804.2901   3706983.2719   2   8   0.0248   0.0414   0.0206  -0.0163  -0.0172   0.0051   0.00    1.1
2173 182311.000   1026002.8077  -5078804.2996   3706983.3358   2   8   0.0247   0.0413   0.0205  -0.0163  -0.0172   0.0049   0.00    1.0
2173 182312.000   1026002.8131  -5078804.3123   3706983.3367   2   8   0.0248   0.0412   0.0204  -0.0163  -0.0170   0.0050   0.00    1.0
2173 182313.000   1026002.8195  -5078804.3239   3706983.3373   2   8   0.0245   0.0410   0.0203  -0.0162  -0.0170   0.0051   0.00    1.0
2173 182314.000   1026002.8265  -5078804.3352   3706983.3374   2   8   0.0246   0.0409   0.0202  -0.0161  -0.0169   0.0050   0.00    1.0
2173 182315.000   1026002.8318  -5078804.3461   3706983.3360   2   8   0.0246   0.0408   0.0201  -0.0161  -0.0168   0.0051   0.00    1.0
2173 182316.000   1026002.8392  -5078804.3583   3706983.3329   2   8   0.0244   0.0407   0.0200  -0.0160  -0.0168   0.0049   0.00    1.0
2173 182317.000   1026002.8446  -5078804.3711   3706983.3327   2   8   0.0244   0.0406   0.0199  -0.0159  -0.0167   0.0048   0.00    1.0
2173 182318.000   1026002.8498  -5078804.3817   3706983.3297   2   8   0.0242   0.0405   0.0198  -0.0159  -0.0165   0.0048   0.00    1.0
2173 182319.000   1026002.8528  -5078804.3932   3706983.3285   2   8   0.0242   0.0404   0.0198  -0.0158  -0.0165   0.0049   0.00    1.0
2173 182320.000   1026002.8564  -5078804.4007   3706983.3267   2   8   0.0243   0.0403   0.0196  -0.0158  -0.0165   0.0050   0.00    1.0
2173 182321.000   1026002.8586  -5078804.4098   3706983.3239   2   8   0.0241   0.0401   0.0195  -0.0157  -0.0164   0.0048   0.00    1.0
2173 182322.000   1026002.8620  -5078804.4155   3706983.3190   2   8   0.0241   0.0400   0.0195  -0.0157  -0.0163   0.0048   0.00    1.0
2173 182323.000   1026002.8667  -5078804.4251   3706983.3195   2   8   0.0240   0.0399   0.0194  -0.0156  -0.0162   0.0049   0.00    1.0
2173 182324.000   1026002.8694  -5078804.4336   3706983.3188   2   8   0.0240   0.0398   0.0193  -0.0155  -0.0162   0.0050   0.00    1.0
2173 182325.000   1026002.8715  -5078804.4394   3706983.3162   2   8   0.0240   0.0397   0.0192  -0.0155  -0.0161   0.0048   0.00    1.0
2173 182326.000   1026002.8768  -5078804.4491   3706983.3115   2   8   0.0239   0.0396   0.0191  -0.0155  -0.0160   0.0048   0.00    1.0
2173 182327.000   1026002.8816  -5078804.4580   3706983.3086   2   8   0.0238   0.0395   0.0191  -0.0154  -0.0160   0.0048   0.00    1.1
2173 182328.000   1026002.8869  -5078804.4694   3706983.3083   2   8   0.0238   0.0394   0.0190  -0.0154  -0.0158   0.0047   0.00    1.1
2173 182329.000   1026002.8907  -5078804.4772   3706983.3066   2   8   0.0237   0.0393   0.0189  -0.0152  -0.0158   0.0048   0.00    1.1
2173 182330.000   1026002.8957  -5078804.4872   3706983.3064   2   8   0.0237   0.0392   0.0188  -0.0152  -0.0157   0.0047   0.00    1.1
2173 182331.000   1026002.8983  -5078804.4952   3706983.3039   2   8   0.0235   0.0391   0.0188  -0.0151  -0.0157   0.0046   0.00    1.1
2173 182332.000   1026002.9053  -5078804.5065   3706983.3046   2   8   0.0234   0.0390   0.0186  -0.0151  -0.0156   0.0046   0.00    1.1
2173 182333.000   1026002.9079  -5078804.5176   3706983.3010   2   8   0.0236   0.0389   0.0185  -0.0151  -0.0155   0.0047   0.00    1.1
2173 182334.000   1026002.9117  -5078804.5253   3706983.2988   2   8   0.0235   0.0388   0.0185  -0.0151  -0.0155   0.0045   0.00    1.1
2173 182335.000   1026002.9170  -5078804.5354   3706983.2967   2   8   0.0233   0.0387   0.0184  -0.0149  -0.0154   0.0046   0.00    1.1
2173 182336.000   1026002.9201  -5078804.5433   3706983.2970   2   8   0.0233   0.0386   0.0183  -0.0150  -0.0154   0.0045   0.00    1.1
2173 182337.000   1026002.9217  -5078804.5517   3706983.2961   2   8   0.0232   0.0385   0.0182  -0.0149  -0.0152   0.0045   0.00    1.1
2173 182338.000   1026002.9260  -5078804.5634   3706983.2964   2   8   0.0232   0.0384   0.0182  -0.0148  -0.0152   0.0044   0.00    1.1
2173 182339.000   1026002.9285  -5078804.5706   3706983.2943   2   8   0.0230   0.0383   0.0181  -0.0147  -0.0151   0.0045   0.00    1.1
2173 182340.000   1026002.9319  -5078804.5765   3706983.2902   2   8   0.0230   0.0382   0.0180  -0.0147  -0.0151   0.0043   0.00    1.1
2173 182341.000   1026002.9371  -5078804.5880   3706983.2916   2   8   0.0230   0.0381   0.0179  -0.0146  -0.0150   0.0046   0.00    1.1
2173 182342.000   1026002.9380  -5078804.5925   3706983.2873   2   8   0.0229   0.0380   0.0179  -0.0146  -0.0150   0.0043   0.00    1.1
2173 182343.000   1026002.9412  -5078804.6013   3706983.2832   2   8   0.0228   0.0379   0.0178  -0.0145  -0.0149   0.0044   0.00    1.1
2173 182344.000   1026002.9454  -5078804.6109   3706983.2851   2   8   0.0228   0.0378   0.0177  -0.0145  -0.0148   0.0043   0.00    1.2
2173 182345.000   1026002.9476  -5078804.6203   3706983.2805   2   8   0.0227   0.0377   0.0176  -0.0145  -0.0148   0.0041   0.00    1.2
2173 182346.000   1026002.9520  -5078804.6240   3706983.2780   2   8   0.0226   0.0376   0.0176  -0.0143  -0.0147   0.0044   0.00    1.2
2173 182347.000   1026002.9533  -5078804.6327   3706983.2768   2   8   0.0226   0.0375   0.0176  -0.0143  -0.0147   0.0042   0.00    1.2
2173 182348.000   1026002.9552  -5078804.6429   3706983.2782   2   8   0.0226   0.0375   0.0174  -0.0143  -0.0146   0.0043   0.00    1.2
2173 182349.000   1026002.9565  -5078804.6442   3706983.2714   2   8   0.0225   0.0373   0.0174  -0.0143  -0.0146   0.0042   0.00    1.2
2173 182350.000   1026002.9614  -5078804.6537   3706983.2701   2   8   0.0224   0.0372   0.0173  -0.0142  -0.0145   0.0043   0.00    1.2
2173 182351.000   1026002.9639  -5078804.6579   3706983.2682   2   8   0.0224   0.0372   0.0173  -0.0142  -0.0144   0.0044   0.00    1.2
2173 182352.000   1026002.9668  -5078804.6667   3706983.2677   2   8   0.0224   0.0370   0.0172  -0.0141  -0.0144   0.0043   0.00    1.2
2173 182353.000   1026002.9708  -5078804.6726   3706983.2643   2   8   0.0223   0.0370   0.0171  -0.0141  -0.0143   0.0039   0.00    1.2
2173 182354.000   1026002.9746  -5078804.6827   3706983.2629   2   8   0.0224   0.0368   0.0171  -0.0140  -0.0143   0.0044   0.00    1.2
2173 182355.000   1026002.9828  -5078804.6991   3706983.2592   2   8   0.0223   0.0368   0.0170  -0.0140  -0.0143   0.0043   0.00    1.2
2173 182356.000   1026002.9845  -5078804.7048   3706983.2539   2   8   0.0221   0.0367   0.0170  -0.0139  -0.0142   0.0045   0.00    1.2
2173 182357.000   1026002.9886  -5078804.7095   3706983.2470   2   8   0.0223   0.0366   0.0169  -0.0139  -0.0141   0.0042   0.00    1.2
2173 182358.000   1026002.9915  -5078804.7196   3706983.2416   2   8   0.0220   0.0365   0.0168  -0.0138  -0.0141   0.0040   0.00    1.2
2173 182359.000   1026002.9932  -5078804.7244   3706983.2346   2   8   0.0218   0.0364   0.0167  -0.0137  -0.0140   0.0039   0.00    1.2
2173 182360.000   1026002.9980  -5078804.7336   3706983.2311   2   8   0.0220   0.0363   0.0167  -0.0138  -0.0140   0.0039   0.00    1.2
2173 182361.000   1026003.0002  -5078804.7431   3706983.2245   2   8   0.0218   0.0362   0.0167  -0.0136  -0.0138   0.0040   0.00    1.3
2173 182362.000   1026003.0004  -5078804.7442   3706983.2169   2   8   0.0219   0.0362   0.0165  -0.0136  -0.0139   0.0041   0.00    1.3
2173 182363.000   1026003.0017  -5078804.7487   3706983.2143   2   8   0.0217   0.0361   0.0165  -0.0136  -0.0138   0.0039   0.00    1.3
2173 182364.000   1026003.0042  -5078804.7553   3706983.2082   2   8   0.0216   0.0360   0.0164  -0.0135  -0.0138   0.0037   0.00    1.3
2173 182365.000   1026003.0052  -5078804.7573   3706983.2029   2   8   0.0217   0.0359   0.0164  -0.0135  -0.0138   0.0040   0.00    1.3
2173 182366.000   1026003.0077  -5078804.7626   3706983.1966   2   8   0.0216   0.0358   0.0164  -0.0135  -0.0136   0.0042   0.00    1.3
2173 182367.000   1026003.0032  -5078804.7594   3706983.1894   2   8   0.0217   0.0357   0.0163  -0.0134  -0.0137   0.0041   0.00    1.3
2173 182368.000   1026003.0053  -5078804.7679   3706983.1857   2   8   0.0215   0.0357   0.0163  -0.0134  -0.0136   0.0036   0.00    1.3
2173 182369.000   1026003.0072  -5078804.7771   3706983.1822   2   8   0.0215   0.0356   0.0162  -0.0133  -0.0136   0.0040   0.00    1.3
2173 182370.000   1026003.0094  -5078804.7898   3706983.1779   2   8   0.0214   0.0355   0.0162  -0.0132  -0.0135   0.0040   0.00    1.3
2173 182371.000   1026003.0126  -5078804.7981   3706983.1751   2   8   0.0213   0.0354   0.0161  -0.0132  -0.0134   0.0038   0.00    1.3
2173 182372.000   1026003.0159  -5078804.8087   3706983.1730   2   8   0.0214   0.0353   0.0160  -0.0132  -0.0134   0.0037   0.00    1.3
2173 182373.000   1026003.0194  -5078804.8185   3706983.1682   2   8   0.0213   0.0352   0.0160  -0.0131  -0.0134   0.0038   0.00    1.3
2173 182374.000   1026003.0196  -5078804.8286   3706983.1670   2   8   0.0211   0.0352   0.0159  -0.0131  -0.0132   0.0039   0.00    1.3
2173 182375.000   1026003.0207  -5078804.8328   3706983.1623   2   8   0.0211   0.0351   0.0159  -0.0130  -0.0132   0.0040   0.00    1.3
2173 182376.000   1026003.0223  -5078804.8421   3706983.1633   2   8   0.0212   0.0350   0.0158  -0.0130  -0.0132   0.0042   0.00    1.3
2173 182377.000   1026003.0220  -5078804.8470   3706983.1559   2   8   0.0211   0.0349   0.0157  -0.0129  -0.0132   0.0039   0.00    1.3
2173 182378.000   1026003.0237  -5078804.8561   3706983.1558   2   8   0.0211   0.0348   0.0157  -0.0130  -0.0131   0.0039   0.00    1.3
2173 182379.000   1026003.0254  -5078804.8635   3706983.1531   2   8   0.0209   0.0347   0.0156  -0.0128  -0.0131   0.0037   0.00    1.3
2173 182380.000   1026003.0256  -5078804.8690   3706983.1500   2   8   0.0210   0.0347   0.0156  -0.0129  -0.0130   0.0039   0.00    1.4
2173 182381.000   1026003.0288  -5078804.8763   3706983.1453   2   8   0.0209   0.0346   0.0155  -0.0127  -0.0130   0.0038   0.00    1.4
2173 182382.000   1026003.0284  -5078804.8831   3706983.1427   2   8   0.0210   0.0345   0.0154  -0.0127  -0.0130   0.0037   0.00    1.4
2173 182383.000   1026003.0313  -5078804.8902   3706983.1353   2   8   0.0208   0.0344   0.0154  -0.0128  -0.0130   0.0039   0.00    1.4
2173 182384.000   1026003.0333  -5078804.9005   3706983.1304   2   8   0.0209   0.0344   0.0154  -0.0127  -0.0128   0.0039   0.00    1.4
2173 182385.000   1026003.0340  -5078804.9039   3706983.1301   2   8   0.0208   0.0343   0.0154  -0.0126  -0.0128   0.0040   0.00    1.4
2173 182386.000   1026003.0365  -5078804.9143   3706983.1260   2   8   0.0208   0.0342   0.0154  -0.0126  -0.0128   0.0039   0.00    1.4
2173 182387.000   1026003.0417  -5078804.9198   3706983.1189   2   8   0.0206   0.0341   0.0152  -0.0126  -0.0128   0.0034   0.00    1.4
2173 182388.000   1026003.0453  -5078804.9257   3706983.1163   2   8   0.0206   0.0340   0.0152  -0.0125  -0.0127   0.0040   0.00    1.4
2173 182389.000   1026003.0481  -5078804.9328   3706983.1124   2   8   0.0206   0.0340   0.0152  -0.0124  -0.0126   0.0039   0.00    1.4
2173 182390.000   1026003.0499  -5078804.9418   3706983.1119   2   8   0.0205   0.0339   0.0151  -0.0124  -0.0126   0.0033   0.00    1.4
2173 182391.000   1026003.0513  -5078804.9501   3706983.1081   2   8   0.0205   0.0338   0.0150  -0.0124  -0.0126   0.0035   0.00    1.4
2173 182392.000   1026003.0537  -5078804.9548   3706983.1054   2   8   0.0204   0.0337   0.0151  -0.0122  -0.0126   0.0038   0.00    1.4
2173 182393.000   1026003.0543  -5078804.9629   3706983.1042   2   8   0.0203   0.0336   0.0150  -0.0123  -0.0125   0.0037   0.00    1.4
2173 182394.000   1026003.0565  -5078804.9691   3706983.1007   2   8   0.0205   0.0336   0.0149  -0.0123  -0.0125   0.0037   0.00    1.4
2173 182395.000   1026003.0575  -5078804.9749   3706983.0995   2   8   0.0203   0.0335   0.0149  -0.0121  -0.0124   0.0038   0.00    1.4
2173 182396.000   1026003.0586  -5078804.9742   3706983.0948   2   8   0.0202   0.0334   0.0148  -0.0121  -0.0124   0.0033   0.00    1.4
2173 182397.000   1026003.0591  -5078804.9780   3706983.0895   2   8   0.0202   0.0333   0.0148  -0.0121  -0.0124   0.0036   0.00    1.4
2173 182398.000   1026003.0603  -5078804.9805   3706983.0887   2   8   0.0202   0.0333   0.0148  -0.0121  -0.0123   0.0035   0.00    1.4
2173 182399.000   1026003.0610  -5078804.9818   3706983.0848   2   8   0.0202   0.0332   0.0147  -0.0121  -0.0123   0.0037   0.00    1.4
2173 182400.000   1026003.0613  -5078804.9822   3706983.0774   2   8   0.0201   0.0332   0.0146  -0.0120  -0.0123   0.0034   0.00    1.4
2173 182401.000   1026003.0615  -5078804.9878   3706983.0740   2   8   0.0199   0.0331   0.0146  -0.0120  -0.0122   0.0032   0.00    1.4
2173 182402.000   1026003.0631  -5078804.9874   3706983.0683   2   8   0.0200   0.0330   0.0145  -0.0119  -0.0122   0.0036   0.00    1.4
2173 182403.000   1026003.0634  -5078804.9935   3706983.0661   2   8   0.0199   0.0329   0.0145  -0.0118  -0.0121   0.0031   0.00    1.4
2173 182404.000   1026003.0642  -5078804.9945   3706983.0583   2   8   0.0199   0.0329   0.0145  -0.0118  -0.0122   0.0033   0.00    1.4
2173 182405.000   1026003.0641  -5078804.9942   3706983.0535   2   8   0.0198   0.0328   0.0145  -0.0118  -0.0121   0.0037   0.00    1.4
2173 182406.000   1026003.0673  -5078804.9994   3706983.0496   2   8   0.0199   0.0327   0.0144  -0.0118  -0.0120   0.0034   0.00    1.4
2173 182407.000   1026003.0670  -5078804.9994   3706983.0420   2   8   0.0199   0.0327   0.0144  -0.0118  -0.0120   0.0035   0.00    1.4
2173 182408.000   1026003.0664  -5078805.0003   3706983.0366   2   8   0.0197   0.0326   0.0143  -0.0117  -0.0120   0.0034   0.00    1.4
2173 182409.000   1026003.0684  -5078805.0025   3706983.0315   2   8   0.0197   0.0325   0.0143  -0.0116  -0.0120   0.0031   0.00    1.4
2173 182410.000   1026003.0686  -5078805.0048   3706983.0285   2   8   0.0197   0.0324   0.0143  -0.0118  -0.0120   0.0034   0.00    1.4
2173 182411.000   1026003.0693  -5078805.0005   3706983.0204   2   8   0.0196   0.0323   0.0142  -0.0114  -0.0119   0.0033   0.00    1.4
2173 182412.000   1026003.0696  -5078805.0009   3706983.0164   2   8   0.0195   0.0323   0.0142  -0.0115  -0.0118   0.0032   0.00    1.4
2173 182413.000   1026003.0677  -5078804.9979   3706983.0111   2   8   0.0195   0.0322   0.0141  -0.0115  -0.0119   0.0034   0.00    1.4
2173 182414.000   1026003.0679  -5078804.9990   3706983.0084   2   8   0.0195   0.0322   0.0141  -0.0115  -0.0118   0.0036   0.00    1.4
2173 182415.000   1026003.0711  -5078804.9926   3706983.0085   2   8   0.0194   0.0321   0.0141  -0.0114  -0.0118   0.0035   0.00    1.4
2173 182416.000   1026003.0692  -5078804.9917   3706983.0085   2   8   0.0193   0.0320   0.0140  -0.0113  -0.0118   0.0034   0.00    1.3
2173 182417.000   1026003.0685  -5078804.9935   3706983.0064   2   8   0.0193   0.0320   0.0140  -0.0113  -0.0116   0.0034   0.00    1.3
2173 182418.000   1026003.0658  -5078804.9940   3706983.0042   2   8   0.0192   0.0319   0.0139  -0.0113  -0.0117   0.0033   0.00    1.3
2173 182419.000   1026003.0631  -5078804.9996   3706983.0052   2   8   0.0193   0.0319   0.0139  -0.0112  -0.0116   0.0034   0.00    1.3
2173 182420.000   1026003.0616  -5078804.9993   3706983.0005   2   8   0.0194   0.0318   0.0139  -0.0112  -0.0116   0.0036   0.00    1.3
2173 182421.000   1026003.0599  -5078805.0056   3706982.9995   2   8   0.0191   0.0317   0.0139  -0.0110  -0.0115   0.0033   0.00    1.3
2173 182422.000   1026003.0576  -5078805.0057   3706982.9975   2   8   0.0191   0.0316   0.0138  -0.0112  -0.0116   0.0030   0.00    1.3
2173 182423.000   1026003.0488  -5078804.9973   3706982.9896   2   8   0.0190   0.0315   0.0137  -0.0111  -0.0115   0.0032   0.00    1.3
2173 182424.000   1026003.0469  -5078805.0019   3706982.9875   2   8   0.0191   0.0315   0.0137  -0.0110  -0.0115   0.0032   0.00    1.3
2173 182425.000   1026003.0443  -5078805.0057   3706982.9888   2   8   0.0190   0.0315   0.0137  -0.0110  -0.0115   0.0032   0.00    1.3
2173 182426.000   1026003.0431  -5078805.0040   3706982.9827   2   8   0.0190   0.0314   0.0136  -0.0110  -0.0114   0.0031   0.00    1.3
2173 182427.000   1026003.0401  -5078805.0058   3706982.9782   2   8   0.0191   0.0313   0.0136  -0.0111  -0.0114   0.0033   0.00    1.3
2173 182428.000   1026003.0390  -5078805.0053   3706982.9755   2   8   0.0189   0.0313   0.0136  -0.0110  -0.0114   0.0029   0.00    1.3
2173 182429.000   1026003.0362  -5078805.0090   3706982.9735   2   8   0.0188   0.0312   0.0135  -0.0108  -0.0114   0.0032   0.00    1.2
2173 182430.000   1026003.0353  -5078805.0104   3706982.9709   2   8   0.0189   0.0311   0.0135  -0.0110  -0.0113   0.0029   0.00    1.2
2173 182431.000   1026003.0323  -5078805.0126   3706982.9696   2   8   0.0188   0.0311   0.0135  -0.0108  -0.0113   0.0031   0.00    1.2
2173 182432.000   1026003.0328  -5078805.0145   3706982.9691   2   8   0.0187   0.0310   0.0134  -0.0108  -0.0113   0.0030   0.00    1.2
2173 182433.000   1026003.0309  -5078805.0154   3706982.9631   2   8   0.0187   0.0309   0.0134  -0.0107  -0.0113   0.0032   0.00    1.2
2173 182434.000   1026003.0293  -5078805.0161   3706982.9591   2   8   0.0187   0.0309   0.0134  -0.0107  -0.0112   0.0029   0.00    1.2
2173 182435.000   1026003.0284  -5078805.0175   3706982.9540   2   8   0.0188   0.0308   0.0133  -0.0106  -0.0113   0.0032   0.00    1.2
2173 182436.000   1026003.0296  -5078805.0178   3706982.9501   2   8   0.0186   0.0307   0.0134  -0.0107  -0.0111   0.0030   0.00    1.2
2173 182437.000   1026003.0278  -5078805.0246   3706982.9536   2   8   0.0185   0.0307   0.0133  -0.0106  -0.0112   0.0031   0.00    1.2
2173 182438.000   1026003.0254  -5078805.0276   3706982.9507   2   8   0.0185   0.0306   0.0133  -0.0106  -0.0111   0.0029   0.00    1.2
2173 182439.000   1026003.0248  -5078805.0267   3706982.9463   2   8   0.0186   0.0306   0.0133  -0.0106  -0.0110   0.0033   0.00    1.2
2173 182440.000   1026003.0255  -5078805.0316   3706982.9450   2   8   0.0184   0.0305   0.0132  -0.0106  -0.0111   0.0028   0.00    1.2
2173 182441.000   1026003.0241  -5078805.0357   3706982.9439   2   8   0.0184   0.0304   0.0132  -0.0105  -0.0110   0.0027   0.00    1.2
2173 182442.000   1026003.0227  -5078805.0394   3706982.9411   2   8   0.0186   0.0304   0.0131  -0.0105  -0.0110   0.0032   0.00    1.2
2173 182443.000   1026003.0196  -5078805.0416   3706982.9362   2   8   0.0185   0.0303   0.0131  -0.0104  -0.0109   0.0031   0.00    1.2
2173 182444.000   1026003.0187  -5078805.0437   3706982.9344   2   8   0.0182   0.0302   0.0131  -0.0103  -0.0110   0.0027   0.00    1.2
2173 182445.000   1026003.0164  -5078805.0496   3706982.9315   2   8   0.0182   0.0302   0.0131  -0.0103  -0.0109   0.0028   0.00    1.1
2173 182446.000   1026003.0142  -5078805.0492   3706982.9259   2   8   0.0181   0.0301   0.0130  -0.0103  -0.0109   0.0028   0.00    1.1
2173 182447.000   1026003.0138  -5078805.0521   3706982.9278   2   8   0.0183   0.0301   0.0130  -0.0103  -0.0109   0.0030   0.00    1.1
2173 182448.000   1026003.0149  -5078805.0575   3706982.9283   2   8   0.0182   0.0300   0.0130  -0.0104  -0.0108   0.0029   0.00    1.1
2173 182449.000   1026003.0110  -5078805.0543   3706982.9258   2   8   0.0183   0.0299   0.0130  -0.0102  -0.0110   0.0032   0.00    1.1
2173 182450.000   1026003.0101  -5078805.0564   3706982.9285   2   8   0.0181   0.0299   0.0129  -0.0102  -0.0108   0.0032   0.00    1.1
2173 182451.000   1026003.0086  -5078805.0545   3706982.9269   2   8   0.0182   0.0298   0.0129  -0.0101  -0.0108   0.0030   0.00    1.1
2173 182452.000   1026003.0067  -5078805.0552   3706982.9238   2   8   0.0179   0.0298   0.0129  -0.0102  -0.0107   0.0028   0.00    1.1
2173 182453.000   1026003.0070  -5078805.0566   3706982.9246   2   8   0.0179   0.0297   0.0128  -0.0100  -0.0108   0.0030   0.00    1.1
2173 182454.000   1026003.0030  -5078805.0541   3706982.9241   2   8   0.0181   0.0297   0.0128  -0.0099  -0.0107   0.0030   0.00    1.1
2173 182455.000   1026003.0035  -5078805.0528   3706982.9247   2   8   0.0178   0.0296   0.0128  -0.0101  -0.0107   0.0027   0.00    1.1
2173 182456.000   1026003.0034  -5078805.0529   3706982.9247   2   8   0.0180   0.0296   0.0128  -0.0100  -0.0107   0.0032   0.00    1.1
2173 182457.000   1026003.0023  -5078805.0514   3706982.9219   2   8   0.0179   0.0295   0.0128  -0.0099  -0.0106   0.0032   0.00    1.1
2173 182458.000   1026003.0040  -5078805.0515   3706982.9211   2   8   0.0179   0.0294   0.0127  -0.0098  -0.0106   0.0031   0.00    1.1
2173 182459.000   1026003.0037  -5078805.0553   3706982.9241   2   8   0.0179   0.0294   0.0127  -0.0099  -0.0107   0.0028   0.00    1.1
2173 182460.000   1026003.0035  -5078805.0523   3706982.9205   2   8   0.0177   0.0293   0.0126  -0.0098  -0.0106   0.0031   0.00    1.1
2173 182461.000   1026003.0016  -5078805.0538   3706982.9179   2   8   0.0177   0.0293   0.0126  -0.0098  -0.0104   0.0028   0.00    1.1
2173 182462.000   1026003.0026  -5078805.0507   3706982.9122   2   8   0.0178   0.0292   0.0127  -0.0098  -0.0106   0.0031   0.00    1.1
2173 182463.000   1026003.0022  -5078805.0503   3706982.9111   2   8   0.0176   0.0292   0.0125  -0.0098  -0.0105   0.0029   0.00    1.1
2173 182464.000   1026003.0020  -5078805.0498   3706982.9095   2   8   0.0175   0.0291   0.0125  -0.0096  -0.0105   0.0028   0.00    1.1
2173 182465.000   1026003.0029  -5078805.0519   3706982.9075   2   8   0.0176   0.0291   0.0126  -0.0096  -0.0104   0.0029   0.00    1.1
2173 182466.000   1026003.0048  -5078805.0523   3706982.9054   2   8   0.0175   0.0290   0.0125  -0.0097  -0.0104   0.0026   0.00    1.1
2173 182467.000   1026003.0035  -5078805.0526   3706982.9073   2   8   0.0175   0.0289   0.0125  -0.0096  -0.0105   0.0025   0.00    1.1
2173 182468.000   1026003.0020  -5078805.0531   3706982.9013   2   8   0.0175   0.0289   0.0125  -0.0095  -0.0104   0.0032   0.00    1.1
2173 182469.000   1026003.0025  -5078805.0553   3706982.9009   2   8   0.0175   0.0288   0.0125  -0.0096  -0.0104   0.0028   0.00    1.1
2173 182470.000   1026003.0064  -5078805.0377   3706982.8774   2   8   0.0173   0.0288   0.0124  -0.0095  -0.0103   0.0027   0.00    1.1
2173 182471.000   1026003.0058  -5078805.0352   3706982.8716   2   8   0.0177   0.0287   0.0124  -0.0095  -0.0104   0.0032   0.00    1.1
2173 182472.000   1026003.0068  -5078805.0371   3706982.8719   2   8   0.0175   0.0287   0.0123  -0.0095  -0.0103   0.0026   0.00    1.1
2173 182473.000   1026003.0065  -5078805.0361   3706982.8682   2   8   0.0175   0.0286   0.0123  -0.0094  -0.0103   0.0029   0.00    1.1
2173 182474.000   1026003.0065  -5078805.0380   3706982.8655   2   8   0.0175   0.0286   0.0123  -0.0094  -0.0102   0.0031   0.00    1.1
2173 182475.000   1026003.0058  -5078805.0568   3706982.8783   2   8   0.0172   0.0285   0.0123  -0.0094  -0.0103   0.0027   0.00    1.0
2173 182476.000   1026003.0068  -5078805.0558   3706982.8787   2   8   0.0171   0.0284   0.0122  -0.0093  -0.0102   0.0027   0.00    1.0
2173 182477.000   1026003.0068  -5078805.0477   3706982.8707   2   8   0.0173   0.0284   0.0122  -0.0094  -0.0103   0.0026   0.00    1.0
2173 182478.000   1026003.0055  -5078805.0430   3706982.8670   2   8   0.0172   0.0284   0.0122  -0.0092  -0.0102   0.0028   0.00    1.0
2173 182479.000   1026002.9829  -5078805.0237   3706982.8513   2   8   0.0171   0.0283   0.0122  -0.0094  -0.0102   0.0027   0.00    1.0
2173 182480.000   1026002.9863  -5078805.0148   3706982.8550   2   8   0.0171   0.0282   0.0122  -0.0093  -0.0102   0.0029   0.00    1.0
2173 182481.000   1026002.9874  -5078805.0062   3706982.8536   2   8   0.0171   0.0282   0.0121  -0.0092  -0.0102   0.0028   0.00    1.0
2173 182482.000   1026002.9898  -5078805.0030   3706982.8555   2   8   0.0171   0.0281   0.0121  -0.0091  -0.0102   0.0025   0.00    1.0
2173 182483.000   1026002.9917  -5078804.9937   3706982.8551   2   8   0.0170   0.0281   0.0121  -0.0092  -0.0101   0.0028   0.00    1.0
2173 182484.000   1026002.9924  -5078804.9902   3706982.8564   2   8   0.0167   0.0280   0.0121  -0.0091  -0.0101   0.0024   0.00    1.0
2173 182485.000   1026002.9966  -5078804.9862   3706982.8575   2   8   0.0171   0.0280   0.0120  -0.0090  -0.0101   0.0029   0.00    1.0
2173 182486.000   1026002.9985  -5078804.9804   3706982.8585   2   8   0.0169   0.0279   0.0120  -0.0089  -0.0101   0.0032   0.00    1.0
2173 182487.000   1026003.0015  -5078804.9770   3706982.8589   2   8   0.0171   0.0279   0.0120  -0.0090  -0.0100   0.0031   0.00    1.0
2173 182488.000   1026003.0054  -5078804.9708   3706982.8604   2   8   0.0168   0.0278   0.0121  -0.0090  -0.0100   0.0027   0.00    1.0
