     2.11           OBSERVATION DATA    M (MIXED)           RINEX VERSION / TYPE
CONVBIN 2.4.3                           20210831 054602 UTC PGM / RUN BY / DATE 
log: logs/21_08_31_03_04_49_tn31_SW.rtcm                    COMMENT             
format: RTCM 3, station ID: 2499                            COMMENT             
2499                                                        MARKER NAME         
                                                            MARKER NUMBER       
                                                            OBSERVER / AGENCY   
                    SWFT                                    REC # / TYPE / VERS 
                    NULL                                    ANT # / TYPE        
   284582.8531 -5205312.1833  3662560.2926                  APPROX POSITION XYZ 
        0.0000        0.0000        0.0000                  ANTENNA: DELTA H/E/N
     1     1                                                WAVELENGTH FACT L1/2
     5    C1    L1    P2    L2    C2                        # / TYPES OF OBSERV 
  2021     8    31     3     4   54.0000000     GPS         TIME OF FIRST OBS   
  2021     8    31     3    34   52.0000000     GPS         TIME OF LAST OBS    
                                                            END OF HEADER       
 21  8 31  3  4 54.0000000  0 17G 3G 4G16G22G26G27G31C23C24C25C32C33
                                E 1E 4E19E21E27
  21625133.317   113640805.185    21625136.498    88551267.020                  
  21853118.159   114838902.004    21853119.696    89484857.884                  
  20342659.333   106901394.330    20342659.011    83299787.515                  
  22480976.194   118138335.497    22480974.675    92055848.735                  
  20407277.061   107240910.252    20407280.367    83564332.245                  
  24567213.805   129101527.603    24567217.057   100598580.887                  
  22580305.929   118660318.991    22580305.732    92462588.129                  
                 128004727.840                   128004727.840    24581957.697  
                 125290941.852                   125290941.852    24060804.944  
                 114821339.543                   114821339.543    22050228.903  
                 134795699.480                   134795699.480    25886105.644  
                 120649625.284                   120649625.284    23169527.562  
  26122423.580   137274209.513                                                  
  27676927.118   145443223.227                                                  
  23373511.340   122828614.652                                                  
  23471499.862   123343531.974                                                  
  25126599.280   132041146.167                                                  
 21  8 31  3  4 55.0000000  0 17G 3G 4G16G22G26G27G31C23C24C25C32C33
                                E 1E 4E19E21E27
  21625396.546   113642188.378    21625399.726    88552344.835                  
  21852639.198   114836384.996    21852640.735    89482896.583                  
  20342359.973   106899821.175    20342359.651    83298561.684                  
  22481415.879   118140646.032    22481414.360    92057649.151                  
  20407512.807   107242149.015    20407516.095    83565297.519                  
  24566557.315   129098077.857    24566560.603   100595892.773                  
  22580753.548   118662671.254    22580753.351    92464421.064                  
                 128002629.313                   128002629.313    24581554.697  
                 125293211.304                   125293211.304    24061240.751  
                 114821269.056                   114821269.056    22050215.359  
                 134792844.563                   134792844.563    25885557.387  
                 120652117.884                   120652117.884    23170006.220  
  26121975.514   137271854.891                                                  
  27676422.497   145440571.478                                                  
  23373344.301   122827736.906                                                  
  23471443.664   123343236.578                                                  
  25127003.889   132043272.345                                                  
 21  8 31  3  4 56.0000000  0 17G 3G 4G16G22G26G27G31C23C24C25C32C33
                                E 1E 4E19E21E27
  21625659.863   113643572.176    21625663.044    88553423.117                  
  21852160.254   114833868.210    21852161.791    89480935.449                  
  20342060.756   106898248.689    20342060.417    83297336.366                  
  22481855.636   118142956.925    22481854.099    92059449.852                  
  20407748.643   107243388.344    20407751.949    83566263.226                  
  24565900.861   129094628.043    24565904.113   100593204.609                  
  22581201.185   118665023.587    22581201.006    92466254.046                  
                 128000530.992                   128000530.992    24581151.732  
                 125295480.829                   125295480.829    24061676.595  
                 114821198.847                   114821198.847    22050201.885  
                 134789989.879                   134789989.879    25885009.183  
                 120654610.850                   120654610.850    23170484.984  
  26121527.502   137269500.504                                                  
  27675917.893   145437919.761                                                  
  23373177.332   122826859.479                                                  
  23471387.502   123342941.539                                                  
  25127408.515   132045398.696                                                  
 21  8 31  3  4 57.0000000  0 17G 3G 4G16G22G26G27G31C23C24C25C32C33
                                E 1E 4E19E21E27
  21625923.306   113644956.564    21625926.487    88554501.860                  
  21851681.382   114831351.648    21851682.919    89478974.492                  
  20341761.647   106896676.849    20341761.325    83296111.558                  
  22482295.446   118145268.179    22482293.927    92061250.824                  
  20407984.585   107244628.222    20407987.873    83567229.367                  
  24565244.353   129091178.138    24565247.623   100590516.371                  
  22581648.822   118667375.988    22581648.661    92468087.090                  
                 127998432.883                   127998432.883    24580748.822  
                 125297750.423                   125297750.423    24062112.456  
                 114821128.918                   114821128.918    22050188.466  
                 134787135.421                   134787135.421    25884460.997  
                 120657104.183                   120657104.183    23170963.803  
  26121079.526   137267146.354                                                  
  27675413.308   145435268.058                                                  
  23373010.418   122825982.367                                                  
  23471331.447   123342646.883                                                  
  25127813.177   132047525.227                                                  
 21  8 31  3  4 58.0000000  0 17G 3G 4G16G22G26G27G31C23C24C25C32C33
                                E 1E 4E19E21E27
  21626186.857   113646341.538    21626190.037    88555581.064                  
  21851202.546   114828835.317    21851204.083    89477013.714                  
  20341462.662   106895105.660    20341462.323    83294887.257                  
  22482735.345   118147579.793    22482733.809    92063052.082                  
  20408220.617   107245868.660    20408223.923    83568195.942                  
  24564587.845   129087728.151    24564591.097   100587828.070                  
  22582096.476   118669728.456    22582096.316    92469920.180                  
                 127996334.981                   127996334.981    24580345.929  
                 125300020.081                   125300020.081    24062548.317  
                 114821059.269                   114821059.269    22050175.082  
                 134784281.196                   134784281.196    25883912.883  
                 120659597.888                   120659597.888    23171442.675  
  26120631.585   137264792.442                                                  
  27674908.704   145432616.379                                                  
  23372843.575   122825105.563                                                  
  23471275.445   123342352.602                                                  
  25128217.874   132049651.942                                                  
 21  8 31  3  4 59.0000000  0 17G 3G 4G16G22G26G27G31C23C24C25C32C33
                                E 1E 4E19E21E27
  21626450.514   113647727.105    21626453.695    88556660.726                  
  21850723.746   114826319.204    21850725.282    89475053.109                  
  20341163.803   106893535.128    20341163.463    83293663.464                  
  22483175.281   118149891.769    22483173.762    92064853.622                  
  20408456.774   107247109.653    20408460.080    83569162.949                  
  24563931.319   129084278.085    24563934.571   100585139.711                  
  22582544.167   118672080.988    22582543.988    92471753.320                  
                 127994237.280                   127994237.280    24579943.072  
                 125302289.812                   125302289.812    24062984.196  
                 114820989.895                   114820989.895    22050161.752  
                 134781427.198                   134781427.198    25883364.804  
                 120662091.956                   120662091.956    23171921.636  
  26120183.680   137262438.768                                                  
  27674404.101   145429964.723                                                  
  23372676.785   122824229.078                                                  
  23471219.497   123342058.699                                                  
  25128622.626   132051778.824                                                  
 21  8 31  3  5  0.0000000  0 17G 3G 4G16G22G26G27G31C23C24C25C32C33
                                E 1E 4E19E21E27
  21626714.297   113649113.263    21626717.477    88557740.849                  
  21850244.981   114823803.319    21850246.518    89473092.679                  
  20340865.068   106891965.251    20340864.711    83292440.183                  
  22483615.323   118152204.094    22483613.787    92066655.433                  
  20408693.038   107248351.195    20408696.344    83570130.387                  
  24563274.775   129080827.945    24563278.046   100582451.288                  
  22582991.840   118674433.588    22582991.661    92473586.519                  
                 127992139.797                   127992139.797    24579540.286  
                 125304559.613                   125304559.613    24063420.093  
                 114820920.801                   114820920.801    22050148.475  
                 134778573.438                   134778573.438    25882816.761  
                 120664586.400                   120664586.400    23172400.687  
  26119735.847   137260085.332                                                  
  27673899.516   145427313.085                                                  
  23372510.067   122823352.913                                                  
  23471163.657   123341765.163                                                  
  25129027.377   132053905.897                                                  
 21  8 31  3  5  1.0000000  0 17G 3G 4G16G22G26G27G31C23C24C25C32C33
                                E 1E 4E19E21E27
  21626978.204   113650500.018    21626981.385    88558821.438                  
  21849766.252   114821287.661    21849767.807    89471132.426                  
  20340566.441   106890396.040    20340566.120    83291217.422                  
  22484055.402   118154516.782    22484053.883    92068457.528                  
  20408929.392   107249593.318    20408932.698    83571098.270                  
  24562618.214   129077377.723    24562621.484   100579762.804                  
  22583439.548   118676786.250    22583439.351    92475419.757                  
                 127990042.514                   127990042.514    24579137.518  
                 125306829.483                   125306829.483    24063856.008  
                 114820851.979                   114820851.979    22050135.288  
                 134775719.902                   134775719.902    25882268.754  
                 120667081.207                   120667081.207    23172879.773  
  26119288.031   137257732.136                                                  
  27673394.948   145424661.491                                                  
  23372343.385   122822477.066                                                  
  23471107.852   123341472.000                                                  
  25129432.182   132056033.132                                                  
 21  8 31  3  5  2.0000000  0 17G 3G 4G16G22G26G27G31C23C24C25C32C33
                                E 1E 4E19E21E27
  21627242.201   113651887.367    21627245.382    88559902.484                  
  21849287.595   114818772.225    21849289.113    89469172.348                  
  20340267.957   106888827.478    20340267.618    83289995.165                  
  22484495.551   118156829.829    22484494.033    92070259.902                  
  20409165.889   107250835.983    20409169.176    83572066.585                  
  24561961.652   129073927.425    24561964.923   100577074.262                  
  22583887.256   118679138.985    22583887.078    92477253.057                  
                 127987945.441                   127987945.441    24578734.804  
                 125309099.426                   125309099.426    24064291.923  
                 114820783.440                   114820783.440    22050122.100  
                 134772866.602                   134772866.602    25881720.818  
                 120669576.383                   120669576.383    23173358.967  
  26118840.287   137255379.163                                                  
  27672890.345   145422009.885                                                  
  23372176.774   122821601.523                                                  
  23471052.136   123341179.221                                                  
  25129837.022   132058160.554                                                  
 21  8 31  3  5  3.0000000  0 17G 3G 4G16G22G26G27G31C23C24C25C32C33
                                E 1E 4E19E21E27
  21627506.323   113653275.299    21627509.504    88560983.987                  
  21848808.955   114816257.016    21848810.492    89467212.445                  
  20339969.598   106887259.576    20339969.259    83288773.426                  
  22484935.773   118159143.245    22484934.254    92072062.562                  
  20409402.457   107252079.212    20409405.762    83573035.333                  
  24561305.055   129070477.051    24561308.325   100574385.656                  
  22584334.983   118681491.788    22584334.804    92479086.410                  
                 127985848.577                   127985848.577    24578332.126  
                 125311369.434                   125311369.434    24064727.838  
                 114820715.180                   114820715.180    22050109.002  
                 134770013.531                   134770013.531    25881172.918  
                 120672071.926                   120672071.926    23173838.196  
  26118392.579   137253026.455                                                  
  27672385.777   145419358.330                                                  
  23372010.235   122820726.315                                                  
  23470996.492   123340886.821                                                  
  25130241.881   132060288.161                                                  
 21  8 31  3  5  4.0000000  0 17G 3G 4G16G22G26G27G31C23C24C25C32C33
                                E 1E 4E19E21E27
  21627770.535   113654663.828    21627773.715    88562065.962                  
  21848330.387   114813742.023    21848331.923    89465252.710                  
  20339671.364   106885692.319    20339671.025    83287552.187                  
  22485376.083   118161456.999    22485374.564    92073865.487                  
  20409639.132   107253322.993    20409642.438    83574004.512                  
  24560648.458   129067026.597    24560651.728   100571696.996                  
  22584782.727   118683844.649    22584782.548    92480919.809                  
                 127983751.923                   127983751.923    24577929.483  
                 125313639.516                   125313639.516    24065163.806  
                 114820647.197                   114820647.197    22050095.940  
                 134767160.690                   134767160.690    25880625.054  
                 120674567.835                   120674567.835    23174317.515  
  26117944.924   137250673.966                                                  
  27671881.192   145416706.783                                                  
  23371843.731   122819851.418                                                  
  23470940.937   123340594.782                                                  
  25130646.793   132062415.938                                                  
 21  8 31  3  5  5.0000000  0 17G 3G 4G16G22G26G27G31C23C24C25C32C33
                                E 1E 4E19E21E27
  21628034.889   113656052.954    21628038.052    88563148.394                  
  21847851.836   114811227.265    21847853.355    89463293.157                  
  20339373.237   106884125.723    20339372.916    83286331.464                  
  22485816.447   118163771.129    22485814.929    92075668.703                  
  20409875.914   107254567.340    20409879.220    83574974.134                  
  24559991.861   129063576.070    24559995.113   100569008.274                  
  22585230.453   118686197.587    22585230.274    92482753.266                  
                 127981655.472                   127981655.472    24577526.876  
                 125315909.663                   125315909.663    24065599.757  
                 114820579.489                   114820579.489    22050082.931  
                 134764308.082                   134764308.082    25880077.243  
                 120677064.116                   120677064.116    23174796.905  
  26117497.305   137248321.724                                                  
  27671376.642   145414055.271                                                  
  23371677.317   122818976.844                                                  
  23470885.436   123340303.130                                                  
  25131051.723   132064543.892                                                  
 21  8 31  3  5  6.0000000  0 17G 3G 4G16G22G26G27G31C23C24C25C32C33
                                E 1E 4E19E21E27
  21628299.333   113657442.668    21628302.513    88564231.290                  
  21847373.340   114808712.719    21847374.859    89461333.770                  
  20339075.254   106882559.801    20339074.914    83285111.266                  
  22486256.883   118166085.599    22486255.346    92077472.183                  
  20410112.822   107255812.238    20410116.127    83575944.184                  
  24559335.228   129060125.470    24559338.480   100566319.492                  
  22585678.215   118688550.577    22585678.036    92484586.765                  
                 127979559.230                   127979559.230    24577124.323  
                 125318179.880                   125318179.880    24066035.725  
                 114820512.058                   114820512.058    22050069.994  
                 134761455.707                   134761455.707    25879529.486  
                 120679560.766                   120679560.766    23175276.366  
  26117049.722   137245969.714                                                  
  27670872.056   145411403.774                                                  
  23371510.957   122818102.575                                                  
  23470830.006   123340011.848                                                  
  25131456.706   132066672.027                                                  
 21  8 31  3  5  7.0000000  0 17G 3G 4G16G22G26G27G31C23C24C25C32C33
                                E 1E 4E19E21E27
  21628563.901   113658832.977    21628567.082    88565314.643                  
  21846894.879   114806198.398    21846896.398    89459374.564                  
  20338777.395   106880994.534    20338777.055    83283891.577                  
  22486697.372   118168400.433    22486695.836    92079275.952                  
  20410349.819   107257057.695    20410353.124    83576914.667                  
  24558678.577   129056674.785    24558681.847   100563630.648                  
  22586125.995   118690903.650    22586125.816    92486420.324                  
                 127977463.200                   127977463.200    24576721.805  
                 125320450.169                   125320450.169    24066471.693  
                 114820444.906                   114820444.906    22050057.093  
                 134758603.563                   134758603.563    25878981.747  
                 120682057.780                   120682057.780    23175755.882  
  26116602.192   137243617.964                                                  
  27670367.507   145408752.288                                                  
  23371344.632   122817228.652                                                  
  23470774.648   123339720.953                                                  
  25131861.708   132068800.356                                                  
 21  8 31  3  5  8.0000000  0 17G 3G 4G16G22G26G27G31C23C24C25C32C33
                                E 1E 4E19E21E27
  21628828.577   113660223.871    21628831.758    88566398.461                  
  21846416.454   114803684.339    21846418.008    89457415.554                  
  20338479.661   106879429.895    20338479.322    83282672.378                  
  22487137.933   118170715.645    22487136.414    92081080.012                  
  20410586.941   107258303.711    20410590.246    83577885.594                  
  24558021.926   129053224.000    24558025.178   100560941.727                  
  22586573.775   118693256.790    22586573.596    92488253.942                  
                 127975367.375                   127975367.375    24576319.323  
                 125322720.522                   125322720.522    24066907.698  
                 114820378.030                   114820378.030    22050044.263  
                 134755751.647                   134755751.647    25878434.062  
                 120684555.164                   120684555.164    23176235.486  
  26116154.716   137241266.418                                                  
  27669862.957   145406100.853                                                  
  23371178.396   122816354.993                                                  
  23470719.361   123339430.410                                                  
  25132266.745   132070928.820                                                  
 21  8 31  3  5  9.0000000  0 17G 3G 4G16G22G26G27G31C23C24C25C32C33
                                E 1E 4E19E21E27
  21629093.378   113661615.369    21629096.559    88567482.738                  
  21845938.100   114801170.476    21845939.619    89455456.702                  
  20338182.035   106877865.925    20338181.695    83281453.702                  
  22487578.583   118173031.203    22487577.064    92082884.341                  
  20410824.134   107259550.283    20410827.440    83578856.946                  
  24557365.239   129049773.165    24557368.492   100558252.762                  
  22587021.572   118695609.991    22587021.394    92490087.605                  
                 127973271.758                   127973271.758    24575916.877  
                 125324990.948                   125324990.948    24067343.720  
                 114820311.436                   114820311.436    22050031.469  
                 134752899.964                   134752899.964    25877886.448  
                 120687052.913                   120687052.913    23176715.144  
  26115707.276   137238915.126                                                  
  27669358.407   145403449.423                                                  
  23371012.214   122815481.684                                                  
  23470664.146   123339140.261                                                  
  25132671.818   132073057.492                                                  
 21  8 31  3  5 10.0000000  0 17G 3G 4G16G22G26G27G31C23C24C25C32C33
                                E 1E 4E19E21E27
  21629358.287   113663007.453    21629361.467    88568567.479                  
  21845459.764   114798656.842    21845461.301    89453498.027                  
  20337884.551   106876302.624    20337884.212    83280235.548                  
  22488019.287   118175347.120    22488017.768    92084688.953                  
  20411061.452   107260797.411    20411064.776    83579828.735                  
  24556708.553   129046322.250    24556711.823   100555563.743                  
  22587469.406   118697963.266    22587469.227    92491921.324                  
                 127971176.348                   127971176.348    24575514.484  
                 125327261.441                   125327261.441    24067779.742  
                 114820245.116                   114820245.116    22050018.728  
                 134750048.513                   134750048.513    25877338.833  
                 120689551.032                   120689551.032    23177194.874  
  26115259.907   137236564.076                                                  
  27668853.857   145400798.020                                                  
  23370846.086   122814608.694                                                  
  23470609.002   123338850.484                                                  
  25133076.926   132075186.335                                                  
 21  8 31  3  5 11.0000000  0 17G 3G 4G16G22G26G27G31C23C24C25C32C33
                                E 1E 4E19E21E27
  21629623.302   113664400.116    21629626.483    88569652.676                  
  21844981.482   114796143.435    21844983.000    89451539.527                  
  20337587.175   106874739.972    20337586.853    83279017.894                  
  22488460.062   118177663.392    22488458.543    92086493.836                  
  20411298.896   107262045.101    20411302.202    83580800.960                  
  24556051.866   129042871.251    24556055.118   100552874.648                  
  22587917.221   118700316.609    22587917.043    92493755.102                  
                 127969081.145                   127969081.145    24575112.128  
                 125329532.003                   125329532.003    24068215.781  
                 114820179.077                   114820179.077    22050006.041  
                 134747197.294                   134747197.294    25876791.309  
                 120692049.521                   120692049.521    23177674.675  
  26114812.538   137234213.257                                                  
  27668349.326   145398146.637                                                  
  23370680.011   122813736.007                                                  
  23470553.948   123338561.071                                                  
  25133482.053   132077315.360                                                  
 21  8 31  3  5 12.0000000  0 17G 3G 4G16G22G26G27G31C23C24C25C32C33
                                E 1E 4E19E21E27
  21629888.425   113665793.389    21629891.623    88570738.341                  
  21844503.235   114793630.253    21844504.754    89449581.203                  
  20337289.942   106873177.973    20337289.620    83277800.753                  
  22488900.909   118179980.015    22488899.372    92088298.999                  
  20411536.429   107263293.336    20411539.717    83581773.609                  
  24555395.144   129039420.181    24555398.396   100550185.505                  
  22588365.055   118702670.016    22588364.876    92495588.921                  
                 127966986.153                   127966986.153    24574709.789  
                 125331802.636                   125331802.636    24068651.839  
                 114820113.312                   114820113.312    22049993.425  
                 134744346.306                   134744346.306    25876243.784  
                 120694548.372                   120694548.372    23178154.566  
  26114365.240   137231862.673                                                  
  27667844.776   145395495.281                                                  
  23370514.026   122812863.651                                                  
  23470498.947   123338272.043                                                  
  25133887.233   132079444.563                                                  
 21  8 31  3  5 13.0000000  0 17G 3G 4G16G22G26G27G31C23C24C25C32C33
                                E 1E 4E19E21E27
  21630153.673   113667187.246    21630156.853    88571824.466                  
  21844025.042   114791117.305    21844026.561    89447623.063                  
  20336992.833   106871616.633    20336992.494    83276584.124                  
  22489341.791   118182297.009    22489340.272    92090104.444                  
  20411774.051   107264542.137    20411777.357    83582746.703                  
  24554738.404   129035969.032    24554741.656   100547496.300                  
  22588812.924   118705023.488    22588812.745    92497422.793                  
                 127964891.368                   127964891.368    24574307.503  
                 125334073.341                   125334073.341    24069087.897  
                 114820047.829                   114820047.829    22049980.846  
                 134741495.550                   134741495.550    25875696.313  
                 120697047.590                   120697047.590    23178634.528  
  26113917.997   137229512.341                                                  
  27667340.244   145392843.945                                                  
  23370348.076   122811991.601                                                  
  23470443.999   123337983.390                                                  
  25134292.449   132081573.934                                                  
 21  8 31  3  5 14.0000000  0 17G 3G 4G16G22G26G27G31C23C24C25C32C33
                                E 1E 4E19E21E27
  21630419.028   113668581.690    21630422.208    88572911.043                  
  21843546.885   114788604.570    21843548.422    89445665.089                  
  20336695.832   106870055.949    20336695.529    83275368.007                  
  22489782.781   118184614.340    22489781.262    92091910.161                  
  20412011.816   107265791.505    20412015.122    83583720.234                  
  24554081.664   129032517.810    24554084.916   100544807.036                  
  22589260.775   118707377.027    22589260.597    92499256.722                  
                 127962796.790                   127962796.790    24573905.254  
                 125336344.110                   125336344.110    24069523.973  
                 114819982.617                   114819982.617    22049968.319  
                 134738645.026                   134738645.026    25875148.913  
                 120699547.181                   120699547.181    23179114.543  
  26113470.789   137227162.238                                                  
  27666835.712   145390192.630                                                  
  23370182.180   122811119.879                                                  
  23470389.142   123337695.098                                                  
  25134697.682   132083703.492                                                  
 21  8 31  3  5 15.0000000  0 17G 3G 4G16G22G26G27G31C23C24C25C32C33
                                E 1E 4E19E21E27
  21630684.508   113669976.762    21630687.688    88573998.126                  
  21843068.764   114786092.112    21843070.300    89443707.348                  
  20336398.974   106868495.935    20336398.653    83274152.414                  
  22490223.824   118186931.991    22490222.305    92093716.093                  
  20412249.653   107267041.413    20412252.959    83584694.188                  
  24553424.905   129029066.508    24553428.158   100542117.710                  
  22589708.662   118709730.590    22589708.484    92501090.644                  
                 127960702.418                   127960702.418    24573503.058  
                 125338614.948                   125338614.948    24069960.066  
                 114819917.686                   114819917.686    22049955.847  
                 134735794.738                   134735794.738    25874601.531  
                 120702047.131                   120702047.131    23179594.612  
  26113023.616   137224812.335                                                  
  27666331.180   145387541.344                                                  
  23370016.356   122810248.477                                                  
  23470334.355   123337407.284                                                  
  25135102.952   132085833.215                                                  
 21  8 31  3  5 16.0000000  0 17G 3G 4G16G22G26G27G31C23C24C25C32C33
                                E 1E 4E19E21E27
  21630950.077   113671372.404    21630953.258    88575085.636                  
  21842590.696   114783579.840    21842592.215    89441749.731                  
  20336102.241   106866936.569    20336101.920    83272937.328                  
  22490664.939   118189250.050    22490663.420    92095522.370                  
  20412487.615   107268291.890    20412490.921    83585668.581                  
  24552768.112   129025615.133    24552771.382   100539428.329                  
  22590156.532   118712084.278    22590156.353    92502924.687                  
                 127958608.258                   127958608.258    24573100.898  
                 125340885.854                   125340885.854    24070396.178  
                 114819853.032                   114819853.032    22049943.446  
                 134732944.674                   134732944.674    25874054.221  
                 120704547.457                   120704547.457    23180074.789  
  26112576.498   137222462.722                                                  
  27665826.666   145384890.087                                                  
  23369850.603   122809377.383                                                  
  23470279.640   123337119.755                                                  
  25135508.257   132087963.132                                                  
 21  8 31  3  5 17.0000000  0 17G 3G 4G16G22G26G27G31C23C24C25C32C33
                                E 1E 4E19E21E27
  21631215.754   113672768.629    21631218.952    88576173.609                  
  21842112.664   114781067.782    21842114.200    89439792.288                  
  20335805.633   106865377.860    20335805.294    83271722.754                  
  22491106.125   118191568.472    22491104.606    92097328.938                  
  20412725.684   107269542.913    20412728.972    83586643.414                  
  24552111.318   129022163.667    24552114.588   100536738.880                  
  22590604.454   118714438.029    22590604.276    92504758.781                  
                 127956514.299                   127956514.299    24572698.773  
                 125343156.835                   125343156.835    24070832.289  
                 114819788.651                   114819788.651    22049931.062  
                 134730094.852                   134730094.852    25873506.947  
                 120707048.144                   120707048.144    23180555.019  
  26112129.415   137220113.341                                                  
  27665322.152   145382238.848                                                  
  23369684.903   122808506.603                                                  
  23470224.997   123336832.602                                                  
  25135913.598   132090093.219                                                  
 21  8 31  3  5 18.0000000  0 17G 3G 4G16G22G26G27G31C23C24C25C32C33
                                E 1E 4E19E21E27
  21631481.573   113674165.432    21631484.754    88577262.031                  
  21841634.685   114778555.950    21841636.222    89437835.019                  
  20335509.133   106863819.800    20335508.829    83270508.684                  
  22491547.365   118193887.238    22491545.846    92099135.769                  
  20412963.842   107270794.493    20412967.166    83587618.669                  
  24551454.524   129018712.128    24551457.776   100534049.371                  
  22591052.359   118716791.832    22591052.181    92506592.915                  
                 127954420.556                   127954420.556    24572296.702  
                 125345427.878                   125345427.878    24071268.418  
                 114819724.555                   114819724.555    22049918.769  
                 134727245.259                   134727245.259    25872959.708  
                 120709549.203                   120709549.203    23181035.320  
  26111682.403   137217764.183                                                  
  27664817.638   145379587.630                                                  
  23369519.257   122807636.148                                                  
  23470170.425   123336545.815                                                  
  25136318.975   132092223.493                                                  
 21  8 31  3  5 19.0000000  0 17G 3G 4G16G22G26G27G31C23C24C25C32C33
                                E 1E 4E19E21E27
  21631747.482   113675562.843    21631750.681    88578350.918                  
  21841156.742   114776044.353    21841158.261    89435877.930                  
  20335212.775   106862262.398    20335212.435    83269295.125                  
  22491988.676   118196206.371    22491987.157    92100942.883                  
  20413202.126   107272046.640    20413205.414    83588594.367                  
  24550797.694   129015260.530    24550800.965   100531359.816                  
  22591500.300   118719145.706    22591500.121    92508427.102                  
                 127952327.015                   127952327.015    24571894.667  
                 125347698.996                   125347698.996    24071704.565  
                 114819660.729                   114819660.729    22049906.493  
                 134724395.896                   134724395.896    25872412.523  
                 120712050.625                   120712050.625    23181515.693  
  26111235.392   137215415.277                                                  
  27664313.142   145376936.429                                                  
  23369353.665   122806765.996                                                  
  23470115.924   123336259.407                                                  
  25136724.405   132094353.929                                                  
 21  8 31  3  5 20.0000000  0 17G 3G 4G16G22G26G27G31C23C24C25C32C33
                                E 1E 4E19E21E27
  21632013.516   113676960.832    21632016.697    88579440.263                  
  21840678.835   114773532.975    21840680.372    89433921.015                  
  20334916.542   106860705.661    20334916.221    83268082.082                  
  22492430.059   118198525.853    22492428.540    92102750.274                  
  20413440.498   107273299.338    20413443.804    83589570.496                  
  24550140.865   129011808.844    24550144.117   100528670.189                  
  22591948.241   118721499.653    22591948.062    92510261.345                  
                 127950233.687                   127950233.687    24571492.632  
                 125349970.180                   125349970.180    24072140.712  
                 114819597.189                   114819597.189    22049894.306  
                 134721546.765                   134721546.765    25871865.355  
                 120714552.413                   120714552.413    23181996.137  
  26110788.487   137213066.597                                                  
  27663808.646   145374285.246                                                  
  23369188.144   122805896.173                                                  
  23470061.495   123335973.372                                                  
  25137129.835   132096484.544                                                  
 21  8 31  3  5 21.0000000  0 17G 3G 4G16G22G26G27G31C23C24C25C32C33
                                E 1E 4E19E21E27
  21632279.657   113678359.422    21632282.838    88580530.071                  
  21840200.982   114771021.827    21840202.519    89431964.278                  
  20334620.417   106859149.582    20334620.095    83266869.555                  
  22492871.513   118200845.704    22492869.994    92104557.946                  
  20413678.996   107274552.589    20413682.302    83590547.055                  
  24549484.018   129008357.081    24549487.288   100525980.504                  
  22592396.181   118723853.661    22592396.020    92512095.637                  
                 127948140.563                   127948140.563    24571090.686  
                 125352241.429                   125352241.429    24072576.895  
                 114819533.919                   114819533.919    22049882.137  
                 134718697.867                   134718697.867    25871318.259  
                 120717054.574                   120717054.574    23182476.635  
  26110341.583   137210718.167                                                  
  27663304.132   145371634.107                                                  
  23369022.677   122805026.676                                                  
  23470007.138   123335687.712                                                  
  25137535.319   132098615.344                                                  
 21  8 31  3  5 22.0000000  0 17G 3G 4G16G22G26G27G31C23C24C25C32C33
                                E 1E 4E19E21E27
  21632545.924   113679758.594    21632549.104    88581620.332                  
  21839723.164   114768510.911    21839724.701    89430007.720                  
  20334324.434   106857594.157    20334324.095    83265657.531                  
  22493313.039   118203165.902    22493311.520    92106365.894                  
  20413917.583   107275806.393    20413920.871    83591524.048                  
  24548827.152   129004905.246    24548830.422   100523290.761                  
  22592844.158   118726207.735    22592843.979    92513929.980                  
                 127946047.648                   127946047.648    24570688.758  
                 125354512.751                   125354512.751    24073013.078  
                 114819470.925                   114819470.925    22049870.058  
                 134715849.202                   134715849.202    25870771.199  
                 120719557.098                   120719557.098    23182957.241  
  26109894.733   137208369.972                                                  
  27662799.636   145368982.979                                                  
  23368857.282   122804157.483                                                  
  23469952.834   123335402.425                                                  
  25137940.821   132100746.317                                                  
 21  8 31  3  5 23.0000000  0 17G 3G 4G16G22G26G27G31C23C24C25C32C33
                                E 1E 4E19E21E27
  21632812.279   113681158.361    21632815.460    88582711.060                  
  21839245.400   114766000.214    21839246.937    89428051.333                  
  20334028.577   106856039.383    20334028.237    83264446.023                  
  22493754.618   118205486.464    22493753.099    92108174.122                  
  20414156.278   107277060.761    20414159.584    83592501.477                  
  24548170.287   129001453.331    24548173.539   100520600.960                  
  22593292.134   118728561.878    22593291.955    92515764.380                  
                 127943954.942                   127943954.942    24570286.884  
                 125356784.142                   125356784.142    24073449.279  
                 114819408.216                   114819408.216    22049857.996  
                 134713000.769                   134713000.769    25870224.193  
                 120722059.989                   120722059.989    23183437.882  
  26109447.935   137206022.020                                                  
  27662295.158   145366331.878                                                  
  23368691.940   122803288.613                                                  
  23469898.619   123335117.511                                                  
  25138346.376   132102877.469                                                  
 21  8 31  3  5 24.0000000  0 17G 3G 4G16G22G26G27G31C23C24C25C32C33
                                E 1E 4E19E21E27
  21633078.760   113682558.718    21633081.941    88583802.247                  
  21838767.672   114763489.746    21838769.209    89426095.124                  
  20333732.845   106854485.279    20333732.505    83263235.031                  
  22494196.287   118207807.372    22494194.768    92109982.622                  
  20414395.079   107278315.696    20414398.385    83593479.348                  
  24547513.386   128998001.343    24547516.638   100517911.101                  
  22593740.128   118730916.089    22593739.932    92517598.828                  
                 127941862.442                   127941862.442    24569885.045  
                 125359055.597                   125359055.597    24073885.480  
                 114819345.777                   114819345.777    22049846.024  
                 134710152.572                   134710152.572    25869677.222  
                 120724563.246                   120724563.246    23183918.612  
  26109001.174   137203674.297                                                  
  27661790.662   145363680.801                                                  
  23368526.651   122802420.064                                                  
  23469844.476   123334832.989                                                  
  25138751.931   132105008.797                                                  
 21  8 31  3  5 25.0000000  0 17G 3G 4G16G22G26G27G31C23C24C25C32C33
                                E 1E 4E19E21E27
  21633345.366   113683959.673    21633348.547    88584893.898                  
  21838289.979   114760979.499    21838291.516    89424139.085                  
  20333437.219   106852931.823    20333436.898    83262024.548                  
  22494638.009   118210128.635    22494636.472    92111791.398                  
  20414634.006   107279571.176    20414637.294    83594457.645                  
  24546856.485   128994549.269    24546859.737   100515221.172                  
  22594188.123   118733270.359    22594187.962    92519433.324                  
                 127939770.150                   127939770.150    24569483.242  
                 125361327.125                   125361327.125    24074321.698  
                 114819283.618                   114819283.618    22049834.087  
                 134707304.604                   134707304.604    25869130.305  
                 120727066.866                   120727066.866    23184399.396  
  26108554.466   137201326.817                                                  
  27661286.183   145361029.738                                                  
  23368361.434   122801551.819                                                  
  23469790.404   123334548.820                                                  
  25139157.558   132107140.304                                                  
 21  8 31  3  5 26.0000000  0 17G 3G 4G16G22G26G27G31C23C24C25C32C33
                                E 1E 4E19E21E27
  21633612.061   113685361.210    21633615.242    88585986.007                  
  21837812.340   114758469.492    21837813.877    89422183.238                  
  20333141.737   106851379.024    20333141.398    83260814.575                  
  22495079.803   118212450.274    22495078.284    92113600.465                  
  20414873.022   107280827.208    20414876.328    83595436.366                  
  24546199.566   128991097.137    24546202.818   100512531.199                  
  22594636.135   118735624.711    22594635.956    92521267.884                  
                 127937678.066                   127937678.066    24569081.475  
                 125363598.720                   125363598.720    24074757.935  
                 114819221.734                   114819221.734    22049822.204  
                 134704456.872                   134704456.872    25868583.423  
                 120729570.859                   120729570.859    23184880.287  
  26108107.795   137198979.581                                                  
  27660781.723   145358378.719                                                  
  23368196.289   122800683.897                                                  
  23469736.404   123334265.039                                                  
  25139563.203   132109271.993                                                  
 21  8 31  3  5 27.0000000  0 17G 3G 4G16G22G26G27G31C23C24C25C32C33
                                E 1E 4E19E21E27
  21633878.881   113686763.339    21633882.062    88587078.573                  
  21837334.755   114755959.699    21837336.274    89420227.555                  
  20332846.380   106849826.883    20332846.041    83259605.114                  
  22495521.668   118214772.262    22495520.149    92115409.804                  
  20415112.145   107282083.798    20415115.433    83596415.532                  
  24545542.611   128987644.923    24545545.881   100509841.164                  
  22595084.183   118737979.122    22595084.004    92523102.489                  
                 127935586.192                   127935586.192    24568679.744  
                 125365870.382                   125365870.382    24075194.189  
                 114819160.130                   114819160.130    22049810.357  
                 134701609.370                   134701609.370    25868036.595  
                 120732075.215                   120732075.215    23185361.196  
  26107661.176   137196632.574                                                  
  27660277.245   145355727.715                                                  
  23368031.179   122799816.313                                                  
  23469682.475   123333981.633                                                  
  25139968.883   132111403.852                                                  
 21  8 31  3  5 28.0000000  0 17G 3G 4G16G22G26G27G31C23C24C25C32C33
                                E 1E 4E19E21E27
  21634145.809   113688166.058    21634149.007    88588171.601                  
  21836857.205   114753450.136    21836858.724    89418272.051                  
  20332551.148   106848275.402    20332550.809    83258396.168                  
  22495963.587   118217094.605    22495962.068    92117219.427                  
  20415351.358   107283340.945    20415354.664    83597395.124                  
  24544885.675   128984192.629    24544888.945   100507151.067                  
  22595532.213   118740333.597    22595532.034    92524937.141                  
                 127933494.524                   127933494.524    24568278.066  
                 125368142.116                   125368142.116    24075630.461  
                 114819098.797                   114819098.797    22049798.582  
                 134698762.106                   134698762.106    25867489.803  
                 120734579.937                   120734579.937    23185842.212  
  26107214.594   137194285.819                                                  
  27659772.784   145353076.731                                                  
  23367866.158   122798949.034                                                  
  23469628.618   123333698.596                                                  
  25140374.600   132113535.890                                                  
 21  8 31  3  5 29.0000000  0 17G 3G 4G16G22G26G27G31C23C24C25C32C33
                                E 1E 4E19E21E27
  21634412.844   113689569.367    21634416.042    88589265.091                  
  21836379.673   114750940.804    21836381.228    89416316.730                  
  20332256.023   106846724.581    20332255.702    83257187.738                  
  22496405.577   118219417.306    22496404.058    92119029.321                  
  20415590.696   107284598.655    20415594.002    83598375.161                  
  24544228.720   128980740.274    24544231.954   100504460.918                  
  22595980.278   118742688.140    22595980.100    92526771.852                  
                 127931403.063                   127931403.063    24567876.424  
                 125370413.917                   125370413.917    24076066.715  
                 114819037.745                   114819037.745    22049786.859  
                 134695915.069                   134695915.069    25866943.065  
                 120737085.026                   120737085.026    23186323.300  
  26106768.082   137191939.296                                                  
  27659268.324   145350425.777                                                  
  23367701.174   122798082.074                                                  
  23469574.814   123333415.930                                                  
  25140780.334   132115668.104                                                  
 21  8 31  3  5 30.0000000  0 17G 3G 4G16G22G26G27G31C23C24C25C32C33
                                E 1E 4E19E21E27
  21634680.003   113690973.278    21634683.184    88590359.047                  
  21835902.213   114748431.695    21835903.768    89414361.578                  
  20331961.042   106845174.409    20331960.702    83255979.812                  
  22496847.639   118221740.362    22496846.120    92120839.493                  
  20415830.141   107285856.911    20415833.446    83599355.618                  
  24543571.747   128977287.825    24543574.982   100501770.703                  
  22596428.344   118745042.747    22596428.166    92528606.608                  
                 127929311.814                   127929311.814    24567474.818  
                 125372685.785                   125372685.785    24076503.023  
                 114818976.973                   114818976.973    22049775.209  
                 134693068.271                   134693068.271    25866396.362  
                 120739590.484                   120739590.484    23186804.441  
  26106321.607   137189593.011                                                  
  27658763.864   145347774.855                                                  
  23367536.261   122797215.438                                                  
  23469521.100   123333133.647                                                  
  25141186.121   132117800.492                                                  
 21  8 31  3  5 31.0000000  0 17G 3G 4G16G22G26G27G31C23C24C25C32C33
                                E 1E 4E19E21E27
  21634947.252   113692377.761    21634950.469    88591453.449                  
  21835424.806   114745922.821    21835426.325    89412406.613                  
  20331666.185   106843624.903    20331665.845    83254772.407                  
  22497289.772   118224063.765    22497288.253    92122649.938                  
  20416069.675   107287115.725    20416072.981    83600336.512                  
  24542914.739   128973835.318    24542917.991   100499080.437                  
  22596876.428   118747397.413    22596876.231    92530441.413                  
                 127927220.766                   127927220.766    24567073.265  
                 125374957.723                   125374957.723    24076939.313  
                 114818916.474                   114818916.474    22049763.576  
                 134690221.702                   134690221.702    25865849.695  
                 120742096.306                   120742096.306    23187285.654  
  26105875.167   137187246.961                                                  
  27658259.403   145345123.939                                                  
  23367371.401   122796349.095                                                  
  23469467.457   123332851.738                                                  
  25141591.945   132119933.058                                                  
 21  8 31  3  5 32.0000000  0 17G 3G 4G16G22G26G27G31C23C24C25C32C33
                                E 1E 4E19E21E27
  21635214.644   113693782.845    21635217.843    88592548.316                  
  21834947.418   114743414.167    21834948.937    89410451.815                  
  20331371.435   106842076.051    20331371.096    83253565.507                  
  22497731.977   118226387.534    22497730.458    92124460.668                  
  20416309.316   107288375.102    20416312.640    83601317.845                  
  24542257.749   128970382.731    24542261.001   100496390.105                  
  22597324.511   118749752.164    22597324.333    92532276.286                  
                 127925129.929                   127925129.929    24566671.748  
                 125377229.728                   125377229.728    24077375.639  
                 114818856.251                   114818856.251    22049751.997  
                 134687375.369                   134687375.369    25865303.099  
                 120744602.491                   120744602.491    23187766.938  
  26105428.763   137184901.160                                                  
  27657754.961   145342473.052                                                  
  23367206.595   122795483.086                                                  
  23469413.886   123332570.207                                                  
  25141997.804   132122065.804                                                  
 21  8 31  3  5 33.0000000  0 17G 3G 4G16G22G26G27G31C23C24C25C32C33
                                E 1E 4E19E21E27
  21635482.144   113695188.510    21635485.324    88593643.642                  
  21834470.082   114740905.747    21834471.601    89408497.203                  
  20331076.829   106840527.857    20331076.507    83252359.122                  
