% program   : rnx2rtkp ver.2.4.3 b31
% inp file  : ngs/21_09_01_10_42_43_msme.obs
% inp file  : ngs/21_09_01_10_42_43_msme_SW.obs
% inp file  : ngs/21_09_01_10_42_43_brdc.nav
% obs start : 2021/09/01 10:00:00.0 GPST (week2173 295200.0s)
% obs end   : 2021/09/01 10:59:59.0 GPST (week2173 298799.0s)
% ref pos   :   120451.4560  -5443708.0665   3310388.7644
%
% (x/y/z-ecef=WGS84,Q=1:fix,2:float,3:sbas,4:dgps,5:single,6:ppp,ns=# of satellites)
%  GPST              x-ecef(m)      y-ecef(m)      z-ecef(m)   Q  ns   sdx(m)   sdy(m)   sdz(m)  sdxy(m)  sdyz(m)  sdzx(m) age(s)  ratio
2173 297738.000    119286.7426  -5391117.8773   3394977.3556   2   6   0.6697   1.3316   0.6881  -0.4720  -0.8208   0.1435 -30.00    1.5
2173 297739.000    119286.6122  -5391117.7570   3394977.3914   2   6   0.4760   0.9482   0.4894  -0.3343  -0.5842   0.1008 -29.00    1.3
2173 297740.000    119286.7029  -5391117.8021   3394977.4084   2   6   0.3897   0.7765   0.4007  -0.2737  -0.4784   0.0825 -28.00    1.5
2173 297741.000    119286.6608  -5391117.5776   3394977.3190   2   6   0.3382   0.6736   0.3476  -0.2375  -0.4151   0.0718 -27.00    1.5
2173 297742.000    119286.6833  -5391117.5455   3394977.3237   2   6   0.3030   0.6033   0.3113  -0.2129  -0.3717   0.0644 -26.00    1.6
2173 297743.000    119286.6882  -5391117.5118   3394977.2999   2   6   0.2770   0.5512   0.2845  -0.1947  -0.3396   0.0590 -25.00    1.6
2173 297744.000    119286.7072  -5391117.5795   3394977.3279   2   6   0.2567   0.5107   0.2636  -0.1804  -0.3147   0.0548 -24.00    1.6
2173 297745.000    119286.7217  -5391117.6550   3394977.3640   2   6   0.2403   0.4779   0.2467  -0.1689  -0.2945   0.0514 -23.00    1.5
2173 297746.000    119286.7407  -5391117.7348   3394977.4171   2   6   0.2267   0.4507   0.2327  -0.1594  -0.2777   0.0485 -22.00    1.5
2173 297747.000    119286.7269  -5391117.7148   3394977.4127   2   6   0.2151   0.4277   0.2208  -0.1512  -0.2635   0.0460 -21.00    1.5
2173 297748.000    119286.7379  -5391117.7366   3394977.4150   2   6   0.2052   0.4078   0.2105  -0.1442  -0.2513   0.0439 -20.00    1.5
2173 297749.000    119286.7122  -5391117.7536   3394977.4301   2   6   0.1964   0.3904   0.2016  -0.1380  -0.2405   0.0420 -19.00    1.4
2173 297750.000    119286.7186  -5391117.8110   3394977.4446   2   6   0.1887   0.3750   0.1936  -0.1326  -0.2311   0.0403 -18.00    1.4
2173 297751.000    119286.7313  -5391117.8700   3394977.4667   2   6   0.1818   0.3613   0.1865  -0.1277  -0.2226   0.0388 -17.00    1.3
2173 297752.000    119286.7467  -5391117.9134   3394977.4800   2   6   0.1756   0.3489   0.1802  -0.1232  -0.2150   0.0374 -16.00    1.3
2173 297753.000    119286.7428  -5391117.9190   3394977.4772   2   6   0.1699   0.3377   0.1744  -0.1192  -0.2081   0.0362 -15.00    1.2
2173 297754.000    119286.7441  -5391117.9336   3394977.4865   2   6   0.1647   0.3274   0.1691  -0.1155  -0.2017   0.0350 -14.00    1.2
2173 297755.000    119286.7262  -5391117.9291   3394977.4869   2   6   0.1600   0.3181   0.1642  -0.1121  -0.1960   0.0339 -13.00    1.2
2173 297756.000    119286.7237  -5391117.9697   3394977.5021   2   6   0.1556   0.3094   0.1598  -0.1090  -0.1906   0.0329 -12.00    1.1
2173 297757.000    119286.6909  -5391117.9827   3394977.5096   2   6   0.1516   0.3014   0.1556  -0.1061  -0.1857   0.0320 -11.00    1.1
2173 297758.000    119286.6859  -5391118.0008   3394977.5182   2   6   0.1478   0.2939   0.1518  -0.1034  -0.1811   0.0311 -10.00    1.1
2173 297759.000    119286.6855  -5391118.0191   3394977.5300   2   6   0.1443   0.2870   0.1482  -0.1008  -0.1768   0.0303  -9.00    1.1
2173 297760.000    119286.6838  -5391118.0395   3394977.5345   2   6   0.1411   0.2805   0.1448  -0.0985  -0.1728   0.0295  -8.00    1.1
2173 297761.000    119286.6869  -5391118.0570   3394977.5432   2   6   0.1380   0.2744   0.1417  -0.0963  -0.1690   0.0288  -7.00    1.1
2173 297762.000    119286.6893  -5391118.0701   3394977.5409   2   6   0.1351   0.2687   0.1387  -0.0942  -0.1654   0.0282  -6.00    1.1
2173 297763.000    119286.6920  -5391118.0730   3394977.5440   2   6   0.1324   0.2633   0.1359  -0.0923  -0.1621   0.0276  -5.00    1.1
2173 297764.000    119286.6865  -5391118.0699   3394977.5378   2   6   0.1299   0.2582   0.1333  -0.0905  -0.1589   0.0270  -4.00    1.1
2173 297765.000    119286.6811  -5391118.0723   3394977.5390   2   6   0.1275   0.2533   0.1308  -0.0888  -0.1560   0.0265  -3.00    1.1
2173 297766.000    119286.6748  -5391118.0723   3394977.5397   2   6   0.1252   0.2488   0.1285  -0.0872  -0.1531   0.0260  -2.00    1.1
2173 297767.000    119286.6776  -5391118.0893   3394977.5442   2   6   0.1231   0.2444   0.1262  -0.0857  -0.1504   0.0255  -1.00    1.0
2173 297768.000    119286.6765  -5391118.0830   3394977.5423   2   6   0.1211   0.2404   0.1241  -0.0843  -0.1479   0.0251   0.00    1.1
2173 297769.000    119286.6813  -5391118.0724   3394977.5347   2   6   0.1192   0.2365   0.1221  -0.0829  -0.1455   0.0247   0.00    1.1
2173 297770.000    119286.6770  -5391118.0652   3394977.5317   2   6   0.1174   0.2327   0.1202  -0.0816  -0.1432   0.0243   0.00    1.1
2173 297771.000    119286.6772  -5391118.0587   3394977.5300   2   6   0.1156   0.2292   0.1184  -0.0804  -0.1410   0.0241   0.00    1.1
2173 297772.000    119286.6849  -5391118.0327   3394977.5182   2   6   0.1140   0.2258   0.1166  -0.0793  -0.1388   0.0237   0.00    1.2
2173 297773.000    119286.6899  -5391118.0229   3394977.5153   2   6   0.1124   0.2225   0.1149  -0.0782  -0.1368   0.0233   0.00    1.2
2173 297774.000    119286.6917  -5391118.0091   3394977.5030   2   6   0.1108   0.2194   0.1133  -0.0771  -0.1349   0.0230   0.00    1.2
2173 297775.000    119286.6909  -5391117.9973   3394977.4990   2   6   0.1094   0.2163   0.1117  -0.0761  -0.1330   0.0227   0.00    1.2
2173 297776.000    119286.6901  -5391117.9918   3394977.4936   2   6   0.1080   0.2134   0.1102  -0.0751  -0.1311   0.0225   0.00    1.2
2173 297777.000    119286.6944  -5391117.9923   3394977.4962   2   6   0.1066   0.2106   0.1088  -0.0741  -0.1294   0.0222   0.00    1.2
2173 297778.000    119286.6990  -5391117.9922   3394977.4932   2   6   0.1053   0.2079   0.1074  -0.0732  -0.1277   0.0220   0.00    1.1
2173 297779.000    119286.7004  -5391117.9764   3394977.4877   2   6   0.1041   0.2052   0.1060  -0.0723  -0.1260   0.0217   0.00    1.1
2173 297780.000    119286.7125  -5391117.9599   3394977.4812   2   6   0.1028   0.2027   0.1047  -0.0715  -0.1244   0.0214   0.00    1.1
2173 297781.000    119286.7228  -5391117.9285   3394977.4670   2   7   0.1013   0.1996   0.1031  -0.0716  -0.1223   0.0227   0.00    1.1
2173 297782.000    119286.7226  -5391117.9053   3394977.4579   2   7   0.0999   0.1966   0.1015  -0.0717  -0.1203   0.0239   0.00    1.2
2173 297783.000    119286.7280  -5391117.8708   3394977.4487   2   7   0.0985   0.1937   0.1001  -0.0716  -0.1184   0.0247   0.00    1.2
2173 297784.000    119286.7315  -5391117.8479   3394977.4399   2   7   0.0973   0.1910   0.0987  -0.0715  -0.1166   0.0254   0.00    1.2
2173 297785.000    119286.7438  -5391117.8166   3394977.4192   2   7   0.0960   0.1884   0.0973  -0.0714  -0.1149   0.0260   0.00    1.2
2173 297786.000    119286.7550  -5391117.7798   3394977.4043   2   7   0.0948   0.1858   0.0960  -0.0712  -0.1132   0.0265   0.00    1.2
2173 297787.000    119286.7580  -5391117.7511   3394977.3948   2   7   0.0937   0.1834   0.0948  -0.0710  -0.1116   0.0270   0.00    1.2
2173 297788.000    119286.7591  -5391117.7182   3394977.3784   2   7   0.0926   0.1811   0.0935  -0.0707  -0.1100   0.0274   0.00    1.2
2173 297789.000    119286.7601  -5391117.7012   3394977.3744   2   7   0.0915   0.1788   0.0924  -0.0705  -0.1085   0.0276   0.00    1.2
2173 297790.000    119286.7583  -5391117.6894   3394977.3738   2   7   0.0905   0.1766   0.0912  -0.0702  -0.1071   0.0279   0.00    1.1
2173 297791.000    119286.7670  -5391117.6737   3394977.3659   2   7   0.0895   0.1745   0.0901  -0.0699  -0.1057   0.0281   0.00    1.1
2173 297792.000    119286.7726  -5391117.6638   3394977.3566   2   7   0.0885   0.1724   0.0891  -0.0696  -0.1043   0.0282   0.00    1.1
2173 297793.000    119286.7773  -5391117.6558   3394977.3527   2   7   0.0876   0.1704   0.0880  -0.0693  -0.1030   0.0284   0.00    1.1
2173 297794.000    119286.7798  -5391117.6488   3394977.3490   2   7   0.0867   0.1685   0.0870  -0.0689  -0.1017   0.0284   0.00    1.1
2173 297795.000    119286.7817  -5391117.6281   3394977.3392   2   7   0.0859   0.1666   0.0860  -0.0686  -0.1004   0.0285   0.00    1.1
2173 297796.000    119286.7857  -5391117.6245   3394977.3350   2   7   0.0850   0.1648   0.0851  -0.0683  -0.0992   0.0286   0.00    1.1
2173 297797.000    119286.7888  -5391117.6103   3394977.3287   2   7   0.0842   0.1630   0.0841  -0.0679  -0.0980   0.0286   0.00    1.1
2173 297798.000    119286.7802  -5391117.6127   3394977.3290   2   7   0.0834   0.1612   0.0833  -0.0676  -0.0969   0.0287   0.00    1.0
2173 297799.000    119286.7836  -5391117.6307   3394977.3365   2   7   0.0827   0.1595   0.0823  -0.0672  -0.0957   0.0287   0.00    1.0
2173 297800.000    119286.7886  -5391117.6482   3394977.3423   2   7   0.0819   0.1579   0.0815  -0.0669  -0.0946   0.0287   0.00    1.1
2173 297801.000    119286.7926  -5391117.6577   3394977.3461   2   7   0.0812   0.1563   0.0806  -0.0665  -0.0935   0.0286   0.00    1.1
2173 297802.000    119286.7948  -5391117.6713   3394977.3518   2   7   0.0805   0.1547   0.0798  -0.0662  -0.0925   0.0286   0.00    1.2
2173 297803.000    119286.7972  -5391117.6716   3394977.3544   2   7   0.0798   0.1531   0.0790  -0.0658  -0.0914   0.0285   0.00    1.2
2173 297804.000    119286.8017  -5391117.6825   3394977.3569   2   7   0.0791   0.1516   0.0782  -0.0655  -0.0904   0.0285   0.00    1.2
2173 297805.000    119286.8059  -5391117.6894   3394977.3596   2   7   0.0785   0.1501   0.0774  -0.0651  -0.0894   0.0284   0.00    1.2
2173 297806.000    119286.8051  -5391117.6954   3394977.3596   2   7   0.0778   0.1487   0.0766  -0.0647  -0.0885   0.0283   0.00    1.2
2173 297807.000    119286.8096  -5391117.6981   3394977.3575   2   7   0.0772   0.1472   0.0759  -0.0644  -0.0875   0.0283   0.00    1.3
2173 297808.000    119286.8133  -5391117.7113   3394977.3587   2   7   0.0766   0.1458   0.0751  -0.0640  -0.0866   0.0282   0.00    1.3
2173 297809.000    119286.8189  -5391117.7196   3394977.3631   2   7   0.0760   0.1445   0.0744  -0.0637  -0.0856   0.0281   0.00    1.3
2173 297810.000    119286.8270  -5391117.7303   3394977.3706   2   7   0.0755   0.1431   0.0737  -0.0633  -0.0847   0.0280   0.00    1.3
2173 297811.000    119286.8304  -5391117.7484   3394977.3798   2   7   0.0749   0.1418   0.0730  -0.0630  -0.0838   0.0279   0.00    1.3
2173 297812.000    119286.8353  -5391117.7607   3394977.3843   2   7   0.0743   0.1405   0.0723  -0.0626  -0.0830   0.0279   0.00    1.3
2173 297813.000    119286.8403  -5391117.7665   3394977.3876   2   7   0.0738   0.1393   0.0716  -0.0623  -0.0821   0.0277   0.00    1.3
2173 297814.000    119286.8447  -5391117.7753   3394977.3941   2   7   0.0733   0.1380   0.0710  -0.0619  -0.0812   0.0276   0.00    1.3
2173 297815.000    119286.8478  -5391117.7831   3394977.3989   2   7   0.0728   0.1368   0.0703  -0.0616  -0.0804   0.0276   0.00    1.3
2173 297816.000    119286.8483  -5391117.7842   3394977.4007   2   7   0.0723   0.1356   0.0697  -0.0613  -0.0796   0.0274   0.00    1.3
2173 297817.000    119286.8504  -5391117.7911   3394977.4016   2   7   0.0718   0.1344   0.0690  -0.0609  -0.0788   0.0273   0.00    1.3
2173 297818.000    119286.8529  -5391117.7951   3394977.4047   2   7   0.0713   0.1332   0.0684  -0.0606  -0.0780   0.0271   0.00    1.3
2173 297819.000    119286.8528  -5391117.8057   3394977.4088   2   7   0.0708   0.1321   0.0678  -0.0603  -0.0772   0.0271   0.00    1.3
2173 297820.000    119286.8556  -5391117.8190   3394977.4121   2   7   0.0703   0.1310   0.0672  -0.0599  -0.0764   0.0269   0.00    1.3
2173 297821.000    119286.8558  -5391117.8278   3394977.4167   2   7   0.0699   0.1298   0.0666  -0.0596  -0.0757   0.0267   0.00    1.3
2173 297822.000    119286.8595  -5391117.8406   3394977.4235   2   7   0.0694   0.1288   0.0660  -0.0593  -0.0749   0.0266   0.00    1.3
2173 297823.000    119286.8611  -5391117.8496   3394977.4274   2   7   0.0690   0.1277   0.0654  -0.0590  -0.0742   0.0265   0.00    1.3
2173 297824.000    119286.8648  -5391117.8622   3394977.4312   2   7   0.0686   0.1266   0.0648  -0.0586  -0.0734   0.0263   0.00    1.3
2173 297825.000    119286.8515  -5391117.8840   3394977.4280   2   7   0.0682   0.1256   0.0643  -0.0583  -0.0727   0.0262   0.00    1.3
2173 297826.000    119286.8525  -5391117.8983   3394977.4339   2   7   0.0678   0.1246   0.0637  -0.0580  -0.0720   0.0261   0.00    1.3
2173 297827.000    119286.8571  -5391117.9154   3394977.4402   2   7   0.0673   0.1235   0.0632  -0.0577  -0.0713   0.0260   0.00    1.3
2173 297828.000    119286.8626  -5391117.9250   3394977.4437   2   7   0.0669   0.1225   0.0626  -0.0574  -0.0706   0.0258   0.00    1.3
2173 297829.000    119286.8631  -5391117.9359   3394977.4489   2   7   0.0666   0.1216   0.0621  -0.0571  -0.0699   0.0257   0.00    1.4
2173 297830.000    119286.8653  -5391117.9431   3394977.4526   2   7   0.0662   0.1206   0.0616  -0.0568  -0.0692   0.0256   0.00    1.4
2173 297831.000    119286.8684  -5391117.9585   3394977.4589   2   7   0.0658   0.1196   0.0610  -0.0565  -0.0685   0.0253   0.00    1.3
2173 297832.000    119286.8748  -5391117.9722   3394977.4652   2   7   0.0654   0.1187   0.0605  -0.0562  -0.0679   0.0253   0.00    1.3
2173 297833.000    119286.8755  -5391117.9902   3394977.4730   2   7   0.0650   0.1178   0.0600  -0.0559  -0.0672   0.0250   0.00    1.3
2173 297834.000    119286.8787  -5391118.0017   3394977.4777   2   7   0.0647   0.1169   0.0595  -0.0556  -0.0666   0.0250   0.00    1.3
2173 297835.000    119286.8787  -5391118.0005   3394977.4799   2   7   0.0643   0.1160   0.0590  -0.0553  -0.0659   0.0248   0.00    1.3
2173 297836.000    119286.8817  -5391118.0058   3394977.4840   2   7   0.0640   0.1151   0.0585  -0.0550  -0.0653   0.0247   0.00    1.3
2173 297837.000    119286.8842  -5391118.0165   3394977.4885   2   7   0.0636   0.1142   0.0580  -0.0547  -0.0647   0.0246   0.00    1.3
2173 297838.000    119286.8807  -5391118.0205   3394977.4930   2   7   0.0633   0.1133   0.0576  -0.0545  -0.0641   0.0244   0.00    1.3
2173 297839.000    119286.8861  -5391118.0292   3394977.4944   2   7   0.0630   0.1125   0.0571  -0.0542  -0.0635   0.0243   0.00    1.3
2173 297840.000    119286.8891  -5391118.0408   3394977.4976   2   7   0.0627   0.1116   0.0566  -0.0539  -0.0629   0.0242   0.00    1.3
2173 297841.000    119286.8855  -5391118.0446   3394977.4985   2   7   0.0623   0.1108   0.0562  -0.0536  -0.0623   0.0240   0.00    1.3
2173 297842.000    119286.8893  -5391118.0504   3394977.5031   2   7   0.0620   0.1100   0.0557  -0.0534  -0.0617   0.0239   0.00    1.3
2173 297843.000    119286.8921  -5391118.0611   3394977.5062   2   7   0.0617   0.1092   0.0553  -0.0531  -0.0611   0.0237   0.00    1.3
2173 297844.000    119286.8980  -5391118.0694   3394977.5100   2   7   0.0614   0.1084   0.0549  -0.0529  -0.0605   0.0236   0.00    1.3
2173 297845.000    119286.8958  -5391118.0745   3394977.5137   2   7   0.0611   0.1076   0.0544  -0.0526  -0.0600   0.0235   0.00    1.3
2173 297846.000    119286.8975  -5391118.0866   3394977.5189   2   7   0.0608   0.1068   0.0540  -0.0523  -0.0594   0.0233   0.00    1.3
2173 297847.000    119286.8929  -5391118.0843   3394977.5224   2   7   0.0605   0.1060   0.0535  -0.0521  -0.0589   0.0232   0.00    1.3
2173 297848.000    119286.8986  -5391118.0952   3394977.5225   2   7   0.0602   0.1053   0.0531  -0.0518  -0.0583   0.0231   0.00    1.3
2173 297849.000    119286.8983  -5391118.1055   3394977.5264   2   7   0.0599   0.1045   0.0527  -0.0516  -0.0578   0.0229   0.00    1.2
2173 297850.000    119286.8971  -5391118.1132   3394977.5301   2   7   0.0596   0.1038   0.0523  -0.0513  -0.0572   0.0228   0.00    1.2
2173 297851.000    119286.8914  -5391118.1145   3394977.5307   2   7   0.0593   0.1030   0.0519  -0.0511  -0.0567   0.0227   0.00    1.2
2173 297852.000    119286.8857  -5391118.1136   3394977.5332   2   7   0.0591   0.1023   0.0515  -0.0508  -0.0561   0.0225   0.00    1.2
2173 297853.000    119286.8835  -5391118.1200   3394977.5374   2   7   0.0588   0.1016   0.0511  -0.0506  -0.0556   0.0224   0.00    1.2
2173 297854.000    119286.8854  -5391118.1316   3394977.5404   2   7   0.0585   0.1009   0.0507  -0.0503  -0.0551   0.0223   0.00    1.2
2173 297855.000    119286.8827  -5391118.1317   3394977.5394   2   7   0.0583   0.1002   0.0503  -0.0501  -0.0546   0.0221   0.00    1.2
2173 297856.000    119286.8871  -5391118.1457   3394977.5411   2   7   0.0580   0.0995   0.0499  -0.0498  -0.0541   0.0220   0.00    1.2
2173 297857.000    119286.8754  -5391118.1158   3394977.5263   2   7   0.0577   0.0988   0.0495  -0.0496  -0.0536   0.0219   0.00    1.2
2173 297858.000    119286.8776  -5391118.1306   3394977.5277   2   7   0.0575   0.0982   0.0491  -0.0494  -0.0531   0.0217   0.00    1.2
2173 297859.000    119286.8749  -5391118.1388   3394977.5301   2   7   0.0572   0.0975   0.0488  -0.0492  -0.0526   0.0216   0.00    1.2
2173 297860.000    119286.8754  -5391118.1554   3394977.5386   2   7   0.0570   0.0969   0.0484  -0.0489  -0.0521   0.0215   0.00    1.2
2173 297861.000    119286.8738  -5391118.1729   3394977.5457   2   7   0.0567   0.0962   0.0480  -0.0487  -0.0517   0.0214   0.00    1.1
2173 297862.000    119286.8709  -5391118.1859   3394977.5513   2   7   0.0565   0.0956   0.0477  -0.0485  -0.0512   0.0212   0.00    1.1
2173 297863.000    119286.8684  -5391118.2027   3394977.5584   2   7   0.0563   0.0949   0.0473  -0.0483  -0.0507   0.0212   0.00    1.1
2173 297864.000    119286.8688  -5391118.2218   3394977.5646   2   7   0.0560   0.0943   0.0469  -0.0481  -0.0502   0.0210   0.00    1.1
2173 297865.000    119286.8753  -5391118.2410   3394977.5691   2   7   0.0558   0.0937   0.0466  -0.0478  -0.0498   0.0209   0.00    1.1
2173 297866.000    119286.8750  -5391118.2542   3394977.5757   2   7   0.0556   0.0931   0.0463  -0.0476  -0.0493   0.0208   0.00    1.1
2173 297867.000    119286.8825  -5391118.2752   3394977.5804   2   7   0.0554   0.0925   0.0459  -0.0474  -0.0489   0.0206   0.00    1.1
2173 297868.000    119286.8844  -5391118.2860   3394977.5829   2   7   0.0551   0.0919   0.0456  -0.0472  -0.0485   0.0206   0.00    1.1
2173 297869.000    119286.8898  -5391118.3049   3394977.5859   2   7   0.0549   0.0913   0.0452  -0.0470  -0.0480   0.0203   0.00    1.1
2173 297870.000    119286.8962  -5391118.3227   3394977.5903   2   7   0.0547   0.0907   0.0449  -0.0468  -0.0476   0.0203   0.00    1.1
2173 297871.000    119286.9045  -5391118.3432   3394977.5957   2   7   0.0545   0.0902   0.0446  -0.0466  -0.0472   0.0202   0.00    1.1
2173 297872.000    119286.9087  -5391118.3587   3394977.5981   2   7   0.0543   0.0896   0.0443  -0.0464  -0.0467   0.0201   0.00    1.1
2173 297873.000    119286.9131  -5391118.3769   3394977.6061   2   7   0.0541   0.0890   0.0440  -0.0462  -0.0463   0.0200   0.00    1.1
2173 297874.000    119286.9199  -5391118.3863   3394977.6084   2   7   0.0539   0.0885   0.0437  -0.0460  -0.0459   0.0199   0.00    1.0
2173 297875.000    119286.9245  -5391118.4004   3394977.6116   2   7   0.0536   0.0879   0.0433  -0.0458  -0.0455   0.0197   0.00    1.0
2173 297876.000    119286.9280  -5391118.4128   3394977.6156   2   7   0.0534   0.0874   0.0430  -0.0456  -0.0451   0.0197   0.00    1.0
2173 297877.000    119286.9287  -5391118.4170   3394977.6192   2   7   0.0533   0.0869   0.0427  -0.0454  -0.0447   0.0195   0.00    1.0
2173 297878.000    119286.9292  -5391118.4252   3394977.6207   2   7   0.0530   0.0863   0.0424  -0.0452  -0.0443   0.0193   0.00    1.0
2173 297879.000    119286.9353  -5391118.4362   3394977.6241   2   7   0.0528   0.0858   0.0421  -0.0451  -0.0439   0.0193   0.00    1.0
2173 297880.000    119286.9382  -5391118.4420   3394977.6267   2   7   0.0526   0.0853   0.0418  -0.0449  -0.0435   0.0192   0.00    1.0
2173 297881.000    119286.9399  -5391118.4409   3394977.6275   2   7   0.0525   0.0848   0.0416  -0.0447  -0.0431   0.0191   0.00    1.0
2173 297882.000    119286.9417  -5391118.4466   3394977.6261   2   7   0.0523   0.0843   0.0413  -0.0445  -0.0427   0.0190   0.00    1.0
2173 297883.000    119286.9419  -5391118.4479   3394977.6257   2   7   0.0521   0.0838   0.0409  -0.0443  -0.0423   0.0188   0.00    1.0
2173 297884.000    119286.9464  -5391118.4545   3394977.6259   2   7   0.0519   0.0833   0.0407  -0.0441  -0.0420   0.0187   0.00    1.0
2173 297885.000    119286.9471  -5391118.4594   3394977.6245   2   7   0.0517   0.0828   0.0404  -0.0440  -0.0416   0.0187   0.00    1.0
2173 297886.000    119286.9468  -5391118.4562   3394977.6215   2   7   0.0515   0.0823   0.0401  -0.0438  -0.0412   0.0185   0.00    1.0
2173 297887.000    119286.9470  -5391118.4565   3394977.6192   2   7   0.0513   0.0819   0.0399  -0.0436  -0.0408   0.0183   0.00    1.0
2173 297888.000    119286.9486  -5391118.4574   3394977.6189   2   7   0.0512   0.0814   0.0396  -0.0434  -0.0405   0.0183   0.00    1.0
2173 297889.000    119286.9487  -5391118.4565   3394977.6178   2   7   0.0510   0.0809   0.0393  -0.0433  -0.0402   0.0182   0.00    1.0
2173 297890.000    119286.9488  -5391118.4522   3394977.6157   2   7   0.0508   0.0805   0.0391  -0.0431  -0.0398   0.0182   0.00    1.0
2173 297891.000    119286.9490  -5391118.4475   3394977.6101   2   7   0.0506   0.0800   0.0388  -0.0429  -0.0395   0.0181   0.00    1.0
2173 297892.000    119286.9495  -5391118.4478   3394977.6100   2   7   0.0505   0.0796   0.0385  -0.0428  -0.0391   0.0179   0.00    1.0
2173 297893.000    119286.9494  -5391118.4444   3394977.6065   2   7   0.0503   0.0791   0.0383  -0.0426  -0.0387   0.0179   0.00    1.0
2173 297894.000    119286.9493  -5391118.4412   3394977.6052   2   7   0.0501   0.0787   0.0381  -0.0424  -0.0384   0.0177   0.00    1.0
2173 297895.000    119286.9520  -5391118.4436   3394977.6030   2   7   0.0500   0.0783   0.0378  -0.0423  -0.0381   0.0176   0.00    1.0
2173 297896.000    119286.9529  -5391118.4481   3394977.6004   2   7   0.0498   0.0778   0.0376  -0.0422  -0.0378   0.0176   0.00    1.0
2173 297897.000    119286.9562  -5391118.4473   3394977.5979   2   7   0.0496   0.0774   0.0372  -0.0420  -0.0374   0.0174   0.00    1.0
2173 297898.000    119286.9568  -5391118.4502   3394977.6006   2   7   0.0495   0.0770   0.0371  -0.0418  -0.0371   0.0174   0.00    1.0
2173 297899.000    119286.9604  -5391118.4429   3394977.5978   2   7   0.0493   0.0766   0.0368  -0.0417  -0.0368   0.0173   0.00    1.0
2173 297900.000    119286.9657  -5391118.4489   3394977.5978   2   7   0.0492   0.0761   0.0366  -0.0415  -0.0365   0.0172   0.00    1.0
2173 297901.000    119286.9658  -5391118.4457   3394977.5945   2   7   0.0490   0.0757   0.0363  -0.0414  -0.0361   0.0171   0.00    1.0
2173 297902.000    119286.9670  -5391118.4383   3394977.5944   2   7   0.0488   0.0754   0.0361  -0.0412  -0.0358   0.0169   0.00    1.0
2173 297903.000    119286.9654  -5391118.4282   3394977.5896   2   7   0.0487   0.0749   0.0358  -0.0410  -0.0355   0.0168   0.00    1.0
2173 297904.000    119286.9640  -5391118.4167   3394977.5849   2   7   0.0485   0.0746   0.0357  -0.0409  -0.0352   0.0169   0.00    1.0
2173 297905.000    119286.9635  -5391118.4126   3394977.5828   2   7   0.0484   0.0742   0.0354  -0.0407  -0.0349   0.0167   0.00    1.0
2173 297906.000    119286.9598  -5391118.4044   3394977.5801   2   7   0.0482   0.0738   0.0352  -0.0406  -0.0346   0.0166   0.00    1.0
2173 297907.000    119286.9581  -5391118.3992   3394977.5757   2   7   0.0481   0.0734   0.0349  -0.0405  -0.0343   0.0164   0.00    1.0
2173 297908.000    119286.9634  -5391118.3977   3394977.5706   2   7   0.0480   0.0730   0.0348  -0.0403  -0.0340   0.0165   0.00    1.0
2173 297909.000    119286.9639  -5391118.3919   3394977.5676   2   7   0.0478   0.0726   0.0345  -0.0402  -0.0338   0.0165   0.00    1.0
2173 297910.000    119286.9639  -5391118.3853   3394977.5642   2   7   0.0476   0.0723   0.0343  -0.0401  -0.0334   0.0162   0.00    1.0
2173 297911.000    119286.9641  -5391118.3836   3394977.5615   2   7   0.0475   0.0719   0.0340  -0.0399  -0.0332   0.0162   0.00    1.0
2173 297912.000    119286.9639  -5391118.3727   3394977.5584   2   7   0.0474   0.0716   0.0339  -0.0398  -0.0329   0.0161   0.00    1.0
2173 297913.000    119286.9614  -5391118.3705   3394977.5606   2   7   0.0472   0.0712   0.0337  -0.0396  -0.0326   0.0161   0.00    1.1
2173 297914.000    119286.9635  -5391118.3703   3394977.5572   2   7   0.0471   0.0709   0.0335  -0.0395  -0.0323   0.0159   0.00    1.1
2173 297915.000    119286.9653  -5391118.3679   3394977.5574   2   7   0.0470   0.0705   0.0333  -0.0394  -0.0321   0.0159   0.00    1.1
2173 297916.000    119286.9658  -5391118.3603   3394977.5552   2   7   0.0468   0.0702   0.0330  -0.0392  -0.0318   0.0158   0.00    1.1
2173 297917.000    119286.9634  -5391118.3612   3394977.5568   2   7   0.0467   0.0698   0.0329  -0.0391  -0.0315   0.0158   0.00    1.1
2173 297918.000    119286.9694  -5391118.3631   3394977.5505   2   7   0.0465   0.0695   0.0326  -0.0390  -0.0312   0.0155   0.00    1.1
2173 297919.000    119286.9673  -5391118.3549   3394977.5481   2   7   0.0464   0.0692   0.0324  -0.0388  -0.0310   0.0156   0.00    1.1
2173 297920.000    119286.9638  -5391118.3460   3394977.5416   2   7   0.0463   0.0688   0.0323  -0.0387  -0.0307   0.0155   0.00    1.0
2173 297921.000    119286.9597  -5391118.3332   3394977.5359   2   7   0.0462   0.0685   0.0322  -0.0386  -0.0305   0.0155   0.00    1.0
2173 297922.000    119286.9590  -5391118.3309   3394977.5322   2   7   0.0460   0.0682   0.0319  -0.0385  -0.0302   0.0153   0.00    1.0
2173 297923.000    119286.9509  -5391118.3099   3394977.5220   2   7   0.0459   0.0679   0.0317  -0.0383  -0.0300   0.0153   0.00    1.0
2173 297924.000    119286.9542  -5391118.3096   3394977.5209   2   7   0.0458   0.0675   0.0316  -0.0382  -0.0297   0.0152   0.00    1.0
2173 297925.000    119286.9479  -5391118.2977   3394977.5174   2   7   0.0456   0.0672   0.0314  -0.0381  -0.0295   0.0152   0.00    1.0
2173 297926.000    119286.9445  -5391118.2933   3394977.5149   2   7   0.0455   0.0669   0.0312  -0.0380  -0.0292   0.0151   0.00    1.0
2173 297927.000    119286.9436  -5391118.2869   3394977.5122   2   7   0.0454   0.0666   0.0310  -0.0379  -0.0290   0.0148   0.00    1.0
2173 297928.000    119286.9390  -5391118.2787   3394977.5064   2   7   0.0453   0.0663   0.0309  -0.0378  -0.0288   0.0149   0.00    1.0
2173 297929.000    119286.9355  -5391118.2723   3394977.5020   2   7   0.0451   0.0660   0.0307  -0.0376  -0.0285   0.0148   0.00    1.0
2173 297930.000    119286.9355  -5391118.2705   3394977.5023   2   7   0.0450   0.0657   0.0305  -0.0375  -0.0283   0.0147   0.00    1.0
2173 297931.000    119286.9341  -5391118.2625   3394977.4974   2   7   0.0449   0.0654   0.0303  -0.0374  -0.0280   0.0146   0.00    1.0
2173 297932.000    119286.9320  -5391118.2605   3394977.4969   2   7   0.0448   0.0651   0.0301  -0.0373  -0.0278   0.0146   0.00    1.0
2173 297933.000    119286.9287  -5391118.2588   3394977.4963   2   7   0.0447   0.0648   0.0300  -0.0372  -0.0276   0.0146   0.00    1.0
2173 297934.000    119286.9289  -5391118.2540   3394977.4904   2   7   0.0446   0.0646   0.0298  -0.0370  -0.0273   0.0146   0.00    1.0
2173 297935.000    119286.9275  -5391118.2512   3394977.4886   2   7   0.0445   0.0643   0.0296  -0.0370  -0.0271   0.0144   0.00    1.0
2173 297936.000    119286.9264  -5391118.2498   3394977.4864   2   7   0.0443   0.0640   0.0295  -0.0369  -0.0269   0.0145   0.00    1.0
2173 297937.000    119286.9239  -5391118.2395   3394977.4798   2   7   0.0442   0.0637   0.0293  -0.0367  -0.0267   0.0143   0.00    1.0
2173 297938.000    119286.9239  -5391118.2378   3394977.4774   2   7   0.0441   0.0634   0.0291  -0.0366  -0.0264   0.0141   0.00    1.0
2173 297939.000    119286.9222  -5391118.2383   3394977.4761   2   7   0.0440   0.0632   0.0290  -0.0365  -0.0262   0.0143   0.00    1.0
2173 297940.000    119286.9235  -5391118.2380   3394977.4716   2   7   0.0439   0.0629   0.0288  -0.0364  -0.0260   0.0140   0.00    1.0
2173 297941.000    119286.9190  -5391118.2322   3394977.4665   2   7   0.0438   0.0626   0.0286  -0.0363  -0.0258   0.0140   0.00    1.0
2173 297942.000    119286.9178  -5391118.2328   3394977.4656   2   7   0.0437   0.0624   0.0285  -0.0362  -0.0256   0.0139   0.00    1.0
2173 297943.000    119286.9135  -5391118.2270   3394977.4639   2   7   0.0435   0.0621   0.0284  -0.0361  -0.0254   0.0139   0.00    1.0
2173 297944.000    119286.9136  -5391118.2272   3394977.4642   2   7   0.0434   0.0618   0.0282  -0.0360  -0.0252   0.0138   0.00    1.0
2173 297945.000    119286.9074  -5391118.2187   3394977.4616   2   7   0.0433   0.0616   0.0281  -0.0359  -0.0250   0.0139   0.00    1.0
2173 297946.000    119286.9014  -5391118.2120   3394977.4615   2   7   0.0432   0.0613   0.0280  -0.0358  -0.0248   0.0138   0.00    1.0
2173 297947.000    119286.8995  -5391118.2063   3394977.4608   2   7   0.0431   0.0611   0.0278  -0.0357  -0.0246   0.0137   0.00    1.0
2173 297948.000    119286.8970  -5391118.1974   3394977.4547   2   7   0.0430   0.0608   0.0276  -0.0356  -0.0244   0.0136   0.00    1.0
2173 297949.000    119286.8941  -5391118.1898   3394977.4494   2   7   0.0429   0.0606   0.0275  -0.0355  -0.0242   0.0136   0.00    1.0
2173 297950.000    119286.8951  -5391118.1871   3394977.4454   2   7   0.0428   0.0603   0.0273  -0.0354  -0.0240   0.0135   0.00    1.0
2173 297951.000    119286.8930  -5391118.1865   3394977.4433   2   7   0.0427   0.0601   0.0271  -0.0353  -0.0238   0.0134   0.00    1.0
2173 297952.000    119286.8871  -5391118.1772   3394977.4397   2   7   0.0426   0.0599   0.0271  -0.0352  -0.0236   0.0134   0.00    1.0
2173 297953.000    119286.8855  -5391118.1748   3394977.4364   2   7   0.0425   0.0596   0.0270  -0.0351  -0.0235   0.0134   0.00    1.1
2173 297954.000    119286.8843  -5391118.1676   3394977.4288   2   7   0.0424   0.0594   0.0268  -0.0350  -0.0232   0.0133   0.00    1.1
2173 297955.000    119286.8800  -5391118.1664   3394977.4267   2   7   0.0423   0.0592   0.0267  -0.0349  -0.0230   0.0132   0.00    1.1
2173 297956.000    119286.8772  -5391118.1614   3394977.4239   2   7   0.0422   0.0589   0.0265  -0.0348  -0.0229   0.0131   0.00    1.1
2173 297957.000    119286.8765  -5391118.1627   3394977.4217   2   7   0.0421   0.0587   0.0264  -0.0347  -0.0227   0.0131   0.00    1.1
2173 297958.000    119286.8739  -5391118.1648   3394977.4195   2   7   0.0420   0.0585   0.0262  -0.0346  -0.0225   0.0130   0.00    1.1
2173 297959.000    119286.8702  -5391118.1601   3394977.4190   2   7   0.0419   0.0583   0.0261  -0.0345  -0.0223   0.0130   0.00    1.1
2173 297960.000    119286.8703  -5391118.1613   3394977.4156   2   7   0.0418   0.0580   0.0260  -0.0344  -0.0221   0.0129   0.00    1.1
2173 297961.000    119286.8678  -5391118.1575   3394977.4146   2   7   0.0417   0.0578   0.0259  -0.0343  -0.0220   0.0130   0.00    1.1
2173 297962.000    119286.8659  -5391118.1587   3394977.4154   2   7   0.0416   0.0576   0.0258  -0.0343  -0.0218   0.0129   0.00    1.1
2173 297963.000    119286.8649  -5391118.1574   3394977.4109   2   7   0.0415   0.0574   0.0256  -0.0341  -0.0216   0.0126   0.00    1.1
2173 297964.000    119286.8654  -5391118.1552   3394977.4071   2   7   0.0414   0.0572   0.0255  -0.0341  -0.0215   0.0128   0.00    1.1
2173 297965.000    119286.8619  -5391118.1554   3394977.4043   2   7   0.0413   0.0570   0.0254  -0.0340  -0.0212   0.0127   0.00    1.1
2173 297966.000    119286.8611  -5391118.1515   3394977.4035   2   7   0.0412   0.0568   0.0252  -0.0339  -0.0211   0.0125   0.00    1.1
2173 297967.000    119286.8540  -5391118.1450   3394977.4021   2   7   0.0411   0.0565   0.0251  -0.0338  -0.0209   0.0126   0.00    1.1
2173 297968.000    119286.8595  -5391118.1518   3394977.3969   2   7   0.0411   0.0563   0.0250  -0.0337  -0.0208   0.0126   0.00    1.1
2173 297969.000    119286.8567  -5391118.1450   3394977.3936   2   7   0.0410   0.0561   0.0249  -0.0336  -0.0206   0.0125   0.00    1.1
2173 297970.000    119286.8578  -5391118.1491   3394977.3927   2   7   0.0409   0.0559   0.0248  -0.0336  -0.0205   0.0124   0.00    1.1
2173 297971.000    119286.8555  -5391118.1461   3394977.3888   2   7   0.0408   0.0557   0.0247  -0.0335  -0.0203   0.0125   0.00    1.1
2173 297972.000    119286.8530  -5391118.1382   3394977.3833   2   7   0.0407   0.0555   0.0246  -0.0334  -0.0201   0.0123   0.00    1.1
2173 297973.000    119286.8518  -5391118.1421   3394977.3833   2   7   0.0406   0.0553   0.0243  -0.0333  -0.0199   0.0122   0.00    1.1
2173 297974.000    119286.8471  -5391118.1397   3394977.3804   2   7   0.0405   0.0551   0.0243  -0.0332  -0.0198   0.0123   0.00    1.2
2173 297975.000    119286.8478  -5391118.1435   3394977.3783   2   7   0.0404   0.0549   0.0243  -0.0331  -0.0197   0.0123   0.00    1.2
2173 297976.000    119286.8462  -5391118.1380   3394977.3772   2   7   0.0403   0.0547   0.0241  -0.0331  -0.0195   0.0121   0.00    1.2
2173 297977.000    119286.8437  -5391118.1520   3394977.3903   2   7   0.0403   0.0546   0.0240  -0.0330  -0.0194   0.0121   0.00    1.2
2173 297978.000    119286.8426  -5391118.1506   3394977.3905   2   7   0.0402   0.0544   0.0238  -0.0329  -0.0192   0.0121   0.00    1.2
2173 297979.000    119286.8401  -5391118.1538   3394977.3908   2   7   0.0401   0.0542   0.0237  -0.0328  -0.0190   0.0119   0.00    1.2
2173 297980.000    119286.8363  -5391118.1562   3394977.3916   2   7   0.0400   0.0540   0.0236  -0.0328  -0.0189   0.0119   0.00    1.2
2173 297981.000    119286.8357  -5391118.1587   3394977.3922   2   7   0.0399   0.0538   0.0235  -0.0327  -0.0188   0.0120   0.00    1.2
2173 297982.000    119286.8353  -5391118.1596   3394977.3927   2   7   0.0399   0.0536   0.0234  -0.0326  -0.0186   0.0118   0.00    1.2
2173 297983.000    119286.8355  -5391118.1606   3394977.3933   2   7   0.0398   0.0535   0.0234  -0.0325  -0.0185   0.0120   0.00    1.2
2173 297984.000    119286.8317  -5391118.1586   3394977.3911   2   7   0.0397   0.0533   0.0233  -0.0325  -0.0183   0.0118   0.00    1.2
2173 297985.000    119286.8280  -5391118.1543   3394977.3901   2   7   0.0396   0.0531   0.0231  -0.0324  -0.0182   0.0117   0.00    1.2
2173 297986.000    119286.8215  -5391118.1491   3394977.3878   2   7   0.0395   0.0529   0.0230  -0.0323  -0.0180   0.0117   0.00    1.2
2173 297987.000    119286.8245  -5391118.1556   3394977.3890   2   7   0.0394   0.0528   0.0230  -0.0322  -0.0179   0.0118   0.00    1.2
2173 297988.000    119286.8202  -5391118.1550   3394977.3886   2   7   0.0393   0.0526   0.0228  -0.0321  -0.0177   0.0116   0.00    1.3
2173 297989.000    119286.8200  -5391118.1578   3394977.3875   2   7   0.0393   0.0524   0.0229  -0.0321  -0.0177   0.0117   0.00    1.3
2173 297990.000    119286.8216  -5391118.1611   3394977.3864   2   7   0.0392   0.0522   0.0226  -0.0320  -0.0174   0.0114   0.00    1.3
2173 297991.000    119286.8189  -5391118.1623   3394977.3887   2   7   0.0391   0.0521   0.0226  -0.0319  -0.0173   0.0115   0.00    1.3
2173 297992.000    119286.8207  -5391118.1633   3394977.3884   2   7   0.0390   0.0519   0.0225  -0.0319  -0.0173   0.0116   0.00    1.3
2173 297993.000    119286.8418  -5391118.2411   3394977.4138   2   7   0.0389   0.0517   0.0224  -0.0318  -0.0171   0.0114   0.00    1.3
2173 297994.000    119286.8368  -5391118.2326   3394977.4084   2   7   0.0388   0.0516   0.0223  -0.0317  -0.0170   0.0114   0.00    1.3
2173 297995.000    119286.8349  -5391118.2206   3394977.4010   2   7   0.0388   0.0514   0.0223  -0.0317  -0.0168   0.0115   0.00    1.3
2173 297996.000    119286.8303  -5391118.2112   3394977.3958   2   7   0.0387   0.0512   0.0221  -0.0316  -0.0167   0.0114   0.00    1.3
2173 297997.000    119286.8262  -5391118.1997   3394977.3869   2   7   0.0386   0.0511   0.0220  -0.0315  -0.0166   0.0113   0.00    1.3
2173 297998.000    119286.8233  -5391118.1959   3394977.3831   2   7   0.0386   0.0509   0.0219  -0.0314  -0.0164   0.0113   0.00    1.4
2173 297999.000    119286.8180  -5391118.1862   3394977.3775   2   7   0.0385   0.0508   0.0218  -0.0314  -0.0163   0.0113   0.00    1.4
2173 298000.000    119286.8126  -5391118.1756   3394977.3704   2   7   0.0384   0.0506   0.0216  -0.0313  -0.0162   0.0112   0.00    1.4
2173 298001.000    119286.8086  -5391118.1685   3394977.3642   2   7   0.0384   0.0505   0.0215  -0.0312  -0.0160   0.0109   0.00    1.4
2173 298002.000    119286.8061  -5391118.1641   3394977.3604   2   7   0.0383   0.0503   0.0215  -0.0312  -0.0159   0.0109   0.00    1.4
2173 298003.000    119286.8000  -5391118.1535   3394977.3552   2   7   0.0382   0.0502   0.0215  -0.0311  -0.0158   0.0110   0.00    1.4
2173 298004.000    119286.7961  -5391118.1435   3394977.3492   2   7   0.0381   0.0500   0.0214  -0.0310  -0.0157   0.0110   0.00    1.4
2173 298005.000    119286.7921  -5391118.1367   3394977.3441   2   7   0.0381   0.0499   0.0212  -0.0310  -0.0156   0.0110   0.00    1.4
2173 298006.000    119286.7919  -5391118.1365   3394977.3417   2   7   0.0380   0.0497   0.0212  -0.0309  -0.0154   0.0110   0.00    1.4
2173 298007.000    119286.7870  -5391118.1241   3394977.3352   2   7   0.0379   0.0496   0.0211  -0.0308  -0.0154   0.0108   0.00    1.5
2173 298008.000    119286.7869  -5391118.1199   3394977.3317   2   7   0.0378   0.0494   0.0210  -0.0308  -0.0152   0.0107   0.00    1.5
2173 298009.000    119286.7787  -5391118.1112   3394977.3271   2   7   0.0378   0.0493   0.0210  -0.0307  -0.0151   0.0109   0.00    1.5
2173 298010.000    119286.7747  -5391118.1061   3394977.3241   2   7   0.0377   0.0491   0.0209  -0.0307  -0.0150   0.0109   0.00    1.5
2173 298011.000    119286.7698  -5391118.1013   3394977.3205   2   7   0.0376   0.0490   0.0208  -0.0306  -0.0149   0.0108   0.00    1.5
2173 298012.000    119286.7675  -5391118.0986   3394977.3188   2   7   0.0375   0.0488   0.0206  -0.0305  -0.0148   0.0106   0.00    1.5
2173 298013.000    119286.7654  -5391118.0963   3394977.3149   2   7   0.0376   0.0487   0.0206  -0.0305  -0.0147   0.0107   0.00    1.5
2173 298014.000    119286.7625  -5391118.0907   3394977.3085   2   7   0.0374   0.0485   0.0206  -0.0304  -0.0145   0.0106   0.00    1.5
2173 298015.000    119286.7557  -5391118.0773   3394977.3014   2   7   0.0374   0.0484   0.0205  -0.0303  -0.0144   0.0106   0.00    1.6
2173 298016.000    119286.7543  -5391118.0792   3394977.2992   2   7   0.0373   0.0483   0.0203  -0.0303  -0.0143   0.0106   0.00    1.6
2173 298017.000    119286.7566  -5391118.0747   3394977.2923   2   7   0.0372   0.0481   0.0202  -0.0302  -0.0142   0.0105   0.00    1.6
2173 298018.000    119286.7505  -5391118.0704   3394977.2899   2   7   0.0372   0.0480   0.0203  -0.0302  -0.0142   0.0106   0.00    1.6
2173 298019.000    119286.7501  -5391118.0743   3394977.2878   2   7   0.0371   0.0479   0.0202  -0.0301  -0.0140   0.0104   0.00    1.6
2173 298020.000    119286.7453  -5391118.0665   3394977.2816   2   7   0.0370   0.0477   0.0201  -0.0300  -0.0139   0.0105   0.00    1.6
2173 298021.000    119286.7451  -5391118.0636   3394977.2792   2   7   0.0369   0.0476   0.0200  -0.0300  -0.0138   0.0103   0.00    1.6
2173 298022.000    119286.7379  -5391118.0591   3394977.2757   2   7   0.0369   0.0475   0.0200  -0.0299  -0.0137   0.0104   0.00    1.6
2173 298023.000    119286.7364  -5391118.0520   3394977.2697   2   7   0.0368   0.0473   0.0199  -0.0299  -0.0136   0.0103   0.00    1.6
2173 298024.000    119286.7334  -5391118.0499   3394977.2682   2   7   0.0368   0.0472   0.0198  -0.0298  -0.0135   0.0105   0.00    1.6
2173 298025.000    119286.7258  -5391118.0449   3394977.2641   2   7   0.0367   0.0471   0.0197  -0.0297  -0.0134   0.0103   0.00    1.6
2173 298026.000    119286.7244  -5391118.0460   3394977.2628   2   7   0.0366   0.0469   0.0197  -0.0297  -0.0133   0.0103   0.00    1.6
2173 298027.000    119286.7192  -5391118.0456   3394977.2605   2   7   0.0366   0.0468   0.0196  -0.0296  -0.0132   0.0103   0.00    1.7
2173 298028.000    119286.7240  -5391118.0471   3394977.2585   2   7   0.0365   0.0467   0.0196  -0.0296  -0.0131   0.0102   0.00    1.7
2173 298029.000    119286.7230  -5391118.0477   3394977.2543   2   7   0.0364   0.0466   0.0195  -0.0295  -0.0130   0.0103   0.00    1.7
2173 298030.000    119286.7210  -5391118.0484   3394977.2522   2   7   0.0364   0.0464   0.0194  -0.0294  -0.0129   0.0103   0.00    1.7
2173 298031.000    119286.7140  -5391118.0417   3394977.2482   2   7   0.0364   0.0463   0.0194  -0.0294  -0.0128   0.0101   0.00    1.7
2173 298032.000    119286.7146  -5391118.0417   3394977.2450   2   7   0.0362   0.0462   0.0192  -0.0293  -0.0127   0.0100   0.00    1.7
2173 298033.000    119286.7127  -5391118.0420   3394977.2436   2   7   0.0362   0.0461   0.0190  -0.0293  -0.0126   0.0100   0.00    1.7
2173 298034.000    119286.7091  -5391118.0391   3394977.2387   2   7   0.0361   0.0460   0.0191  -0.0292  -0.0125   0.0100   0.00    1.7
2173 298035.000    119286.7115  -5391118.0549   3394977.2558   2   7   0.0361   0.0458   0.0190  -0.0292  -0.0125   0.0100   0.00    1.7
2173 298036.000    119286.7104  -5391118.0540   3394977.2564   2   7   0.0360   0.0457   0.0189  -0.0291  -0.0123   0.0099   0.00    1.7
2173 298037.000    119286.7069  -5391118.0541   3394977.2609   2   7   0.0360   0.0456   0.0189  -0.0291  -0.0122   0.0098   0.00    1.7
2173 298038.000    119286.7072  -5391118.0478   3394977.2588   2   7   0.0359   0.0455   0.0188  -0.0290  -0.0121   0.0099   0.00    1.7
2173 298039.000    119286.7041  -5391118.0443   3394977.2591   2   7   0.0358   0.0454   0.0187  -0.0290  -0.0120   0.0098   0.00    1.7
2173 298040.000    119286.7040  -5391118.0441   3394977.2610   2   7   0.0357   0.0453   0.0186  -0.0289  -0.0119   0.0098   0.00    1.8
2173 298041.000    119286.6999  -5391118.0375   3394977.2556   2   7   0.0357   0.0452   0.0186  -0.0289  -0.0118   0.0099   0.00    1.8
2173 298042.000    119286.6990  -5391118.0337   3394977.2551   2   7   0.0357   0.0450   0.0186  -0.0288  -0.0118   0.0100   0.00    1.8
2173 298043.000    119286.6998  -5391118.0346   3394977.2535   2   7   0.0356   0.0449   0.0185  -0.0288  -0.0117   0.0098   0.00    1.8
2173 298044.000    119286.6990  -5391118.0316   3394977.2505   2   7   0.0356   0.0448   0.0186  -0.0287  -0.0116   0.0100   0.00    1.8
2173 298045.000    119286.6967  -5391118.0277   3394977.2503   2   7   0.0355   0.0447   0.0184  -0.0287  -0.0115   0.0097   0.00    1.8
2173 298046.000    119286.6945  -5391118.0243   3394977.2498   2   7   0.0354   0.0446   0.0183  -0.0286  -0.0114   0.0097   0.00    1.8
2173 298047.000    119286.6938  -5391118.0231   3394977.2493   2   7   0.0354   0.0445   0.0182  -0.0285  -0.0112   0.0095   0.00    1.8
2173 298048.000    119286.6932  -5391118.0239   3394977.2493   2   7   0.0353   0.0444   0.0182  -0.0285  -0.0113   0.0096   0.00    1.8
2173 298049.000    119286.6927  -5391118.0194   3394977.2492   2   7   0.0352   0.0443   0.0182  -0.0284  -0.0112   0.0097   0.00    1.8
2173 298050.000    119286.6893  -5391118.0153   3394977.2479   2   7   0.0352   0.0442   0.0181  -0.0284  -0.0111   0.0096   0.00    1.8
2173 298051.000    119286.6836  -5391118.0108   3394977.2474   2   7   0.0351   0.0440   0.0181  -0.0283  -0.0110   0.0096   0.00    1.8
2173 298052.000    119286.6795  -5391118.0070   3394977.2454   2   7   0.0351   0.0439   0.0180  -0.0283  -0.0109   0.0096   0.00    1.8
2173 298053.000    119286.6723  -5391118.0036   3394977.2455   2   7   0.0351   0.0438   0.0179  -0.0283  -0.0108   0.0095   0.00    1.8
2173 298054.000    119286.6677  -5391118.0049   3394977.2433   2   7   0.0350   0.0437   0.0178  -0.0282  -0.0108   0.0094   0.00    1.8
2173 298055.000    119286.6691  -5391118.0029   3394977.2421   2   7   0.0349   0.0436   0.0178  -0.0282  -0.0107   0.0095   0.00    1.8
2173 298056.000    119286.6693  -5391118.0072   3394977.2409   2   7   0.0349   0.0435   0.0177  -0.0281  -0.0107   0.0095   0.00    1.8
2173 298057.000    119286.6725  -5391118.0099   3394977.2405   2   7   0.0348   0.0434   0.0177  -0.0281  -0.0105   0.0094   0.00    1.8
2173 298058.000    119286.6713  -5391118.0101   3394977.2394   2   7   0.0348   0.0433   0.0176  -0.0280  -0.0105   0.0094   0.00    1.9
2173 298059.000    119286.6719  -5391118.0095   3394977.2379   2   7   0.0347   0.0432   0.0176  -0.0280  -0.0104   0.0095   0.00    1.9
2173 298060.000    119286.6732  -5391118.0112   3394977.2371   2   7   0.0347   0.0431   0.0175  -0.0280  -0.0104   0.0095   0.00    1.9
2173 298061.000    119286.6712  -5391118.0099   3394977.2379   2   7   0.0346   0.0430   0.0175  -0.0279  -0.0102   0.0095   0.00    1.9
2173 298062.000    119286.6745  -5391118.0095   3394977.2347   2   7   0.0345   0.0429   0.0174  -0.0279  -0.0101   0.0093   0.00    1.9
2173 298063.000    119286.6723  -5391118.0122   3394977.2350   2   7   0.0345   0.0428   0.0173  -0.0278  -0.0101   0.0094   0.00    1.9
2173 298064.000    119286.6712  -5391118.0120   3394977.2354   2   7   0.0345   0.0427   0.0172  -0.0277  -0.0099   0.0092   0.00    1.9
2173 298065.000    119286.6695  -5391118.0117   3394977.2345   2   7   0.0344   0.0426   0.0172  -0.0277  -0.0099   0.0090   0.00    1.9
2173 298066.000    119286.6676  -5391118.0062   3394977.2327   2   7   0.0343   0.0425   0.0171  -0.0277  -0.0099   0.0093   0.00    1.9
2173 298067.000    119286.6671  -5391118.0035   3394977.2330   2   7   0.0342   0.0424   0.0172  -0.0276  -0.0098   0.0092   0.00    1.9
2173 298068.000    119286.6672  -5391118.0051   3394977.2331   2   7   0.0342   0.0423   0.0171  -0.0276  -0.0097   0.0091   0.00    1.9
2173 298069.000    119286.6650  -5391118.0050   3394977.2319   2   7   0.0342   0.0422   0.0170  -0.0275  -0.0097   0.0092   0.00    1.9
2173 298070.000    119286.6627  -5391118.0037   3394977.2301   2   7   0.0341   0.0421   0.0170  -0.0275  -0.0096   0.0093   0.00    1.9
2173 298071.000    119286.6643  -5391118.0086   3394977.2321   2   7   0.0341   0.0420   0.0169  -0.0275  -0.0095   0.0092   0.00    1.9
2173 298072.000    119286.6619  -5391118.0071   3394977.2310   2   7   0.0340   0.0419   0.0168  -0.0274  -0.0095   0.0090   0.00    1.9
2173 298073.000    119286.6612  -5391118.0060   3394977.2290   2   7   0.0339   0.0419   0.0168  -0.0274  -0.0093   0.0092   0.00    1.9
2173 298074.000    119286.6612  -5391118.0042   3394977.2263   2   7   0.0339   0.0417   0.0168  -0.0273  -0.0093   0.0091   0.00    1.9
2173 298075.000    119286.6606  -5391118.0057   3394977.2276   2   7   0.0339   0.0417   0.0167  -0.0273  -0.0093   0.0091   0.00    1.9
2173 298076.000    119286.6584  -5391118.0077   3394977.2295   2   7   0.0338   0.0416   0.0168  -0.0272  -0.0092   0.0091   0.00    1.9
2173 298077.000    119286.6555  -5391118.0033   3394977.2257   2   7   0.0338   0.0415   0.0165  -0.0272  -0.0091   0.0089   0.00    1.9
2173 298078.000    119286.6549  -5391118.0095   3394977.2285   2   7   0.0337   0.0414   0.0165  -0.0271  -0.0090   0.0091   0.00    1.9
2173 298079.000    119286.6544  -5391118.0029   3394977.2267   2   7   0.0337   0.0413   0.0166  -0.0271  -0.0090   0.0089   0.00    1.9
2173 298080.000    119286.6544  -5391118.0092   3394977.2277   2   7   0.0336   0.0412   0.0165  -0.0270  -0.0089   0.0089   0.00    1.9
2173 298081.000    119286.6504  -5391118.0062   3394977.2275   2   7   0.0336   0.0411   0.0164  -0.0270  -0.0087   0.0088   0.00    1.9
2173 298082.000    119286.6499  -5391118.0060   3394977.2280   2   7   0.0335   0.0410   0.0164  -0.0269  -0.0088   0.0088   0.00    1.9
2173 298083.000    119286.6482  -5391118.0082   3394977.2299   2   7   0.0334   0.0409   0.0163  -0.0270  -0.0087   0.0088   0.00    1.9
2173 298084.000    119286.6471  -5391118.0093   3394977.2311   2   7   0.0334   0.0409   0.0163  -0.0269  -0.0086   0.0086   0.00    1.9
2173 298085.000    119286.6455  -5391118.0092   3394977.2290   2   7   0.0333   0.0408   0.0162  -0.0269  -0.0086   0.0089   0.00    1.9
2173 298086.000    119286.6455  -5391118.0034   3394977.2295   2   7   0.0333   0.0407   0.0162  -0.0268  -0.0084   0.0088   0.00    1.9
2173 298087.000    119286.6447  -5391118.0065   3394977.2316   2   7   0.0332   0.0406   0.0161  -0.0268  -0.0085   0.0086   0.00    1.9
2173 298088.000    119286.6452  -5391118.0059   3394977.2307   2   7   0.0332   0.0405   0.0161  -0.0267  -0.0083   0.0089   0.00    1.9
2173 298089.000    119286.6424  -5391118.0030   3394977.2311   2   7   0.0332   0.0404   0.0160  -0.0267  -0.0083   0.0088   0.00    1.9
2173 298090.000    119286.6381  -5391117.9971   3394977.2303   2   7   0.0331   0.0404   0.0160  -0.0266  -0.0082   0.0086   0.00    1.9
2173 298091.000    119286.6395  -5391118.0014   3394977.2312   2   7   0.0331   0.0403   0.0161  -0.0266  -0.0082   0.0089   0.00    1.9
2173 298092.000    119286.6376  -5391118.0037   3394977.2320   2   7   0.0331   0.0402   0.0159  -0.0266  -0.0082   0.0085   0.00    1.9
2173 298093.000    119286.6347  -5391117.9994   3394977.2334   2   7   0.0330   0.0401   0.0159  -0.0266  -0.0081   0.0087   0.00    1.9
2173 298094.000    119286.6344  -5391118.0017   3394977.2339   2   7   0.0329   0.0400   0.0158  -0.0265  -0.0080   0.0086   0.00    1.9
2173 298095.000    119286.6329  -5391118.0022   3394977.2338   2   7   0.0329   0.0400   0.0158  -0.0264  -0.0080   0.0087   0.00    1.9
2173 298096.000    119286.6339  -5391118.0084   3394977.2381   2   7   0.0329   0.0399   0.0158  -0.0264  -0.0079   0.0087   0.00    1.9
2173 298097.000    119286.6383  -5391118.0145   3394977.2381   2   7   0.0329   0.0398   0.0157  -0.0264  -0.0078   0.0087   0.00    1.9
2173 298098.000    119286.6377  -5391118.0144   3394977.2352   2   7   0.0328   0.0397   0.0156  -0.0263  -0.0077   0.0085   0.00    1.9
2173 298099.000    119286.6378  -5391118.0126   3394977.2346   2   7   0.0327   0.0396   0.0157  -0.0263  -0.0077   0.0085   0.00    1.8
2173 298100.000    119286.6389  -5391118.0120   3394977.2328   2   7   0.0327   0.0396   0.0156  -0.0263  -0.0077   0.0085   0.00    1.8
2173 298101.000    119286.6384  -5391118.0081   3394977.2298   2   7   0.0326   0.0395   0.0156  -0.0262  -0.0076   0.0084   0.00    1.8
2173 298102.000    119286.6388  -5391118.0090   3394977.2297   2   7   0.0326   0.0394   0.0155  -0.0262  -0.0076   0.0084   0.00    1.8
2173 298103.000    119286.6389  -5391118.0050   3394977.2285   2   7   0.0326   0.0393   0.0155  -0.0262  -0.0075   0.0086   0.00    1.8
2173 298104.000    119286.6420  -5391118.0083   3394977.2297   2   7   0.0325   0.0393   0.0154  -0.0261  -0.0074   0.0085   0.00    1.8
2173 298105.000    119286.6382  -5391118.0030   3394977.2297   2   7   0.0324   0.0392   0.0154  -0.0261  -0.0074   0.0084   0.00    1.8
2173 298106.000    119286.6376  -5391117.9993   3394977.2286   2   7   0.0324   0.0391   0.0154  -0.0260  -0.0074   0.0082   0.00    1.8
2173 298107.000    119286.6383  -5391118.0004   3394977.2284   2   7   0.0324   0.0390   0.0153  -0.0260  -0.0073   0.0085   0.00    1.8
2173 298108.000    119286.6360  -5391117.9961   3394977.2249   2   7   0.0323   0.0389   0.0153  -0.0259  -0.0073   0.0085   0.00    1.8
2173 298109.000    119286.6354  -5391118.0002   3394977.2288   2   7   0.0323   0.0389   0.0153  -0.0259  -0.0073   0.0083   0.00    1.8
2173 298110.000    119286.6365  -5391117.9982   3394977.2273   2   7   0.0322   0.0388   0.0151  -0.0259  -0.0072   0.0084   0.00    1.8
2173 298111.000    119286.6361  -5391117.9978   3394977.2302   2   7   0.0322   0.0387   0.0151  -0.0259  -0.0071   0.0082   0.00    1.8
2173 298112.000    119286.6367  -5391117.9952   3394977.2275   2   7   0.0321   0.0386   0.0153  -0.0258  -0.0071   0.0085   0.00    1.8
2173 298113.000    119286.6360  -5391117.9978   3394977.2305   2   7   0.0321   0.0386   0.0151  -0.0258  -0.0070   0.0083   0.00    1.8
2173 298114.000    119286.6350  -5391117.9960   3394977.2286   2   7   0.0320   0.0385   0.0150  -0.0257  -0.0069   0.0085   0.00    1.8
2173 298115.000    119286.6338  -5391117.9899   3394977.2225   2   7   0.0320   0.0384   0.0151  -0.0257  -0.0070   0.0082   0.00    1.8
2173 298116.000    119286.6352  -5391117.9940   3394977.2219   2   7   0.0320   0.0384   0.0149  -0.0256  -0.0068   0.0081   0.00    1.8
2173 298117.000    119286.6332  -5391117.9916   3394977.2215   2   7   0.0319   0.0383   0.0149  -0.0256  -0.0067   0.0083   0.00    1.8
2173 298118.000    119286.6325  -5391117.9885   3394977.2205   2   7   0.0319   0.0382   0.0150  -0.0256  -0.0069   0.0081   0.00    1.8
2173 298119.000    119286.6332  -5391117.9882   3394977.2178   2   7   0.0318   0.0382   0.0147  -0.0255  -0.0066   0.0079   0.00    1.8
2173 298120.000    119286.6307  -5391117.9930   3394977.2201   2   7   0.0318   0.0381   0.0148  -0.0255  -0.0066   0.0081   0.00    1.8
2173 298121.000    119286.6331  -5391117.9930   3394977.2198   2   7   0.0318   0.0380   0.0147  -0.0255  -0.0064   0.0082   0.00    1.8
2173 298122.000    119286.6327  -5391117.9906   3394977.2176   2   7   0.0317   0.0379   0.0147  -0.0255  -0.0065   0.0082   0.00    1.8
2173 298123.000    119286.6324  -5391117.9941   3394977.2211   2   7   0.0316   0.0379   0.0147  -0.0254  -0.0064   0.0080   0.00    1.8
2173 298124.000    119286.6320  -5391117.9926   3394977.2185   2   7   0.0317   0.0378   0.0146  -0.0254  -0.0063   0.0082   0.00    1.8
2173 298125.000    119286.6278  -5391117.9892   3394977.2195   2   7   0.0317   0.0377   0.0147  -0.0253  -0.0063   0.0080   0.00    1.8
2173 298126.000    119286.6259  -5391117.9851   3394977.2203   2   7   0.0316   0.0377   0.0147  -0.0253  -0.0063   0.0080   0.00    1.8
2173 298127.000    119286.6236  -5391117.9854   3394977.2175   2   7   0.0316   0.0376   0.0145  -0.0253  -0.0064   0.0081   0.00    1.8
2173 298128.000    119286.6267  -5391117.9880   3394977.2178   2   7   0.0315   0.0375   0.0146  -0.0253  -0.0063   0.0082   0.00    1.8
2173 298129.000    119286.6222  -5391117.9842   3394977.2174   2   7   0.0314   0.0375   0.0145  -0.0252  -0.0062   0.0080   0.00    1.8
2173 298130.000    119286.6236  -5391117.9879   3394977.2183   2   7   0.0314   0.0374   0.0145  -0.0252  -0.0061   0.0079   0.00    1.8
2173 298131.000    119286.6238  -5391117.9857   3394977.2172   2   7   0.0314   0.0373   0.0144  -0.0252  -0.0061   0.0080   0.00    1.8
2173 298132.000    119286.6224  -5391117.9844   3394977.2171   2   7   0.0313   0.0372   0.0144  -0.0251  -0.0062   0.0080   0.00    1.8
2173 298133.000    119286.6232  -5391117.9858   3394977.2178   2   7   0.0313   0.0372   0.0143  -0.0251  -0.0061   0.0078   0.00    1.8
2173 298134.000    119286.6207  -5391117.9869   3394977.2186   2   7   0.0312   0.0371   0.0143  -0.0251  -0.0059   0.0080   0.00    1.8
2173 298135.000    119286.6164  -5391117.9833   3394977.2189   2   7   0.0312   0.0371   0.0143  -0.0251  -0.0059   0.0081   0.00    1.8
2173 298136.000    119286.6193  -5391117.9859   3394977.2181   2   7   0.0312   0.0370   0.0143  -0.0250  -0.0059   0.0080   0.00    1.8
2173 298137.000    119286.6174  -5391117.9858   3394977.2196   2   7   0.0311   0.0369   0.0142  -0.0249  -0.0059   0.0078   0.00    1.8
2173 298138.000    119286.6164  -5391117.9844   3394977.2192   2   7   0.0311   0.0369   0.0143  -0.0250  -0.0060   0.0079   0.00    1.8
2173 298139.000    119286.6151  -5391117.9840   3394977.2183   2   7   0.0310   0.0368   0.0143  -0.0249  -0.0058   0.0081   0.00    1.8
2173 298140.000    119286.6159  -5391117.9828   3394977.2170   2   7   0.0310   0.0367   0.0141  -0.0249  -0.0059   0.0078   0.00    1.8
2173 298141.000    119286.6158  -5391117.9796   3394977.2169   2   7   0.0310   0.0367   0.0140  -0.0249  -0.0058   0.0079   0.00    1.8
2173 298142.000    119286.6140  -5391117.9810   3394977.2202   2   7   0.0309   0.0366   0.0140  -0.0248  -0.0057   0.0079   0.00    1.8
2173 298143.000    119286.6135  -5391117.9779   3394977.2191   2   7   0.0309   0.0365   0.0141  -0.0248  -0.0057   0.0078   0.00    1.8
2173 298144.000    119286.6109  -5391117.9820   3394977.2231   2   7   0.0309   0.0365   0.0139  -0.0247  -0.0055   0.0077   0.00    1.7
2173 298145.000    119286.6101  -5391117.9762   3394977.2201   2   7   0.0308   0.0364   0.0141  -0.0247  -0.0056   0.0079   0.00    1.7
2173 298146.000    119286.6095  -5391117.9776   3394977.2222   2   7   0.0308   0.0364   0.0140  -0.0247  -0.0056   0.0078   0.00    1.7
2173 298147.000    119286.6069  -5391117.9707   3394977.2229   2   7   0.0307   0.0363   0.0139  -0.0247  -0.0055   0.0079   0.00    1.7
2173 298148.000    119286.6099  -5391117.9760   3394977.2217   2   7   0.0308   0.0362   0.0140  -0.0246  -0.0055   0.0079   0.00    1.7
2173 298149.000    119286.6084  -5391117.9700   3394977.2234   2   7   0.0307   0.0362   0.0139  -0.0245  -0.0054   0.0079   0.00    1.7
2173 298150.000    119286.6052  -5391117.9681   3394977.2242   2   7   0.0306   0.0361   0.0138  -0.0245  -0.0053   0.0077   0.00    1.7
2173 298151.000    119286.6048  -5391117.9635   3394977.2226   2   7   0.0306   0.0361   0.0139  -0.0245  -0.0055   0.0079   0.00    1.7
2173 298152.000    119286.6069  -5391117.9625   3394977.2225   2   7   0.0306   0.0360   0.0137  -0.0245  -0.0052   0.0075   0.00    1.7
2173 298153.000    119286.6054  -5391117.9589   3394977.2223   2   7   0.0305   0.0359   0.0137  -0.0245  -0.0052   0.0076   0.00    1.7
2173 298154.000    119286.6062  -5391117.9614   3394977.2230   2   7   0.0305   0.0359   0.0138  -0.0244  -0.0052   0.0077   0.00    1.6
2173 298155.000    119286.5674  -5391117.9017   3394977.2018   2   7   0.0305   0.0358   0.0137  -0.0245  -0.0054   0.0077   0.00    1.6
2173 298156.000    119286.5648  -5391117.8945   3394977.2006   2   7   0.0304   0.0358   0.0137  -0.0244  -0.0053   0.0077   0.00    1.6
2173 298157.000    119286.5661  -5391117.8983   3394977.2026   2   7   0.0304   0.0357   0.0136  -0.0243  -0.0050   0.0076   0.00    1.6
2173 298158.000    119286.5641  -5391117.8936   3394977.2030   2   7   0.0303   0.0356   0.0135  -0.0244  -0.0053   0.0077   0.00    1.6
2173 298159.000    119286.5602  -5391117.8893   3394977.2052   2   7   0.0304   0.0356   0.0137  -0.0243  -0.0052   0.0078   0.00    1.6
2173 298160.000    119286.5562  -5391117.8874   3394977.2048   2   7   0.0303   0.0355   0.0135  -0.0243  -0.0053   0.0076   0.00    1.6
2173 298161.000    119286.5280  -5391117.8656   3394977.1994   2   7   0.0303   0.0355   0.0136  -0.0242  -0.0050   0.0075   0.00    1.6
2173 298162.000    119286.5275  -5391117.8584   3394977.1982   2   7   0.0302   0.0354   0.0135  -0.0242  -0.0052   0.0074   0.00    1.6
2173 298163.000    119286.5244  -5391117.8532   3394977.1991   2   7   0.0302   0.0353   0.0134  -0.0242  -0.0050   0.0075   0.00    1.6
2173 298164.000    119286.5255  -5391117.8500   3394977.1976   2   7   0.0301   0.0353   0.0133  -0.0242  -0.0049   0.0075   0.00    1.6
2173 298165.000    119286.5247  -5391117.8438   3394977.1986   2   7   0.0301   0.0352   0.0134  -0.0241  -0.0049   0.0075   0.00    1.6
2173 298166.000    119286.5273  -5391117.8411   3394977.2030   2   7   0.0301   0.0352   0.0133  -0.0241  -0.0048   0.0076   0.00    1.6
2173 298167.000    119286.5294  -5391117.8377   3394977.2037   2   7   0.0300   0.0351   0.0133  -0.0241  -0.0049   0.0075   0.00    1.6
2173 298168.000    119286.5323  -5391117.8300   3394977.2046   2   7   0.0300   0.0351   0.0133  -0.0240  -0.0050   0.0075   0.00    1.6
2173 298169.000    119286.5353  -5391117.8283   3394977.2057   2   7   0.0300   0.0350   0.0133  -0.0240  -0.0049   0.0076   0.00    1.5
2173 298170.000    119286.5380  -5391117.8203   3394977.2034   2   7   0.0300   0.0349   0.0133  -0.0240  -0.0049   0.0075   0.00    1.5
