% program   : rnx2rtkp ver.2.4.3 b31
% inp file  : ngs/21_08_31_06_17_37_momf.obs
% inp file  : ngs/21_08_31_06_17_37_momf_VZ.obs
% inp file  : ngs/21_08_31_06_17_37_brdc.nav
% obs start : 2021/08/31 06:00:00.0 GPST (week2173 194400.0s)
% obs end   : 2021/08/31 06:59:59.0 GPST (week2173 197999.0s)
% ref pos   :  -267907.4471  -5072524.3183   3844925.1680
%
% (x/y/z-ecef=WGS84,Q=1:fix,2:float,3:sbas,4:dgps,5:single,6:ppp,ns=# of satellites)
%  GPST              x-ecef(m)      y-ecef(m)      z-ecef(m)   Q  ns   sdx(m)   sdy(m)   sdz(m)  sdxy(m)  sdyz(m)  sdzx(m) age(s)  ratio
2173 195446.000   -261331.5797  -5070388.1487   3848246.5463   2   7   0.4592   0.9540   0.8641   0.1158  -0.7837  -0.1555 -30.00    1.1
2173 195447.000   -261331.5892  -5070388.2729   3848246.5349   2   7   0.3267   0.6791   0.6144   0.0832  -0.5577  -0.1110 -29.00    1.0
2173 195448.000   -261331.5238  -5070388.2556   3848246.5834   2   7   0.2675   0.5561   0.5029   0.0681  -0.4566  -0.0909 -28.00    1.0
2173 195449.000   -261331.5056  -5070388.1542   3848246.5180   2   7   0.2321   0.4824   0.4362   0.0590  -0.3960  -0.0788 -27.00    1.0
2173 195450.000   -261331.5129  -5070388.2658   3848246.6360   2   7   0.2078   0.4320   0.3906   0.0527  -0.3546  -0.0705 -26.00    1.0
2173 195451.000   -261331.5195  -5070388.2209   3848246.5606   2   7   0.1899   0.3947   0.3569   0.0480  -0.3240  -0.0644 -25.00    1.0
2173 195452.000   -261331.4988  -5070388.2310   3848246.5622   2   7   0.1760   0.3657   0.3306   0.0444  -0.3001  -0.0596 -24.00    1.0
2173 195453.000   -261331.4835  -5070388.2248   3848246.5279   2   7   0.1647   0.3423   0.3094   0.0414  -0.2809  -0.0557 -23.00    1.0
2173 195454.000   -261331.4466  -5070388.2387   3848246.5654   2   7   0.1553   0.3228   0.2917   0.0390  -0.2649  -0.0525 -22.00    1.0
2173 195455.000   -261331.4361  -5070388.1987   3848246.5515   2   7   0.1474   0.3063   0.2768   0.0369  -0.2513  -0.0498 -21.00    1.1
2173 195456.000   -261331.4355  -5070388.1749   3848246.5107   2   7   0.1406   0.2921   0.2639   0.0351  -0.2396  -0.0475 -20.00    1.1
2173 195457.000   -261331.4315  -5070388.1827   3848246.5052   2   7   0.1346   0.2797   0.2526   0.0336  -0.2294  -0.0455 -19.00    1.2
2173 195458.000   -261331.4417  -5070388.2069   3848246.5222   2   7   0.1293   0.2687   0.2426   0.0322  -0.2204  -0.0437 -18.00    1.2
2173 195459.000   -261331.4421  -5070388.1891   3848246.5078   2   7   0.1246   0.2589   0.2337   0.0310  -0.2123  -0.0421 -17.00    1.2
2173 195460.000   -261331.4413  -5070388.1940   3848246.4895   2   7   0.1204   0.2501   0.2257   0.0299  -0.2050  -0.0406 -16.00    1.2
2173 195461.000   -261331.4429  -5070388.1944   3848246.4931   2   7   0.1166   0.2421   0.2184   0.0289  -0.1985  -0.0393 -15.00    1.3
2173 195462.000   -261331.4447  -5070388.1869   3848246.4943   2   7   0.1130   0.2348   0.2118   0.0280  -0.1925  -0.0381 -14.00    1.3
2173 195463.000   -261331.4484  -5070388.1725   3848246.5031   2   7   0.1098   0.2281   0.2057   0.0272  -0.1869  -0.0370 -13.00    1.4
2173 195464.000   -261331.4587  -5070388.1945   3848246.5210   2   7   0.1069   0.2220   0.2001   0.0264  -0.1819  -0.0360 -12.00    1.5
2173 195465.000   -261331.4650  -5070388.1878   3848246.5100   2   7   0.1041   0.2163   0.1949   0.0257  -0.1772  -0.0351 -11.00    1.5
2173 195466.000   -261331.4697  -5070388.1773   3848246.5165   2   7   0.1016   0.2110   0.1900   0.0251  -0.1728  -0.0342 -10.00    1.5
2173 195467.000   -261331.4644  -5070388.1898   3848246.5102   2   7   0.0992   0.2061   0.1855   0.0244  -0.1687  -0.0334  -9.00    1.6
2173 195468.000   -261331.4716  -5070388.1734   3848246.5001   2   7   0.0970   0.2015   0.1813   0.0239  -0.1649  -0.0327  -8.00    1.7
2173 195469.000   -261331.4776  -5070388.2167   3848246.5247   2   7   0.0949   0.1971   0.1773   0.0233  -0.1613  -0.0320  -7.00    1.8
2173 195470.000   -261331.4782  -5070388.2255   3848246.5446   2   7   0.0930   0.1931   0.1736   0.0229  -0.1580  -0.0313  -6.00    1.9
2173 195471.000   -261331.4860  -5070388.2407   3848246.5607   2   7   0.0912   0.1893   0.1701   0.0223  -0.1548  -0.0307  -5.00    2.2
2173 195472.000   -261331.4929  -5070388.2459   3848246.5669   2   7   0.0894   0.1856   0.1668   0.0219  -0.1518  -0.0301  -4.00    2.6
2173 195473.000   -261331.7178  -5070388.0941   3848246.5705   1   7   0.0054   0.0108   0.0099  -0.0008  -0.0089  -0.0020  -3.00    3.1
2173 195474.000   -261331.7178  -5070388.0978   3848246.5709   1   7   0.0052   0.0102   0.0092   0.0007  -0.0083  -0.0019  -2.00    3.6
2173 195475.000   -261331.7166  -5070388.0986   3848246.5739   1   7   0.0051   0.0098   0.0089   0.0012  -0.0079  -0.0014  -1.00    4.1
2173 195476.000   -261331.7140  -5070388.1002   3848246.5714   1   7   0.0046   0.0097   0.0086   0.0012  -0.0079  -0.0022   0.00    4.7
2173 195477.000   -261331.7152  -5070388.1032   3848246.5716   1   7   0.0043   0.0096   0.0087   0.0019  -0.0079  -0.0006   0.00    5.5
2173 195478.000   -261331.7150  -5070388.1026   3848246.5684   1   7   0.0046   0.0096   0.0085   0.0007  -0.0079  -0.0016   0.00    6.3
2173 195479.000   -261331.7152  -5070388.0993   3848246.5692   1   7   0.0048   0.0096   0.0087  -0.0003  -0.0079  -0.0019   0.00    7.0
2173 195480.000   -261331.7129  -5070388.0999   3848246.5662   1   7   0.0041   0.0097   0.0086   0.0020  -0.0078  -0.0017   0.00    7.7
2173 195481.000   -261331.7155  -5070388.0979   3848246.5663   1   7   0.0046   0.0096   0.0085   0.0007  -0.0079  -0.0015   0.00    8.1
2173 195482.000   -261331.7170  -5070388.1002   3848246.5722   1   7   0.0049   0.0097   0.0087  -0.0011  -0.0079  -0.0026   0.00    8.7
2173 195483.000   -261331.7163  -5070388.1015   3848246.5741   1   7   0.0046   0.0096   0.0086   0.0012  -0.0079  -0.0014   0.00    9.4
2173 195484.000   -261331.7156  -5070388.0997   3848246.5678   1   7   0.0045   0.0096   0.0084   0.0017  -0.0079  -0.0018   0.00   10.2
2173 195485.000   -261331.7115  -5070388.1037   3848246.5707   1   7   0.0046   0.0096   0.0086   0.0015  -0.0079  -0.0006   0.00   10.5
2173 195486.000   -261331.7132  -5070388.1001   3848246.5666   1   7   0.0047   0.0096   0.0087   0.0018  -0.0079  -0.0006   0.00   11.2
2173 195487.000   -261331.7159  -5070388.1041   3848246.5739   1   7   0.0046   0.0096   0.0087   0.0012  -0.0079  -0.0017   0.00   11.9
2173 195488.000   -261331.7133  -5070388.0984   3848246.5664   1   7   0.0042   0.0096   0.0085   0.0014  -0.0079  -0.0016   0.00   12.5
2173 195489.000   -261331.7152  -5070388.0998   3848246.5688   1   7   0.0047   0.0097   0.0087   0.0014  -0.0078  -0.0020   0.00   12.8
2173 195490.000   -261331.7167  -5070388.0988   3848246.5672   1   7   0.0049   0.0097   0.0086  -0.0007  -0.0079  -0.0018   0.00   13.0
2173 195491.000   -261331.7159  -5070388.1013   3848246.5691   1   7   0.0045   0.0096   0.0087   0.0020  -0.0079  -0.0020   0.00   13.2
2173 195492.000   -261331.7145  -5070388.0999   3848246.5668   1   7   0.0049   0.0097   0.0088   0.0008  -0.0078  -0.0020   0.00   13.5
2173 195493.000   -261331.7153  -5070388.0967   3848246.5683   1   7   0.0042   0.0096   0.0086   0.0020  -0.0079   0.0004   0.00   14.2
2173 195494.000   -261331.7149  -5070388.1031   3848246.5699   1   7   0.0046   0.0097   0.0087   0.0012  -0.0079  -0.0020   0.00   14.9
2173 195495.000   -261331.7167  -5070388.0978   3848246.5704   1   7   0.0046   0.0096   0.0087   0.0016  -0.0079  -0.0015   0.00   15.0
2173 195496.000   -261331.7182  -5070388.0989   3848246.5701   1   7   0.0047   0.0098   0.0089   0.0003  -0.0080  -0.0013   1.00   15.3
2173 195497.000   -261331.7196  -5070388.0959   3848246.5670   1   7   0.0045   0.0096   0.0086   0.0012  -0.0079  -0.0022   0.00   15.4
2173 195498.000   -261331.7172  -5070388.1052   3848246.5723   1   7   0.0041   0.0097   0.0085   0.0017  -0.0079  -0.0016   0.00   15.9
2173 195499.000   -261331.7182  -5070388.0999   3848246.5696   1   7   0.0048   0.0096   0.0086   0.0009  -0.0079  -0.0012   0.00   16.6
2173 195500.000   -261331.7188  -5070388.1001   3848246.5707   1   7   0.0047   0.0096   0.0085   0.0013  -0.0079  -0.0019   0.00   16.9
2173 195501.000   -261331.7182  -5070388.1001   3848246.5723   1   7   0.0043   0.0096   0.0085   0.0013  -0.0079  -0.0021   0.00   17.3
2173 195502.000   -261331.7182  -5070388.1003   3848246.5663   1   7   0.0050   0.0097   0.0085   0.0016  -0.0078  -0.0020   0.00   17.4
2173 195503.000   -261331.7181  -5070388.0969   3848246.5676   1   7   0.0041   0.0096   0.0087   0.0013  -0.0079  -0.0007   0.00   17.6
2173 195504.000   -261331.7196  -5070388.0996   3848246.5684   1   7   0.0044   0.0096   0.0087   0.0017  -0.0078   0.0005   0.00   17.6
2173 195505.000   -261331.7179  -5070388.0895   3848246.5636   1   7   0.0047   0.0097   0.0086   0.0009  -0.0078  -0.0022   0.00   17.6
2173 195506.000   -261331.7167  -5070388.0948   3848246.5651   1   7   0.0046   0.0097   0.0086   0.0011  -0.0078  -0.0016   0.00   18.1
2173 195507.000   -261331.7150  -5070388.1048   3848246.5724   1   7   0.0045   0.0095   0.0087   0.0021  -0.0079  -0.0010   0.00   18.2
2173 195508.000   -261331.7193  -5070388.1042   3848246.5731   1   7   0.0043   0.0097   0.0086   0.0012  -0.0078  -0.0015   0.00   18.0
2173 195509.000   -261331.7177  -5070388.0983   3848246.5704   1   7   0.0048   0.0096   0.0086   0.0007  -0.0079  -0.0017   0.00   18.0
2173 195510.000   -261331.7169  -5070388.1019   3848246.5736   1   7   0.0050   0.0097   0.0085   0.0001  -0.0078  -0.0019   0.00   18.2
2173 195511.000   -261331.7193  -5070388.1015   3848246.5714   1   7   0.0044   0.0097   0.0085   0.0007  -0.0078  -0.0016   0.00   18.5
2173 195512.000   -261331.7203  -5070388.0968   3848246.5679   1   7   0.0049   0.0097   0.0087  -0.0008  -0.0078  -0.0020   0.00   19.1
2173 195513.000   -261331.7197  -5070388.0984   3848246.5685   1   7   0.0046   0.0096   0.0085  -0.0013  -0.0079  -0.0023   0.00   19.6
2173 195514.000   -261331.7194  -5070388.0991   3848246.5703   1   7   0.0048   0.0096   0.0085  -0.0004  -0.0079  -0.0018   0.00   19.7
2173 195515.000   -261331.7184  -5070388.1020   3848246.5700   1   7   0.0044   0.0096   0.0087   0.0016  -0.0078  -0.0010   0.00   19.6
2173 195516.000   -261331.7195  -5070388.1005   3848246.5684   1   7   0.0044   0.0096   0.0085   0.0019  -0.0079  -0.0019   0.00   19.7
2173 195517.000   -261331.7180  -5070388.1049   3848246.5734   1   7   0.0048   0.0096   0.0087   0.0006  -0.0078  -0.0019   0.00   19.8
2173 195518.000   -261331.7164  -5070388.0991   3848246.5680   1   7   0.0044   0.0097   0.0087   0.0007  -0.0078  -0.0015   0.00   19.7
2173 195519.000   -261331.7179  -5070388.0962   3848246.5672   1   7   0.0046   0.0095   0.0085   0.0012  -0.0080  -0.0019   0.00   19.9
2173 195520.000   -261331.7164  -5070388.1005   3848246.5703   1   7   0.0046   0.0096   0.0086  -0.0004  -0.0078  -0.0017   0.00   19.8
2173 195521.000   -261331.7176  -5070388.0978   3848246.5664   1   7   0.0047   0.0097   0.0085   0.0008  -0.0077  -0.0017   0.00   19.7
2173 195522.000   -261331.7188  -5070388.1015   3848246.5716   1   7   0.0040   0.0096   0.0086   0.0021  -0.0078  -0.0011   0.00   19.5
2173 195523.000   -261331.7196  -5070388.0996   3848246.5730   1   7   0.0045   0.0097   0.0086   0.0015  -0.0078  -0.0011   0.00   19.6
2173 195524.000   -261331.7181  -5070388.0999   3848246.5705   1   7   0.0048   0.0096   0.0085  -0.0005  -0.0079  -0.0021   0.00   19.6
2173 195525.000   -261331.7191  -5070388.1049   3848246.5717   1   7   0.0045   0.0097   0.0086   0.0013  -0.0078  -0.0014   0.00   19.5
2173 195526.000   -261331.7197  -5070388.0972   3848246.5674   1   7   0.0051   0.0097   0.0086   0.0002  -0.0078  -0.0018   0.00   19.5
2173 195527.000   -261331.7176  -5070388.1015   3848246.5696   1   7   0.0045   0.0096   0.0085  -0.0005  -0.0079  -0.0016   0.00   19.6
2173 195528.000   -261331.7195  -5070388.1038   3848246.5735   1   7   0.0046   0.0097   0.0086   0.0009  -0.0079  -0.0019   0.00   19.4
2173 195529.000   -261331.7199  -5070388.1037   3848246.5727   1   7   0.0047   0.0096   0.0085   0.0009  -0.0079  -0.0019   0.00   19.6
2173 195530.000   -261331.7188  -5070388.1012   3848246.5724   1   7   0.0046   0.0096   0.0087   0.0018  -0.0078  -0.0013   0.00   19.4
2173 195531.000   -261331.7188  -5070388.1006   3848246.5733   1   7   0.0046   0.0096   0.0086   0.0013  -0.0078  -0.0019   0.00   19.4
2173 195532.000   -261331.7174  -5070388.0990   3848246.5670   1   7   0.0047   0.0097   0.0086   0.0015  -0.0078  -0.0017   0.00   19.4
2173 195533.000   -261331.7188  -5070388.0961   3848246.5698   1   7   0.0044   0.0096   0.0086  -0.0006  -0.0079  -0.0015   0.00   19.4
2173 195534.000   -261331.7154  -5070388.0986   3848246.5677   1   7   0.0040   0.0096   0.0086   0.0013  -0.0079  -0.0015   0.00   19.5
2173 195535.000   -261331.7197  -5070388.1003   3848246.5730   1   7   0.0048   0.0097   0.0086  -0.0006  -0.0078  -0.0019   0.00   19.6
2173 195536.000   -261331.7187  -5070388.1026   3848246.5719   1   7   0.0050   0.0096   0.0087   0.0012  -0.0078   0.0004   0.00   19.4
2173 195537.000   -261331.7155  -5070388.0958   3848246.5667   1   7   0.0046   0.0096   0.0085   0.0012  -0.0079  -0.0018   0.00   19.4
2173 195538.000   -261331.7180  -5070388.0939   3848246.5691   1   7   0.0046   0.0096   0.0086   0.0020  -0.0079   0.0006   0.00   19.3
2173 195539.000   -261331.7186  -5070388.0992   3848246.5692   1   7   0.0040   0.0096   0.0086   0.0017  -0.0079  -0.0018   0.00   19.2
2173 195540.000   -261331.7187  -5070388.1015   3848246.5725   1   7   0.0048   0.0097   0.0085   0.0012  -0.0079  -0.0011   0.00   19.3
2173 195541.000   -261331.7199  -5070388.0989   3848246.5717   1   7   0.0049   0.0097   0.0086   0.0008  -0.0078  -0.0013   0.00   19.1
2173 195542.000   -261331.7194  -5070388.1006   3848246.5753   1   7   0.0050   0.0097   0.0087   0.0014  -0.0077  -0.0015   0.00   19.1
2173 195543.000   -261331.7192  -5070388.1060   3848246.5761   1   7   0.0046   0.0097   0.0086   0.0012  -0.0078  -0.0011   0.00   19.0
2173 195544.000   -261331.7184  -5070388.1030   3848246.5737   1   7   0.0047   0.0096   0.0085   0.0008  -0.0079  -0.0020   0.00   18.8
2173 195545.000   -261331.7170  -5070388.1012   3848246.5762   1   7   0.0048   0.0096   0.0086   0.0018  -0.0078  -0.0015   0.00   18.6
2173 195546.000   -261331.7210  -5070388.1023   3848246.5735   1   7   0.0050   0.0096   0.0085   0.0010  -0.0078  -0.0014   0.00   18.5
2173 195547.000   -261331.7188  -5070388.0996   3848246.5715   1   7   0.0048   0.0096   0.0084   0.0013  -0.0078  -0.0017   0.00   18.5
2173 195548.000   -261331.7216  -5070388.1007   3848246.5703   1   7   0.0047   0.0096   0.0085   0.0017  -0.0079  -0.0011   0.00   18.5
2173 195549.000   -261331.7200  -5070388.1012   3848246.5703   1   7   0.0049   0.0098   0.0086   0.0003  -0.0076  -0.0018   0.00   18.5
2173 195550.000   -261331.7184  -5070388.1068   3848246.5770   1   7   0.0045   0.0096   0.0087   0.0017  -0.0078  -0.0013   0.00   18.5
2173 195551.000   -261331.7199  -5070388.1020   3848246.5717   1   7   0.0044   0.0096   0.0084   0.0011  -0.0079  -0.0017   0.00   18.4
2173 195552.000   -261331.7211  -5070388.1035   3848246.5733   1   7   0.0050   0.0096   0.0084   0.0004  -0.0078  -0.0022   0.00   18.4
2173 195553.000   -261331.7210  -5070388.1025   3848246.5742   1   7   0.0045   0.0097   0.0087   0.0017  -0.0077  -0.0014   0.00   18.2
2173 195554.000   -261331.7187  -5070388.0999   3848246.5692   1   7   0.0053   0.0097   0.0085  -0.0010  -0.0077  -0.0021   0.00   18.0
2173 195555.000   -261331.7205  -5070388.0948   3848246.5655   1   7   0.0047   0.0097   0.0085  -0.0002  -0.0078  -0.0023   0.00   17.9
2173 195556.000   -261331.7217  -5070388.0988   3848246.5728   1   7   0.0047   0.0096   0.0086   0.0009  -0.0078  -0.0017   0.00   17.6
2173 195557.000   -261331.7194  -5070388.0985   3848246.5700   1   7   0.0046   0.0096   0.0085   0.0018  -0.0078  -0.0012   0.00   17.5
2173 195558.000   -261331.7178  -5070388.1030   3848246.5755   1   7   0.0046   0.0096   0.0088   0.0016  -0.0078  -0.0009   0.00   17.4
2173 195559.000   -261331.7182  -5070388.0992   3848246.5757   1   7   0.0046   0.0096   0.0086   0.0008  -0.0078  -0.0014   0.00   17.3
2173 195560.000   -261331.7179  -5070388.0921   3848246.5712   1   7   0.0040   0.0096   0.0084   0.0015  -0.0078  -0.0020   0.00   17.3
2173 195561.000   -261331.7195  -5070388.0974   3848246.5716   1   7   0.0047   0.0095   0.0085   0.0010  -0.0080  -0.0015   0.00   17.2
2173 195562.000   -261331.7191  -5070388.1005   3848246.5736   1   7   0.0047   0.0097   0.0086   0.0008  -0.0078  -0.0021   0.00   17.1
2173 195563.000   -261331.7224  -5070388.1018   3848246.5729   1   7   0.0047   0.0096   0.0085  -0.0005  -0.0078  -0.0020   0.00   16.9
2173 195564.000   -261331.7193  -5070388.1042   3848246.5758   1   7   0.0047   0.0096   0.0083   0.0002  -0.0078  -0.0024   0.00   16.7
2173 195565.000   -261331.7216  -5070388.1020   3848246.5726   1   7   0.0043   0.0096   0.0085   0.0012  -0.0078  -0.0014   0.00   16.6
2173 195566.000   -261331.7212  -5070388.0976   3848246.5690   1   7   0.0045   0.0096   0.0085   0.0015  -0.0078  -0.0014   0.00   16.4
2173 195567.000   -261331.7201  -5070388.0962   3848246.5701   1   7   0.0044   0.0095   0.0084   0.0015  -0.0079  -0.0017   0.00   16.3
2173 195568.000   -261331.7200  -5070388.1003   3848246.5733   1   7   0.0049   0.0096   0.0086   0.0008  -0.0077  -0.0025   0.00   16.3
2173 195569.000   -261331.7177  -5070388.1040   3848246.5738   1   7   0.0046   0.0096   0.0086   0.0013  -0.0078   0.0006   0.00   16.1
2173 195570.000   -261331.7196  -5070388.0969   3848246.5684   1   7   0.0044   0.0096   0.0084   0.0020  -0.0079  -0.0016   0.00   16.0
2173 195571.000   -261331.7186  -5070388.0926   3848246.5657   1   7   0.0045   0.0096   0.0086   0.0018  -0.0077  -0.0019   0.00   15.8
2173 195572.000   -261331.7221  -5070388.0950   3848246.5684   1   7   0.0045   0.0096   0.0085   0.0018  -0.0078  -0.0016   0.00   15.7
2173 195573.000   -261331.7204  -5070388.0966   3848246.5706   1   7   0.0046   0.0096   0.0085   0.0009  -0.0079  -0.0015   0.00   15.6
2173 195574.000   -261331.7211  -5070388.0936   3848246.5672   1   7   0.0044   0.0097   0.0087   0.0015  -0.0077  -0.0003   0.00   15.7
2173 195575.000   -261331.7184  -5070388.0905   3848246.5640   1   7   0.0043   0.0096   0.0085   0.0022  -0.0078  -0.0012   0.00   15.6
2173 195576.000   -261331.7177  -5070388.0934   3848246.5654   1   7   0.0046   0.0095   0.0087   0.0014  -0.0079  -0.0014   0.00   15.5
2173 195577.000   -261331.7188  -5070388.0954   3848246.5705   1   7   0.0047   0.0097   0.0085   0.0002  -0.0078  -0.0019   0.00   15.4
2173 195578.000   -261331.7189  -5070388.0960   3848246.5669   1   7   0.0050   0.0097   0.0086   0.0008  -0.0077  -0.0014   0.00   15.4
2173 195579.000   -261331.7194  -5070388.0966   3848246.5677   1   7   0.0042   0.0097   0.0085   0.0016  -0.0078  -0.0009   0.00   15.5
2173 195580.000   -261331.7199  -5070388.0996   3848246.5714   1   7   0.0048   0.0096   0.0084   0.0013  -0.0078  -0.0023   0.00   15.5
2173 195581.000   -261331.7196  -5070388.0969   3848246.5684   1   7   0.0049   0.0096   0.0086   0.0010  -0.0078   0.0010   0.00   15.4
2173 195582.000   -261331.7215  -5070388.0934   3848246.5687   1   7   0.0044   0.0096   0.0084   0.0015  -0.0078  -0.0017   0.00   15.4
2173 195583.000   -261331.7190  -5070388.0967   3848246.5719   1   7   0.0050   0.0097   0.0085  -0.0004  -0.0077  -0.0015   0.00   15.4
2173 195584.000   -261331.7206  -5070388.0939   3848246.5676   1   7   0.0046   0.0096   0.0085   0.0017  -0.0077  -0.0014   0.00   15.4
2173 195585.000   -261331.7215  -5070388.0980   3848246.5689   1   7   0.0053   0.0097   0.0085   0.0004  -0.0078  -0.0021   0.00   15.3
2173 195586.000   -261331.7206  -5070388.0991   3848246.5724   1   7   0.0052   0.0097   0.0086  -0.0007  -0.0078  -0.0017   0.00   15.3
2173 195587.000   -261331.7173  -5070388.0989   3848246.5719   1   7   0.0046   0.0097   0.0086   0.0013  -0.0077  -0.0016   0.00   15.3
2173 195588.000   -261331.7220  -5070388.0996   3848246.5750   1   7   0.0044   0.0096   0.0083   0.0011  -0.0078  -0.0019   0.00   15.2
2173 195589.000   -261331.7208  -5070388.1016   3848246.5713   1   7   0.0051   0.0096   0.0083   0.0004  -0.0078  -0.0026   0.00   15.3
2173 195590.000   -261331.7169  -5070388.1022   3848246.5752   1   7   0.0047   0.0096   0.0086   0.0020  -0.0078  -0.0013   0.00   15.2
2173 195591.000   -261331.7188  -5070388.0948   3848246.5703   1   7   0.0048   0.0097   0.0086   0.0017  -0.0077  -0.0013   0.00   15.2
2173 195592.000   -261331.7170  -5070388.0947   3848246.5666   1   7   0.0047   0.0095   0.0084   0.0010  -0.0079  -0.0023   0.00   15.1
2173 195593.000   -261331.7174  -5070388.0968   3848246.5683   1   7   0.0048   0.0097   0.0087   0.0014  -0.0077  -0.0012   0.00   15.0
2173 195594.000   -261331.7194  -5070388.0927   3848246.5672   1   7   0.0045   0.0096   0.0085   0.0011  -0.0078  -0.0021   0.00   15.0
2173 195595.000   -261331.7189  -5070388.1037   3848246.5714   1   7   0.0041   0.0096   0.0085   0.0015  -0.0078  -0.0018   0.00   14.9
2173 195596.000   -261331.7190  -5070388.0992   3848246.5721   1   7   0.0045   0.0096   0.0084   0.0009  -0.0078  -0.0022   0.00   14.8
2173 195597.000   -261331.7164  -5070388.0978   3848246.5699   1   7   0.0046   0.0096   0.0085   0.0010  -0.0078  -0.0015   0.00   14.8
2173 195598.000   -261331.7195  -5070388.0926   3848246.5658   1   7   0.0048   0.0097   0.0085   0.0011  -0.0078  -0.0023   0.00   14.7
2173 195599.000   -261331.7176  -5070388.0937   3848246.5674   1   7   0.0050   0.0098   0.0087   0.0010  -0.0076  -0.0023   0.00   14.7
2173 195600.000   -261331.7169  -5070388.0902   3848246.5632   1   7   0.0042   0.0096   0.0085   0.0011  -0.0078  -0.0016   0.00   14.6
2173 195601.000   -261331.7212  -5070388.0962   3848246.5695   1   7   0.0048   0.0096   0.0085  -0.0001  -0.0078  -0.0021   0.00   14.6
2173 195602.000   -261331.7164  -5070388.1009   3848246.5733   1   7   0.0048   0.0097   0.0085   0.0019  -0.0078  -0.0016   0.00   14.6
2173 195603.000   -261331.7184  -5070388.1036   3848246.5717   1   7   0.0048   0.0096   0.0085   0.0010  -0.0077  -0.0018   0.00   14.6
2173 195604.000   -261331.7188  -5070388.0995   3848246.5693   1   7   0.0044   0.0096   0.0085   0.0019  -0.0078  -0.0023   0.00   14.5
2173 195605.000   -261331.7211  -5070388.1035   3848246.5703   1   7   0.0052   0.0097   0.0086   0.0011  -0.0077  -0.0017   0.00   14.3
2173 195606.000   -261331.7201  -5070388.1040   3848246.5740   1   7   0.0049   0.0097   0.0084  -0.0009  -0.0078  -0.0021   0.00   14.3
2173 195607.000   -261331.7175  -5070388.0940   3848246.5690   1   7   0.0049   0.0096   0.0085   0.0012  -0.0077  -0.0018   0.00   14.3
2173 195608.000   -261331.7192  -5070388.0955   3848246.5708   1   7   0.0053   0.0097   0.0087  -0.0006  -0.0077  -0.0020   0.00   14.2
2173 195609.000   -261331.7189  -5070388.0937   3848246.5681   1   7   0.0050   0.0096   0.0084  -0.0006  -0.0078  -0.0019   0.00   14.2
2173 195610.000   -261331.7158  -5070388.0909   3848246.5690   1   7   0.0049   0.0097   0.0086   0.0003  -0.0077  -0.0016   0.00   14.3
2173 195611.000   -261331.7175  -5070388.0934   3848246.5702   1   7   0.0047   0.0096   0.0083   0.0015  -0.0077  -0.0019   0.00   14.4
2173 195612.000   -261331.7190  -5070388.0938   3848246.5700   1   7   0.0052   0.0097   0.0086  -0.0006  -0.0077  -0.0014   0.00   14.4
2173 195613.000   -261331.7185  -5070388.0933   3848246.5713   1   7   0.0047   0.0096   0.0084   0.0010  -0.0078  -0.0020   0.00   14.4
2173 195614.000   -261331.7171  -5070388.0908   3848246.5662   1   7   0.0049   0.0096   0.0086   0.0006  -0.0078  -0.0021   0.00   14.4
2173 195615.000   -261331.7199  -5070388.0896   3848246.5645   1   7   0.0049   0.0097   0.0086  -0.0014  -0.0077  -0.0021   0.00   14.3
2173 195616.000   -261331.7181  -5070388.0967   3848246.5687   1   7   0.0046   0.0096   0.0084  -0.0010  -0.0079  -0.0011   0.00   14.3
2173 195617.000   -261331.7159  -5070388.0919   3848246.5643   1   7   0.0045   0.0096   0.0086   0.0016  -0.0078  -0.0011   0.00   14.4
2173 195618.000   -261331.7189  -5070388.0928   3848246.5662   1   7   0.0049   0.0097   0.0085  -0.0013  -0.0077  -0.0019   0.00   14.4
2173 195619.000   -261331.7199  -5070388.0929   3848246.5675   1   7   0.0043   0.0096   0.0085   0.0014  -0.0079  -0.0013   0.00   14.4
2173 195620.000   -261331.7200  -5070388.0966   3848246.5689   1   7   0.0049   0.0097   0.0084  -0.0004  -0.0077  -0.0025   0.00   14.4
2173 195621.000   -261331.7212  -5070388.0907   3848246.5627   1   7   0.0044   0.0095   0.0084   0.0009  -0.0079  -0.0018   0.00   14.4
2173 195622.000   -261331.7200  -5070388.0992   3848246.5683   1   7   0.0042   0.0095   0.0083   0.0018  -0.0079  -0.0011   0.00   14.4
2173 195623.000   -261331.7196  -5070388.0943   3848246.5676   1   7   0.0049   0.0096   0.0084  -0.0011  -0.0078  -0.0018   0.00   14.4
2173 195624.000   -261331.7189  -5070388.0920   3848246.5646   1   7   0.0050   0.0096   0.0085   0.0012  -0.0077  -0.0022   0.00   14.3
2173 195625.000   -261331.7174  -5070388.0941   3848246.5674   1   7   0.0050   0.0096   0.0085   0.0012  -0.0078  -0.0016   0.00   14.3
2173 195626.000   -261331.7174  -5070388.0940   3848246.5616   1   7   0.0047   0.0097   0.0085  -0.0008  -0.0077  -0.0016   0.00   14.2
2173 195627.000   -261331.7213  -5070388.0948   3848246.5677   1   7   0.0044   0.0095   0.0082   0.0022  -0.0079  -0.0013   0.00   14.2
2173 195628.000   -261331.7214  -5070388.0943   3848246.5683   1   7   0.0048   0.0096   0.0087   0.0005  -0.0077  -0.0012   0.00   14.1
2173 195629.000   -261331.7212  -5070388.0949   3848246.5665   1   7   0.0052   0.0097   0.0084   0.0014  -0.0078  -0.0021   0.00   14.1
2173 195630.000   -261331.7213  -5070388.0876   3848246.5647   1   7   0.0048   0.0096   0.0085  -0.0009  -0.0078  -0.0016   0.00   14.0
2173 195631.000   -261331.7213  -5070388.0910   3848246.5633   1   7   0.0045   0.0096   0.0085   0.0008  -0.0078  -0.0018   0.00   14.0
2173 195632.000   -261331.7216  -5070388.0975   3848246.5682   1   7   0.0045   0.0096   0.0085   0.0002  -0.0078  -0.0019   0.00   14.0
2173 195633.000   -261331.7229  -5070388.0971   3848246.5679   1   7   0.0046   0.0096   0.0084   0.0019  -0.0078  -0.0020   0.00   14.0
2173 195634.000   -261331.7223  -5070388.0913   3848246.5611   1   7   0.0047   0.0097   0.0085   0.0015  -0.0077  -0.0014   0.00   14.1
2173 195635.000   -261331.7205  -5070388.0968   3848246.5678   1   7   0.0054   0.0096   0.0085  -0.0007  -0.0078  -0.0021   0.00   14.1
2173 195636.000   -261331.7228  -5070388.0925   3848246.5645   1   7   0.0051   0.0097   0.0084   0.0010  -0.0077  -0.0023   0.00   14.1
2173 195637.000   -261331.7197  -5070388.0894   3848246.5639   1   7   0.0050   0.0096   0.0086  -0.0012  -0.0078  -0.0020   0.00   14.1
2173 195638.000   -261331.7201  -5070388.0896   3848246.5636   1   7   0.0046   0.0095   0.0085   0.0010  -0.0078  -0.0014   0.00   14.1
2173 195639.000   -261331.7223  -5070388.0967   3848246.5704   1   7   0.0046   0.0096   0.0084   0.0014  -0.0077  -0.0021   0.00   14.1
2173 195640.000   -261331.7209  -5070388.1015   3848246.5756   1   7   0.0046   0.0096   0.0084   0.0020  -0.0078   0.0006   0.00   14.1
2173 195641.000   -261331.7203  -5070388.0953   3848246.5676   1   7   0.0045   0.0096   0.0085   0.0018  -0.0077  -0.0021   0.00   14.1
2173 195642.000   -261331.7194  -5070388.0971   3848246.5677   1   7   0.0048   0.0096   0.0085   0.0013  -0.0078  -0.0021   0.00   14.1
2173 195643.000   -261331.7204  -5070388.0888   3848246.5655   1   7   0.0047   0.0095   0.0085   0.0024  -0.0078  -0.0013   0.00   14.1
2173 195644.000   -261331.7205  -5070388.0902   3848246.5626   1   7   0.0048   0.0096   0.0086   0.0013  -0.0077  -0.0016   0.00   14.2
2173 195645.000   -261331.7195  -5070388.0946   3848246.5650   1   7   0.0044   0.0097   0.0084   0.0016  -0.0077  -0.0020   0.00   14.2
2173 195646.000   -261331.7191  -5070388.0908   3848246.5620   1   7   0.0047   0.0096   0.0083   0.0013  -0.0078  -0.0021   0.00   14.2
2173 195647.000   -261331.7172  -5070388.0957   3848246.5694   1   7   0.0047   0.0096   0.0084   0.0015  -0.0078  -0.0018   0.00   14.2
2173 195648.000   -261331.7177  -5070388.0965   3848246.5679   1   7   0.0049   0.0097   0.0085   0.0010  -0.0077  -0.0011   0.00   14.2
2173 195649.000   -261331.7228  -5070388.0896   3848246.5637   1   7   0.0049   0.0096   0.0085   0.0010  -0.0077  -0.0013   0.00   14.2
2173 195650.000   -261331.7203  -5070388.0919   3848246.5644   1   7   0.0045   0.0096   0.0084  -0.0010  -0.0078  -0.0018   0.00   14.2
2173 195651.000   -261331.7204  -5070388.0884   3848246.5626   1   7   0.0043   0.0096   0.0085   0.0013  -0.0078  -0.0019   0.00   14.2
2173 195652.000   -261331.7208  -5070388.0964   3848246.5664   1   7   0.0048   0.0096   0.0084   0.0013  -0.0078  -0.0017   0.00   14.2
2173 195653.000   -261331.7206  -5070388.0905   3848246.5599   1   7   0.0051   0.0097   0.0086   0.0009  -0.0077  -0.0015   0.00   14.2
2173 195654.000   -261331.7216  -5070388.1004   3848246.5671   1   7   0.0047   0.0096   0.0082   0.0016  -0.0078  -0.0014   0.00   14.2
2173 195655.000   -261331.7194  -5070388.0869   3848246.5583   1   7   0.0047   0.0096   0.0085   0.0022  -0.0077  -0.0014   0.00   14.2
2173 195656.000   -261331.7187  -5070388.0950   3848246.5614   1   7   0.0047   0.0095   0.0085   0.0009  -0.0078   0.0008   0.00   14.2
2173 195657.000   -261331.7192  -5070388.0903   3848246.5606   1   7   0.0052   0.0096   0.0085  -0.0005  -0.0078  -0.0021   0.00   14.1
2173 195658.000   -261331.7196  -5070388.0926   3848246.5608   1   7   0.0045   0.0097   0.0084   0.0013  -0.0077  -0.0017   0.00   14.2
2173 195659.000   -261331.7173  -5070388.0959   3848246.5656   1   7   0.0044   0.0096   0.0084   0.0014  -0.0078  -0.0014   0.00   14.1
2173 195660.000   -261331.7178  -5070388.0917   3848246.5562   1   7   0.0045   0.0097   0.0084   0.0012  -0.0077  -0.0021   0.00   14.2
2173 195661.000   -261331.7171  -5070388.0890   3848246.5552   1   7   0.0049   0.0096   0.0087   0.0016  -0.0077  -0.0016   0.00   14.2
2173 195662.000   -261331.7198  -5070388.0882   3848246.5595   1   7   0.0046   0.0096   0.0085   0.0021  -0.0077   0.0001   0.00   14.2
2173 195663.000   -261331.7176  -5070388.0938   3848246.5620   1   7   0.0051   0.0096   0.0086  -0.0005  -0.0078  -0.0019   0.00   14.3
2173 195664.000   -261331.7221  -5070388.0926   3848246.5651   1   7   0.0051   0.0096   0.0084   0.0007  -0.0078  -0.0022   0.00   14.3
2173 195665.000   -261331.7198  -5070388.0880   3848246.5627   1   7   0.0050   0.0097   0.0085   0.0018  -0.0077  -0.0020   0.00   14.3
2173 195666.000   -261331.7170  -5070388.0910   3848246.5587   1   7   0.0045   0.0096   0.0082   0.0014  -0.0078  -0.0018   0.00   14.3
2173 195667.000   -261331.7193  -5070388.0913   3848246.5577   1   7   0.0049   0.0097   0.0083   0.0007  -0.0077  -0.0018   0.00   14.4
2173 195668.000   -261331.7183  -5070388.0941   3848246.5617   1   7   0.0044   0.0096   0.0082   0.0013  -0.0078  -0.0020   0.00   14.4
2173 195669.000   -261331.7176  -5070388.0910   3848246.5602   1   7   0.0049   0.0096   0.0084   0.0007  -0.0077  -0.0024   0.00   14.4
2173 195670.000   -261331.7208  -5070388.0927   3848246.5610   1   7   0.0045   0.0097   0.0085   0.0008  -0.0077  -0.0014   0.00   14.4
2173 195671.000   -261331.7174  -5070388.0911   3848246.5586   1   7   0.0052   0.0097   0.0084   0.0011  -0.0077  -0.0019   0.00   14.4
2173 195672.000   -261331.7191  -5070388.0960   3848246.5627   1   7   0.0050   0.0097   0.0084  -0.0012  -0.0077  -0.0016   0.00   14.4
2173 195673.000   -261331.7192  -5070388.0949   3848246.5616   1   7   0.0051   0.0097   0.0083  -0.0008  -0.0077  -0.0023   0.00   14.4
2173 195674.000   -261331.7155  -5070388.0913   3848246.5560   1   7   0.0050   0.0097   0.0084  -0.0008  -0.0076  -0.0023   0.00   14.4
2173 195675.000   -261331.7154  -5070388.0916   3848246.5599   1   7   0.0045   0.0097   0.0084   0.0008  -0.0077  -0.0012   0.00   14.4
2173 195676.000   -261331.7139  -5070388.0827   3848246.5550   1   7   0.0048   0.0097   0.0083   0.0017  -0.0076  -0.0018   0.00   14.6
2173 195677.000   -261331.7186  -5070388.0894   3848246.5595   1   7   0.0046   0.0096   0.0085   0.0011  -0.0077  -0.0021   0.00   14.6
2173 195678.000   -261331.7147  -5070388.0917   3848246.5610   1   7   0.0051   0.0097   0.0085  -0.0015  -0.0078  -0.0020   0.00   14.7
2173 195679.000   -261331.7174  -5070388.0955   3848246.5640   1   7   0.0049   0.0097   0.0084  -0.0003  -0.0077  -0.0020   0.00   14.8
2173 195680.000   -261331.7163  -5070388.0932   3848246.5598   1   7   0.0047   0.0097   0.0083  -0.0006  -0.0077  -0.0021   0.00   14.8
2173 195681.000   -261331.7179  -5070388.0943   3848246.5606   1   7   0.0041   0.0096   0.0084   0.0020  -0.0078  -0.0012   0.00   14.8
2173 195682.000   -261331.7176  -5070388.0942   3848246.5598   1   7   0.0042   0.0096   0.0085   0.0015  -0.0078  -0.0014   0.00   14.9
2173 195683.000   -261331.7170  -5070388.0961   3848246.5616   1   7   0.0049   0.0097   0.0085   0.0006  -0.0077  -0.0016   0.00   14.9
2173 195684.000   -261331.7157  -5070388.0966   3848246.5639   1   7   0.0049   0.0097   0.0086  -0.0013  -0.0077  -0.0018   0.00   14.9
2173 195685.000   -261331.7172  -5070388.0947   3848246.5628   1   7   0.0050   0.0098   0.0082  -0.0007  -0.0077  -0.0022   0.00   15.0
2173 195686.000   -261331.7182  -5070388.0929   3848246.5612   1   7   0.0046   0.0096   0.0085   0.0022  -0.0077  -0.0014   0.00   15.0
2173 195687.000   -261331.7161  -5070388.1010   3848246.5662   1   7   0.0052   0.0097   0.0084  -0.0012  -0.0076  -0.0027   0.00   15.0
2173 195688.000   -261331.7168  -5070388.0960   3848246.5656   1   7   0.0045   0.0096   0.0084   0.0019  -0.0077  -0.0017   0.00   15.0
2173 195689.000   -261331.7189  -5070388.0971   3848246.5642   1   7   0.0041   0.0095   0.0083   0.0017  -0.0079  -0.0016   0.00   15.1
2173 195690.000   -261331.7168  -5070388.0970   3848246.5634   1   7   0.0049   0.0097   0.0084   0.0013  -0.0076  -0.0020   0.00   15.1
2173 195691.000   -261331.7159  -5070388.1006   3848246.5658   1   7   0.0048   0.0096   0.0085   0.0011  -0.0077  -0.0011   0.00   15.2
2173 195692.000   -261331.7158  -5070388.0971   3848246.5656   1   7   0.0048   0.0097   0.0084   0.0012  -0.0077  -0.0019   0.00   15.2
2173 195693.000   -261331.7158  -5070388.0964   3848246.5647   1   7   0.0043   0.0096   0.0084   0.0012  -0.0077  -0.0020   0.00   15.2
2173 195694.000   -261331.7138  -5070388.0978   3848246.5620   1   7   0.0047   0.0096   0.0084   0.0014  -0.0078  -0.0017   0.00   15.2
2173 195695.000   -261331.7159  -5070388.0953   3848246.5622   1   7   0.0051   0.0096   0.0083   0.0012  -0.0077  -0.0011   0.00   15.2
2173 195696.000   -261331.7154  -5070388.0960   3848246.5655   1   7   0.0049   0.0096   0.0086   0.0018  -0.0077  -0.0013   0.00   15.2
2173 195697.000   -261331.7141  -5070388.0936   3848246.5587   1   7   0.0050   0.0097   0.0084   0.0004  -0.0077  -0.0019   0.00   15.2
2173 195698.000   -261331.7162  -5070388.0940   3848246.5603   1   7   0.0046   0.0097   0.0086   0.0011  -0.0076  -0.0010   0.00   15.2
2173 195699.000   -261331.7121  -5070388.0939   3848246.5586   1   7   0.0051   0.0097   0.0085   0.0008  -0.0077  -0.0012   0.00   15.2
2173 195700.000   -261331.7158  -5070388.0951   3848246.5588   1   7   0.0047   0.0096   0.0084   0.0018  -0.0078  -0.0011   0.00   15.2
2173 195701.000   -261331.7151  -5070388.0915   3848246.5550   1   7   0.0043   0.0096   0.0083   0.0022  -0.0077  -0.0015   0.00   15.3
2173 195702.000   -261331.7154  -5070388.0948   3848246.5598   1   7   0.0051   0.0096   0.0085   0.0014  -0.0077  -0.0018   0.00   15.3
2173 195703.000   -261331.7163  -5070388.0938   3848246.5598   1   7   0.0048   0.0097   0.0084   0.0012  -0.0077  -0.0013   0.00   15.4
2173 195704.000   -261331.7152  -5070388.0965   3848246.5621   1   7   0.0046   0.0096   0.0084   0.0018  -0.0077  -0.0013   0.00   15.4
2173 195705.000   -261331.7145  -5070388.0931   3848246.5600   1   7   0.0047   0.0096   0.0083   0.0008  -0.0078  -0.0017   0.00   15.5
2173 195706.000   -261331.7163  -5070388.0919   3848246.5638   1   7   0.0043   0.0096   0.0084   0.0015  -0.0077  -0.0024   0.00   15.5
2173 195707.000   -261331.7158  -5070388.0935   3848246.5586   1   7   0.0044   0.0096   0.0082   0.0016  -0.0078  -0.0019   0.00   15.6
2173 195708.000   -261331.7156  -5070388.0949   3848246.5641   1   7   0.0046   0.0097   0.0085  -0.0014  -0.0077  -0.0012   0.00   15.6
2173 195709.000   -261331.7105  -5070388.0945   3848246.5616   1   7   0.0047   0.0096   0.0084   0.0005  -0.0077  -0.0014   0.00   15.5
2173 195710.000   -261331.7127  -5070388.0946   3848246.5622   1   7   0.0052   0.0097   0.0085   0.0008  -0.0076  -0.0017   0.00   15.6
2173 195711.000   -261331.7133  -5070388.1041   3848246.5722   1   7   0.0046   0.0095   0.0083   0.0015  -0.0078   0.0002   0.00   15.6
2173 195712.000   -261331.7112  -5070388.0951   3848246.5618   1   7   0.0047   0.0096   0.0083   0.0018  -0.0077  -0.0004   0.00   15.6
2173 195713.000   -261331.7102  -5070388.0957   3848246.5621   1   7   0.0050   0.0096   0.0083   0.0008  -0.0077  -0.0020   0.00   15.6
2173 195714.000   -261331.7132  -5070388.0914   3848246.5600   1   7   0.0048   0.0097   0.0082   0.0009  -0.0077  -0.0019   0.00   15.7
2173 195715.000   -261331.7130  -5070388.0979   3848246.5666   1   7   0.0055   0.0097   0.0084   0.0012  -0.0077  -0.0019   0.00   15.8
2173 195716.000   -261331.7107  -5070388.0906   3848246.5622   1   7   0.0048   0.0096   0.0085   0.0010  -0.0077  -0.0013   0.00   15.8
2173 195717.000   -261331.7111  -5070388.0909   3848246.5573   1   7   0.0041   0.0096   0.0083   0.0003  -0.0078  -0.0021   0.00   15.9
2173 195718.000   -261331.7122  -5070388.0947   3848246.5622   1   7   0.0046   0.0096   0.0084   0.0015  -0.0077  -0.0009   0.00   16.0
2173 195719.000   -261331.7104  -5070388.0899   3848246.5593   1   7   0.0048   0.0097   0.0083   0.0015  -0.0077   0.0014   0.00   16.0
2173 195720.000   -261331.7124  -5070388.0957   3848246.5641   1   7   0.0045   0.0096   0.0081   0.0018  -0.0078  -0.0019   0.00   16.0
2173 195721.000   -261331.7127  -5070388.0928   3848246.5617   1   7   0.0047   0.0096   0.0084   0.0013  -0.0077  -0.0015   0.00   16.1
2173 195722.000   -261331.7100  -5070388.0963   3848246.5633   1   7   0.0044   0.0096   0.0084   0.0016  -0.0077  -0.0021   0.00   16.2
2173 195723.000   -261331.7123  -5070388.0957   3848246.5664   1   7   0.0044   0.0096   0.0082   0.0015  -0.0077  -0.0022   0.00   16.3
2173 195724.000   -261331.7110  -5070388.0887   3848246.5608   1   7   0.0050   0.0096   0.0083  -0.0004  -0.0077  -0.0010   0.00   16.3
2173 195725.000   -261331.7116  -5070388.0987   3848246.5624   1   7   0.0048   0.0096   0.0084   0.0013  -0.0077  -0.0015   0.00   16.4
2173 195726.000   -261331.7091  -5070388.0974   3848246.5635   1   7   0.0047   0.0096   0.0084   0.0008  -0.0077  -0.0023   0.00   16.4
2173 195727.000   -261331.7155  -5070388.0857   3848246.5569   1   7   0.0048   0.0096   0.0083  -0.0009  -0.0078  -0.0023   0.00   16.5
2173 195728.000   -261331.7151  -5070388.0895   3848246.5593   1   7   0.0051   0.0097   0.0085  -0.0008  -0.0076  -0.0010   0.00   16.6
2173 195729.000   -261331.7140  -5070388.0907   3848246.5591   1   7   0.0052   0.0096   0.0083   0.0009  -0.0077  -0.0021   0.00   16.6
2173 195730.000   -261331.7161  -5070388.0909   3848246.5588   1   7   0.0046   0.0096   0.0084   0.0016  -0.0077  -0.0019   0.00   16.7
2173 195731.000   -261331.7169  -5070388.0865   3848246.5570   1   7   0.0043   0.0096   0.0084   0.0005  -0.0077  -0.0012   0.00   16.7
2173 195732.000   -261331.7147  -5070388.0812   3848246.5508   1   7   0.0050   0.0097   0.0083   0.0007  -0.0076  -0.0015   0.00   16.7
2173 195733.000   -261331.7164  -5070388.0889   3848246.5570   1   7   0.0043   0.0096   0.0082   0.0019  -0.0077  -0.0018   0.00   16.7
2173 195734.000   -261331.7171  -5070388.0894   3848246.5588   1   7   0.0049   0.0097   0.0084   0.0006  -0.0076  -0.0017   0.00   16.8
2173 195735.000   -261331.7154  -5070388.0884   3848246.5560   1   7   0.0047   0.0096   0.0083   0.0017  -0.0077  -0.0016   0.00   16.7
2173 195736.000   -261331.7120  -5070388.0887   3848246.5579   1   7   0.0050   0.0096   0.0084  -0.0009  -0.0076  -0.0020   0.00   16.8
2173 195737.000   -261331.7145  -5070388.0907   3848246.5600   1   7   0.0050   0.0097   0.0084   0.0007  -0.0077  -0.0016   0.00   16.8
2173 195738.000   -261331.7159  -5070388.0850   3848246.5572   1   7   0.0048   0.0096   0.0081   0.0010  -0.0077  -0.0017   0.00   16.8
2173 195739.000   -261331.7146  -5070388.0853   3848246.5540   1   7   0.0042   0.0096   0.0083   0.0014  -0.0078  -0.0018   0.00   16.8
2173 195740.000   -261331.7156  -5070388.0851   3848246.5562   1   7   0.0048   0.0097   0.0084   0.0010  -0.0076  -0.0020   0.00   16.8
2173 195741.000   -261331.7160  -5070388.0907   3848246.5607   1   7   0.0048   0.0097   0.0083   0.0010  -0.0077  -0.0021   0.00   16.9
2173 195742.000   -261331.7151  -5070388.0851   3848246.5538   1   7   0.0048   0.0096   0.0084   0.0010  -0.0077  -0.0018   0.00   16.9
2173 195743.000   -261331.7158  -5070388.0860   3848246.5592   1   7   0.0047   0.0096   0.0085   0.0012  -0.0077  -0.0010   0.00   16.8
2173 195744.000   -261331.7143  -5070388.0862   3848246.5564   1   7   0.0048   0.0097   0.0084   0.0008  -0.0077  -0.0013   0.00   16.9
2173 195745.000   -261331.7152  -5070388.0922   3848246.5608   1   7   0.0052   0.0097   0.0084  -0.0007  -0.0077  -0.0021   0.00   16.8
2173 195746.000   -261331.7171  -5070388.0871   3848246.5578   1   7   0.0046   0.0096   0.0083   0.0021  -0.0077  -0.0018   0.00   16.9
2173 195747.000   -261331.7167  -5070388.0844   3848246.5577   1   7   0.0047   0.0096   0.0084   0.0020  -0.0077  -0.0017   0.00   16.9
2173 195748.000   -261331.7161  -5070388.0886   3848246.5595   1   7   0.0042   0.0096   0.0084   0.0016  -0.0077  -0.0004   0.00   16.9
2173 195749.000   -261331.7139  -5070388.0822   3848246.5530   1   7   0.0052   0.0097   0.0083  -0.0012  -0.0077  -0.0021   0.00   16.9
2173 195750.000   -261331.7140  -5070388.0836   3848246.5537   1   7   0.0050   0.0097   0.0083  -0.0014  -0.0077  -0.0023   0.00   16.9
2173 195751.000   -261331.7145  -5070388.0815   3848246.5524   1   7   0.0041   0.0095   0.0083   0.0016  -0.0078  -0.0011   0.00   16.9
2173 195752.000   -261331.7163  -5070388.0854   3848246.5536   1   7   0.0047   0.0096   0.0084   0.0013  -0.0076  -0.0015   0.00   17.0
2173 195753.000   -261331.7138  -5070388.0878   3848246.5557   1   7   0.0051   0.0096   0.0082  -0.0012  -0.0077  -0.0020   0.00   17.0
2173 195754.000   -261331.7137  -5070388.0849   3848246.5530   1   7   0.0053   0.0097   0.0083  -0.0011  -0.0076  -0.0018   0.00   17.0
2173 195755.000   -261331.7139  -5070388.0915   3848246.5548   1   7   0.0048   0.0096   0.0083   0.0018  -0.0077  -0.0016   0.00   17.0
2173 195756.000   -261331.7132  -5070388.0938   3848246.5577   1   7   0.0051   0.0096   0.0082  -0.0009  -0.0077  -0.0025   0.00   17.0
2173 195757.000   -261331.7098  -5070388.0857   3848246.5531   1   7   0.0040   0.0096   0.0083   0.0019  -0.0077  -0.0011   0.00   17.0
2173 195758.000   -261331.7127  -5070388.0902   3848246.5614   1   7   0.0044   0.0097   0.0081   0.0004  -0.0077  -0.0015   0.00   17.0
2173 195759.000   -261331.7102  -5070388.0886   3848246.5594   1   7   0.0047   0.0096   0.0084   0.0008  -0.0077  -0.0012   0.00   17.0
2173 195760.000   -261331.7109  -5070388.0897   3848246.5574   1   7   0.0045   0.0096   0.0082   0.0016  -0.0077  -0.0015   0.00   17.1
2173 195761.000   -261331.7126  -5070388.0927   3848246.5601   1   7   0.0047   0.0097   0.0083   0.0015  -0.0076  -0.0012   0.00   17.1
2173 195762.000   -261331.7155  -5070388.0896   3848246.5581   1   7   0.0046   0.0097   0.0082   0.0016  -0.0077  -0.0014   0.00   17.1
2173 195763.000   -261331.7150  -5070388.0917   3848246.5603   1   7   0.0050   0.0097   0.0081  -0.0012  -0.0077  -0.0024   0.00   17.1
2173 195764.000   -261331.7177  -5070388.0835   3848246.5577   1   7   0.0047   0.0097   0.0082   0.0012  -0.0077  -0.0019   0.00   17.1
2173 195765.000   -261331.7128  -5070388.0875   3848246.5581   1   7   0.0045   0.0096   0.0084   0.0012  -0.0076  -0.0012   0.00   17.1
2173 195766.000   -261331.7167  -5070388.0914   3848246.5599   1   7   0.0046   0.0096   0.0083   0.0016  -0.0077  -0.0015   0.00   17.1
2173 195767.000   -261331.7150  -5070388.0815   3848246.5554   1   7   0.0045   0.0095   0.0085   0.0021  -0.0077  -0.0005   0.00   17.1
2173 195768.000   -261331.7123  -5070388.0872   3848246.5574   1   7   0.0046   0.0096   0.0082   0.0010  -0.0076  -0.0015   0.00   17.1
2173 195769.000   -261331.7160  -5070388.0860   3848246.5567   1   7   0.0051   0.0096   0.0084   0.0007  -0.0077  -0.0016   0.00   17.1
2173 195770.000   -261331.7126  -5070388.0890   3848246.5589   1   7   0.0050   0.0096   0.0083   0.0007  -0.0076  -0.0020   0.00   17.1
2173 195771.000   -261331.7146  -5070388.0904   3848246.5607   1   7   0.0048   0.0097   0.0083   0.0007  -0.0076  -0.0019   0.00   17.1
2173 195772.000   -261331.7106  -5070388.0899   3848246.5601   1   7   0.0045   0.0097   0.0084   0.0009  -0.0076  -0.0019   0.00   17.1
2173 195773.000   -261331.7134  -5070388.0935   3848246.5608   1   7   0.0042   0.0096   0.0082   0.0019  -0.0078  -0.0009   0.00   17.1
2173 195774.000   -261331.7110  -5070388.0914   3848246.5622   1   7   0.0048   0.0097   0.0082   0.0009  -0.0077  -0.0021   0.00   17.1
2173 195775.000   -261331.7127  -5070388.0931   3848246.5646   1   7   0.0047   0.0096   0.0082   0.0008  -0.0076  -0.0012   0.00   17.1
2173 195776.000   -261331.7132  -5070388.0920   3848246.5592   1   7   0.0044   0.0096   0.0082   0.0015  -0.0077  -0.0020   0.00   17.2
2173 195777.000   -261331.7119  -5070388.0898   3848246.5545   1   7   0.0046   0.0096   0.0081   0.0006  -0.0077  -0.0019   0.00   17.2
2173 195778.000   -261331.7144  -5070388.0913   3848246.5574   1   7   0.0047   0.0096   0.0083   0.0006  -0.0077  -0.0017   0.00   17.2
2173 195779.000   -261331.7134  -5070388.0931   3848246.5607   1   7   0.0043   0.0096   0.0082   0.0018  -0.0077  -0.0012   0.00   17.2
2173 195780.000   -261331.7125  -5070388.0947   3848246.5610   1   7   0.0052   0.0096   0.0083   0.0011  -0.0076  -0.0022   0.00   17.2
2173 195781.000   -261331.7161  -5070388.0897   3848246.5601   1   7   0.0047   0.0096   0.0083   0.0012  -0.0077  -0.0019   0.00   17.3
2173 195782.000   -261331.7140  -5070388.0877   3848246.5575   1   7   0.0050   0.0097   0.0083  -0.0003  -0.0076  -0.0021   0.00   17.4
2173 195783.000   -261331.7153  -5070388.0950   3848246.5629   1   7   0.0042   0.0096   0.0084   0.0017  -0.0077  -0.0018   0.00   17.4
2173 195784.000   -261331.7123  -5070388.0864   3848246.5607   1   7   0.0048   0.0096   0.0083   0.0020  -0.0076  -0.0015   0.00   17.4
2173 195785.000   -261331.7125  -5070388.0908   3848246.5585   1   7   0.0046   0.0095   0.0082   0.0016  -0.0077  -0.0014   0.00   17.4
2173 195786.000   -261331.7133  -5070388.0972   3848246.5605   1   7   0.0043   0.0096   0.0082   0.0018  -0.0076  -0.0010   0.00   17.4
2173 195787.000   -261331.7149  -5070388.0947   3848246.5581   1   7   0.0048   0.0097   0.0083  -0.0009  -0.0076  -0.0013   0.00   17.4
2173 195788.000   -261331.7147  -5070388.0922   3848246.5621   1   7   0.0050   0.0097   0.0083   0.0008  -0.0076  -0.0021   0.00   17.5
2173 195789.000   -261331.7132  -5070388.0922   3848246.5612   1   7   0.0052   0.0097   0.0084  -0.0012  -0.0076  -0.0020   0.00   17.5
2173 195790.000   -261331.7130  -5070388.0908   3848246.5577   1   7   0.0041   0.0096   0.0082   0.0019  -0.0077  -0.0016   0.00   17.6
2173 195791.000   -261331.7132  -5070388.0936   3848246.5595   1   7   0.0054   0.0097   0.0084  -0.0009  -0.0076  -0.0016   0.00   17.7
2173 195792.000   -261331.7105  -5070388.0964   3848246.5642   1   7   0.0045   0.0097   0.0084   0.0010  -0.0076  -0.0017   0.00   17.7
2173 195793.000   -261331.7131  -5070388.0933   3848246.5634   1   7   0.0048   0.0096   0.0082   0.0014  -0.0076  -0.0022   0.00   17.8
2173 195794.000   -261331.7112  -5070388.0994   3848246.5658   1   7   0.0047   0.0097   0.0084   0.0013  -0.0077  -0.0019   0.00   17.8
2173 195795.000   -261331.7116  -5070388.0914   3848246.5623   1   7   0.0043   0.0096   0.0084   0.0009  -0.0076  -0.0014   0.00   17.8
2173 195796.000   -261331.7131  -5070388.0959   3848246.5613   1   7   0.0045   0.0097   0.0084  -0.0015  -0.0075  -0.0016   0.00   17.8
2173 195797.000   -261331.7092  -5070388.0992   3848246.5640   1   7   0.0044   0.0097   0.0083   0.0007  -0.0076  -0.0015   0.00   17.9
2173 195798.000   -261331.7131  -5070388.0910   3848246.5584   1   7   0.0050   0.0096   0.0083   0.0007  -0.0077  -0.0009   0.00   17.9
2173 195799.000   -261331.7114  -5070388.0994   3848246.5626   1   7   0.0048   0.0097   0.0084  -0.0008  -0.0076  -0.0017   0.00   17.9
2173 195800.000   -261331.7117  -5070388.0947   3848246.5619   1   7   0.0047   0.0096   0.0083   0.0010  -0.0076  -0.0019   0.00   18.0
2173 195801.000   -261331.7127  -5070388.1020   3848246.5647   1   7   0.0045   0.0097   0.0083  -0.0009  -0.0077  -0.0019   0.00   18.0
2173 195802.000   -261331.7106  -5070388.0970   3848246.5612   1   7   0.0046   0.0097   0.0084   0.0009  -0.0076  -0.0014   0.00   18.0
2173 195803.000   -261331.7107  -5070388.0930   3848246.5563   1   7   0.0045   0.0096   0.0083   0.0015  -0.0076  -0.0020   0.00   18.0
2173 195804.000   -261331.7119  -5070388.0976   3848246.5616   1   7   0.0045   0.0096   0.0083   0.0016  -0.0077  -0.0020   0.00   18.1
2173 195805.000   -261331.7115  -5070388.0937   3848246.5595   1   7   0.0047   0.0096   0.0081   0.0015  -0.0076  -0.0021   0.00   18.1
2173 195806.000   -261331.7122  -5070388.0981   3848246.5616   1   7   0.0040   0.0096   0.0082   0.0009  -0.0077  -0.0019   0.00   18.2
2173 195807.000   -261331.7128  -5070388.0959   3848246.5672   1   7   0.0044   0.0096   0.0082   0.0014  -0.0077  -0.0018   0.00   18.2
2173 195808.000   -261331.7135  -5070388.0997   3848246.5624   1   7   0.0050   0.0097   0.0083  -0.0008  -0.0076  -0.0017   0.00   18.2
2173 195809.000   -261331.7130  -5070388.0954   3848246.5624   1   7   0.0053   0.0097   0.0082  -0.0008  -0.0075  -0.0016   0.00   18.3
2173 195810.000   -261331.7130  -5070388.0954   3848246.5610   1   7   0.0053   0.0097   0.0084  -0.0017  -0.0076  -0.0019   0.00   18.3
2173 195811.000   -261331.7125  -5070388.0980   3848246.5644   1   7   0.0051   0.0097   0.0082   0.0010  -0.0076  -0.0017   0.00   18.3
2173 195812.000   -261331.7107  -5070388.0973   3848246.5621   1   7   0.0050   0.0097   0.0082  -0.0010  -0.0075  -0.0022   0.00   18.3
2173 195813.000   -261331.7109  -5070388.0920   3848246.5595   1   7   0.0043   0.0096   0.0082   0.0018  -0.0077  -0.0004   0.00   18.3
2173 195814.000   -261331.7127  -5070388.0980   3848246.5643   1   7   0.0050   0.0097   0.0082   0.0010  -0.0076  -0.0020   0.00   18.3
2173 195815.000   -261331.7132  -5070388.1000   3848246.5660   1   7   0.0043   0.0096   0.0081   0.0016  -0.0077  -0.0020   0.00   18.4
2173 195816.000   -261331.7125  -5070388.0894   3848246.5575   1   7   0.0050   0.0097   0.0082   0.0002  -0.0076  -0.0023   0.00   18.4
2173 195817.000   -261331.7113  -5070388.0971   3848246.5615   1   7   0.0049   0.0096   0.0082   0.0003  -0.0076  -0.0019   0.00   18.4
2173 195818.000   -261331.7111  -5070388.0958   3848246.5645   1   7   0.0048   0.0097   0.0081  -0.0006  -0.0076  -0.0019   0.00   18.4
2173 195819.000   -261331.7118  -5070388.0979   3848246.5644   1   7   0.0048   0.0096   0.0082  -0.0009  -0.0076  -0.0016   0.00   18.4
2173 195820.000   -261331.7104  -5070388.0945   3848246.5628   1   7   0.0047   0.0097   0.0081   0.0009  -0.0076  -0.0017   0.00   18.4
2173 195821.000   -261331.7126  -5070388.0923   3848246.5578   1   7   0.0046   0.0098   0.0082   0.0013  -0.0077  -0.0021   1.00   18.5
2173 195822.000   -261331.7134  -5070388.0957   3848246.5624   1   7   0.0047   0.0096   0.0082   0.0014  -0.0076  -0.0021   0.00   18.5
2173 195823.000   -261331.7116  -5070388.0956   3848246.5613   1   7   0.0044   0.0097   0.0082   0.0013  -0.0076  -0.0016   0.00   18.6
2173 195824.000   -261331.7125  -5070388.0979   3848246.5620   1   7   0.0048   0.0097   0.0083   0.0007  -0.0076  -0.0021   0.00   18.7
2173 195825.000   -261331.7117  -5070388.1022   3848246.5638   1   7   0.0044   0.0096   0.0082   0.0006  -0.0077  -0.0010   0.00   18.7
2173 195826.000   -261331.7150  -5070388.0987   3848246.5640   1   7   0.0044   0.0096   0.0083   0.0012  -0.0077  -0.0011   0.00   18.8
2173 195827.000   -261331.7124  -5070388.0961   3848246.5630   1   7   0.0044   0.0097   0.0084   0.0019  -0.0076   0.0015   0.00   18.9
2173 195828.000   -261331.7106  -5070388.0977   3848246.5621   1   7   0.0048   0.0096   0.0082   0.0015  -0.0077  -0.0017   0.00   19.0
2173 195829.000   -261331.7120  -5070388.0974   3848246.5626   1   7   0.0047   0.0097   0.0083   0.0015  -0.0076   0.0004   0.00   19.0
2173 195830.000   -261331.7100  -5070388.0994   3848246.5647   1   7   0.0046   0.0097   0.0081  -0.0005  -0.0077  -0.0023   0.00   19.1
2173 195831.000   -261331.7123  -5070388.0998   3848246.5659   1   7   0.0047   0.0096   0.0084   0.0010  -0.0076  -0.0013   0.00   19.2
2173 195832.000   -261331.7119  -5070388.0987   3848246.5635   1   7   0.0046   0.0096   0.0082   0.0012  -0.0076  -0.0016   0.00   19.2
2173 195833.000   -261331.7101  -5070388.0985   3848246.5671   1   7   0.0046   0.0097   0.0081   0.0007  -0.0077  -0.0021   0.00   19.3
2173 195834.000   -261331.7132  -5070388.1033   3848246.5681   1   7   0.0051   0.0097   0.0083   0.0008  -0.0076  -0.0011   0.00   19.3
2173 195835.000   -261331.7125  -5070388.1007   3848246.5674   1   7   0.0046   0.0096   0.0081   0.0021  -0.0076  -0.0013   0.00   19.4
2173 195836.000   -261331.7133  -5070388.1025   3848246.5677   1   7   0.0052   0.0097   0.0083   0.0010  -0.0076  -0.0017   0.00   19.4
2173 195837.000   -261331.7132  -5070388.0985   3848246.5672   1   7   0.0042   0.0096   0.0083   0.0023  -0.0076  -0.0010   0.00   19.4
2173 195838.000   -261331.7106  -5070388.0974   3848246.5696   1   7   0.0044   0.0096   0.0082   0.0018  -0.0076  -0.0015   0.00   19.5
2173 195839.000   -261331.7123  -5070388.0980   3848246.5692   1   7   0.0053   0.0097   0.0083  -0.0012  -0.0076  -0.0022   0.00   19.5
2173 195840.000   -261331.7132  -5070388.0954   3848246.5656   1   7   0.0045   0.0097   0.0082   0.0014  -0.0077  -0.0016   0.00   19.6
2173 195841.000   -261331.7139  -5070388.0972   3848246.5639   1   7   0.0050   0.0096   0.0082   0.0012  -0.0076  -0.0019   0.00   19.7
2173 195842.000   -261331.7135  -5070388.0997   3848246.5650   1   7   0.0051   0.0097   0.0082   0.0004  -0.0076  -0.0019   0.00   19.7
2173 195843.000   -261331.7134  -5070388.0966   3848246.5644   1   7   0.0049   0.0097   0.0082   0.0002  -0.0076  -0.0019   0.00   19.8
2173 195844.000   -261331.7125  -5070388.0992   3848246.5657   1   7   0.0046   0.0096   0.0081   0.0014  -0.0077  -0.0016   0.00   19.8
2173 195845.000   -261331.7144  -5070388.1007   3848246.5679   1   7   0.0048   0.0097   0.0084   0.0012  -0.0076  -0.0015   0.00   19.8
2173 195846.000   -261331.7123  -5070388.0979   3848246.5666   1   7   0.0055   0.0097   0.0084  -0.0012  -0.0076  -0.0022   0.00   19.8
2173 195847.000   -261331.7122  -5070388.1044   3848246.5673   1   7   0.0051   0.0096   0.0082   0.0005  -0.0076  -0.0012   0.00   19.9
2173 195848.000   -261331.7119  -5070388.1048   3848246.5676   1   7   0.0044   0.0096   0.0082   0.0015  -0.0076  -0.0013   0.00   19.9
2173 195849.000   -261331.7137  -5070388.0994   3848246.5626   1   7   0.0055   0.0097   0.0084  -0.0014  -0.0075  -0.0024   0.00   19.9
2173 195850.000   -261331.7135  -5070388.1052   3848246.5706   1   7   0.0046   0.0096   0.0083   0.0012  -0.0076  -0.0017   0.00   19.8
2173 195851.000   -261331.7127  -5070388.0973   3848246.5682   1   7   0.0044   0.0098   0.0084   0.0013  -0.0077  -0.0017   1.00   19.9
2173 195852.000   -261331.7147  -5070388.0991   3848246.5652   1   7   0.0043   0.0096   0.0082   0.0017  -0.0077  -0.0015   0.00   19.9
2173 195853.000   -261331.7116  -5070388.1042   3848246.5727   1   7   0.0045   0.0096   0.0081   0.0018  -0.0077  -0.0012   0.00   19.9
2173 195854.000   -261331.7106  -5070388.0998   3848246.5689   1   7   0.0046   0.0098   0.0084   0.0016  -0.0078  -0.0021   1.00   19.9
2173 195855.000   -261331.7145  -5070388.0977   3848246.5652   1   7   0.0039   0.0096   0.0082   0.0020  -0.0076  -0.0018   0.00   19.9
2173 195856.000   -261331.7121  -5070388.0996   3848246.5674   1   7   0.0043   0.0096   0.0082   0.0015  -0.0076  -0.0021   0.00   19.9
2173 195857.000   -261331.7136  -5070388.0985   3848246.5659   1   7   0.0049   0.0097   0.0085   0.0015  -0.0076  -0.0016   0.00   19.9
2173 195858.000   -261331.7141  -5070388.0927   3848246.5629   1   7   0.0050   0.0096   0.0083   0.0009  -0.0076  -0.0013   0.00   19.9
2173 195859.000   -261331.7142  -5070388.0933   3848246.5636   1   7   0.0043   0.0096   0.0082   0.0019  -0.0077  -0.0019   0.00   19.9
2173 195860.000   -261331.7161  -5070388.0932   3848246.5605   1   7   0.0045   0.0096   0.0083   0.0015  -0.0076  -0.0019   0.00   19.9
2173 195861.000   -261331.7164  -5070388.0956   3848246.5645   1   7   0.0047   0.0096   0.0083   0.0018  -0.0076  -0.0011   0.00   19.9
2173 195862.000   -261331.7132  -5070388.1028   3848246.5719   1   7   0.0049   0.0096   0.0081   0.0012  -0.0077  -0.0016   0.00   19.9
2173 195863.000   -261331.7157  -5070388.0975   3848246.5665   1   7   0.0045   0.0096   0.0083   0.0020  -0.0076  -0.0016   0.00   19.8
2173 195864.000   -261331.7133  -5070388.0989   3848246.5685   1   7   0.0048   0.0096   0.0082  -0.0004  -0.0077  -0.0021   0.00   19.8
2173 195865.000   -261331.7131  -5070388.1050   3848246.5716   1   7   0.0049   0.0096   0.0081  -0.0007  -0.0077  -0.0021   0.00   19.8
2173 195866.000   -261331.7117  -5070388.0907   3848246.5590   1   7   0.0045   0.0097   0.0080   0.0011  -0.0076  -0.0015   0.00   19.8
2173 195867.000   -261331.7152  -5070388.0974   3848246.5659   1   7   0.0051   0.0096   0.0083  -0.0006  -0.0076  -0.0016   0.00   19.8
2173 195868.000   -261331.7140  -5070388.0966   3848246.5648   1   7   0.0048   0.0097   0.0082   0.0016  -0.0076  -0.0017   0.00   19.7
2173 195869.000   -261331.7141  -5070388.0952   3848246.5675   1   7   0.0050   0.0096   0.0083   0.0014  -0.0076  -0.0021   0.00   19.7
2173 195870.000   -261331.7180  -5070388.0909   3848246.5645   1   7   0.0045   0.0097   0.0082   0.0011  -0.0076  -0.0020   0.00   19.7
2173 195871.000   -261331.7127  -5070388.0982   3848246.5673   1   7   0.0048   0.0096   0.0081   0.0016  -0.0076  -0.0021   0.00   19.6
2173 195872.000   -261331.7150  -5070388.0943   3848246.5645   1   7   0.0053   0.0096   0.0083   0.0007  -0.0076  -0.0011   0.00   19.6
2173 195873.000   -261331.7170  -5070388.0907   3848246.5613   1   7   0.0046   0.0096   0.0081   0.0010  -0.0076  -0.0014   0.00   19.5
2173 195874.000   -261331.7135  -5070388.0915   3848246.5655   1   7   0.0048   0.0095   0.0082   0.0015  -0.0077  -0.0022   0.00   19.5
2173 195875.000   -261331.7174  -5070388.0943   3848246.5660   1   7   0.0042   0.0097   0.0080   0.0010  -0.0076  -0.0019   0.00   19.5
2173 195876.000   -261331.7155  -5070388.0912   3848246.5643   1   7   0.0049   0.0096   0.0084   0.0006  -0.0076  -0.0013   0.00   19.5
2173 195877.000   -261331.7172  -5070388.0942   3848246.5668   1   7   0.0049   0.0097   0.0082  -0.0009  -0.0076  -0.0021   0.00   19.5
2173 195878.000   -261331.7190  -5070388.0980   3848246.5690   1   7   0.0048   0.0097   0.0081   0.0008  -0.0076  -0.0019   0.00   19.5
