     2.11           OBSERVATION DATA    M (MIXED)           RINEX VERSION / TYPE
CONVBIN 2.4.3                           20210831 165424 UTC PGM / RUN BY / DATE 
log: logs/21_08_31_09_18_26_arlr_SW.rtcm                    COMMENT             
format: RTCM 3, station ID: 484                             COMMENT             
0484                                                        MARKER NAME         
                                                            MARKER NUMBER       
                                                            OBSERVER / AGENCY   
                    SWFT                                    REC # / TYPE / VERS 
                    NULL                                    ANT # / TYPE        
  -220629.2109 -5302651.9138  3525680.8837                  APPROX POSITION XYZ 
        0.0000        0.0000        0.0000                  ANTENNA: DELTA H/E/N
     1     1                                                WAVELENGTH FACT L1/2
     5    C1    L1    P2    L2    C2                        # / TYPES OF OBSERV 
  2021     8    31     9    18   31.0000000     GPS         TIME OF FIRST OBS   
  2021     8    31     9    48   29.0000000     GPS         TIME OF LAST OBS    
                                                            END OF HEADER       
 21  8 31  9 18 31.0000000  0 18G 1G 7G13G14G19G21G30C23C27C28C30E 1
                                E 9E12E24E26E31E33
  21051197.847   110624751.323    21051200.688    86201093.993                  
  21671615.488   113885113.492    21671615.345    88741647.906                  
  23169010.343   121753976.319    23169010.165    94873229.353                  
  20855133.137   109594476.606    20855133.262    85398298.645                  
  22339944.322   117397211.398    22339942.643    91478349.935                  
  23157906.157   121695622.952    23157905.067    94827759.930                  
  20441670.678   107421664.346    20441672.840    83705182.941                  
                 130600150.703                   130600150.703    25080378.086  
                 113619829.934                   113619829.934    21819492.893  
                 116395709.773                   116395709.773    22352570.538  
                 133466215.335                   133466215.335    25630787.004  
  25854020.420   135863761.729                                                  
  25730294.233   135213588.529                                                  
  23640692.653   124232689.421                                                  
  26254259.445   137967110.058                                                  
  25861582.340   135903507.395                                                  
  23791397.437   125024620.438                                                  
  23880364.497   125492191.214                                                  
 21  8 31  9 18 32.0000000  0 18G 1G 7G13G14G19G21G30C23C27C28C30E 1
                                E 9E12E24E26E31E33
  21051280.973   110625188.257    21051283.832    86201434.460                  
  21672158.546   113887967.372    21672158.421    88743871.711                  
  23169117.897   121754541.632    23169117.736    94873669.861                  
  20854953.643   109593533.348    20854953.768    85397563.637                  
  22339452.388   117394626.257    22339450.709    91476335.544                  
  23158362.318   121698020.068    23158361.228    94829627.808                  
  20441850.565   107422609.603    20441852.727    83705919.499                  
                 130602826.624                   130602826.624    25080891.964  
                 113618424.948                   113618424.948    21819223.088  
                 116397362.425                   116397362.425    22352887.928  
                 133463154.089                   133463154.089    25630199.113  
  25854287.955   135865167.700                                                  
  25730706.828   135215756.646                                                  
  23640183.707   124230014.804                                                  
  26253891.861   137965178.352                                                  
  25861991.219   135905656.066                                                  
  23791297.388   125024094.658                                                  
  23880323.148   125491973.813                                                  
 21  8 31  9 18 33.0000000  0 18G 1G 7G13G14G19G21G30C23C27C28C30E 1
                                E 9E12E24E26E31E33
  21051364.261   110625625.921    21051367.120    86201775.495                  
  21672701.692   113890821.693    21672701.585    88746095.854                  
  23169225.593   121755107.534    23169225.415    94874110.821                  
  20854774.184   109592590.281    20854774.291    85396828.782                  
  22338960.525   117392041.454    22338958.846    91474321.410                  
  23158818.532   121700417.597    23158817.459    94831496.015                  
  20442030.560   107423555.469    20442032.704    83706656.543                  
                 130605502.765                   130605502.765    25081405.877  
                 113617020.413                   113617020.413    21818953.356  
                 116399015.450                   116399015.450    22353205.353  
                 133460092.999                   133460092.999    25629611.258  
  25854555.543   135866573.820                                                  
  25731119.424   135217924.854                                                  
  23639674.779   124227340.438                                                  
  26253524.259   137963246.613                                                  
  25862400.152   135907805.051                                                  
  23791197.358   125023569.013                                                  
  23880281.853   125491756.890                                                  
 21  8 31  9 18 34.0000000  0 18G 1G 7G13G14G19G21G30C23C27C28C30E 1
                                E 9E12E24E26E31E33
  21051447.691   110626064.327    21051450.533    86202117.113                  
  21673244.947   113893676.430    21673244.821    88748320.327                  
  23169333.397   121755674.015    23169333.219    94874552.230                  
  20854594.761   109591647.434    20854594.886    85396094.093                  
  22338468.699   117389456.989    22338467.019    91472307.538                  
  23159274.853   121702815.546    23159273.763    94833364.547                  
  20442210.662   107424501.940    20442212.824    83707394.051                  
                 130608179.128                   130608179.128    25081919.843  
                 113615616.328                   113615616.328    21818683.712  
                 116400668.841                   116400668.841    22353522.886  
                 133457032.063                   133457032.063    25629023.439  
  25854823.168   135867980.116                                                  
  25731532.038   135220093.188                                                  
  23639165.923   124224666.328                                                  
  26253156.658   137961314.904                                                  
  25862809.138   135909954.329                                                  
  23791097.362   125023043.512                                                  
  23880240.665   125491540.468                                                  
 21  8 31  9 18 35.0000000  0 18G 1G 7G13G14G19G21G30C23C27C28C30E 1
                                E 9E12E24E26E31E33
  21051531.265   110626503.473    21051534.124    86202459.305                  
  21673788.254   113896531.601    21673788.147    88750545.136                  
  23169441.308   121756241.062    23169441.112    94874994.085                  
  20854415.374   109590704.775    20854415.499    85395359.554                  
  22337976.961   117386872.843    22337975.281    91470293.923                  
  23159731.263   121705213.915    23159730.155    94835233.406                  
  20442390.907   107425449.039    20442393.033    83708132.050                  
                 130610855.720                   130610855.720    25082433.864  
                 113614212.692                   113614212.692    21818414.158  
                 116402322.598                   116402322.598    22353840.454  
                 133453971.285                   133453971.285    25628435.655  
  25855090.774   135869386.565                                                  
  25731944.687   135222261.608                                                  
  23638657.103   124221992.468                                                  
  26252789.056   137959383.159                                                  
  25863218.195   135912103.909                                                  
  23790997.385   125022518.146                                                  
  23880199.584   125491324.522                                                  
 21  8 31  9 18 36.0000000  0 18G 1G 7G13G14G19G21G30C23C27C28C30E 1
                                E 9E12E24E26E31E33
  21051614.963   110626943.356    21051617.822    86202802.070                  
  21674331.687   113899387.204    21674331.544    88752770.276                  
  23169549.327   121756808.690    23169549.148    94875436.395                  
  20854236.041   109589762.315    20854236.166    85394625.172                  
  22337485.277   117384289.038    22337483.597    91468280.565                  
  23160187.728   121707612.700    23160186.638    94837102.587                  
  20442571.241   107426396.761    20442573.385    83708870.534                  
                 130613532.530                   130613532.530    25082947.920  
                 113612809.503                   113612809.503    21818144.693  
                 116403976.722                   116403976.722    22354158.112  
                 133450910.663                   133450910.663    25627847.907  
  25855358.452   135870793.175                                                  
  25732357.336   135224430.154                                                  
  23638148.318   124219318.859                                                  
  26252421.455   137957451.403                                                  
  25863627.307   135914253.800                                                  
  23790897.444   125021992.921                                                  
  23880158.574   125491109.063                                                  
 21  8 31  9 18 37.0000000  0 18G 1G 7G13G14G19G21G30C23C27C28C30E 1
                                E 9E12E24E26E31E33
  21051698.823   110627383.969    21051701.664    86203145.405                  
  21674875.155   113902243.223    21674875.012    88754995.751                  
  23169657.434   121757376.905    23169657.255    94875879.159                  
  20854056.725   109588820.064    20854056.868    85393890.945                  
  22336993.664   117381705.564    22336991.985    91466267.469                  
  23160644.281   121710011.905    23160643.191    94838972.097                  
  20442751.700   107427345.101    20442753.844    83709609.501                  
                 130616209.567                   130616209.567    25083461.994  
                 113611406.765                   113611406.765    21817875.300  
                 116405631.215                   116405631.215    22354475.841  
                 133447850.196                   133447850.196    25627260.160  
  25855626.166   135872199.956                                                  
  25732770.021   135226598.796                                                  
  23637639.605   124216645.501                                                  
  26252053.853   137955519.656                                                  
  25864036.472   135916404.000                                                  
  23790797.520   125021467.839                                                  
  23880117.654   125490894.077                                                  
 21  8 31  9 18 38.0000000  0 18G 1G 7G13G14G19G21G30C23C27C28C30E 1
                                E 9E12E24E26E31E33
  21051782.807   110627825.319    21051785.648    86203489.317                  
  21675418.713   113905099.668    21675418.606    88757221.552                  
  23169765.685   121757945.715    23169765.506    94876322.386                  
  20853877.463   109587878.003    20853877.588    85393156.874                  
  22336502.105   117379122.422    22336500.426    91464254.633                  
  23161100.924   121712411.524    23161099.816    94840841.930                  
  20442932.284   107428294.052    20442934.429    83710348.940                  
                 130618886.825                   130618886.825    25083976.139  
                 113610004.472                   113610004.472    21817606.013  
                 116407286.074                   116407286.074    22354793.641  
                 133444789.885                   133444789.885    25626672.465  
  25855893.897   135873606.895                                                  
  25733182.724   135228767.550                                                  
  23637130.927   124213972.394                                                  
  26251686.252   137953587.891                                                  
  25864445.708   135918554.496                                                  
  23790697.615   125020942.896                                                  
  23880076.841   125490679.589                                                  
 21  8 31  9 18 39.0000000  0 18G 1G 7G13G14G19G21G30C23C27C28C30E 1
                                E 9E12E24E26E31E33
  21051866.916   110628267.414    21051869.776    86203833.804                  
  21675962.360   113907956.550    21675962.235    88759447.691                  
  23169874.025   121758515.066    23169873.864    94876766.038                  
  20853698.219   109586936.142    20853698.362    85392422.957                  
  22336010.618   117376539.617    22336008.920    91462242.058                  
  23161557.620   121714811.560    23161556.548    94842712.090                  
  20443112.976   107429243.622    20443115.120    83711088.867                  
                 130621564.307                   130621564.307    25084490.338  
                 113608602.629                   113608602.629    21817336.799  
                 116408941.300                   116408941.300    22355111.513  
                 133441729.735                   133441729.735    25626084.807  
  25856161.665   135875013.995                                                  
  25733595.445   135230936.404                                                  
  23636622.304   124211299.534                                                  
  26251318.668   137951656.108                                                  
  25864854.980   135920705.297                                                  
  23790597.762   125020418.093                                                  
  23880036.118   125490465.577                                                  
 21  8 31  9 18 40.0000000  0 18G 1G 7G13G14G19G21G30C23C27C28C30E 1
                                E 9E12E24E26E31E33
  21051951.205   110628710.234    21051954.046    86204178.859                  
  21676506.097   113910813.855    21676505.954    88761674.165                  
  23169982.472   121759085.012    23169982.329    94877210.152                  
  20853519.046   109585994.480    20853519.153    85391689.194                  
  22335519.184   117373957.147    22335517.504    91460229.746                  
  23162014.424   121717212.015    23162013.316    94844582.574                  
  20443293.775   107430193.805    20443295.937    83711829.270                  
                 130624242.013                   130624242.013    25085004.555  
                 113607201.234                   113607201.234    21817067.673  
                 116410596.895                   116410596.895    22355429.457  
                 133438669.736                   133438669.736    25625497.166  
  25856429.432   135876421.257                                                  
  25734008.184   135233105.354                                                  
  23636113.715   124208626.932                                                  
  26250951.067   137949724.317                                                  
  25865264.342   135922856.406                                                  
  23790497.928   125019893.428                                                  
  23879995.502   125490252.063                                                  
 21  8 31  9 18 41.0000000  0 18G 1G 7G13G14G19G21G30C23C27C28C30E 1
                                E 9E12E24E26E31E33
  21052035.600   110629153.806    21052038.459    86204524.501                  
  21677049.905   113913671.591    21677049.780    88763900.968                  
  23170091.062   121759655.530    23170090.883    94877654.712                  
  20853339.873   109585053.024    20853339.999    85390955.594                  
  22335027.822   117371375.003    22335026.142    91458217.688                  
  23162471.281   121719612.884    23162470.191    94846453.379                  
  20443474.716   107431144.601    20443476.879    83712570.152                  
                 130626919.943                   130626919.943    25085518.825  
                 113605800.290                   113605800.290    21816798.637  
                 116412252.856                   116412252.856    22355747.454  
                 133435609.893                   133435609.893    25624909.543  
  25856697.289   135877828.683                                                  
  25734420.940   135235274.417                                                  
  23635605.181   124205954.577                                                  
  26250583.447   137947792.519                                                  
  25865673.739   135925007.817                                                  
  23790398.094   125019368.899                                                  
  23879954.957   125490039.028                                                  
 21  8 31  9 18 42.0000000  0 18G 1G 7G13G14G19G21G30C23C27C28C30E 1
                                E 9E12E24E26E31E33
  21052120.156   110629598.122    21052122.997    86204870.719                  
  21677593.802   113916529.758    21677593.659    88766128.113                  
  23170199.723   121760226.633    23170199.562    94878099.722                  
  20853160.754   109584111.771    20853160.897    85390222.148                  
  22334536.513   117368793.199    22334534.833    91456205.890                  
  23162928.246   121722014.172    23162927.138    94848324.515                  
  20443655.765   107432096.020    20443657.928    83713311.515                  
                 130629598.093                   130629598.093    25086033.132  
                 113604399.794                   113604399.794    21816529.708  
                 116413909.184                   116413909.184    22356065.541  
                 133432550.211                   133432550.211    25624321.956  
  25856965.127   135879236.273                                                  
  25734833.715   135237443.587                                                  
  23635096.700   124203282.477                                                  
  26250215.846   137945860.710                                                  
  25866083.172   135927159.528                                                  
  23790298.295   125018844.507                                                  
  23879914.501   125489826.469                                                  
 21  8 31  9 18 43.0000000  0 18G 1G 7G13G14G19G21G30C23C27C28C30E 1
                                E 9E12E24E26E31E33
  21052204.838   110630043.172    21052207.697    86205217.512                  
  21678137.753   113919388.340    21678137.646    88768355.577                  
  23170308.528   121760798.325    23170308.331    94878545.194                  
  20852981.707   109583170.719    20852981.814    85389488.863                  
  22334045.275   117366211.726    22334043.596    91454194.351                  
  23163385.264   121724415.880    23163384.174    94850195.976                  
  20443836.939   107433048.064    20443839.084    83714053.363                  
                 130632276.468                   130632276.468    25086547.474  
                 113602999.746                   113602999.746    21816260.815  
                 116415565.878                   116415565.878    22356383.698  
                 133429490.680                   133429490.680    25623734.423  
  25857233.020   135880644.028                                                  
  25735246.525   135239612.872                                                  
  23634588.255   124200610.633                                                  
  26249848.226   137943928.901                                                  
  25866492.694   135929311.550                                                  
  23790198.533   125018320.265                                                  
  23879874.153   125489614.417                                                  
 21  8 31  9 18 44.0000000  0 18G 1G 7G13G14G19G21G30C23C27C28C30E 1
                                E 9E12E24E26E31E33
  21052289.680   110630488.953    21052292.521    86205564.876                  
  21678681.811   113922247.355    21678681.704    88770583.384                  
  23170417.422   121761370.572    23170417.243    94878991.101                  
  20852802.659   109582229.868    20852802.784    85388755.730                  
  22333554.092   117363630.574    22333552.412    91452183.066                  
  23163842.372   121726818.005    23163841.282    94852067.757                  
  20444018.221   107434000.712    20444020.383    83714795.688                  
                 130634955.067                   130634955.067    25087061.887  
                 113601600.148                   113601600.148    21815992.047  
                 116417222.941                   116417222.941    22356701.928  
                 133426431.309                   133426431.309    25623146.907  
  25857500.948   135882051.938                                                  
  25735659.335   135241782.254                                                  
  23634079.881   124197939.035                                                  
  26249480.607   137941997.075                                                  
  25866902.288   135931463.871                                                  
  23790098.824   125017796.161                                                  
  23879833.894   125489402.837                                                  
 21  8 31  9 18 45.0000000  0 19G 1G 7G13G14G17G19G21G30C23C27C28C30
                                E 1E 9E12E24E26E31E33
  21052374.647   110630935.479    21052377.506    86205912.816                  
  21679225.959   113925106.805    21679225.816    88772811.524                  
  23170526.423   121761943.411    23170526.244    94879437.472                  
  20852623.665   109581289.207    20852623.772    85388022.750                  
  20747755.194   109030199.779    20747754.783    84958599.235                  
  22333062.997   117361049.764    22333061.300    91450172.048                  
  23164299.568   121729220.546    23164298.478    94853939.872                  
  20444199.627   107434953.976    20444201.771    83715538.492                  
                 130637633.892                   130637633.892    25087576.318  
                 113600200.995                   113600200.995    21815723.369  
                 116418880.371                   116418880.371    22357020.193  
                 133423372.095                   133423372.095    25622559.391  
  25857768.876   135883460.007                                                  
  25736072.181   135243951.739                                                  
  23633571.543   124195267.680                                                  
  26249112.987   137940065.231                                                  
  25867311.899   135933616.497                                                  
  23789999.097   125017272.200                                                  
  23879793.725   125489191.730                                                  
 21  8 31  9 18 46.0000000  0 19G 1G 7G13G14G17G19G21G30C23C27C28C30
                                E 1E 9E12E24E26E31E33
  21052459.757   110631382.745    21052462.598    86206261.337                  
  21679770.160   113927966.674    21679770.035    88775039.991                  
  23170635.549   121762516.823    23170635.352    94879884.288                  
  20852444.671   109580348.754    20852444.814    85387289.930                  
  20747617.692   109029477.294    20747617.299    84958036.263                  
  22332571.939   117358469.281    22332570.259    91448161.281                  
  23164756.837   121731623.511    23164755.747    94855812.309                  
  20444381.141   107435907.863    20444383.303    83716281.782                  
                 130640312.932                   130640312.932    25088090.803  
                 113598802.293                   113598802.293    21815454.762  
                 116420538.165                   116420538.165    22357338.565  
                 133420313.034                   133420313.034    25621971.947  
  25858036.858   135884868.234                                                  
  25736485.045   135246121.332                                                  
  23633063.241   124192596.592                                                  
  26248745.386   137938133.395                                                  
  25867721.600   135935769.426                                                  
  23789899.423   125016748.375                                                  
  23879753.644   125488981.125                                                  
 21  8 31  9 18 47.0000000  0 19G 1G 7G13G14G17G19G21G30C23C27C28C30
                                E 1E 9E12E24E26E31E33
  21052544.992   110631830.739    21052547.851    86206610.423                  
  21680314.468   113930826.981    21680314.343    88777268.802                  
  23170744.764   121763090.816    23170744.603    94880331.555                  
  20852265.766   109579408.504    20852265.892    85386557.265                  
  20747480.297   109028755.226    20747479.886    84957473.612                  
  22332080.952   117355889.138    22332079.254    91446150.778                  
  23165214.177   121734026.880    23165213.086    94857685.062                  
  20444562.779   107436862.362    20444564.923    83717025.546                  
                 130642992.203                   130642992.203    25088605.342  
                 113597404.042                   113597404.042    21815186.244  
                 116422196.327                   116422196.327    22357656.991  
                 133417254.131                   133417254.131    25621384.503  
  25858304.857   135886276.640                                                  
  25736897.927   135248291.031                                                  
  23632554.992   124189925.751                                                  
  26248377.766   137936201.548                                                  
  25868131.337   135937922.668                                                  
  23789799.785   125016224.690                                                  
  23879713.653   125488770.997                                                  
 21  8 31  9 18 48.0000000  0 19G 1G 7G13G14G17G19G21G30C23C27C28C30
                                E 1E 9E12E24E26E31E33
  21052630.406   110632279.460    21052633.247    86206960.078                  
  21680858.848   113933687.704    21680858.723    88779497.937                  
  23170854.105   121763665.363    23170853.926    94880779.255                  
  20852086.880   109578468.451    20852087.005    85385824.758                  
  20747342.974   109028033.581    20747342.563    84956911.293                  
  22331590.018   117353309.306    22331588.338    91444140.524                  
  23165671.606   121736430.665    23165670.516    94859558.144                  
  20444744.525   107437817.475    20444746.687    83717769.792                  
                 130645671.697                   130645671.697    25089119.898  
                 113596006.238                   113596006.238    21814917.798  
                 116423854.856                   116423854.856    22357975.507  
                 133414195.385                   133414195.385    25620797.095  
  25858572.893   135887685.205                                                  
  25737310.826   135250460.836                                                  
  23632046.797   124187255.171                                                  
  26248010.111   137934269.668                                                  
  25868541.145   135940076.204                                                  
  23789700.148   125015701.143                                                  
  23879673.752   125488561.355                                                  
 21  8 31  9 18 49.0000000  0 19G 1G 7G13G14G17G19G21G30C23C27C28C30
                                E 1E 9E12E24E26E31E33
  21052715.927   110632728.932    21052718.786    86207310.311                  
  21681403.299   113936548.856    21681403.174    88781727.406                  
  23170963.535   121764240.521    23170963.374    94881227.425                  
  20851908.047   109577528.597    20851908.154    85385092.406                  
  20747205.739   109027312.364    20747205.328    84956349.302                  
  22331099.156   117350729.826    22331097.476    91442130.535                  
  23166129.124   121738834.876    23166128.016    94861431.555                  
  20444926.396   107438773.222    20444928.558    83718514.528                  
                 130648351.406                   130648351.406    25089634.526  
                 113594608.882                   113594608.882    21814649.441  
                 116425513.751                   116425513.751    22358294.076  
                 133411136.802                   133411136.802    25620209.740  
  25858840.982   135889093.925                                                  
  25737723.743   135252630.746                                                  
  23631538.656   124184584.835                                                  
  26247642.492   137932337.804                                                  
  25868951.025   135942230.048                                                  
  23789600.546   125015177.738                                                  
  23879633.958   125488352.202                                                  
 21  8 31  9 18 50.0000000  0 19G 1G 7G13G14G17G19G21G30C23C27C28C30
                                E 1E 9E12E24E26E31E33
  21052801.591   110633179.141    21052804.433    86207661.126                  
  21681947.840   113939410.433    21681947.715    88783957.206                  
  23171073.107   121764816.251    23171072.947    94881676.043                  
  20851729.213   109576588.945    20851729.338    85384360.211                  
  20747068.577   109026591.552    20747068.166    84955787.632                  
  22330608.365   117348150.657    22330606.686    91440120.797                  
  23166586.696   121741239.504    23166585.606    94863305.293                  
  20445108.374   107439729.556    20445110.536    83719259.718                  
                 130651031.345                   130651031.345    25090149.154  
                 113593211.977                   113593211.977    21814381.173  
                 116427173.013                   116427173.013    22358612.716  
                 133408078.367                   133408078.367    25619622.403  
  25859109.089   135890502.803                                                  
  25738136.679   135254800.762                                                  
  23631030.568   124181914.754                                                  
  26247274.872   137930405.927                                                  
  25869360.940   135944384.191                                                  
  23789500.980   125014654.481                                                  
  23879594.253   125488143.527                                                  
 21  8 31  9 18 51.0000000  0 19G 1G 7G13G14G17G19G21G30C23C27C28C30
                                E 1E 9E12E24E26E31E33
  21052887.416   110633630.090    21052890.258    86208012.516                  
  21682492.452   113942272.436    21682492.345    88786187.341                  
  23171182.788   121765392.571    23171182.609    94882125.126                  
  20851550.452   109575649.499    20851550.577    85383628.175                  
  20746931.486   109025871.168    20746931.057    84955226.292                  
  22330117.646   117345571.831    22330115.949    91438111.321                  
  23167044.358   121743644.546    23167043.285    94865179.352                  
  20445290.477   107440686.521    20445292.639    83720005.405                  
                 130653711.508                   130653711.508    25090663.853  
                 113591815.523                   113591815.523    21814113.012  
                 116428832.624                   116428832.624    22358931.446  
                 133405020.098                   133405020.098    25619035.102  
  25859377.213   135891911.861                                                  
  25738549.632   135256970.880                                                  
  23630522.498   124179244.923                                                  
  26246907.253   137928474.015                                                  
  25869770.927   135946538.652                                                  
  23789401.413   125014131.351                                                  
  23879554.637   125487935.343                                                  
 21  8 31  9 18 52.0000000  0 19G 1G 7G13G14G17G19G21G30C23C27C28C30
                                E 1E 9E12E24E26E31E33
  21052973.366   110634081.774    21052976.225    86208364.477                  
  21683037.153   113945134.867    21683037.046    88788417.804                  
  23171292.557   121765969.454    23171292.378    94882574.645                  
  20851371.726   109574710.250    20851371.833    85382896.290                  
  20746794.484   109025151.195    20746794.055    84954665.277                  
  22329626.963   117342993.331    22329625.283    91436102.102                  
  23167502.108   121746050.001    23167501.018    94867053.726                  
  20445472.723   107441644.102    20445474.868    83720751.575                  
                 130656391.892                   130656391.892    25091178.606  
                 113590419.516                   113590419.516    21813844.924  
                 116430492.621                   116430492.621    22359250.211  
                 133401961.980                   133401961.980    25618447.819  
  25859645.374   135893321.071                                                  
  25738962.621   135259141.101                                                  
  23630014.500   124176575.332                                                  
  26246539.616   137926542.124                                                  
  25870180.932   135948693.403                                                  
  23789301.901   125013608.374                                                  
  23879515.093   125487727.637                                                  
 21  8 31  9 18 53.0000000  0 19G 1G 7G13G14G17G19G21G30C23C27C28C30
                                E 1E 9E12E24E26E31E33
  21053059.459   110634534.190    21053062.301    86208717.008                  
  21683581.962   113947997.724    21683581.819    88790648.597                  
  23171402.434   121766546.921    23171402.255    94883024.622                  
  20851193.018   109573771.206    20851193.143    85382164.567                  
  20746657.554   109024431.645    20746657.143    84954104.590                  
  22329136.351   117340415.169    22329134.654    91434093.140                  
  23167959.913   121748455.871    23167958.841    94868928.434                  
  20445655.041   107442602.296    20445657.203    83721498.219                  
                 130659072.499                   130659072.499    25091693.377  
                 113589023.954                   113589023.954    21813576.924  
                 116432152.979                   116432152.979    22359569.084  
                 133398904.016                   133398904.016    25617860.553  
  25859913.588   135894730.448                                                  
  25739375.627   135261311.431                                                  
  23629506.537   124173906.008                                                  
  26246171.996   137924610.215                                                  
  25870591.044   135950848.450                                                  
  23789202.424   125013085.529                                                  
  23879475.674   125487520.418                                                  
 21  8 31  9 18 54.0000000  0 19G 1G 7G13G14G17G19G21G30C23C27C28C30
                                E 1E 9E12E24E26E31E33
  21053145.695   110634987.360    21053148.536    86209070.125                  
  21684126.824   113950860.997    21684126.681    88792879.724                  
  23171512.435   121767124.952    23171512.257    94883475.036                  
  20851014.363   109572832.358    20851014.506    85381433.000                  
  20746520.695   109023712.514    20746520.284    84953544.227                  
  22328645.793   117337837.335    22328644.113    91432084.445                  
  23168417.824   121750862.159    23168416.734    94870803.462                  
  20445837.502   107443561.124    20445839.664    83722245.360                  
                 130661753.328                   130661753.328    25092208.219  
                 113587628.843                   113587628.843    21813308.996  
                 116433813.706                   116433813.706    22359887.993  
                 133395846.215                   133395846.215    25617273.341  
  25860181.802   135896139.984                                                  
  25739788.634   135263481.867                                                  
  23628998.646   124171236.936                                                  
  26245804.359   137922678.292                                                  
  25871001.191   135953003.808                                                  
  23789102.947   125012562.824                                                  
  23879436.344   125487313.689                                                  
 21  8 31  9 18 55.0000000  0 19G 1G 7G13G14G17G19G21G30C23C27C28C30
                                E 1E 9E12E24E26E31E33
  21053232.056   110635441.257    21053234.915    86209423.812                  
  21684671.758   113953724.699    21684671.633    88795111.175                  
  23171622.544   121767703.569    23171622.383    94883925.902                  
  20850835.744   109571893.716    20850835.887    85380701.586                  
  20746383.943   109022993.809    20746383.514    84952984.199                  
  22328155.324   117335259.836    22328153.644    91430076.000                  
  23168875.807   121753268.862    23168874.717    94872678.816                  
  20446020.087   107444520.554    20446022.232    83722992.968                  
                 130664434.378                   130664434.378    25092723.079  
                 113586234.180                   113586234.180    21813041.175  
                 116435474.800                   116435474.800    22360207.008  
                 133392788.566                   133392788.566    25616686.165  
  25860450.052   135897549.679                                                  
  25740201.677   135265652.402                                                  
  23628490.772   124168568.120                                                  
  26245436.722   137920746.371                                                  
  25871411.393   135955159.468                                                  
  23789003.506   125012040.255                                                  
  23879397.086   125487107.432                                                  
 21  8 31  9 18 56.0000000  0 19G 1G 7G13G14G17G19G21G30C23C27C28C30
                                E 1E 9E12E24E26E31E33
  21053318.578   110635895.897    21053321.419    86209778.079                  
  21685216.781   113956588.829    21685216.656    88797342.969                  
  23171732.760   121768282.747    23171732.582    94884377.212                  
  20850657.161   109570955.271    20850657.304    85379970.332                  
  20746247.263   109022275.521    20746246.834    84952424.491                  
  22327664.909   117332682.674    22327663.229    91428067.824                  
  23169333.862   121755675.984    23169332.772    94874554.496                  
  20446202.780   107445480.585    20446204.924    83723741.042                  
                 130667115.652                   130667115.652    25093237.993  
                 113584839.968                   113584839.968    21812773.443  
                 116437136.257                   116437136.257    22360526.060  
                 133389731.073                   133389731.073    25616099.007  
  25860718.337   135898959.552                                                  
  25740614.737   135267823.043                                                  
  23627982.953   124165899.556                                                  
  26245069.102   137918814.433                                                  
  25871821.665   135957315.428                                                  
  23788904.083   125011517.832                                                  
  23879357.935   125486901.669                                                  
 21  8 31  9 18 57.0000000  0 19G 1G 7G13G14G17G19G21G30C23C27C28C30
                                E 1E 9E12E24E26E31E33
  21053405.243   110636351.274    21053408.084    86210132.918                  
  21685761.875   113959453.376    21685761.768    88799575.082                  
  23171843.084   121768862.515    23171842.923    94884828.981                  
  20850478.614   109570017.022    20850478.757    85379239.231                  
  20746110.636   109021557.640    20746110.225    84951865.106                  
  22327174.565   117330105.838    22327172.867    91426059.902                  
  23169792.006   121758083.529    23169790.916    94876430.505                  
  20446385.580   107446441.250    20446387.742    83724489.614                  
                 130669797.149                   130669797.149    25093752.943  
                 113583446.203                   113583446.203    21812505.783  
                 116438798.086                   116438798.086    22360845.200  
                 133386673.743                   133386673.743    25615511.867  
  25860986.658   135900369.578                                                  
  25741027.815   135269993.798                                                  
  23627475.204   124163231.230                                                  
  26244701.465   137916882.483                                                  
  25872231.992   135959471.699                                                  
  23788804.695   125010995.559                                                  
  23879318.855   125486696.389                                                  
 21  8 31  9 18 58.0000000  0 19G 1G 7G13G14G17G19G21G30C23C27C28C30
                                E 1E 9E12E24E26E31E33
  21053492.015   110636807.387    21053494.874    86210488.333                  
  21686307.077   113962318.352    21686306.952    88801807.532                  
  23171953.514   121769442.843    23171953.336    94885281.180                  
  20850300.120   109569078.982    20850300.245    85378508.289                  
  20745974.117   109020840.182    20745973.706    84951306.050                  
  22326684.257   117327529.343    22326682.577    91424052.243                  
  23170250.221   121760491.487    23170249.131    94878306.836                  
  20446568.505   107447402.523    20446570.668    83725238.656                  
                 130672478.871                   130672478.871    25094267.946  
                 113582052.886                   113582052.886    21812238.195  
                 116440460.273                   116440460.273    22361164.395  
                 133383616.567                   133383616.567    25614924.762  
  25861255.015   135901779.768                                                  
  25741440.911   135272164.644                                                  
  23626967.474   124160563.176                                                  
  26244333.828   137914950.528                                                  
  25872642.372   135961628.269                                                  
  23788705.344   125010473.421                                                  
  23879279.901   125486491.594                                                  
 21  8 31  9 18 59.0000000  0 19G 1G 7G13G14G17G19G21G30C23C27C28C30
                                E 1E 9E12E24E26E31E33
  21053578.965   110637264.240    21053581.824    86210844.317                  
  21686852.333   113965183.750    21686852.225    88804040.308                  
  23172064.052   121770023.752    23172063.873    94885733.837                  
  20850121.662   109568141.141    20850121.788    85377777.503                  
  20745837.687   109020123.144    20745837.258    84950747.317                  
  22326194.038   117324953.164    22326192.340    91422044.831                  
  23170708.526   121762899.851    23170707.436    94880183.485                  
  20446751.538   107448364.426    20446753.700    83725988.191                  
                 130675160.813                   130675160.813    25094782.985  
                 113580660.020                   113580660.020    21811970.713  
                 116442122.832                   116442122.832    22361483.678  
                 133380559.548                   133380559.548    25614337.693  
  25861523.408   135903190.129                                                  
  25741854.043   135274335.602                                                  
  23626459.815   124157895.367                                                  
  26243966.173   137913018.557                                                  
  25873052.823   135963785.148                                                  
  23788605.992   125009951.417                                                  
  23879241.018   125486287.292                                                  
 21  8 31  9 19  0.0000000  0 19G 1G 7G13G14G17G19G21G30C23C27C28C30
                                E 1E 9E12E24E26E31E33
  21053666.041   110637721.820    21053668.882    86211200.876                  
  21687397.695   113968049.579    21687397.588    88806273.421                  
  23172174.715   121770605.231    23172174.536    94886186.935                  
  20849943.222   109567203.496    20849943.365    85377046.876                  
  20745701.293   109019406.519    20745700.882    84950188.910                  
  22325703.855   117322377.317    22325702.175    91420037.675                  
  23171166.902   121765308.634    23171165.812    94882060.457                  
  20446934.695   107449326.931    20446936.858    83726738.195                  
                 130677842.976                   130677842.976    25095298.059  
                 113579267.601                   113579267.601    21811703.321  
                 116443785.755                   116443785.755    22361803.016  
                 133377502.686                   133377502.686    25613750.660  
  25861791.801   135904600.642                                                  
  25742267.175   135276506.659                                                  
  23625952.192   124155227.812                                                  
  26243598.518   137911086.569                                                  
  25873463.293   135965942.313                                                  
  23788506.694   125009429.555                                                  
  23879202.242   125486083.462                                                  
 21  8 31  9 19  1.0000000  0 19G 1G 7G13G14G17G19G21G30C23C27C28C30
                                E 1E 9E12E24E26E31E33
  21053753.260   110638180.148    21053756.101    86211558.015                  
  21687943.111   113970915.825    21687943.004    88808506.860                  
  23172285.485   121771187.282    23172285.306    94886640.485                  
  20849764.836   109566266.063    20849764.961    85376316.406                  
  20745565.024   109018690.320    20745564.595    84949630.831                  
  22325213.761   117319801.816    22325212.081    91418030.796                  
  23171625.368   121767717.848    23171624.260    94883937.765                  
  20447117.978   107450290.067    20447120.140    83727488.692                  
                 130680525.367                   130680525.367    25095813.187  
                 113577875.634                   113577875.634    21811436.001  
                 116445449.044                   116445449.044    22362122.442  
                 133374445.985                   133374445.985    25613163.663  
  25862060.265   135906011.328                                                  
  25742680.342   135278677.826                                                  
  23625444.622   124152560.507                                                  
  26243230.880   137909154.599                                                  
  25873873.851   135968099.808                                                  
  23788407.413   125008907.837                                                  
  23879163.538   125485880.120                                                  
 21  8 31  9 19  2.0000000  0 19G 1G 7G13G14G17G19G21G30C23C27C28C30
                                E 1E 9E12E24E26E31E33
  21053840.622   110638639.214    21053843.463    86211915.730                  
  21688488.635   113973782.511    21688488.528    88810740.641                  
  23172396.344   121771769.917    23172396.184    94887094.484                  
  20849586.503   109565328.824    20849586.628    85375586.090                  
  20745428.808   109017974.535    20745428.379    84949073.078                  
  22324723.721   117317226.635    22324722.041    91416024.160                  
  23172083.905   121770127.456    23172082.797    94885815.383                  
  20447301.386   107451253.813    20447303.548    83728239.661                  
                 130683207.978                   130683207.978    25096328.351  
                 113576484.114                   113576484.114    21811168.787  
                 116447112.699                   116447112.699    22362441.923  
                 133371389.437                   133371389.437    25612576.683  
  25862328.711   135907422.164                                                  
  25743093.528   135280849.094                                                  
  23624937.106   124149893.460                                                  
  26242863.243   137907222.602                                                  
  25874284.481   135970257.581                                                  
  23788308.169   125008386.253                                                  
  23879124.941   125485677.282                                                  
 21  8 31  9 19  3.0000000  0 19G 1G 7G13G14G17G19G21G30C23C27C28C30
                                E 1E 9E12E24E26E31E33
  21053928.108   110639099.003    21053930.967    86212274.008                  
  21689034.212   113976649.605    21689034.105    88812974.738                  
  23172507.329   121772353.118    23172507.168    94887548.927                  
  20849408.188   109564391.784    20849408.295    85374855.929                  
  20745292.682   109017259.160    20745292.253    84948515.644                  
  22324233.734   117314651.789    22324232.055    91414017.788                  
  23172542.495   121772537.492    23172541.423    94887693.331                  
  20447484.900   107452218.196    20447487.045    83728991.126                  
                 130685890.807                   130685890.807    25096843.551  
                 113575093.044                   113575093.044    21810901.645  
                 116448776.718                   116448776.718    22362761.474  
                 133368333.046                   133368333.046    25611989.721  
  25862597.247   135908833.167                                                  
  25743506.713   135283020.472                                                  
  23624429.626   124147226.675                                                  
  26242495.606   137905290.594                                                  
  25874695.147   135972415.666                                                  
  23788208.942   125007864.819                                                  
  23879086.415   125485474.908                                                  
 21  8 31  9 19  4.0000000  0 19G 1G 7G13G14G17G19G21G30C23C27C28C30
                                E 1E 9E12E24E26E31E33
  21054015.738   110639559.550    21054018.597    86212632.876                  
  21689579.896   113979517.136    21689579.789    88815209.180                  
  23172618.421   121772936.906    23172618.242    94888003.829                  
  20849229.909   109563454.953    20849230.016    85374125.931                  
  20745156.627   109016544.211    20745156.198    84947958.538                  
  22323743.819   117312077.280    22323742.140    91412011.675                  
  23173001.193   121774947.945    23173000.121    94889571.608                  
  20447668.523   107453183.151    20447670.685    83729743.044                  
                 130688573.863                   130688573.863    25097358.822  
                 113573702.423                   113573702.423    21810634.575  
                 116450441.101                   116450441.101    22363081.115  
                 133365276.815                   133365276.815    25611402.813  
  25862865.783   135910244.343                                                  
  25743919.934   135285191.940                                                  
  23623922.199   124144560.132                                                  
  26242127.933   137903358.573                                                  
  25875105.885   135974574.052                                                  
  23788109.733   125007343.523                                                  
  23879048.014   125485273.023                                                  
 21  8 31  9 19  5.0000000  0 19G 1G 7G13G14G17G19G21G30C23C27C28C30
                                E 1E 9E12E24E26E31E33
  21054103.528   110640020.819    21054106.388    86212992.304                  
  21690125.652   113982385.090    21690125.527    88817443.945                  
  23172729.620   121773521.280    23172729.441    94888459.179                  
  20849051.665   109562518.315    20849051.808    85373396.085                  
  20745020.662   109015829.673    20745020.233    84947401.758                  
  22323253.976   117309503.108    22323252.296    91410005.829                  
  23173459.980   121777358.811    23173458.872    94891450.203                  
  20447852.288   107454148.767    20447854.414    83730495.469                  
                 130691257.143                   130691257.143    25097874.111  
                 113572312.249                   113572312.249    21810367.612  
                 116452105.852                   116452105.852    22363400.828  
                 133362220.741                   133362220.741    25610815.923  
  25863134.336   135911655.672                                                  
  25744333.155   135287363.508                                                  
  23623414.826   124141893.825                                                  
  26241760.295   137901426.568                                                  
  25875516.658   135976732.729                                                  
  23788010.560   125006822.359                                                  
  23879009.685   125485071.618                                                  
 21  8 31  9 19  6.0000000  0 19G 1G 7G13G14G17G19G21G30C23C27C28C30
                                E 1E 9E12E24E26E31E33
  21054191.444   110640482.825    21054194.285    86213352.308                  
  21690671.479   113985253.458    21690671.354    88819679.039                  
  23172840.926   121774106.207    23172840.765    94888914.968                  
  20848873.475   109561581.883    20848873.601    85372666.395                  
  20744884.768   109015115.552    20744884.339    84946845.297                  
  22322764.204   117306929.242    22322762.506    91408000.219                  
  23173918.821   121779770.089    23173917.749    94893329.121                  
  20448036.142   107455114.954    20448038.286    83731248.340                  
                 130693940.644                   130693940.644    25098389.454  
                 113570922.523                   113570922.523    21810100.738  
                 116453770.970                   116453770.970    22363720.576  
                 133359164.825                   133359164.825    25610229.069  
  25863402.943   135913067.159                                                  
  25744746.412   135289535.191                                                  
  23622907.489   124139227.788                                                  
  26241392.640   137899494.544                                                  
  25875927.502   135978891.729                                                  
  23787911.423   125006301.357                                                  
  23878971.464   125484870.719                                                  
