% program   : rnx2rtkp ver.2.4.3 b31
% inp file  : ngs/21_09_01_06_11_32_idpo.obs
% inp file  : ngs/21_09_01_06_11_32_idpo_P1.obs
% inp file  : ngs/21_09_01_06_11_32_brdc.nav
% obs start : 2021/09/01 06:00:00.0 GPST (week2173 280800.0s)
% obs end   : 2021/09/01 06:59:59.0 GPST (week2173 284399.0s)
% ref pos   : -1744426.7060  -4293384.0840   4369686.3360
%
% (x/y/z-ecef=WGS84,Q=1:fix,2:float,3:sbas,4:dgps,5:single,6:ppp,ns=# of satellites)
%  GPST              x-ecef(m)      y-ecef(m)      z-ecef(m)   Q  ns   sdx(m)   sdy(m)   sdz(m)  sdxy(m)  sdyz(m)  sdzx(m) age(s)  ratio
2173 281467.000  -1787005.4465  -4328786.5089   4317505.5094   2   8   0.5318   0.8282   0.7367   0.5132  -0.6073  -0.3871 -30.00    1.2
2173 281468.000  -1787005.4493  -4328786.4435   4317505.4703   2   8   0.3781   0.5895   0.5243   0.3647  -0.4323  -0.2750 -29.00    1.1
2173 281469.000  -1787005.4206  -4328786.4413   4317505.3987   2   8   0.3095   0.4827   0.4293   0.2986  -0.3540  -0.2251 -28.00    1.1
2173 281470.000  -1787005.3774  -4328786.3651   4317505.3563   2   8   0.2685   0.4188   0.3724   0.2590  -0.3072  -0.1953 -27.00    1.1
2173 281471.000  -1787005.3594  -4328786.3646   4317505.3237   2   8   0.2405   0.3751   0.3335   0.2320  -0.2751  -0.1749 -26.00    1.1
2173 281472.000  -1787005.3365  -4328786.4050   4317505.3631   2   8   0.2198   0.3427   0.3047   0.2120  -0.2514  -0.1598 -25.00    1.1
2173 281473.000  -1787005.3383  -4328786.4260   4317505.3745   2   8   0.2036   0.3176   0.2823   0.1964  -0.2329  -0.1481 -24.00    1.1
2173 281474.000  -1787005.3343  -4328786.4286   4317505.3920   2   8   0.1906   0.2972   0.2642   0.1838  -0.2180  -0.1386 -23.00    1.1
2173 281475.000  -1787005.3343  -4328786.4474   4317505.4584   2   8   0.1797   0.2803   0.2492   0.1734  -0.2056  -0.1308 -22.00    1.1
2173 281476.000  -1787005.3166  -4328786.4596   4317505.4612   2   8   0.1706   0.2660   0.2364   0.1645  -0.1951  -0.1241 -21.00    1.1
2173 281477.000  -1787005.3056  -4328786.4605   4317505.4924   2   8   0.1626   0.2537   0.2254   0.1569  -0.1860  -0.1183 -20.00    1.1
2173 281478.000  -1787005.3022  -4328786.4639   4317505.4917   2   8   0.1557   0.2429   0.2158   0.1502  -0.1781  -0.1133 -19.00    1.0
2173 281479.000  -1787005.2850  -4328786.4663   4317505.5107   2   8   0.1496   0.2334   0.2073   0.1443  -0.1711  -0.1089 -18.00    1.0
2173 281480.000  -1787005.2983  -4328786.4740   4317505.5036   2   8   0.1441   0.2249   0.1998   0.1390  -0.1649  -0.1049 -17.00    1.1
2173 281481.000  -1787005.3067  -4328786.5050   4317505.5269   2   8   0.1392   0.2172   0.1929   0.1342  -0.1593  -0.1013 -16.00    1.1
2173 281482.000  -1787005.3106  -4328786.5082   4317505.5342   2   8   0.1347   0.2103   0.1867   0.1299  -0.1542  -0.0980 -15.00    1.1
2173 281483.000  -1787005.3184  -4328786.5399   4317505.5622   2   8   0.1307   0.2040   0.1811   0.1260  -0.1495  -0.0951 -14.00    1.2
2173 281484.000  -1787005.3143  -4328786.5685   4317505.5946   2   8   0.1269   0.1982   0.1759   0.1224  -0.1452  -0.0923 -13.00    1.2
2173 281485.000  -1787005.3195  -4328786.5602   4317505.5887   2   8   0.1235   0.1928   0.1711   0.1191  -0.1413  -0.0898 -12.00    1.3
2173 281486.000  -1787005.3232  -4328786.5786   4317505.5963   2   8   0.1203   0.1879   0.1667   0.1160  -0.1377  -0.0875 -11.00    1.3
2173 281487.000  -1787005.3165  -4328786.5772   4317505.5897   2   8   0.1173   0.1833   0.1626   0.1131  -0.1343  -0.0853 -10.00    1.3
2173 281488.000  -1787005.3172  -4328786.5968   4317505.6066   2   8   0.1146   0.1790   0.1588   0.1104  -0.1311  -0.0833  -9.00    1.3
2173 281489.000  -1787005.3074  -4328786.6020   4317505.6072   2   8   0.1120   0.1750   0.1552   0.1080  -0.1282  -0.0814  -8.00    1.4
2173 281490.000  -1787005.3024  -4328786.6061   4317505.6163   2   8   0.1096   0.1712   0.1518   0.1056  -0.1254  -0.0797  -7.00    1.4
2173 281491.000  -1787005.3017  -4328786.6137   4317505.6258   2   8   0.1073   0.1677   0.1486   0.1034  -0.1228  -0.0780  -6.00    1.3
2173 281492.000  -1787005.3079  -4328786.6224   4317505.6353   2   8   0.1052   0.1644   0.1456   0.1014  -0.1204  -0.0764  -5.00    1.3
2173 281493.000  -1787005.3062  -4328786.6264   4317505.6384   2   8   0.1032   0.1613   0.1428   0.0994  -0.1180  -0.0750  -4.00    1.4
2173 281494.000  -1787005.3076  -4328786.6353   4317505.6470   2   8   0.1013   0.1583   0.1402   0.0976  -0.1159  -0.0736  -3.00    1.3
2173 281495.000  -1787005.3077  -4328786.6364   4317505.6326   2   8   0.0995   0.1555   0.1376   0.0959  -0.1138  -0.0723  -2.00    1.2
2173 281496.000  -1787005.3089  -4328786.6427   4317505.6341   2   8   0.0978   0.1529   0.1352   0.0942  -0.1118  -0.0710  -1.00    1.1
2173 281497.000  -1787005.3061  -4328786.6340   4317505.6243   2   8   0.0962   0.1504   0.1330   0.0927  -0.1100  -0.0698   0.00    1.0
2173 281498.000  -1787005.2866  -4328786.6763   4317505.8042   2   8   0.5308   0.8283   0.7349   0.5125  -0.6073  -0.3883   0.00    1.3
2173 281499.000  -1787005.5831  -4328786.7342   4317505.6130   2   8   0.5308   0.8284   0.7348   0.5125  -0.6073  -0.3883   0.00    1.3
2173 281500.000  -1787005.2606  -4328786.7166   4317505.8202   2   8   0.5308   0.8284   0.7348   0.5125  -0.6073  -0.3884   0.00    1.3
2173 281501.000  -1787005.3953  -4328786.8404   4317505.8214   2   8   0.5308   0.8285   0.7348   0.5125  -0.6073  -0.3885   0.00    1.5
2173 281502.000  -1787005.4840  -4328786.7981   4317505.7016   2   8   0.5308   0.8285   0.7348   0.5125  -0.6074  -0.3885   0.00    1.3
2173 281503.000  -1787005.5862  -4328786.7652   4317505.6066   2   8   0.5308   0.8286   0.7348   0.5126  -0.6074  -0.3886   0.00    1.3
2173 281504.000  -1787005.0971  -4328786.4803   4317505.2534   2   8   0.5308   0.8286   0.7347   0.5126  -0.6074  -0.3886   0.00    1.3
2173 281505.000  -1787005.5617  -4328786.6604   4317505.2717   2   8   0.5308   0.8287   0.7347   0.5126  -0.6074  -0.3887   0.00    1.1
2173 281506.000  -1787005.4028  -4328786.7677   4317505.6807   2   8   0.5307   0.8287   0.7347   0.5126  -0.6075  -0.3888   0.00    1.2
2173 281507.000  -1787005.3728  -4328786.5085   4317505.7618   2   8   0.5307   0.8287   0.7347   0.5126  -0.6075  -0.3888   0.00    1.2
2173 281508.000  -1787005.4199  -4328786.5340   4317505.4941   2   8   0.5307   0.8288   0.7346   0.5126  -0.6075  -0.3889   0.00    1.2
2173 281509.000  -1787005.1856  -4328786.0830   4317505.4432   2   8   0.5307   0.8288   0.7346   0.5126  -0.6075  -0.3890   0.00    1.3
2173 281510.000  -1787004.9720  -4328786.1654   4317505.8275   2   8   0.5307   0.8289   0.7346   0.5126  -0.6076  -0.3890   0.00    1.3
2173 281511.000  -1787005.1449  -4328786.4039   4317505.6362   2   8   0.5307   0.8289   0.7346   0.5126  -0.6076  -0.3891   0.00    1.5
2173 281512.000  -1787005.2928  -4328786.3300   4317505.3124   2   8   0.5307   0.8290   0.7345   0.5126  -0.6076  -0.3891   0.00    1.2
2173 281513.000  -1787005.3520  -4328786.6217   4317505.8949   2   8   0.5307   0.8290   0.7345   0.5126  -0.6076  -0.3892   0.00    1.3
2173 281514.000  -1787005.2930  -4328786.5145   4317505.9310   2   8   0.5307   0.8291   0.7345   0.5126  -0.6077  -0.3893   0.00    1.4
2173 281515.000  -1787005.1553  -4328786.3045   4317505.5210   2   8   0.5307   0.8291   0.7345   0.5126  -0.6077  -0.3893   0.00    1.3
2173 281516.000  -1787005.1619  -4328786.5897   4317506.0182   2   8   0.5307   0.8291   0.7345   0.5126  -0.6077  -0.3894   0.00    1.5
2173 281517.000  -1787005.2196  -4328786.3769   4317505.6836   2   8   0.5307   0.8292   0.7344   0.5127  -0.6077  -0.3895   0.00    1.1
2173 281518.000  -1787005.0558  -4328786.2759   4317505.5930   2   8   0.5307   0.8292   0.7344   0.5127  -0.6078  -0.3895   0.00    1.2
2173 281519.000  -1787005.1799  -4328786.7613   4317505.9760   2   8   0.5307   0.8293   0.7344   0.5127  -0.6078  -0.3896   0.00    1.4
2173 281520.000  -1787004.9990  -4328786.8339   4317505.9887   2   8   0.5307   0.8293   0.7344   0.5127  -0.6078  -0.3896   0.00    1.4
2173 281521.000  -1787005.1966  -4328786.6933   4317505.6865   2   8   0.5307   0.8294   0.7344   0.5127  -0.6078  -0.3897   0.00    1.3
2173 281522.000  -1787004.9147  -4328786.6481   4317506.0483   2   8   0.5307   0.8294   0.7343   0.5127  -0.6079  -0.3898   0.00    1.4
2173 281523.000  -1787004.9340  -4328786.3713   4317505.5014   2   8   0.5307   0.8295   0.7343   0.5127  -0.6079  -0.3898   0.00    1.2
2173 281524.000  -1787005.1056  -4328786.5245   4317505.3560   2   8   0.5307   0.8295   0.7343   0.5127  -0.6079  -0.3899   0.00    1.2
2173 281525.000  -1787005.1467  -4328786.5933   4317505.3858   2   8   0.5307   0.8296   0.7343   0.5127  -0.6079  -0.3900   0.00    1.2
2173 281526.000  -1787004.9407  -4328786.2362   4317505.2788   2   8   0.5307   0.8296   0.7342   0.5127  -0.6080  -0.3900   0.00    1.2
2173 281527.000  -1787004.8440  -4328786.0846   4317505.2036   2   8   0.5306   0.8296   0.7342   0.5127  -0.6080  -0.3901   0.00    1.1
2173 281528.000  -1787004.8229  -4328786.2570   4317505.2611   2   8   0.5306   0.8297   0.7342   0.5127  -0.6080  -0.3901   0.00    1.3
2173 281529.000  -1787004.8058  -4328786.2018   4317505.2654   2   8   0.5306   0.8297   0.7342   0.5127  -0.6080  -0.3902   0.00    1.4
2173 281530.000  -1787004.9361  -4328786.2288   4317505.4166   2   8   0.5306   0.8298   0.7342   0.5128  -0.6081  -0.3903   0.00    1.3
2173 281531.000  -1787004.7853  -4328786.3796   4317505.3205   2   8   0.5306   0.8298   0.7341   0.5128  -0.6081  -0.3903   0.00    1.4
2173 281532.000  -1787004.9403  -4328786.4091   4317505.3157   2   8   0.5306   0.8299   0.7341   0.5128  -0.6081  -0.3904   0.00    1.1
2173 281533.000  -1787005.1040  -4328786.6013   4317505.5760   2   8   0.5306   0.8299   0.7341   0.5128  -0.6081  -0.3905   0.00    1.1
2173 281534.000  -1787004.8151  -4328786.0652   4317505.3986   2   8   0.5306   0.8300   0.7341   0.5128  -0.6082  -0.3905   0.00    1.2
2173 281535.000  -1787004.8261  -4328786.3998   4317505.3371   2   8   0.5306   0.8300   0.7341   0.5128  -0.6082  -0.3906   0.00    1.1
2173 281536.000  -1787004.8183  -4328786.5838   4317505.2696   2   8   0.5306   0.8300   0.7340   0.5128  -0.6082  -0.3906   0.00    1.1
2173 281537.000  -1787004.5989  -4328786.0628   4317505.1435   2   8   0.5306   0.8301   0.7340   0.5128  -0.6082  -0.3907   0.00    1.0
2173 281538.000  -1787004.4840  -4328785.5108   4317504.8813   2   8   0.5306   0.8301   0.7340   0.5128  -0.6083  -0.3908   0.00    1.0
2173 281539.000  -1787004.7368  -4328786.2343   4317505.1310   2   8   0.5306   0.8302   0.7340   0.5128  -0.6083  -0.3908   0.00    1.3
2173 281540.000  -1787004.8806  -4328786.3357   4317505.3593   2   8   0.5306   0.8302   0.7339   0.5128  -0.6083  -0.3909   0.00    1.0
2173 281541.000  -1787004.7171  -4328786.0722   4317504.6956   2   8   0.5306   0.8303   0.7339   0.5128  -0.6083  -0.3909   0.00    1.0
2173 281542.000  -1787004.4573  -4328785.8177   4317504.7301   2   8   0.5306   0.8303   0.7339   0.5128  -0.6084  -0.3910   0.00    1.0
2173 281543.000  -1787004.7360  -4328786.2025   4317504.8471   2   8   0.5306   0.8304   0.7339   0.5128  -0.6084  -0.3911   0.00    1.1
2173 281544.000  -1787004.9489  -4328786.5374   4317505.1997   2   8   0.5306   0.8304   0.7339   0.5129  -0.6084  -0.3911   0.00    1.0
2173 281545.000  -1787004.5652  -4328786.0363   4317504.7777   2   8   0.5306   0.8305   0.7338   0.5129  -0.6084  -0.3912   0.00    1.0
2173 281546.000  -1787004.9163  -4328786.3533   4317504.9539   2   8   0.5306   0.8305   0.7338   0.5129  -0.6085  -0.3912   0.00    1.1
2173 281547.000  -1787004.8300  -4328786.2797   4317504.9533   2   8   0.5306   0.8305   0.7338   0.5129  -0.6085  -0.3913   0.00    1.0
2173 281548.000  -1787004.6140  -4328785.9990   4317504.8850   2   8   0.5306   0.8306   0.7338   0.5129  -0.6085  -0.3914   0.00    1.1
2173 281549.000  -1787004.8532  -4328786.2699   4317504.9685   2   8   0.5306   0.8306   0.7338   0.5129  -0.6085  -0.3914   0.00    1.0
2173 281550.000  -1787004.7309  -4328785.9081   4317504.7520   2   8   0.5305   0.8307   0.7337   0.5129  -0.6086  -0.3915   0.00    1.1
2173 281551.000  -1787004.7100  -4328786.0152   4317504.3342   2   8   0.5305   0.8307   0.7337   0.5129  -0.6086  -0.3916   0.00    1.1
2173 281552.000  -1787004.7564  -4328786.1847   4317504.6184   2   8   0.5305   0.8308   0.7337   0.5129  -0.6086  -0.3916   0.00    1.0
2173 281553.000  -1787004.5738  -4328785.7938   4317504.4704   2   8   0.5305   0.8308   0.7337   0.5129  -0.6086  -0.3917   0.00    1.0
2173 281554.000  -1787004.5476  -4328786.0686   4317504.8685   2   8   0.5305   0.8309   0.7337   0.5129  -0.6087  -0.3917   0.00    1.0
2173 281555.000  -1787004.5508  -4328785.9725   4317504.8359   2   8   0.5305   0.8309   0.7336   0.5129  -0.6087  -0.3918   0.00    1.1
2173 281556.000  -1787004.7082  -4328786.0011   4317505.0756   2   8   0.5305   0.8310   0.7336   0.5129  -0.6087  -0.3919   0.00    1.0
2173 281557.000  -1787004.8843  -4328786.1853   4317505.1168   2   8   0.5305   0.8310   0.7336   0.5129  -0.6087  -0.3919   0.00    1.1
2173 281558.000  -1787004.8416  -4328786.2280   4317504.6168   2   8   0.5305   0.8311   0.7336   0.5130  -0.6088  -0.3920   0.00    1.0
2173 281559.000  -1787004.9437  -4328786.5623   4317505.2378   2   8   0.5305   0.8311   0.7336   0.5130  -0.6088  -0.3920   0.00    1.0
2173 281560.000  -1787004.8295  -4328786.0611   4317504.9193   2   8   0.5305   0.8311   0.7335   0.5130  -0.6088  -0.3921   0.00    1.0
2173 281561.000  -1787004.9987  -4328786.0572   4317504.6568   2   8   0.5305   0.8312   0.7335   0.5130  -0.6088  -0.3922   0.00    1.0
2173 281562.000  -1787004.9356  -4328786.0678   4317504.8308   2   8   0.5305   0.8312   0.7335   0.5130  -0.6089  -0.3922   0.00    1.0
2173 281563.000  -1787004.7386  -4328785.9296   4317504.6318   2   8   0.5305   0.8313   0.7335   0.5130  -0.6089  -0.3923   0.00    1.0
2173 281564.000  -1787004.7391  -4328785.7296   4317504.5130   2   8   0.5305   0.8313   0.7335   0.5130  -0.6089  -0.3923   0.00    1.1
2173 281565.000  -1787004.8452  -4328785.7559   4317504.3317   2   8   0.5305   0.8314   0.7334   0.5130  -0.6089  -0.3924   0.00    1.0
2173 281566.000  -1787004.5467  -4328785.6302   4317504.3066   2   8   0.5305   0.8314   0.7334   0.5130  -0.6090  -0.3925   0.00    1.0
2173 281567.000  -1787004.5236  -4328785.5192   4317504.2400   2   8   0.5305   0.8315   0.7334   0.5130  -0.6090  -0.3925   0.00    1.0
2173 281568.000  -1787004.3565  -4328785.1797   4317503.9298   2   8   0.5305   0.8315   0.7334   0.5130  -0.6090  -0.3926   0.00    1.1
2173 281569.000  -1787004.7714  -4328786.0339   4317504.5150   2   8   0.5305   0.8316   0.7334   0.5130  -0.6091  -0.3926   0.00    1.1
2173 281570.000  -1787004.4720  -4328785.4284   4317504.1914   2   8   0.5305   0.8316   0.7333   0.5130  -0.6091  -0.3927   0.00    1.1
2173 281571.000  -1787004.2253  -4328785.3461   4317504.2716   2   8   0.5305   0.8316   0.7333   0.5130  -0.6091  -0.3928   0.00    1.0
2173 281572.000  -1787004.6872  -4328785.4641   4317504.3715   2   8   0.5305   0.8317   0.7333   0.5130  -0.6091  -0.3928   0.00    1.1
2173 281573.000  -1787004.4446  -4328785.3595   4317504.0916   2   8   0.5305   0.8317   0.7333   0.5131  -0.6092  -0.3929   0.00    1.1
2173 281574.000  -1787004.5382  -4328785.4418   4317503.9483   2   8   0.5304   0.8318   0.7333   0.5131  -0.6092  -0.3929   0.00    1.0
2173 281575.000  -1787004.7674  -4328785.5150   4317504.2609   2   8   0.5304   0.8318   0.7332   0.5131  -0.6092  -0.3930   0.00    1.1
2173 281576.000  -1787004.5542  -4328785.3955   4317504.0936   2   8   0.5304   0.8319   0.7332   0.5131  -0.6092  -0.3931   0.00    1.1
2173 281577.000  -1787004.8247  -4328785.7361   4317504.4143   2   8   0.5304   0.8319   0.7332   0.5131  -0.6093  -0.3931   0.00    1.1
2173 281578.000  -1787004.8498  -4328785.7059   4317504.5477   2   8   0.5304   0.8320   0.7332   0.5131  -0.6093  -0.3932   0.00    1.0
2173 281579.000  -1787004.4331  -4328785.3048   4317504.2734   2   8   0.5304   0.8320   0.7332   0.5131  -0.6093  -0.3932   0.00    1.0
2173 281580.000  -1787004.5051  -4328785.7115   4317504.6930   2   8   0.5304   0.8321   0.7332   0.5131  -0.6093  -0.3933   0.00    1.0
2173 281581.000  -1787004.5439  -4328785.6068   4317504.6444   2   8   0.5304   0.8321   0.7331   0.5131  -0.6094  -0.3934   0.00    1.0
2173 281582.000  -1787004.5142  -4328786.0469   4317505.1558   2   8   0.5304   0.8322   0.7331   0.5131  -0.6094  -0.3934   0.00    1.2
2173 281583.000  -1787004.4112  -4328785.7644   4317504.6897   2   8   0.5304   0.8322   0.7331   0.5131  -0.6094  -0.3935   0.00    1.1
2173 281584.000  -1787004.5978  -4328785.7268   4317504.8754   2   8   0.5304   0.8322   0.7331   0.5131  -0.6094  -0.3935   0.00    1.1
2173 281585.000  -1787004.4129  -4328786.0246   4317504.9534   2   8   0.5304   0.8323   0.7331   0.5131  -0.6095  -0.3936   0.00    1.1
2173 281586.000  -1787004.4721  -4328786.0196   4317505.1214   2   8   0.5304   0.8323   0.7330   0.5131  -0.6095  -0.3937   0.00    1.1
2173 281587.000  -1787004.8269  -4328786.5071   4317505.3128   2   8   0.5304   0.8324   0.7330   0.5132  -0.6095  -0.3937   0.00    1.1
2173 281588.000  -1787004.1710  -4328785.3715   4317504.5220   2   8   0.5304   0.8324   0.7330   0.5132  -0.6095  -0.3938   0.00    1.1
2173 281589.000  -1787004.6172  -4328785.9548   4317504.7936   2   8   0.5304   0.8325   0.7330   0.5132  -0.6096  -0.3938   0.00    1.1
2173 281590.000  -1787004.4103  -4328785.9985   4317504.6759   2   8   0.5304   0.8325   0.7330   0.5132  -0.6096  -0.3939   0.00    1.0
2173 281591.000  -1787004.4010  -4328785.8423   4317504.6221   2   8   0.5304   0.8326   0.7329   0.5132  -0.6096  -0.3940   0.00    1.0
2173 281592.000  -1787004.6805  -4328785.9678   4317504.6749   2   8   0.5304   0.8326   0.7329   0.5132  -0.6096  -0.3940   0.00    1.0
2173 281593.000  -1787004.5403  -4328785.8132   4317504.7764   2   8   0.5304   0.8327   0.7329   0.5132  -0.6097  -0.3941   0.00    1.1
2173 281594.000  -1787004.4980  -4328785.9500   4317505.0370   2   8   0.5304   0.8327   0.7329   0.5132  -0.6097  -0.3941   0.00    1.2
2173 281595.000  -1787004.8687  -4328786.2365   4317505.1905   2   8   0.5304   0.8328   0.7329   0.5132  -0.6097  -0.3942   0.00    1.1
2173 281596.000  -1787004.7133  -4328786.1714   4317504.8886   2   8   0.5304   0.8328   0.7329   0.5132  -0.6097  -0.3942   0.00    1.1
2173 281597.000  -1787004.5674  -4328786.2679   4317505.2385   2   8   0.5304   0.8328   0.7328   0.5132  -0.6098  -0.3943   0.00    1.1
2173 281598.000  -1787004.5760  -4328785.9343   4317504.7759   2   8   0.5303   0.8329   0.7328   0.5132  -0.6098  -0.3944   0.00    1.1
2173 281599.000  -1787004.4110  -4328785.5090   4317504.6275   2   8   0.5303   0.8329   0.7328   0.5132  -0.6098  -0.3944   0.00    1.0
2173 281600.000  -1787004.2792  -4328785.4739   4317504.8193   2   8   0.5303   0.8330   0.7328   0.5132  -0.6098  -0.3945   0.00    1.2
2173 281601.000  -1787004.6327  -4328786.0175   4317505.3242   2   8   0.5303   0.8330   0.7328   0.5132  -0.6099  -0.3945   0.00    1.2
2173 281602.000  -1787004.6606  -4328785.7589   4317504.9750   2   8   0.5303   0.8331   0.7327   0.5133  -0.6099  -0.3946   0.00    1.1
2173 281603.000  -1787004.6441  -4328785.7414   4317504.8090   2   8   0.5303   0.8331   0.7327   0.5133  -0.6099  -0.3947   0.00    1.1
2173 281604.000  -1787004.7866  -4328786.0276   4317504.8414   2   8   0.5303   0.8332   0.7327   0.5133  -0.6100  -0.3947   0.00    1.1
2173 281605.000  -1787004.8319  -4328785.8862   4317505.0881   2   8   0.5303   0.8332   0.7327   0.5133  -0.6100  -0.3948   0.00    1.1
2173 281606.000  -1787004.8161  -4328786.0523   4317505.1173   2   8   0.5303   0.8333   0.7327   0.5133  -0.6100  -0.3948   0.00    1.2
2173 281607.000  -1787004.6052  -4328785.8596   4317505.2616   2   8   0.5303   0.8333   0.7327   0.5133  -0.6100  -0.3949   0.00    1.2
2173 281608.000  -1787004.6124  -4328786.1559   4317504.9137   2   8   0.5303   0.8334   0.7326   0.5133  -0.6101  -0.3950   0.00    1.2
2173 281609.000  -1787004.8635  -4328785.9116   4317504.8469   2   8   0.5303   0.8334   0.7326   0.5133  -0.6101  -0.3950   0.00    1.2
2173 281610.000  -1787004.8543  -4328786.2993   4317505.1945   2   8   0.5303   0.8335   0.7326   0.5133  -0.6101  -0.3951   0.00    1.3
2173 281611.000  -1787004.6998  -4328785.7931   4317504.9679   2   8   0.5303   0.8335   0.7326   0.5133  -0.6101  -0.3951   0.00    1.2
2173 281612.000  -1787004.8630  -4328786.1787   4317505.4188   2   8   0.5303   0.8335   0.7326   0.5133  -0.6102  -0.3952   0.00    1.2
2173 281613.000  -1787004.5851  -4328785.7133   4317504.7350   2   8   0.5303   0.8336   0.7325   0.5133  -0.6102  -0.3952   0.00    1.1
2173 281614.000  -1787004.7065  -4328786.0292   4317504.8870   2   8   0.5303   0.8336   0.7325   0.5133  -0.6102  -0.3953   0.00    1.1
2173 281615.000  -1787004.5159  -4328785.7692   4317504.9125   2   8   0.5303   0.8337   0.7325   0.5133  -0.6102  -0.3954   0.00    1.0
2173 281616.000  -1787004.3300  -4328785.8609   4317504.7669   2   8   0.5303   0.8337   0.7325   0.5133  -0.6103  -0.3954   0.00    1.2
2173 281617.000  -1787004.2344  -4328785.6861   4317504.6431   2   8   0.5303   0.8338   0.7325   0.5134  -0.6103  -0.3955   0.00    1.2
2173 281618.000  -1787004.5626  -4328786.0134   4317505.2270   2   8   0.5303   0.8338   0.7325   0.5134  -0.6103  -0.3955   0.00    1.3
2173 281619.000  -1787004.4466  -4328786.0135   4317504.8718   2   8   0.5303   0.8339   0.7324   0.5134  -0.6103  -0.3956   0.00    1.3
2173 281620.000  -1787004.5504  -4328786.0599   4317505.1329   2   8   0.5303   0.8339   0.7324   0.5134  -0.6104  -0.3957   0.00    1.2
2173 281621.000  -1787004.0958  -4328785.7131   4317505.0331   2   8   0.5303   0.8340   0.7324   0.5134  -0.6104  -0.3957   0.00    1.2
2173 281622.000  -1787004.4874  -4328786.2172   4317505.4199   2   8   0.5303   0.8340   0.7324   0.5134  -0.6104  -0.3958   0.00    1.1
2173 281623.000  -1787004.3192  -4328786.1653   4317505.5002   2   8   0.5303   0.8341   0.7324   0.5134  -0.6104  -0.3958   0.00    1.2
2173 281624.000  -1787004.7060  -4328786.1934   4317505.5641   2   8   0.5302   0.8341   0.7324   0.5134  -0.6105  -0.3959   0.00    1.4
2173 281625.000  -1787004.1177  -4328786.0650   4317505.5946   2   8   0.5302   0.8342   0.7323   0.5134  -0.6105  -0.3959   0.00    1.2
2173 281626.000  -1787004.2631  -4328785.9108   4317505.1659   2   8   0.5302   0.8342   0.7323   0.5134  -0.6105  -0.3960   0.00    1.1
2173 281627.000  -1787004.4537  -4328786.4119   4317505.1980   2   8   0.5302   0.8343   0.7323   0.5134  -0.6105  -0.3961   0.00    1.2
2173 281628.000  -1787004.5673  -4328785.7953   4317505.3903   2   8   0.5302   0.8343   0.7323   0.5134  -0.6106  -0.3961   0.00    1.2
2173 281629.000  -1787004.2996  -4328785.8222   4317505.1607   2   8   0.5302   0.8343   0.7323   0.5134  -0.6106  -0.3962   0.00    1.2
2173 281630.000  -1787004.2906  -4328785.6687   4317504.9516   2   8   0.5302   0.8344   0.7323   0.5134  -0.6106  -0.3962   0.00    1.4
2173 281631.000  -1787004.4305  -4328786.1456   4317505.3210   2   8   0.5302   0.8344   0.7322   0.5134  -0.6107  -0.3963   0.00    1.0
2173 281632.000  -1787004.5114  -4328786.4262   4317505.4245   2   8   0.5302   0.8345   0.7322   0.5135  -0.6107  -0.3964   0.00    1.2
2173 281633.000  -1787004.3519  -4328786.1230   4317505.1754   2   8   0.5302   0.8345   0.7322   0.5135  -0.6107  -0.3964   0.00    1.3
2173 281634.000  -1787004.1365  -4328785.8395   4317504.7601   2   8   0.5302   0.8346   0.7322   0.5135  -0.6107  -0.3965   0.00    1.2
2173 281635.000  -1787004.0329  -4328785.5011   4317504.8644   2   8   0.5302   0.8346   0.7322   0.5135  -0.6108  -0.3965   0.00    1.3
2173 281636.000  -1787004.1754  -4328785.9844   4317504.6982   2   8   0.5302   0.8347   0.7322   0.5135  -0.6108  -0.3966   0.00    1.2
2173 281637.000  -1787004.2298  -4328786.3363   4317504.8392   2   8   0.5302   0.8347   0.7321   0.5135  -0.6108  -0.3966   0.00    1.1
2173 281638.000  -1787004.2816  -4328785.9333   4317504.9781   2   8   0.5302   0.8348   0.7321   0.5135  -0.6108  -0.3967   0.00    1.2
2173 281639.000  -1787004.5103  -4328786.5070   4317505.3655   2   8   0.5302   0.8348   0.7321   0.5135  -0.6109  -0.3968   0.00    1.2
2173 281640.000  -1787004.4082  -4328786.0487   4317505.1788   2   8   0.5302   0.8349   0.7321   0.5135  -0.6109  -0.3968   0.00    1.3
2173 281641.000  -1787004.4070  -4328786.4156   4317505.1118   2   8   0.5302   0.8349   0.7321   0.5135  -0.6109  -0.3969   0.00    1.1
2173 281642.000  -1787004.6328  -4328786.4058   4317505.1921   2   8   0.5302   0.8350   0.7321   0.5135  -0.6109  -0.3969   0.00    1.3
2173 281643.000  -1787004.5242  -4328786.5360   4317505.1133   2   8   0.5302   0.8350   0.7320   0.5135  -0.6110  -0.3970   0.00    1.3
2173 281644.000  -1787004.4385  -4328785.9816   4317505.0521   2   8   0.5302   0.8351   0.7320   0.5135  -0.6110  -0.3970   0.00    1.4
2173 281645.000  -1787004.1176  -4328785.8194   4317505.0005   2   8   0.5302   0.8351   0.7320   0.5135  -0.6110  -0.3971   0.00    1.3
2173 281646.000  -1787004.3952  -4328786.0867   4317505.0941   2   8   0.5302   0.8352   0.7320   0.5135  -0.6110  -0.3972   0.00    1.4
2173 281647.000  -1787004.2092  -4328786.2621   4317505.0648   2   8   0.5302   0.8352   0.7320   0.5136  -0.6111  -0.3972   0.00    1.3
2173 281648.000  -1787004.1789  -4328786.2688   4317505.1680   2   8   0.5302   0.8352   0.7320   0.5136  -0.6111  -0.3973   0.00    1.3
2173 281649.000  -1787004.3898  -4328785.9229   4317504.8459   2   8   0.5302   0.8353   0.7319   0.5136  -0.6111  -0.3973   0.00    1.3
2173 281650.000  -1787004.1076  -4328785.7931   4317504.6935   2   8   0.5302   0.8353   0.7319   0.5136  -0.6111  -0.3974   0.00    1.2
2173 281651.000  -1787004.3963  -4328785.9967   4317504.6864   2   8   0.5301   0.8354   0.7319   0.5136  -0.6112  -0.3974   0.00    1.1
2173 281652.000  -1787004.2542  -4328785.9888   4317504.8592   2   8   0.5301   0.8354   0.7319   0.5136  -0.6112  -0.3975   0.00    1.3
2173 281653.000  -1787004.2279  -4328785.4750   4317504.7330   2   8   0.5301   0.8355   0.7319   0.5136  -0.6112  -0.3976   0.00    1.4
2173 281654.000  -1787004.4522  -4328785.7705   4317504.5620   2   8   0.5301   0.8355   0.7319   0.5136  -0.6113  -0.3976   0.00    1.3
2173 281655.000  -1787004.6124  -4328786.2811   4317504.8976   2   8   0.5301   0.8356   0.7318   0.5136  -0.6113  -0.3977   0.00    1.3
2173 281656.000  -1787004.4717  -4328785.7940   4317504.3695   2   8   0.5301   0.8356   0.7318   0.5136  -0.6113  -0.3977   0.00    1.2
2173 281657.000  -1787004.0024  -4328785.0057   4317504.1277   2   8   0.5301   0.8357   0.7318   0.5136  -0.6113  -0.3978   0.00    1.3
2173 281658.000  -1787004.3855  -4328785.6574   4317504.5392   2   8   0.5301   0.8357   0.7318   0.5136  -0.6114  -0.3978   0.00    1.2
2173 281659.000  -1787004.1883  -4328785.0319   4317504.0951   2   8   0.5301   0.8358   0.7318   0.5136  -0.6114  -0.3979   0.00    1.2
2173 281660.000  -1787004.5393  -4328785.9389   4317504.6746   2   8   0.5301   0.8358   0.7318   0.5136  -0.6114  -0.3980   0.00    1.2
2173 281661.000  -1787004.5382  -4328785.7797   4317504.6137   2   8   0.5301   0.8359   0.7317   0.5136  -0.6114  -0.3980   0.00    1.2
2173 281662.000  -1787004.6021  -4328785.7396   4317504.6973   2   8   0.5301   0.8359   0.7317   0.5137  -0.6115  -0.3981   0.00    1.2
2173 281663.000  -1787004.5260  -4328785.8737   4317504.6038   2   8   0.5301   0.8360   0.7317   0.5137  -0.6115  -0.3981   0.00    1.2
2173 281664.000  -1787004.7090  -4328785.9596   4317504.9451   2   8   0.5301   0.8360   0.7317   0.5137  -0.6115  -0.3982   0.00    1.3
2173 281665.000  -1787004.6912  -4328785.8732   4317505.1286   2   8   0.5301   0.8361   0.7317   0.5137  -0.6115  -0.3982   0.00    1.2
2173 281666.000  -1787004.6318  -4328785.7115   4317504.6640   2   8   0.5301   0.8361   0.7317   0.5137  -0.6116  -0.3983   0.00    1.1
2173 281667.000  -1787004.8263  -4328786.3994   4317505.1843   2   8   0.5301   0.8362   0.7317   0.5137  -0.6116  -0.3983   0.00    1.1
2173 281668.000  -1787004.6607  -4328785.6656   4317504.9165   2   8   0.5301   0.8362   0.7316   0.5137  -0.6116  -0.3984   0.00    1.2
2173 281669.000  -1787004.7221  -4328786.0395   4317504.8754   2   8   0.5301   0.8363   0.7316   0.5137  -0.6116  -0.3985   0.00    1.2
2173 281670.000  -1787004.6072  -4328785.7545   4317504.7231   2   8   0.5301   0.8363   0.7316   0.5137  -0.6117  -0.3985   0.00    1.1
2173 281671.000  -1787004.6450  -4328785.7613   4317504.5595   2   8   0.5301   0.8363   0.7316   0.5137  -0.6117  -0.3986   0.00    1.1
2173 281672.000  -1787004.5420  -4328785.8395   4317504.7168   2   8   0.5301   0.8364   0.7316   0.5137  -0.6117  -0.3986   0.00    1.2
2173 281673.000  -1787004.4676  -4328785.6597   4317504.5341   2   8   0.5301   0.8364   0.7316   0.5137  -0.6118  -0.3987   0.00    1.2
2173 281674.000  -1787004.5802  -4328785.8070   4317504.7804   2   8   0.5301   0.8365   0.7316   0.5137  -0.6118  -0.3987   0.00    1.4
2173 281675.000  -1787004.6502  -4328785.6829   4317504.9682   2   8   0.5301   0.8365   0.7315   0.5137  -0.6118  -0.3988   0.00    1.3
2173 281676.000  -1787004.9407  -4328785.8937   4317504.9134   2   8   0.5301   0.8366   0.7315   0.5137  -0.6118  -0.3989   0.00    1.1
2173 281677.000  -1787004.9530  -4328786.2318   4317504.6119   2   8   0.5301   0.8366   0.7315   0.5137  -0.6119  -0.3989   0.00    1.1
2173 281678.000  -1787004.8859  -4328785.7638   4317504.4448   2   8   0.5301   0.8367   0.7315   0.5138  -0.6119  -0.3990   0.00    1.0
2173 281679.000  -1787004.8583  -4328785.3549   4317504.0694   2   8   0.5301   0.8367   0.7315   0.5138  -0.6119  -0.3990   0.00    1.1
2173 281680.000  -1787004.5936  -4328784.8389   4317503.9307   2   8   0.5300   0.8368   0.7315   0.5138  -0.6119  -0.3991   0.00    1.2
2173 281681.000  -1787004.7359  -4328785.2057   4317504.2942   2   8   0.5300   0.8368   0.7314   0.5138  -0.6120  -0.3991   0.00    1.2
2173 281682.000  -1787004.8912  -4328785.5911   4317504.3702   2   8   0.5300   0.8369   0.7314   0.5138  -0.6120  -0.3992   0.00    1.1
2173 281683.000  -1787004.9996  -4328785.8491   4317504.6477   2   8   0.5300   0.8369   0.7314   0.5138  -0.6120  -0.3992   0.00    1.0
2173 281684.000  -1787004.5804  -4328785.3205   4317504.0933   2   8   0.5300   0.8370   0.7314   0.5138  -0.6120  -0.3993   0.00    1.1
2173 281685.000  -1787004.7780  -4328785.5697   4317504.5833   2   8   0.5300   0.8370   0.7314   0.5138  -0.6121  -0.3994   0.00    1.1
2173 281686.000  -1787004.6144  -4328785.2766   4317504.1125   2   8   0.5300   0.8371   0.7314   0.5138  -0.6121  -0.3994   0.00    1.1
2173 281687.000  -1787004.6567  -4328785.3781   4317504.5845   2   8   0.5300   0.8371   0.7314   0.5138  -0.6121  -0.3995   0.00    1.0
2173 281688.000  -1787004.6084  -4328785.8371   4317504.1711   2   8   0.5300   0.8372   0.7313   0.5138  -0.6121  -0.3995   0.00    1.0
2173 281689.000  -1787004.8166  -4328785.6265   4317504.5645   2   8   0.5300   0.8372   0.7313   0.5138  -0.6122  -0.3996   0.00    1.1
2173 281690.000  -1787005.0548  -4328785.8153   4317504.3106   2   8   0.5300   0.8373   0.7313   0.5138  -0.6122  -0.3996   0.00    1.2
2173 281691.000  -1787005.3435  -4328786.3449   4317504.5466   2   8   0.5300   0.8373   0.7313   0.5138  -0.6122  -0.3997   0.00    1.2
2173 281692.000  -1787004.7082  -4328785.4901   4317504.1683   2   8   0.5300   0.8374   0.7313   0.5138  -0.6123  -0.3997   0.00    1.0
2173 281693.000  -1787004.8081  -4328785.8803   4317504.4697   2   8   0.5300   0.8374   0.7313   0.5138  -0.6123  -0.3998   0.00    1.0
2173 281694.000  -1787004.9101  -4328785.9150   4317504.4852   2   8   0.5300   0.8375   0.7313   0.5139  -0.6123  -0.3999   0.00    1.1
2173 281695.000  -1787005.2640  -4328786.1861   4317504.9838   2   8   0.5300   0.8375   0.7312   0.5139  -0.6123  -0.3999   0.00    1.0
2173 281696.000  -1787004.9812  -4328786.0854   4317504.6087   2   8   0.5300   0.8376   0.7312   0.5139  -0.6124  -0.4000   0.00    1.1
2173 281697.000  -1787004.9960  -4328786.0352   4317504.7049   2   8   0.5300   0.8376   0.7312   0.5139  -0.6124  -0.4000   0.00    1.0
2173 281698.000  -1787004.8723  -4328786.2148   4317504.2662   2   8   0.5300   0.8377   0.7312   0.5139  -0.6124  -0.4001   0.00    1.1
2173 281699.000  -1787004.6110  -4328785.3984   4317503.8615   2   8   0.5300   0.8377   0.7312   0.5139  -0.6124  -0.4001   0.00    1.3
2173 281700.000  -1787004.9383  -4328785.9833   4317503.9924   2   8   0.5300   0.8378   0.7312   0.5139  -0.6125  -0.4002   0.00    1.1
2173 281701.000  -1787004.9445  -4328785.5487   4317504.2834   2   8   0.5300   0.8378   0.7312   0.5139  -0.6125  -0.4002   0.00    1.1
2173 281702.000  -1787004.7524  -4328785.5704   4317503.9737   2   8   0.5300   0.8378   0.7311   0.5139  -0.6125  -0.4003   0.00    1.3
2173 281703.000  -1787005.2259  -4328785.7999   4317504.2352   2   8   0.5300   0.8379   0.7311   0.5139  -0.6125  -0.4004   0.00    1.1
2173 281704.000  -1787005.1654  -4328785.8890   4317504.5848   2   8   0.5300   0.8379   0.7311   0.5139  -0.6126  -0.4004   0.00    1.1
2173 281705.000  -1787004.9849  -4328785.5457   4317503.7826   2   8   0.5300   0.8380   0.7311   0.5139  -0.6126  -0.4005   0.00    1.4
2173 281706.000  -1787005.2111  -4328785.8841   4317504.2645   2   8   0.5300   0.8380   0.7311   0.5139  -0.6126  -0.4005   0.00    1.1
2173 281707.000  -1787005.1535  -4328785.9743   4317504.1976   2   8   0.5300   0.8381   0.7311   0.5139  -0.6127  -0.4006   0.00    1.2
2173 281708.000  -1787004.9960  -4328785.6284   4317503.9369   2   8   0.5300   0.8381   0.7311   0.5139  -0.6127  -0.4006   0.00    1.3
2173 281709.000  -1787004.9528  -4328785.6321   4317504.3268   2   8   0.5300   0.8382   0.7310   0.5139  -0.6127  -0.4007   0.00    1.1
2173 281710.000  -1787005.3509  -4328785.9244   4317504.2555   2   8   0.5299   0.8382   0.7310   0.5140  -0.6127  -0.4007   0.00    1.2
2173 281711.000  -1787005.2520  -4328786.2083   4317504.3960   2   8   0.5299   0.8383   0.7310   0.5140  -0.6128  -0.4008   0.00    1.1
2173 281712.000  -1787005.1270  -4328785.9199   4317504.4605   2   8   0.5299   0.8383   0.7310   0.5140  -0.6128  -0.4009   0.00    1.0
2173 281713.000  -1787005.3084  -4328786.0714   4317504.8842   2   8   0.5299   0.8384   0.7310   0.5140  -0.6128  -0.4009   0.00    1.1
2173 281714.000  -1787004.9837  -4328785.3994   4317504.3794   2   8   0.5299   0.8384   0.7310   0.5140  -0.6128  -0.4010   0.00    1.1
2173 281715.000  -1787004.8487  -4328785.6002   4317504.6509   2   8   0.5299   0.8385   0.7310   0.5140  -0.6129  -0.4010   0.00    1.1
2173 281716.000  -1787005.1106  -4328785.4943   4317504.7052   2   8   0.5299   0.8385   0.7310   0.5140  -0.6129  -0.4011   0.00    1.1
2173 281717.000  -1787005.0362  -4328785.4049   4317504.6168   2   8   0.5299   0.8386   0.7309   0.5140  -0.6129  -0.4011   0.00    1.0
2173 281718.000  -1787005.0564  -4328785.5287   4317504.1887   2   8   0.5299   0.8386   0.7309   0.5140  -0.6129  -0.4012   0.00    1.2
2173 281719.000  -1787004.9330  -4328785.6796   4317504.2211   2   8   0.5299   0.8387   0.7309   0.5140  -0.6130  -0.4012   0.00    1.1
2173 281720.000  -1787005.2253  -4328785.8898   4317504.3599   2   8   0.5299   0.8387   0.7309   0.5140  -0.6130  -0.4013   0.00    1.2
2173 281721.000  -1787004.8556  -4328785.5481   4317503.7598   2   8   0.5299   0.8388   0.7309   0.5140  -0.6130  -0.4013   0.00    1.2
2173 281722.000  -1787005.2008  -4328785.1826   4317504.0540   2   8   0.5299   0.8388   0.7309   0.5140  -0.6130  -0.4014   0.00    1.2
2173 281723.000  -1787005.0033  -4328785.5243   4317503.8278   2   8   0.5299   0.8389   0.7309   0.5140  -0.6131  -0.4015   0.00    1.2
2173 281724.000  -1787004.8877  -4328785.5852   4317504.0137   2   8   0.5299   0.8389   0.7308   0.5140  -0.6131  -0.4015   0.00    1.0
2173 281725.000  -1787005.0826  -4328785.6278   4317504.2773   2   8   0.5299   0.8390   0.7308   0.5140  -0.6131  -0.4016   0.00    1.1
2173 281726.000  -1787004.8032  -4328785.2329   4317503.7030   2   8   0.5299   0.8390   0.7308   0.5141  -0.6132  -0.4016   0.00    1.0
2173 281727.000  -1787005.2841  -4328785.9334   4317504.1707   2   8   0.5299   0.8391   0.7308   0.5141  -0.6132  -0.4017   0.00    1.0
2173 281728.000  -1787005.0101  -4328785.5721   4317504.0656   2   8   0.5299   0.8391   0.7308   0.5141  -0.6132  -0.4017   0.00    1.1
2173 281729.000  -1787005.0000  -4328785.4340   4317503.7647   2   8   0.5299   0.8392   0.7308   0.5141  -0.6132  -0.4018   0.00    1.1
2173 281730.000  -1787005.3969  -4328786.1953   4317504.4025   2   8   0.5299   0.8392   0.7308   0.5141  -0.6133  -0.4018   0.00    1.2
2173 281731.000  -1787004.9971  -4328785.5412   4317503.8928   2   8   0.5299   0.8393   0.7308   0.5141  -0.6133  -0.4019   0.00    1.0
2173 281732.000  -1787004.7202  -4328785.2916   4317503.9143   2   8   0.5299   0.8393   0.7307   0.5141  -0.6133  -0.4019   0.00    1.1
2173 281733.000  -1787004.8794  -4328785.3244   4317503.7764   2   8   0.5299   0.8394   0.7307   0.5141  -0.6133  -0.4020   0.00    1.0
2173 281734.000  -1787005.1755  -4328786.0505   4317504.2338   2   8   0.5299   0.8394   0.7307   0.5141  -0.6134  -0.4021   0.00    1.1
2173 281735.000  -1787004.9703  -4328785.4856   4317504.0194   2   8   0.5299   0.8395   0.7307   0.5141  -0.6134  -0.4021   0.00    1.1
2173 281736.000  -1787005.0774  -4328785.8340   4317504.4252   2   8   0.5299   0.8395   0.7307   0.5141  -0.6134  -0.4022   0.00    1.0
2173 281737.000  -1787004.8931  -4328785.5110   4317504.3274   2   8   0.5299   0.8396   0.7307   0.5141  -0.6134  -0.4022   0.00    1.1
2173 281738.000  -1787004.8334  -4328785.4992   4317504.1001   2   8   0.5299   0.8396   0.7307   0.5141  -0.6135  -0.4023   0.00    1.0
2173 281739.000  -1787005.2110  -4328785.7682   4317504.5811   2   8   0.5299   0.8397   0.7307   0.5141  -0.6135  -0.4023   0.00    1.2
2173 281740.000  -1787004.7636  -4328785.7628   4317504.2112   2   8   0.5299   0.8397   0.7306   0.5141  -0.6135  -0.4024   0.00    1.1
2173 281741.000  -1787005.1976  -4328785.9379   4317504.6347   2   8   0.5299   0.8398   0.7306   0.5141  -0.6136  -0.4024   0.00    1.2
2173 281742.000  -1787005.0323  -4328785.6886   4317504.2469   2   8   0.5298   0.8398   0.7306   0.5141  -0.6136  -0.4025   0.00    1.1
2173 281743.000  -1787005.0982  -4328785.8364   4317504.4340   2   8   0.5298   0.8399   0.7306   0.5142  -0.6136  -0.4025   0.00    1.2
2173 281744.000  -1787005.0342  -4328786.0496   4317504.7872   2   8   0.5298   0.8399   0.7306   0.5142  -0.6136  -0.4026   0.00    1.2
2173 281745.000  -1787005.2689  -4328786.0808   4317504.5292   2   8   0.5298   0.8400   0.7306   0.5142  -0.6137  -0.4026   0.00    1.1
2173 281746.000  -1787005.1085  -4328785.7642   4317504.6815   2   8   0.5298   0.8400   0.7306   0.5142  -0.6137  -0.4027   0.00    1.2
2173 281747.000  -1787005.1964  -4328786.0712   4317504.6271   2   8   0.5298   0.8401   0.7306   0.5142  -0.6137  -0.4028   0.00    1.1
2173 281748.000  -1787005.3812  -4328786.1970   4317504.5578   2   8   0.5298   0.8401   0.7305   0.5142  -0.6137  -0.4028   0.00    1.2
2173 281749.000  -1787005.4542  -4328786.1565   4317504.8234   2   8   0.5298   0.8402   0.7305   0.5142  -0.6138  -0.4029   0.00    1.2
2173 281750.000  -1787005.4135  -4328785.7285   4317504.4662   2   8   0.5298   0.8402   0.7305   0.5142  -0.6138  -0.4029   0.00    1.0
2173 281751.000  -1787005.2335  -4328785.9718   4317504.6831   2   8   0.5298   0.8403   0.7305   0.5142  -0.6138  -0.4030   0.00    1.1
2173 281752.000  -1787005.2634  -4328785.8234   4317504.6234   2   8   0.5298   0.8403   0.7305   0.5142  -0.6139  -0.4030   0.00    1.2
2173 281753.000  -1787005.2388  -4328785.4657   4317504.3482   2   8   0.5298   0.8404   0.7305   0.5142  -0.6139  -0.4031   0.00    1.1
2173 281754.000  -1787005.0297  -4328785.7028   4317504.2294   2   8   0.5298   0.8404   0.7305   0.5142  -0.6139  -0.4031   0.00    1.1
2173 281755.000  -1787005.0898  -4328785.6358   4317504.5063   2   8   0.5298   0.8405   0.7305   0.5142  -0.6139  -0.4032   0.00    1.3
2173 281756.000  -1787005.2481  -4328785.6656   4317504.2250   2   8   0.5298   0.8405   0.7305   0.5142  -0.6140  -0.4032   0.00    1.0
2173 281757.000  -1787005.1589  -4328785.4317   4317504.3159   2   8   0.5298   0.8406   0.7304   0.5142  -0.6140  -0.4033   0.00    1.1
2173 281758.000  -1787005.3981  -4328785.8202   4317504.6273   2   8   0.5298   0.8406   0.7304   0.5142  -0.6140  -0.4033   0.00    1.0
2173 281759.000  -1787005.2046  -4328785.8272   4317504.5960   2   8   0.5298   0.8407   0.7304   0.5142  -0.6140  -0.4034   0.00    1.1
2173 281760.000  -1787005.2331  -4328786.0930   4317505.0449   2   8   0.5298   0.8407   0.7304   0.5143  -0.6141  -0.4034   0.00    1.1
2173 281761.000  -1787005.2886  -4328785.9250   4317504.7295   2   8   0.5298   0.8408   0.7304   0.5143  -0.6141  -0.4035   0.00    1.0
2173 281762.000  -1787005.3070  -4328786.0102   4317504.7208   2   8   0.5298   0.8408   0.7304   0.5143  -0.6141  -0.4036   0.00    1.0
2173 281763.000  -1787005.4351  -4328786.1028   4317505.0168   2   8   0.5298   0.8409   0.7304   0.5143  -0.6141  -0.4036   0.00    1.2
2173 281764.000  -1787005.2313  -4328785.9309   4317504.4821   2   8   0.5298   0.8409   0.7304   0.5143  -0.6142  -0.4037   0.00    1.2
2173 281765.000  -1787005.0742  -4328785.7469   4317504.3637   2   8   0.5298   0.8410   0.7303   0.5143  -0.6142  -0.4037   0.00    1.1
2173 281766.000  -1787005.5132  -4328786.0778   4317504.3168   2   8   0.5298   0.8410   0.7303   0.5143  -0.6142  -0.4038   0.00    1.1
2173 281767.000  -1787005.3304  -4328786.3743   4317504.5055   2   8   0.5298   0.8411   0.7303   0.5143  -0.6143  -0.4038   0.00    1.2
2173 281768.000  -1787005.0121  -4328785.6684   4317503.7970   2   8   0.5298   0.8411   0.7303   0.5143  -0.6143  -0.4039   0.00    1.1
2173 281769.000  -1787005.5708  -4328786.4393   4317504.6382   2   8   0.5298   0.8412   0.7303   0.5143  -0.6143  -0.4039   0.00    1.1
2173 281770.000  -1787005.1386  -4328785.5735   4317504.2329   2   8   0.5298   0.8412   0.7303   0.5143  -0.6143  -0.4040   0.00    1.2
2173 281771.000  -1787005.2680  -4328785.8287   4317504.3591   2   8   0.5298   0.8413   0.7303   0.5143  -0.6144  -0.4040   0.00    1.2
2173 281772.000  -1787005.1013  -4328786.1564   4317504.3444   2   8   0.5298   0.8413   0.7303   0.5143  -0.6144  -0.4041   0.00    1.2
2173 281773.000  -1787005.2758  -4328785.7168   4317504.5585   2   8   0.5298   0.8414   0.7303   0.5143  -0.6144  -0.4041   0.00    1.2
2173 281774.000  -1787005.4929  -4328786.4418   4317504.6973   2   8   0.5298   0.8414   0.7302   0.5143  -0.6144  -0.4042   0.00    1.1
2173 281775.000  -1787005.3026  -4328786.0011   4317504.5311   2   8   0.5298   0.8415   0.7302   0.5143  -0.6145  -0.4042   0.00    1.2
2173 281776.000  -1787005.3032  -4328785.9529   4317504.5390   2   8   0.5297   0.8415   0.7302   0.5143  -0.6145  -0.4043   0.00    1.3
2173 281777.000  -1787005.4394  -4328786.3374   4317505.0095   2   8   0.5297   0.8416   0.7302   0.5143  -0.6145  -0.4043   0.00    1.3
2173 281778.000  -1787005.2125  -4328786.0503   4317504.8075   2   8   0.5297   0.8416   0.7302   0.5144  -0.6146  -0.4044   0.00    1.4
2173 281779.000  -1787005.0107  -4328786.3533   4317504.9911   2   8   0.5297   0.8417   0.7302   0.5144  -0.6146  -0.4045   0.00    1.4
2173 281780.000  -1787004.8864  -4328786.0834   4317504.8450   2   8   0.5297   0.8417   0.7302   0.5144  -0.6146  -0.4045   0.00    1.5
2173 281781.000  -1787005.1482  -4328786.1873   4317504.7037   2   8   0.5297   0.8418   0.7302   0.5144  -0.6146  -0.4046   0.00    1.4
2173 281782.000  -1787005.2441  -4328786.4638   4317505.1892   2   8   0.5297   0.8418   0.7302   0.5144  -0.6147  -0.4046   0.00    1.4
2173 281783.000  -1787005.3563  -4328786.6520   4317505.3557   2   8   0.5297   0.8419   0.7302   0.5144  -0.6147  -0.4047   0.00    1.5
2173 281784.000  -1787005.5942  -4328786.5629   4317505.1127   2   8   0.5297   0.8419   0.7301   0.5144  -0.6147  -0.4047   0.00    1.4
2173 281785.000  -1787005.6526  -4328786.8194   4317505.6081   2   8   0.5297   0.8420   0.7301   0.5144  -0.6147  -0.4048   0.00    1.5
2173 281786.000  -1787005.4309  -4328786.9000   4317505.2065   2   8   0.5297   0.8420   0.7301   0.5144  -0.6148  -0.4048   0.00    1.5
2173 281787.000  -1787005.5498  -4328787.2016   4317505.6935   2   8   0.5297   0.8421   0.7301   0.5144  -0.6148  -0.4049   0.00    1.6
2173 281788.000  -1787005.5273  -4328786.8493   4317505.8247   2   8   0.5297   0.8421   0.7301   0.5144  -0.6148  -0.4049   0.00    1.6
2173 281789.000  -1787005.3616  -4328786.5370   4317505.4673   2   8   0.5297   0.8422   0.7301   0.5144  -0.6148  -0.4050   0.00    1.5
2173 281790.000  -1787005.1906  -4328786.7061   4317505.4368   2   8   0.5297   0.8422   0.7301   0.5144  -0.6149  -0.4050   0.00    1.6
2173 281791.000  -1787005.2273  -4328786.2756   4317505.0077   2   8   0.5297   0.8423   0.7301   0.5144  -0.6149  -0.4051   0.00    1.7
2173 281792.000  -1787005.2165  -4328786.2723   4317505.0537   2   8   0.5297   0.8423   0.7301   0.5144  -0.6149  -0.4051   0.00    1.9
2173 281793.000  -1787005.4588  -4328786.7114   4317505.4340   2   8   0.5297   0.8424   0.7300   0.5144  -0.6150  -0.4052   0.00    1.9
2173 281794.000  -1787005.3995  -4328786.3383   4317505.2165   2   8   0.5297   0.8424   0.7300   0.5144  -0.6150  -0.4052   0.00    1.8
2173 281795.000  -1787005.3478  -4328786.4849   4317505.0450   2   8   0.5297   0.8425   0.7300   0.5144  -0.6150  -0.4053   0.00    1.4
2173 281796.000  -1787005.2825  -4328786.5090   4317505.0575   2   8   0.5297   0.8425   0.7300   0.5145  -0.6150  -0.4053   0.00    1.6
2173 281797.000  -1787005.6814  -4328787.0483   4317505.4372   2   8   0.5297   0.8426   0.7300   0.5145  -0.6151  -0.4054   0.00    1.6
2173 281798.000  -1787005.3881  -4328786.5114   4317505.1421   2   8   0.5297   0.8426   0.7300   0.5145  -0.6151  -0.4054   0.00    1.7
2173 281799.000  -1787005.6373  -4328786.5710   4317505.9117   2   8   0.5297   0.8427   0.7300   0.5145  -0.6151  -0.4055   0.00    1.9
2173 281800.000  -1787005.7069  -4328786.8039   4317505.2834   2   8   0.5297   0.8427   0.7300   0.5145  -0.6151  -0.4056   0.00    1.9
2173 281801.000  -1787005.5617  -4328786.6515   4317505.4102   2   8   0.5297   0.8428   0.7300   0.5145  -0.6152  -0.4056   0.00    2.1
2173 281802.000  -1787005.3616  -4328786.0482   4317505.1491   2   8   0.5297   0.8428   0.7300   0.5145  -0.6152  -0.4057   0.00    2.2
2173 281803.000  -1787005.2543  -4328786.0204   4317504.9885   2   8   0.5297   0.8429   0.7299   0.5145  -0.6152  -0.4057   0.00    1.8
2173 281804.000  -1787005.5110  -4328786.4990   4317505.2162   2   8   0.5297   0.8429   0.7299   0.5145  -0.6153  -0.4058   0.00    1.8
2173 281805.000  -1787005.4193  -4328786.0802   4317505.1103   2   8   0.5297   0.8430   0.7299   0.5145  -0.6153  -0.4058   0.00    1.8
2173 281806.000  -1787005.3809  -4328785.7548   4317505.1459   2   8   0.5297   0.8430   0.7299   0.5145  -0.6153  -0.4059   0.00    1.7
2173 281807.000  -1787005.4308  -4328785.7638   4317504.6511   2   8   0.5297   0.8431   0.7299   0.5145  -0.6153  -0.4059   0.00    1.6
2173 281808.000  -1787005.3700  -4328785.8602   4317504.7917   2   8   0.5297   0.8431   0.7299   0.5145  -0.6154  -0.4060   0.00    1.7
2173 281809.000  -1787005.8484  -4328786.2763   4317505.0828   2   8   0.5297   0.8432   0.7299   0.5145  -0.6154  -0.4060   0.00    1.7
2173 281810.000  -1787005.6914  -4328785.8367   4317504.7058   2   8   0.5297   0.8432   0.7299   0.5145  -0.6154  -0.4061   0.00    1.6
2173 281811.000  -1787005.6417  -4328786.3028   4317505.0092   2   8   0.5297   0.8433   0.7299   0.5145  -0.6154  -0.4061   0.00    1.7
2173 281812.000  -1787005.5624  -4328786.0655   4317504.8382   2   8   0.5296   0.8433   0.7299   0.5145  -0.6155  -0.4062   0.00    1.8
2173 281813.000  -1787005.4654  -4328785.9206   4317504.9498   2   8   0.5296   0.8434   0.7298   0.5145  -0.6155  -0.4062   0.00    1.7
2173 281814.000  -1787005.7235  -4328786.1871   4317504.7835   2   8   0.5296   0.8434   0.7298   0.5146  -0.6155  -0.4063   0.00    1.5
2173 281815.000  -1787005.9606  -4328786.2971   4317504.9199   2   8   0.5296   0.8435   0.7298   0.5146  -0.6156  -0.4063   0.00    1.6
2173 281816.000  -1787005.7173  -4328785.8241   4317504.5051   2   8   0.5296   0.8435   0.7298   0.5146  -0.6156  -0.4064   0.00    1.5
2173 281817.000  -1787005.4267  -4328785.4571   4317504.5171   2   8   0.5296   0.8436   0.7298   0.5146  -0.6156  -0.4064   0.00    1.6
2173 281818.000  -1787005.5793  -4328785.8093   4317505.0699   2   8   0.5296   0.8436   0.7298   0.5146  -0.6156  -0.4065   0.00    1.7
2173 281819.000  -1787005.8630  -4328785.7915   4317504.8154   2   8   0.5296   0.8437   0.7298   0.5146  -0.6157  -0.4065   0.00    1.5
2173 281820.000  -1787005.5597  -4328785.4499   4317504.8402   2   8   0.5296   0.8437   0.7298   0.5146  -0.6157  -0.4066   0.00    1.7
2173 281821.000  -1787005.4985  -4328785.6929   4317504.6711   2   8   0.5296   0.8438   0.7298   0.5146  -0.6157  -0.4066   0.00    1.6
2173 281822.000  -1787005.3471  -4328785.6097   4317504.7886   2   8   0.5296   0.8438   0.7298   0.5146  -0.6157  -0.4067   0.00    1.7
2173 281823.000  -1787005.5653  -4328785.9738   4317505.0047   2   8   0.5296   0.8439   0.7298   0.5146  -0.6158  -0.4067   0.00    1.8
2173 281824.000  -1787005.6037  -4328785.6711   4317504.8725   2   8   0.5296   0.8439   0.7297   0.5146  -0.6158  -0.4068   0.00    1.6
2173 281825.000  -1787005.5911  -4328785.6135   4317504.7211   2   8   0.5296   0.8440   0.7297   0.5146  -0.6158  -0.4068   0.00    1.7
2173 281826.000  -1787005.3360  -4328785.6558   4317504.5831   2   8   0.5296   0.8440   0.7297   0.5146  -0.6159  -0.4069   0.00    1.7
2173 281827.000  -1787005.3572  -4328785.6610   4317504.9920   2   8   0.5296   0.8441   0.7297   0.5146  -0.6159  -0.4069   0.00    1.8
2173 281828.000  -1787005.3331  -4328785.3107   4317504.5813   2   8   0.5296   0.8441   0.7297   0.5146  -0.6159  -0.4070   0.00    1.7
2173 281829.000  -1787005.3995  -4328785.8370   4317505.1269   2   8   0.5296   0.8442   0.7297   0.5146  -0.6159  -0.4070   0.00    1.7
2173 281830.000  -1787005.5587  -4328785.9908   4317504.7288   2   8   0.5296   0.8442   0.7297   0.5146  -0.6160  -0.4071   0.00    1.6
2173 281831.000  -1787005.2231  -4328785.5219   4317504.4913   2   8   0.5296   0.8443   0.7297   0.5146  -0.6160  -0.4071   0.00    1.7
2173 281832.000  -1787005.0761  -4328785.6429   4317504.9354   2   8   0.5296   0.8444   0.7297   0.5146  -0.6160  -0.4072   0.00    1.7
2173 281833.000  -1787005.1567  -4328785.5606   4317504.8825   2   8   0.5296   0.8444   0.7297   0.5147  -0.6160  -0.4072   0.00    1.7
2173 281834.000  -1787005.0170  -4328785.4535   4317504.8259   2   8   0.5296   0.8445   0.7297   0.5147  -0.6161  -0.4073   0.00    1.9
2173 281835.000  -1787004.8847  -4328784.7916   4317504.4284   2   8   0.5296   0.8445   0.7296   0.5147  -0.6161  -0.4074   0.00    1.9
2173 281836.000  -1787005.3520  -4328785.6066   4317504.5782   2   8   0.5296   0.8446   0.7296   0.5147  -0.6161  -0.4074   0.00    1.7
2173 281837.000  -1787005.1382  -4328785.8033   4317504.3635   2   8   0.5296   0.8446   0.7296   0.5147  -0.6162  -0.4075   0.00    1.7
2173 281838.000  -1787005.4001  -4328785.8437   4317505.0550   2   8   0.5296   0.8447   0.7296   0.5147  -0.6162  -0.4075   0.00    2.0
2173 281839.000  -1787005.2733  -4328785.1041   4317504.7012   2   8   0.5296   0.8447   0.7296   0.5147  -0.6162  -0.4076   0.00    1.5
2173 281840.000  -1787005.1261  -4328785.0184   4317504.3537   2   8   0.5296   0.8448   0.7296   0.5147  -0.6162  -0.4076   0.00    1.7
2173 281841.000  -1787005.3202  -4328785.4228   4317504.4861   2   8   0.5296   0.8448   0.7296   0.5147  -0.6163  -0.4077   0.00    1.2
2173 281842.000  -1787005.2148  -4328785.7071   4317504.7759   2   8   0.5296   0.8449   0.7296   0.5147  -0.6163  -0.4077   0.00    1.6
2173 281843.000  -1787005.4395  -4328785.4435   4317504.7513   2   8   0.5296   0.8449   0.7296   0.5147  -0.6163  -0.4078   0.00    1.7
2173 281844.000  -1787005.1792  -4328785.4917   4317504.6545   2   8   0.5296   0.8450   0.7296   0.5147  -0.6163  -0.4078   0.00    1.6
2173 281845.000  -1787005.2266  -4328785.7138   4317505.2315   2   8   0.5296   0.8450   0.7296   0.5147  -0.6164  -0.4079   0.00    1.9
2173 281846.000  -1787005.1481  -4328785.4479   4317504.7345   2   8   0.5296   0.8451   0.7296   0.5147  -0.6164  -0.4079   0.00    1.7
2173 281847.000  -1787005.1708  -4328785.7830   4317505.0028   2   8   0.5296   0.8451   0.7295   0.5147  -0.6164  -0.4080   0.00    1.8
2173 281848.000  -1787005.2877  -4328785.8796   4317504.9745   2   8   0.5296   0.8452   0.7295   0.5147  -0.6165  -0.4080   0.00    1.7
2173 281849.000  -1787005.4689  -4328785.9054   4317504.8802   2   8   0.5296   0.8452   0.7295   0.5147  -0.6165  -0.4081   0.00    1.7
2173 281850.000  -1787005.3738  -4328785.9052   4317504.9722   2   8   0.5296   0.8453   0.7295   0.5147  -0.6165  -0.4081   0.00    1.7
2173 281851.000  -1787005.1483  -4328785.8888   4317505.1000   2   8   0.5295   0.8453   0.7295   0.5147  -0.6165  -0.4082   0.00    1.7
2173 281852.000  -1787005.1595  -4328785.9162   4317505.0099   2   8   0.5295   0.8454   0.7295   0.5148  -0.6166  -0.4082   0.00    1.3
2173 281853.000  -1787005.0761  -4328785.8036   4317505.4377   2   8   0.5295   0.8454   0.7295   0.5148  -0.6166  -0.4083   0.00    1.8
2173 281854.000  -1787005.4721  -4328785.9241   4317505.2176   2   8   0.5295   0.8455   0.7295   0.5148  -0.6166  -0.4083   0.00    1.5
2173 281855.000  -1787005.1978  -4328785.6971   4317505.3236   2   8   0.5295   0.8455   0.7295   0.5148  -0.6166  -0.4084   0.00    1.9
2173 281856.000  -1787005.4232  -4328786.0583   4317505.0136   2   8   0.5295   0.8456   0.7295   0.5148  -0.6167  -0.4084   0.00    1.6
2173 281857.000  -1787005.3925  -4328785.8454   4317505.4824   2   8   0.5295   0.8456   0.7295   0.5148  -0.6167  -0.4085   0.00    1.8
2173 281858.000  -1787005.1649  -4328785.6141   4317505.3234   2   8   0.5295   0.8457   0.7295   0.5148  -0.6167  -0.4085   0.00    1.7
2173 281859.000  -1787005.4331  -4328786.1038   4317505.6923   2   8   0.5295   0.8457   0.7295   0.5148  -0.6168  -0.4086   0.00    1.7
2173 281860.000  -1787004.9836  -4328785.2363   4317505.0170   2   8   0.5295   0.8458   0.7294   0.5148  -0.6168  -0.4086   0.00    1.9
2173 281861.000  -1787005.2680  -4328786.0462   4317505.3036   2   8   0.5295   0.8459   0.7294   0.5148  -0.6168  -0.4087   0.00    1.7
2173 281862.000  -1787005.2963  -4328786.1137   4317505.7245   2   8   0.5295   0.8459   0.7294   0.5148  -0.6168  -0.4087   0.00    1.5
2173 281863.000  -1787005.0857  -4328785.8876   4317505.3666   2   8   0.5295   0.8460   0.7294   0.5148  -0.6169  -0.4088   0.00    1.7
2173 281864.000  -1787005.5052  -4328786.9389   4317505.8413   2   8   0.5295   0.8460   0.7294   0.5148  -0.6169  -0.4088   0.00    1.7
2173 281865.000  -1787005.3670  -4328786.5028   4317505.8947   2   8   0.5295   0.8461   0.7294   0.5148  -0.6169  -0.4089   0.00    1.6
2173 281866.000  -1787005.3479  -4328786.1518   4317505.6029   2   8   0.5295   0.8461   0.7294   0.5148  -0.6169  -0.4089   0.00    1.4
2173 281867.000  -1787005.3281  -4328786.4803   4317505.5601   2   8   0.5295   0.8462   0.7294   0.5148  -0.6170  -0.4090   0.00    1.2
2173 281868.000  -1787005.2364  -4328786.2796   4317505.5226   2   8   0.5295   0.8462   0.7294   0.5148  -0.6170  -0.4090   0.00    1.3
2173 281869.000  -1787004.9924  -4328785.9107   4317504.8471   2   8   0.5295   0.8463   0.7294   0.5148  -0.6170  -0.4091   0.00    1.6
2173 281870.000  -1787005.3729  -4328786.3156   4317505.6625   2   8   0.5295   0.8463   0.7294   0.5148  -0.6171  -0.4091   0.00    1.6
2173 281871.000  -1787005.0943  -4328786.0273   4317505.4191   2   8   0.5295   0.8464   0.7294   0.5148  -0.6171  -0.4092   0.00    1.6
2173 281872.000  -1787005.0060  -4328785.8952   4317505.5704   2   8   0.5295   0.8464   0.7294   0.5149  -0.6171  -0.4092   0.00    1.5
2173 281873.000  -1787005.1228  -4328786.1398   4317505.2542   2   8   0.5295   0.8465   0.7293   0.5149  -0.6171  -0.4093   0.00    1.4
2173 281874.000  -1787005.1536  -4328786.1461   4317505.3098   2   8   0.5295   0.8465   0.7293   0.5149  -0.6172  -0.4093   0.00    1.4
2173 281875.000  -1787004.9222  -4328786.1704   4317505.2472   2   8   0.5295   0.8466   0.7293   0.5149  -0.6172  -0.4094   0.00    1.3
2173 281876.000  -1787005.5182  -4328786.5373   4317505.5165   2   8   0.5295   0.8466   0.7293   0.5149  -0.6172  -0.4094   0.00    1.2
2173 281877.000  -1787005.4240  -4328786.2553   4317505.6193   2   8   0.5295   0.8467   0.7293   0.5149  -0.6173  -0.4095   0.00    1.1
2173 281878.000  -1787005.2886  -4328786.4402   4317505.5893   2   8   0.5295   0.8467   0.7293   0.5149  -0.6173  -0.4095   0.00    1.1
2173 281879.000  -1787005.0587  -4328786.1414   4317505.5743   2   8   0.5295   0.8468   0.7293   0.5149  -0.6173  -0.4096   0.00    1.2
2173 281880.000  -1787005.3483  -4328786.3071   4317505.2927   2   8   0.5295   0.8468   0.7293   0.5149  -0.6173  -0.4096   0.00    1.4
2173 281881.000  -1787005.1911  -4328786.2998   4317505.4819   2   8   0.5295   0.8469   0.7293   0.5149  -0.6174  -0.4097   0.00    1.4
2173 281882.000  -1787005.2198  -4328786.1125   4317505.4814   2   8   0.5295   0.8469   0.7293   0.5149  -0.6174  -0.4097   0.00    1.4
2173 281883.000  -1787005.4130  -4328786.6651   4317505.5914   2   8   0.5295   0.8470   0.7293   0.5149  -0.6174  -0.4098   0.00    1.4
2173 281884.000  -1787005.6467  -4328786.2803   4317505.3947   2   8   0.5295   0.8471   0.7293   0.5149  -0.6174  -0.4098   0.00    1.4
2173 281885.000  -1787005.3140  -4328786.3304   4317505.3841   2   8   0.5295   0.8471   0.7293   0.5149  -0.6175  -0.4099   0.00    1.5
2173 281886.000  -1787005.2158  -4328786.0302   4317505.2362   2   8   0.5295   0.8472   0.7293   0.5149  -0.6175  -0.4099   0.00    1.5
2173 281887.000  -1787005.3787  -4328786.4749   4317505.5824   2   8   0.5295   0.8472   0.7292   0.5149  -0.6175  -0.4100   0.00    1.2
2173 281888.000  -1787005.6582  -4328786.8440   4317505.7052   2   8   0.5295   0.8473   0.7292   0.5149  -0.6176  -0.4100   0.00    1.4
2173 281889.000  -1787005.2969  -4328786.3316   4317505.4570   2   8   0.5295   0.8473   0.7292   0.5149  -0.6176  -0.4101   0.00    1.5
2173 281890.000  -1787005.2623  -4328786.3804   4317505.5909   2   8   0.5295   0.8474   0.7292   0.5149  -0.6176  -0.4101   0.00    1.4
2173 281891.000  -1787005.4926  -4328786.9376   4317505.8213   2   8   0.5295   0.8474   0.7292   0.5149  -0.6176  -0.4102   0.00    1.3
2173 281892.000  -1787005.2622  -4328786.5410   4317505.5556   2   8   0.5295   0.8475   0.7292   0.5150  -0.6177  -0.4102   0.00    1.2
2173 281893.000  -1787005.1227  -4328786.3447   4317505.5817   2   8   0.5295   0.8475   0.7292   0.5150  -0.6177  -0.4102   0.00    1.2
2173 281894.000  -1787005.3356  -4328786.6148   4317505.8778   2   8   0.5294   0.8476   0.7292   0.5150  -0.6177  -0.4103   0.00    1.2
2173 281895.000  -1787005.1237  -4328786.5474   4317505.6426   2   8   0.5294   0.8476   0.7292   0.5150  -0.6178  -0.4103   0.00    1.3
2173 281896.000  -1787005.0283  -4328786.0472   4317505.2327   2   8   0.5294   0.8477   0.7292   0.5150  -0.6178  -0.4104   0.00    1.2
2173 281897.000  -1787005.4230  -4328786.4653   4317505.7963   2   8   0.5294   0.8477   0.7292   0.5150  -0.6178  -0.4104   0.00    1.2
2173 281898.000  -1787005.0873  -4328786.1238   4317505.4139   2   8   0.5294   0.8478   0.7292   0.5150  -0.6178  -0.4105   0.00    1.2
2173 281899.000  -1787005.2906  -4328786.1914   4317505.4313   2   8   0.5294   0.8478   0.7292   0.5150  -0.6179  -0.4105   0.00    1.2
