     2.11           OBSERVATION DATA    M (MIXED)           RINEX VERSION / TYPE
CONVBIN 2.4.3                           20210901 190613 UTC PGM / RUN BY / DATE 
log: logs/21_09_01_06_41_39_sacr_SW.rtcm                    COMMENT             
format: RTCM 3, station ID: 4077                            COMMENT             
4077                                                        MARKER NAME         
                                                            MARKER NUMBER       
                                                            OBSERVER / AGENCY   
                    SWFT                                    REC # / TYPE / VERS 
                    NULL                                    ANT # / TYPE        
 -2627151.4412 -4311708.0386  3884144.4574                  APPROX POSITION XYZ 
        0.0000        0.0000        0.0000                  ANTENNA: DELTA H/E/N
     1     1                                                WAVELENGTH FACT L1/2
     5    C1    L1    P2    L2    C2                        # / TYPES OF OBSERV 
  2021     9     1     6    41   44.0000000     GPS         TIME OF FIRST OBS   
  2021     9     1     7    11   42.0000000     GPS         TIME OF LAST OBS    
                                                            END OF HEADER       
 21  9  1  6 41 44.0000000  0 14G 4G 5G 7G 8G 9G14G20G27C20C23C25C32
                                C34E27
  24540645.355   128961945.555    24540647.339   100489824.961                  
  24157389.497   126947945.922    24157389.622    98920478.906                  
  20754750.934   109066964.632    20754750.363    84987248.008                  
  22163357.080   116469184.264    22163359.618    90755197.894                  
  21698179.399   114024665.075    21698181.722    88850378.970                  
  21841958.257   114780266.384    21841959.044    89439170.996                  
  23507958.065   123535140.425    23507958.208    96261145.937                  
  23923804.306   125720411.229    23923806.057    97963950.507                  
                 136920064.331                   136920064.331    26294052.901  
                 116610768.855                   116610768.855    22393863.349  
                 119960375.774                   119960375.774    23037125.661  
                 121827006.379                   121827006.379    23395599.883  
                 128521451.371                   128521451.371    24681194.334  
  23548213.919   123746686.737                                                  
 21  9  1  6 41 45.0000000  0 14G 4G 5G 7G 8G 9G14G20G27C20C23C25C32
                                C34E27
  24541335.207   128965570.643    24541337.173   100492649.708                  
  24157298.222   126947466.242    24157298.347    98920105.130                  
  20754785.028   109067143.757    20754784.439    84987387.590                  
  22163527.604   116470080.410    22163530.142    90755896.191                  
  21698698.780   114027394.508    21698701.103    88852505.801                  
  21841494.914   114777831.564    21841495.700    89437273.733                  
  23508192.918   123536374.593    23508193.061    96262107.628                  
  23924279.372   125722907.867    23924281.159    97965895.937                  
                 136917677.536                   136917677.536    26293594.543  
                 116610121.263                   116610121.263    22393738.980  
                 119961882.918                   119961882.918    23037415.085  
                 121827192.156                   121827192.156    23395635.531  
                 128520537.197                   128520537.197    24681018.771  
  23548375.937   123747538.117                                                  
 21  9  1  6 41 46.0000000  0 14G 4G 5G 7G 8G 9G14G20G27C20C23C25C32
                                C34E27
  24542025.058   128969195.878    24542027.042   100495474.562                  
  24157207.054   126946987.176    24157207.179    98919731.829                  
  20754819.158   109067323.116    20754818.586    84987527.348                  
  22163698.253   116470977.242    22163700.809    90756595.019                  
  21699218.268   114030124.361    21699220.573    88854632.957                  
  21841031.659   114775397.122    21841032.445    89435376.770                  
  23508427.860   123537609.253    23508428.021    96263069.699                  
  23924754.581   125725405.015    23924756.332    97967841.766                  
                 136915291.090                   136915291.090    26293136.238  
                 116609473.870                   116609473.870    22393614.648  
                 119963390.188                   119963390.188    23037704.545  
                 121827378.492                   121827378.492    23395671.341  
                 128519623.511                   128519623.511    24680843.315  
  23548537.991   123748389.724                                                  
 21  9  1  6 41 47.0000000  0 14G 4G 5G 7G 8G 9G14G20G27C20C23C25C32
                                C34E27
  24542714.946   128972821.249    24542716.911   100498299.528                  
  24157115.993   126946508.708    24157116.118    98919358.997                  
  20754853.324   109067502.707    20754852.734    84987667.289                  
  22163869.063   116471874.740    22163871.601    90757294.366                  
  21699737.828   114032854.630    21699740.133    88856760.437                  
  21840568.476   114772963.056    21840569.262    89433480.093                  
  23508662.891   123538844.392    23508663.034    96264032.140                  
  23925229.861   125727902.677    23925231.648    97969788.001                  
                 136912905.004                   136912905.004    26292678.023  
                 116608826.679                   116608826.679    22393490.369  
                 119964897.585                   119964897.585    23037994.024  
                 121827565.395                   121827565.395    23395707.222  
                 128518710.308                   128518710.308    24680667.966  
  23548700.099   123749241.559                                                  
 21  9  1  6 41 48.0000000  0 14G 4G 5G 7G 8G 9G14G20G27C20C23C25C32
                                C34E27
  24543404.833   128976446.765    24543406.816   100501124.606                  
  24157025.076   126946030.836    24157025.183    98918986.629                  
  20754887.543   109067682.542    20754886.953    84987807.423                  
  22164039.963   116472772.866    22164042.500    90757994.212                  
  21700257.441   114035585.331    21700259.764    88858888.258                  
  21840105.365   114770529.368    21840106.133    89431583.715                  
  23508898.048   123540080.000    23508898.173    96264994.956                  
  23925705.266   125730400.864    23925707.018    97971734.638                  
                 136910519.274                   136910519.274    26292219.861  
                 116608179.691                   116608179.691    22393366.125  
                 119966405.111                   119966405.111    23038283.520  
                 121827752.859                   121827752.859    23395743.228  
                 128517797.599                   128517797.599    24680492.671  
  23548862.243   123750093.608                                                  
 21  9  1  6 41 49.0000000  0 15G 4G 5G 7G 8G 9G14G20G27G30C20C23C25
                                C32C34E27
  24544094.774   128980072.411    24544096.757   100503949.782                  
  24156934.265   126945553.578    24156934.373    98918614.742                  
  20754921.816   109067862.608    20754921.244    84987947.730                  
  22164211.005   116473671.679    22164213.542    90758694.585                  
  21700777.162   114038316.437    21700779.485    88861016.395                  
  21839642.325   114768096.050    21839643.093    89429687.621                  
  23509133.258   123541316.110    23509133.400    96265958.156                  
  23926180.743   125732899.552    23926182.512    97973681.663                  
  21218005.837   111501334.113    21218007.981    86884146.766                  
                 136908133.898                   136908133.898    26291761.789  
                 116607532.901                   116607532.901    22393241.900  
                 119967912.758                   119967912.758    23038573.051  
                 121827940.887                   121827940.887    23395779.341  
                 128516885.370                   128516885.370    24680317.501  
  23549024.422   123750945.866                                                  
 21  9  1  6 41 50.0000000  0 15G 4G 5G 7G 8G 9G14G20G27G30C20C23C25
                                C32C34E27
  24544784.768   128983698.192    24544786.716   100506775.066                  
  24156843.544   126945076.921    24156843.652    98918243.320                  
  20754956.124   109068042.910    20754955.535    84988088.226                  
  22164382.155   116474571.181    22164384.692    90759395.492                  
  21701296.954   114041047.968    21701299.277    88863144.856                  
  21839179.338   114765663.105    21839180.125    89427791.819                  
  23509368.575   123542552.698    23509368.718    96266921.734                  
  23926656.327   125735398.754    23926658.096    97975629.098                  
  21217741.876   111499947.023    21217744.020    86883065.914                  
                 136905748.880                   136905748.880    26291303.752  
                 116606886.311                   116606886.311    22393117.746  
                 119969420.531                   119969420.531    23038862.601  
                 121828129.479                   121828129.479    23395815.562  
                 128515973.629                   128515973.629    24680142.403  
  23549186.637   123751798.341                                                  
 21  9  1  6 41 51.0000000  0 15G 4G 5G 7G 8G 9G14G20G27G30C20C23C25
                                C32C34E27
  24545474.745   128987324.105    24545476.728   100509600.457                  
  24156752.966   126944600.871    24156753.074    98917872.370                  
  20754990.486   109068223.446    20754989.897    84988228.902                  
  22164553.465   116475471.343    22164556.002    90760096.921                  
  21701816.817   114043779.925    21701819.140    88865273.652                  
  21838716.441   114763230.535    21838717.228    89425896.313                  
  23509603.981   123543789.762    23509604.124    96267885.680                  
  23927132.001   125737898.464    23927133.788    97977576.922                  
  21217477.986   111498560.138    21217480.113    86881985.227                  
                 136903364.216                   136903364.216    26290845.822  
                 116606239.925                   116606239.925    22392993.592  
                 119970928.434                   119970928.434    23039152.186  
                 121828318.636                   121828318.636    23395851.872  
                 128515062.377                   128515062.377    24679967.394  
  23549348.905   123752651.042                                                  
 21  9  1  6 41 52.0000000  0 15G 4G 5G 7G 8G 9G14G20G27G30C20C23C25
                                C32C34E27
  24546164.757   128990950.171    24546166.741   100512425.961                  
  24156662.478   126944125.435    24156662.603    98917501.898                  
  20755024.884   109068404.220    20755024.295    84988369.767                  
  22164724.882   116476372.163    22164727.420    90760798.859                  
  21702336.788   114046512.307    21702339.093    88867402.785                  
  21838253.598   114760798.344    21838254.384    89424001.097                  
  23509839.477   123545027.327    23509839.620    96268850.012                  
  23927607.781   125740398.688    23927609.568    97979525.148                  
  21217214.097   111497173.464    21217216.241    86880904.704                  
                 136900979.902                   136900979.902    26290387.947  
                 116605593.755                   116605593.755    22392869.527  
                 119972436.434                   119972436.434    23039441.772  
                 121828508.339                   121828508.339    23395888.307  
                 128514151.608                   128514151.608    24679792.492  
  23549511.192   123753503.983                                                  
 21  9  1  6 41 53.0000000  0 15G 4G 5G 7G 8G 9G14G20G27G30C20C23C25
                                C32C34E27
  24546854.805   128994576.354    24546856.789   100515251.558                  
  24156572.114   126943650.597    24156572.239    98917131.895                  
  20755059.318   109068585.225    20755058.746    84988510.808                  
  22164896.443   116477273.664    22164898.980    90761501.325                  
  21702856.812   114049245.112    21702859.135    88869532.241                  
  21837790.844   114758366.528    21837791.612    89422106.180                  
  23510075.080   123546265.362    23510075.223    96269814.714                  
  23928083.651   125742899.419    23928085.420    97981473.769                  
  21216950.260   111495786.987    21216952.405    86879824.332                  
                 136898595.951                   136898595.951    26289930.124  
                 116604947.770                   116604947.770    22392745.463  
                 119973944.585                   119973944.585    23039731.393  
                 121828698.620                   121828698.620    23395924.849  
                 128513241.333                   128513241.333    24679617.697  
  23549673.568   123754357.133                                                  
 21  9  1  6 41 54.0000000  0 15G 4G 5G 7G 8G 9G14G20G27G30C20C23C25
                                C32C34E27
  24547544.853   128998202.681    24547546.837   100518077.265                  
  24156481.875   126943176.366    24156482.000    98916762.362                  
  20755093.823   109068766.468    20755093.233    84988652.038                  
  22165068.093   116478175.837    22165070.666    90762204.317                  
  21703376.944   114051978.337    21703379.267    88871662.024                  
  21837328.161   114755935.079    21837328.947    89420211.542                  
  23510310.755   123547503.882    23510310.898    96270779.796                  
  23928559.628   125745400.663    23928561.397    97983422.793                  
  21216686.460   111494400.719    21216688.604    86878744.121                  
                 136896212.354                   136896212.354    26289472.374  
                 116604301.986                   116604301.986    22392621.434  
                 119975452.863                   119975452.863    23040021.068  
                 121828889.469                   121828889.469    23395961.498  
                 128512331.538                   128512331.538    24679442.973  
  23549835.943   123755210.479                                                  
 21  9  1  6 41 55.0000000  0 15G 4G 5G 7G 8G 9G14G20G27G30C20C23C25
                                C32C34E27
  24548234.955   129001829.146    24548236.938   100520903.082                  
  24156391.762   126942702.744    24156391.887    98916393.305                  
  20755128.346   109068947.946    20755127.756    84988793.450                  
  22165239.921   116479078.661    22165242.459    90762907.816                  
  21703897.147   114054711.981    21703899.452    88873792.137                  
  21836865.532   114753504.012    21836866.318    89418317.204                  
  23510546.536   123548742.900    23510546.679    96271745.263                  
  23929035.695   125747902.422    23929037.464    97985372.215                  
  21216422.695   111493014.644    21216424.840    86877664.062                  
                 136893829.118                   136893829.118    26289014.694  
                 116603656.402                   116603656.402    22392497.458  
                 119976961.267                   119976961.267    23040310.725  
                 121829080.876                   121829080.876    23395998.255  
                 128511422.234                   128511422.234    24679268.357  
  23549998.373   123756064.057                                                  
 21  9  1  6 41 56.0000000  0 15G 4G 5G 7G 8G 9G14G20G27G30C20C23C25
                                C32C34E27
  24548925.074   129005455.742    24548927.058   100523729.003                  
  24156301.738   126942229.725    24156301.863    98916024.722                  
  20755162.923   109069129.659    20755162.333    84988935.046                  
  22165411.839   116479982.145    22165414.377    90763611.827                  
  21704417.403   114057446.042    21704419.726    88875922.574                  
  21836402.993   114751073.312    21836403.779    89416423.156                  
  23510782.408   123549982.411    23510782.533    96272711.113                  
  23929511.869   125750404.696    23929513.638    97987322.040                  
  21216158.984   111491628.774    21216161.129    86876584.164                  
                 136891446.234                   136891446.234    26288557.104  
                 116603011.019                   116603011.019    22392373.519  
                 119978469.798                   119978469.798    23040600.417  
                 121829272.847                   121829272.847    23396035.119  
                 128510513.419                   128510513.419    24679093.813  
  23550160.838   123756917.865                                                  
 21  9  1  6 41 57.0000000  0 15G 4G 5G 7G 8G 9G14G20G27G30C20C23C25
                                C32C34E27
  24549615.212   129009082.483    24549617.195   100526555.040                  
  24156211.857   126941757.320    24156211.982    98915656.614                  
  20755197.535   109069311.613    20755196.963    84989076.828                  
  22165583.900   116480886.302    22165586.437    90764316.367                  
  21704937.767   114060180.528    21704940.072    88878053.340                  
  21835940.524   114748642.993    21835941.293    89414529.399                  
  23511018.368   123551222.400    23511018.529    96273677.336                  
  23929988.114   125752907.481    23929989.901    97989272.257                  
  21215895.291   111490243.101    21215897.435    86875504.421                  
                 136889063.708                   136889063.708    26288099.568  
                 116602365.837                   116602365.837    22392249.615  
                 119979978.452                   119979978.452    23040890.145  
                 121829465.385                   121829465.385    23396072.107  
                 128509605.086                   128509605.086    24678919.375  
  23550323.357   123757771.892                                                  
 21  9  1  6 41 58.0000000  0 15G 4G 5G 7G 8G 9G14G20G27G30C20C23C25
                                C32C34E27
  24550305.385   129012709.347    24550307.368   100529381.165                  
  24156122.083   126941285.519    24156122.172    98915288.977                  
  20755232.219   109069493.804    20755231.647    84989218.793                  
  22165756.086   116481791.112    22165758.623    90765021.414                  
  21705458.203   114062915.425    21705460.526    88880184.431                  
  21835478.128   114746213.049    21835478.896    89412635.937                  
  23511254.418   123552462.865    23511254.561    96274643.934                  
  23930464.484   125755410.762    23930466.253    97991222.871                  
  21215631.634   111488857.637    21215633.778    86874424.836                  
                 136886681.539                   136886681.539    26287642.085  
                 116601720.856                   116601720.856    22392125.765  
                 119981487.231                   119981487.231    23041179.892  
                 121829658.485                   121829658.485    23396109.186  
                 128508697.242                   128508697.242    24678745.045  
  23550485.911   123758626.124                                                  
 21  9  1  6 41 59.0000000  0 15G 4G 5G 7G 8G 9G14G20G27G30C20C23C25
                                C32C34E27
  24550995.576   129016336.360    24550997.559   100532207.407                  
  24156032.398   126940814.332    24156032.523    98914921.816                  
  20755266.938   109069676.230    20755266.366    84989360.941                  
  22165928.379   116482696.598    22165930.916    90765726.988                  
  21705978.727   114065650.768    21705981.032    88882315.862                  
  21835015.785   114743783.482    21835016.553    89410742.765                  
  23511490.557   123553703.816    23511490.718    96275610.910                  
  23930940.944   125757914.566    23930942.713    97993173.886                  
  21215368.048   111487472.371    21215370.174    86873345.411                  
                 136884299.726                   136884299.726    26287184.674  
                 116601076.078                   116601076.078    22392001.933  
                 119982996.137                   119982996.137    23041469.656  
                 121829852.148                   121829852.148    23396146.389  
                 128507789.887                   128507789.887    24678570.804  
  23550648.519   123759480.598                                                  
 21  9  1  6 42  0.0000000  0 15G 4G 5G 7G 8G 9G14G20G27G30C20C23C25
                                C32C34E27
  24551685.803   129019963.503    24551687.786   100535033.754                  
  24155942.856   126940343.749    24155942.981    98914555.128                  
  20755301.693   109069858.890    20755301.122    84989503.274                  
  22166100.815   116483602.750    22166103.352    90766433.082                  
  21706499.323   114068386.516    21706501.646    88884447.616                  
  21834553.513   114741354.281    21834554.299    89408849.888                  
  23511726.803   123554945.238    23511726.946    96276578.249                  
  23931417.493   125760418.886    23931419.262    97995125.304                  
  21215104.480   111486087.321    21215106.624    86872266.148                  
                 136881918.269                   136881918.269    26286727.334  
                 116600431.497                   116600431.497    22391878.154  
                 119984505.169                   119984505.169    23041759.456  
                 121830046.370                   121830046.370    23396183.682  
                 128506883.017                   128506883.017    24678396.635  
  23550811.163   123760335.276                                                  
 21  9  1  6 42  1.0000000  0 15G 4G 5G 7G 8G 9G14G20G27G30C20C23C25
                                C32C34E27
  24552376.065   129023590.786    24552378.049   100537860.206                  
  24155853.422   126939873.783    24155853.547    98914188.918                  
  20755336.502   109070041.788    20755335.913    84989645.792                  
  22166273.376   116484509.571    22166275.914    90767139.691                  
  21707019.973   114071122.684    21707022.296    88886579.695                  
  21834091.349   114738925.464    21834092.117    89406957.301                  
  23511963.139   123556187.143    23511963.282    96277545.970                  
  23931894.149   125762923.708    23931895.918    97997077.113                  
  21214840.947   111484702.460    21214843.074    86871187.039                  
                 136879537.168                   136879537.168    26286270.084  
                 116599787.121                   116599787.121    22391754.393  
                 119986014.329                   119986014.329    23042049.273  
                 121830241.164                   121830241.164    23396221.081  
                 128505976.632                   128505976.632    24678222.573  
  23550973.843   123761190.175                                                  
 21  9  1  6 42  2.0000000  0 15G 4G 5G 7G 8G 9G14G20G27G30C20C23C25
                                C32C34E27
  24553066.346   129027218.208    24553068.293   100540686.769                  
  24155764.095   126939404.406    24155764.220    98913823.172                  
  20755371.347   109070224.924    20755370.757    84989788.495                  
  22166446.080   116485417.078    22166448.618    90767846.845                  
  21707540.748   114073859.274    21707543.053    88888712.101                  
  21833629.220   114736497.014    21833630.006    89405065.005                  
  23512199.546   123557429.524    23512199.707    96278514.059                  
  23932370.894   125765429.052    23932372.681    97999029.327                  
  21214577.469   111483317.809    21214579.595    86870108.089                  
                 136877156.427                   136877156.427    26285812.887  
                 116599142.942                   116599142.942    22391630.704  
                 119987523.610                   119987523.610    23042339.127  
                 121830436.517                   121830436.517    23396258.606  
                 128505070.739                   128505070.739    24678048.618  
  23551136.558   123762045.282                                                  
 21  9  1  6 42  3.0000000  0 15G 4G 5G 7G 8G 9G14G20G27G30C20C23C25
                                C32C34E27
  24553756.644   129030845.755    24553758.592   100543513.429                  
  24155674.892   126938935.645    24155675.017    98913457.902                  
  20755406.245   109070408.298    20755405.655    84989931.384                  
  22166618.874   116486325.243    22166621.447    90768554.503                  
  21708061.576   114076596.290    21708063.899    88890844.841                  
  21833167.163   114734068.937    21833167.949    89403172.997                  
  23512436.061   123558672.383    23512436.203    96279482.516                  
  23932847.747   125767934.897    23932849.516    98000981.937                  
  21214314.008   111481933.356    21214316.134    86869029.293                  
                 136874776.038                   136874776.038    26285355.762  
                 116598498.966                   116598498.966    22391507.032  
                 119989033.020                   119989033.020    23042628.980  
                 121830632.431                   121830632.431    23396296.221  
                 128504165.332                   128504165.332    24677874.734  
  23551299.327   123762900.633                                                  
 21  9  1  6 42  4.0000000  0 15G 4G 5G 7G 8G 9G14G20G27G30C20C23C25
                                C32C34E27
  24554446.960   129034473.452    24554448.943   100546340.206                  
  24155585.815   126938467.481    24155585.940    98913093.098                  
  20755441.179   109070591.915    20755440.607    84990074.460                  
  22166791.846   116487234.071    22166794.383    90769262.679                  
  21708582.494   114079333.720    21708584.817    88892977.903                  
  21832705.195   114731641.248    21832705.963    89401281.288                  
  23512672.664   123559915.724    23512672.807    96280451.350                  
  23933324.707   125770441.263    23933326.458    98002934.949                  
  21214050.583   111480549.113    21214052.727    86867950.664                  
                 136872396.012                   136872396.012    26284898.708  
                 116597855.191                   116597855.191    22391383.396  
                 119990542.555                   119990542.555    23042918.887  
                 121830828.909                   121830828.909    23396333.942  
                 128503260.413                   128503260.413    24677700.958  
  23551462.132   123763756.189                                                  
 21  9  1  6 42  5.0000000  0 15G 4G 5G 7G 8G 9G14G20G27G30C20C23C25
                                C32C34E27
  24555137.312   129038101.273    24555139.277   100549167.081                  
  24155496.845   126937999.923    24155496.953    98912728.765                  
  20755476.167   109070775.764    20755475.577    84990217.724                  
  22166964.907   116488143.574    22166967.445    90769971.387                  
  21709103.501   114082071.575    21709105.824    88895111.294                  
  21832243.281   114729213.922    21832244.067    89399389.868                  
  23512909.357   123561159.551    23512909.500    96281420.571                  
  23933801.739   125772948.135    23933803.508    98004888.356                  
  21213787.229   111479165.071    21213789.355    86866872.188                  
                 136870016.339                   136870016.339    26284441.708  
                 116597211.614                   116597211.614    22391259.796  
                 119992052.215                   119992052.215    23043208.776  
                 121831025.954                   121831025.954    23396371.789  
                 128502355.980                   128502355.980    24677527.271  
  23551624.972   123764611.962                                                  
 21  9  1  6 42  6.0000000  0 15G 4G 5G 7G 8G 9G14G20G27G30C20C23C25
                                C32C34E27
  24555827.681   129041729.237    24555829.665   100551994.066                  
  24155407.983   126937532.950    24155408.108    98912364.890                  
  20755511.208   109070959.851    20755510.618    84990361.168                  
  22167138.094   116489053.755    22167140.631    90770680.616                  
  21709624.580   114084809.855    21709626.903    88897245.019                  
  21831781.456   114726786.971    21831782.242    89397498.738                  
  23513146.140   123562403.840    23513146.283    96282390.144                  
  23934278.859   125775455.501    23934280.646    98006842.145                  
  21213523.875   111477781.238    21213526.020    86865793.879                  
                 136867637.022                   136867637.022    26283984.779  
                 116596568.238                   116596568.238    22391136.268  
                 119993562.000                   119993562.000    23043498.719  
                 121831223.558                   121831223.558    23396409.743  
                 128501452.035                   128501452.035    24677353.674  
  23551787.884   123765467.940                                                  
 21  9  1  6 42  7.0000000  0 15G 4G 5G 7G 8G 9G14G20G27G30C20C23C25
                                C32C34E27
  24556518.105   129045357.345    24556520.088   100554821.164                  
  24155319.245   126937066.598    24155319.352    98912001.499                  
  20755546.285   109071144.167    20755545.695    84990504.788                  
  22167311.441   116489964.590    22167313.979    90771390.360                  
  21710145.712   114087548.559    21710148.053    88899379.073                  
  21831319.702   114724360.403    21831320.453    89395607.907                  
  23513382.994   123563648.606    23513383.137    96283360.095                  
  23934756.105   125777963.384    23934757.874    98008796.339                  
  21213260.575   111476397.602    21213262.719    86864715.718                  
                 136865258.067                   136865258.067    26283527.921  
                 116595925.065                   116595925.065    22391012.739  
                 119995071.909                   119995071.909    23043788.680  
                 121831421.725                   121831421.725    23396447.804  
                 128500548.581                   128500548.581    24677180.183  
  23551950.796   123766324.136                                                  
 21  9  1  6 42  8.0000000  0 15G 4G 5G 7G 8G 9G14G20G27G30C20C23C25
                                C32C34E27
  24557208.528   129048985.556    24557210.494   100557648.341                  
  24155230.615   126936600.875    24155230.740    98911638.598                  
  20755581.397   109071328.732    20755580.825    84990648.605                  
  22167484.878   116490876.086    22167487.416    90772100.617                  
  21710666.951   114090287.661    21710669.274    88901513.439                  
  21830858.002   114721934.207    21830858.789    89393717.363                  
  23513619.973   123564893.913    23513620.116    96284330.461                  
  23935233.440   125780471.809    23935235.227    98010750.956                  
  21212997.329   111475014.159    21212999.455    86863637.711                  
                 136862879.466                   136862879.466    26283071.136  
                 116595282.093                   116595282.093    22390889.264  
                 119996581.944                   119996581.944    23044078.676  
                 121831620.460                   121831620.460    23396485.954  
                 128499645.614                   128499645.614    24677006.782  
  23552113.779   123767180.617                                                  
 21  9  1  6 42  9.0000000  0 15G 4G 5G 7G 8G 9G14G20G27G30C20C23C25
                                C32C34E27
  24557898.987   129052613.925    24557900.953   100560475.644                  
  24155142.092   126936135.736    24155142.217    98911276.152                  
  20755616.563   109071513.520    20755615.974    84990792.598                  
  22167658.458   116491788.259    22167660.995    90772811.399                  
  21711188.280   114093027.191    21711190.603    88903648.138                  
  21830396.374   114719508.383    21830397.160    89391827.111                  
  23513857.041   123566139.657    23513857.184    96285301.173                  
  23935710.883   125782980.724    23935712.634    98012705.958                  
  21212734.100   111473630.925    21212736.244    86862559.868                  
                 136860501.223                   136860501.223    26282614.421  
                 116594639.321                   116594639.321    22390765.825  
                 119998092.110                   119998092.110    23044368.672  
                 121831819.753                   121831819.753    23396524.247  
                 128498743.129                   128498743.129    24676833.453  
  23552276.798   123768037.261                                                  
 21  9  1  6 42 10.0000000  0 15G 4G 5G 7G 8G 9G14G20G27G30C20C23C25
                                C32C34E27
  24558589.464   129056242.429    24558591.448   100563303.052                  
  24155053.694   126935671.206    24155053.819    98910914.179                  
  20755651.765   109071698.555    20755651.176    84990936.776                  
  22167832.180   116492701.078    22167834.718    90773522.688                  
  21711709.680   114095767.142    21711712.003    88905783.164                  
  21829934.835   114717082.932    21829935.621    89389937.153                  
  23514094.181   123567385.888    23514094.324    96286272.257                  
  23936188.397   125785490.141    23936190.166    98014661.343                  
  21212470.925   111472247.898    21212473.052    86861482.188                  
                 136858123.335                   136858123.335    26282157.778  
                 116593996.750                   116593996.750    22390642.422  
                 119999602.398                   119999602.398    23044658.722  
                 121832019.613                   121832019.613    23396562.612  
                 128497841.138                   128497841.138    24676660.248  
  23552439.853   123768894.132                                                  
 21  9  1  6 42 11.0000000  0 15G 4G 5G 7G 8G 9G14G20G27G30C20C23C25
                                C32C34E27
  24559279.959   129059871.074    24559281.942   100566130.563                  
  24154965.421   126935207.294    24154965.546    98910552.691                  
  20755687.021   109071883.827    20755686.431    84991081.149                  
  22168005.992   116493614.554    22168008.548    90774234.488                  
  21712231.152   114098507.523    21712233.475    88907918.526                  
  21829473.368   114714657.860    21829474.136    89388047.485                  
  23514331.428   123568632.594    23514331.589    96287243.719                  
  23936666.018   125788000.075    23936667.805    98016617.140                  
  21212207.786   111470865.078    21212209.912    86860404.665                  
                 136855745.804                   136855745.804    26281701.207  
                 116593354.380                   116593354.380    22390519.054  
                 120001112.808                   120001112.808    23044948.772  
                 121832220.037                   121832220.037    23396601.102  
                 128496939.633                   128496939.633    24676487.115  
  23552602.962   123769751.223                                                  
 21  9  1  6 42 12.0000000  0 15G 4G 5G 7G 8G 9G14G20G27G30C20C23C25
                                C32C34E27
  24559970.507   129063499.836    24559972.473   100568958.172                  
  24154877.255   126934743.977    24154877.380    98910191.664                  
  20755722.312   109072069.328    20755721.741    84991225.695                  
  22168179.965   116494528.687    22168182.503    90774946.800                  
  21712752.713   114101248.324    21712755.036    88910054.211                  
  21829011.954   114712233.164    21829012.740    89386158.108                  
  23514568.764   123569879.784    23514568.907    96288215.556                  
  23937143.746   125790510.519    23937145.515    98018573.332                  
  21211944.682   111469482.457    21211946.827    86859327.298                  
                 136853368.637                   136853368.637    26281244.671  
                 116592712.207                   116592712.207    22390395.740  
                 120002623.349                   120002623.349    23045238.858  
                 121832421.025                   121832421.025    23396639.699  
                 128496038.613                   128496038.613    24676314.072  
  23552766.106   123770608.528                                                  
 21  9  1  6 42 13.0000000  0 15G 4G 5G 7G 8G 9G14G20G27G30C20C23C25
                                C32C34E27
  24560661.056   129067128.746    24560663.039   100571785.894                  
  24154789.214   126934281.261    24154789.339    98909831.107                  
  20755757.657   109072255.064    20755757.085    84991370.422                  
  22168354.045   116495443.505    22168356.583    90775659.644                  
  21713274.346   114103989.536    21713276.668    88912190.218                  
  21828550.611   114709808.840    21828551.397    89384269.027                  
  23514806.172   123571127.456    23514806.315    96289187.765                  
  23937621.564   125793021.473    23937623.333    98020529.918                  
  21211681.597   111468100.035    21211683.741    86858250.086                  
                 136850991.821                   136850991.821    26280788.243  
                 116592070.238                   116592070.238    22390272.461  
                 120004134.012                   120004134.012    23045528.962  
                 121832622.571                   121832622.571    23396678.403  
                 128495138.082                   128495138.082    24676141.153  
  23552929.286   123771466.047                                                  
 21  9  1  6 42 14.0000000  0 15G 4G 5G 7G 8G 9G14G20G27G30C20C23C25
                                C32C34E27
  24561351.640   129070757.793    24561353.623   100574613.722                  
  24154701.281   126933819.156    24154701.406    98909471.022                  
  20755793.056   109072441.043    20755792.484    84991515.339                  
  22168528.233   116496358.976    22168530.788    90776372.999                  
  21713796.067   114106731.171    21713798.372    88914326.564                  
  21828089.358   114707384.891    21828090.144    89382380.238                  
  23515043.705   123572375.609    23515043.848    96290160.347                  
  23938099.489   125795532.939    23938101.240    98022486.902                  
  21211418.583   111466717.816    21211420.727    86857173.032                  
                 136848615.366                   136848615.366    26280331.886  
                 116591428.470                   116591428.470    22390149.219  
                 120005644.800                   120005644.800    23045819.101  
                 121832824.679                   121832824.679    23396717.215  
                 128494238.042                   128494238.042    24675968.306  
  23553092.501   123772323.780                                                  
 21  9  1  6 42 15.0000000  0 15G 4G 5G 7G 8G 9G14G20G27G30C20C23C25
                                C32C34E27
  24562042.242   129074386.969    24562044.225   100577441.652                  
  24154613.455   126933357.655    24154613.580    98909111.409                  
  20755828.508   109072627.261    20755827.918    84991660.446                  
  22168702.581   116497275.129    22168705.118    90777086.884                  
  21714317.861   114109473.234    21714320.184    88916463.234                  
  21827628.159   114704961.325    21827628.945    89380491.743                  
  23515281.291   123573624.234    23515281.434    96291133.304                  
  23938577.503   125798044.915    23938579.254    98024444.290                  
  21211155.604   111465335.808    21211157.713    86856096.141                  
                 136846239.266                   136846239.266    26279875.565  
                 116590786.902                   116590786.902    22390025.994  
                 120007155.716                   120007155.716    23046109.258  
                 121833027.356                   121833027.356    23396756.134  
                 128493338.488                   128493338.488    24675795.566  
  23553255.753   123773181.763                                                  
 21  9  1  6 42 16.0000000  0 15G 4G 5G 7G 8G 9G14G20G27G30C20C23C25
                                C32C34E27
  24562732.880   129078016.274    24562734.863   100580269.680                  
  24154525.753   126932896.765    24154525.878    98908752.278                  
  20755863.978   109072813.710    20755863.406    84991805.735                  
  22168877.036   116498191.944    22168879.573    90777801.288                  
  21714839.743   114112215.702    21714842.066    88918600.222                  
  21827167.049   114702538.128    21827167.817    89378603.539                  
  23515519.003   123574873.347    23515519.146    96292106.637                  
  23939055.607   125800557.398    23939057.376    98026402.067                  
  21210892.644   111463954.003    21210894.788    86855019.409                  
                 136843863.527                   136843863.527    26279419.333  
                 116590145.535                   116590145.535    22389902.841  
                 120008666.756                   120008666.756    23046399.433  
                 121833230.595                   121833230.595    23396795.160  
                 128492439.423                   128492439.423    24675622.898  
  23553419.058   123774039.943                                                  
 21  9  1  6 42 17.0000000  0 15G 4G 5G 7G 8G 9G14G20G27G30C20C23C25
                                C32C34E27
  24563423.535   129081645.711    24563425.519   100583097.813                  
  24154438.159   126932436.549    24154438.285    98908393.696                  
  20755899.502   109073000.399    20755898.912    84991951.203                  
  22169051.634   116499109.441    22169054.171    90778516.218                  
  21715361.698   114114958.613    21715364.021    88920737.557                  
  21826705.992   114700115.283    21826706.778    89376715.594                  
  23515756.804   123576122.926    23515756.947    96293080.337                  
  23939533.799   125803070.301    23939535.586    98028360.126                  
  21210629.737   111462572.382    21210631.881    86853942.817                  
                 136841488.145                   136841488.145    26278963.154  
                 116589504.368                   116589504.368    22389779.723  
                 120010177.922                   120010177.922    23046689.644  
                 121833434.395                   121833434.395    23396834.293  
                 128491540.849                   128491540.849    24675450.337  
  23553582.416   123774898.336                                                  
 21  9  1  6 42 18.0000000  0 15G 4G 5G 7G 8G 9G14G20G27G30C20C23C25
                                C32C34E27
  24564114.244   129085275.298    24564116.192   100585926.058                  
  24154350.708   126931976.897    24154350.816    98908035.524                  
  20755935.079   109073187.318    20755934.507    84992096.856                  
  22169226.357   116500027.612    22169228.895    90779231.676                  
  21715883.723   114117701.926    21715886.064    88922875.200                  
  21826245.025   114697692.849    21826245.793    89374827.983                  
  23515994.676   123577372.992    23515994.819    96294054.414                  
  23940012.117   125805583.800    23940013.887    98030318.696                  
  21210366.866   111461190.976    21210368.992    86852866.395                  
                 136839113.120                   136839113.120    26278507.066  
                 116588863.402                   116588863.402    22389656.623  
                 120011689.214                   120011689.214    23046979.855  
                 121833638.759                   121833638.759    23396873.569  
                 128490642.757                   128490642.757    24675277.865  
  23553745.793   123775756.956                                                  
 21  9  1  6 42 19.0000000  0 15G 4G 5G 7G 8G 9G14G20G27G30C20C23C25
                                C32C34E27
  24564804.936   129088905.011    24564806.919   100588754.406                  
  24154263.347   126931517.856    24154263.454    98907677.829                  
  20755970.674   109073374.477    20755970.102    84992242.692                  
  22169401.224   116500946.441    22169403.761    90779947.644                  
  21716405.838   114120445.659    21716408.161    88925013.171                  
  21825784.111   114695270.772    21825784.897    89372940.651                  
  23516232.638   123578623.540    23516232.781    96295028.862                  
  23940490.525   125808097.813    23940492.276    98032277.665                  
  21210104.012   111459809.778    21210106.157    86851790.132                  
                 136836738.454                   136836738.454    26278051.048  
                 116588222.637                   116588222.637    22389533.559  
                 120013200.630                   120013200.630    23047270.119  
                 121833843.687                   121833843.687    23396912.899  
                 128489745.157                   128489745.157    24675105.500  
  23553909.241   123776615.790                                                  
 21  9  1  6 42 20.0000000  0 15G 4G 5G 7G 8G 9G14G20G27G30C20C23C25
                                C32C34E27
  24565495.681   129092534.857    24565497.664   100591582.856                  
  24154176.092   126931059.410    24154176.217    98907320.594                  
  20756006.340   109073561.874    20756005.769    84992388.715                  
  22169576.179   116501865.929    22169578.717    90780664.129                  
  21716928.043   114123189.820    21716930.365    88927151.480                  
  21825323.287   114692849.081    21825324.055    89371053.621                  
  23516470.707   123579874.563    23516470.868    96296003.688                  
  23940969.022   125810612.338    23940970.773    98034237.035                  
  21209841.213   111458428.783    21209843.357    86850714.032                  
                 136834364.145                   136834364.145    26277595.084  
                 116587582.069                   116587582.069    22389410.567  
                 120014712.171                   120014712.171    23047560.402  
                 121834049.176                   121834049.176    23396952.353  
                 128488848.043                   128488848.043    24674933.225  
  23554072.707   123777474.823                                                  
 21  9  1  6 42 21.0000000  0 15G 4G 5G 7G 8G 9G14G20G27G30C20C23C25
                                C32C34E27
  24566186.443   129096164.837    24566188.427   100594411.415                  
  24154088.981   126930601.577    24154089.106    98906963.839                  
  20756042.061   109073749.499    20756041.489    84992534.917                  
  22169751.278   116502786.079    22169753.815    90781381.126                  
  21717450.318   114125934.398    21717452.641    88929290.113                  
  21824862.516   114690427.762    21824863.303    89369166.879                  
  23516708.866   123581126.076    23516709.009    96296978.886                  
  23941447.608   125813127.366    23941449.377    98036196.802                  
  21209578.484   111457047.996    21209580.629    86849638.094                  
                 136831990.197                   136831990.197    26277139.174  
                 116586941.708                   116586941.708    22389287.574  
                 120016223.840                   120016223.840    23047850.702  
                 121834255.230                   121834255.230    23396991.933  
                 128487951.423                   128487951.423    24674761.021  
  23554236.226   123778334.106                                                  
 21  9  1  6 42 22.0000000  0 15G 4G 5G 7G 8G 9G14G20G27G30C20C23C25
                                C32C34E27
  24566877.224   129099794.958    24566879.208   100597240.078                  
  24154001.977   126930144.343    24154002.102    98906607.555                  
  20756077.799   109073937.369    20756077.227    84992681.304                  
  22169926.519   116503706.903    22169929.057    90782098.651                  
  21717972.683   114128679.387    21717975.006    88931429.063                  
  21824401.835   114688006.815    21824402.621    89367280.430                  
  23516947.095   123582378.070    23516947.256    96297954.468                  
  23941926.301   125815642.919    23941928.088    98038156.968                  
  21209315.756   111455667.405    21209317.900    86848562.313                  
                 136829616.603                   136829616.603    26276683.353  
                 116586301.542                   116586301.542    22389164.636  
                 120017735.628                   120017735.628    23048141.020  
                 121834461.847                   121834461.847    23397031.620  
                 128487055.285                   128487055.285    24674588.943  
  23554399.781   123779193.585                                                  
 21  9  1  6 42 23.0000000  0 15G 4G 5G 7G 8G 9G14G20G27G30C20C23C25
                                C32C34E27
  24567568.041   129103425.211    24567570.024   100600068.847                  
  24153915.080   126929687.711    24153915.205    98906251.737                  
  20756113.608   109074125.464    20756113.019    84992827.874                  
  22170101.868   116504628.399    22170104.405    90782816.700                  
  21718495.102   114131424.801    21718497.443    88933568.349                  
  21823941.225   114685586.247    21823941.994    89365394.271                  
  23517185.432   123583630.554    23517185.593    96298930.430                  
  23942405.083   125818158.974    23942406.852    98040117.528                  
  21209053.081   111454287.017    21209055.226    86847486.684                  
                 136827243.367                   136827243.367    26276227.604  
                 116585661.579                   116585661.579    22389041.732  
                 120019247.547                   120019247.547    23048431.356  
                 121834669.029                   121834669.029    23397071.397  
                 128486159.636                   128486159.636    24674416.936  
  23554563.372   123780053.294                                                  
 21  9  1  6 42 24.0000000  0 15G 4G 5G 7G 8G 9G14G20G27G30C20C23C25
                                C32C34E27
  24568258.875   129107055.602    24568260.858   100602897.723                  
  24153828.308   126929231.691    24153828.415    98905896.398                  
  20756149.436   109074313.797    20756148.864    84992974.630                  
  22170277.342   116505550.528    22170279.879    90783535.243                  
  21719017.628   114134170.632    21719019.933    88935707.957                  
  21823480.651   114683166.055    21823481.437    89363508.407                  
  23517423.877   123584883.528    23517424.020    96299906.769                  
  23942883.973   125820675.525    23942885.742    98042078.481                  
  21208790.443   111452906.832    21208792.587    86846411.219                  
                 136824870.492                   136824870.492    26275771.926  
                 116585021.817                   116585021.817    22388918.883  
                 120020759.591                   120020759.591    23048721.745  
                 121834876.769                   121834876.769    23397111.298  
                 128485264.482                   128485264.482    24674245.018  
  23554727.017   123780913.231                                                  
 21  9  1  6 42 25.0000000  0 15G 4G 5G 7G 8G 9G14G20G27G30C20C23C25
                                C32C34E27
  24568949.745   129110686.128    24568951.728   100605726.706                  
  24153741.643   126928776.265    24153741.768    98905541.520                  
  20756185.317   109074502.370    20756184.745    84993121.570                  
  22170452.941   116506473.327    22170455.478    90784254.309                  
  21719540.226   114136916.882    21719542.549    88937847.886                  
  21823020.202   114680746.247    21823020.953    89361622.840                  
  23517662.392   123586136.990    23517662.553    96300883.492                  
  23943362.952   125823192.589    23943364.721    98044039.828                  
  21208527.839   111451526.860    21208529.984    86845335.910                  
                 136822497.977                   136822497.977    26275316.301  
                 116584382.253                   116584382.253    22388796.051  
                 120022271.758                   120022271.758    23049012.135  
                 121835085.076                   121835085.076    23397151.307  
                 128484369.810                   128484369.810    24674073.225  
  23554890.697   123781773.370                                                  
 21  9  1  6 42 26.0000000  0 15G 4G 5G 7G 8G 9G14G20G27G30C20C23C25
                                C32C34E27
  24569640.633   129114316.789    24569642.616   100608555.793                  
  24153655.085   126928321.446    24153655.228    98905187.113                  
  20756221.233   109074691.184    20756220.661    84993268.696                  
  22170628.683   116507396.798    22170631.220    90784973.895                  
  21720062.895   114139663.558    21720065.218    88939988.157                  
  21822559.771   114678326.801    21822560.557    89359737.559                  
  23517901.015   123587390.906    23517901.158    96301860.569                  
  23943842.039   125825710.164    23943843.808    98046001.574                  
  21208265.272   111450147.083    21208267.416    86844260.761                  
                 136820125.817                   136820125.817    26274860.766  
                 116583742.895                   116583742.895    22388673.273  
                 120023784.055                   120023784.055    23049302.560  
                 121835293.941                   121835293.941    23397191.423  
                 128483475.629                   128483475.629    24673901.504  
  23555054.413   123782633.733                                                  
 21  9  1  6 42 27.0000000  0 15G 4G 5G 7G 8G 9G14G20G27G30C20C23C25
                                C32C34E27
  24570331.556   129117947.573    24570333.540   100611384.975                  
  24153568.653   126927867.223    24153568.778    98904833.175                  
  20756257.222   109074880.227    20756256.632    84993416.004                  
  22170804.532   116508320.929    22170807.051    90785693.997                  
  21720585.635   114142410.639    21720587.958    88942128.738                  
  21822099.465   114675907.735    21822100.216    89357852.575                  
  23518139.728   123588645.312    23518139.888    96302838.031                  
  23944321.215   125828228.258    23944322.984    98047963.726                  
  21208002.740   111448767.499    21208004.885    86843185.761                  
                 136817754.014                   136817754.014    26274405.285  
                 116583103.732                   116583103.732    22388550.549  
                 120025296.474                   120025296.474    23049593.003  
                 121835503.376                   121835503.376    23397231.646  
                 128482581.935                   128482581.935    24673729.872  
  23555218.183   123783494.328                                                  
 21  9  1  6 42 28.0000000  0 15G 4G 5G 7G 8G 9G14G20G27G30C20C23C25
                                C32C34E27
  24571022.498   129121578.507    24571024.481   100614214.272                  
  24153482.345   126927413.610    24153482.453    98904479.706                  
  20756293.245   109075069.517    20756292.656    84993563.500                  
  22170980.524   116509245.730    22170983.061    90786414.620                  
  21721108.483   114145158.149    21721110.806    88944269.652                  
  21821639.195   114673489.045    21821639.963    89355967.882                  
  23518378.511   123589900.191    23518378.654    96303815.859                  
  23944800.480   125830746.851    23944802.266    98049926.266                  
