% program   : rnx2rtkp ver.2.4.3 b31
% inp file  : ngs/21_09_02_06_16_41_fmyr.obs
% inp file  : ngs/21_09_02_06_16_41_fmyr_SW.obs
% inp file  : ngs/21_09_02_06_16_41_brdc.nav
% obs start : 2021/09/02 06:00:00.0 GPST (week2173 367200.0s)
% obs end   : 2021/09/02 06:59:59.0 GPST (week2173 370799.0s)
% ref pos   :   813911.2619  -5693305.6189   2748430.1503
%
% (x/y/z-ecef=WGS84,Q=1:fix,2:float,3:sbas,4:dgps,5:single,6:ppp,ns=# of satellites)
%  GPST              x-ecef(m)      y-ecef(m)      z-ecef(m)   Q  ns   sdx(m)   sdy(m)   sdz(m)  sdxy(m)  sdyz(m)  sdzx(m) age(s)  ratio
2173 368176.000    807699.6713  -5649860.8521   2837755.6872   2   7   0.6236   1.1703   0.6495  -0.6433  -0.7398   0.3953 -30.00    1.2
2173 368177.000    807699.6703  -5649860.8507   2837755.6843   2   7   0.4432   0.8327   0.4619  -0.4571  -0.5262   0.2808 -29.00    1.1
2173 368178.000    807699.6762  -5649860.8595   2837755.6895   2   7   0.3629   0.6820   0.3782  -0.3743  -0.4309   0.2299 -28.00    1.1
2173 368179.000    807699.6764  -5649860.8596   2837755.6903   2   7   0.3150   0.5918   0.3281  -0.3249  -0.3740   0.1996 -27.00    1.1
2173 368180.000    807699.6719  -5649860.8516   2837755.6857   2   7   0.2822   0.5301   0.2939  -0.2912  -0.3350   0.1789 -26.00    1.1
2173 368181.000    807699.6649  -5649860.8417   2837755.6804   2   7   0.2580   0.4845   0.2686  -0.2662  -0.3062   0.1636 -25.00    1.1
2173 368182.000    807699.6606  -5649860.8368   2837755.6775   2   7   0.2391   0.4490   0.2489  -0.2468  -0.2837   0.1516 -24.00    1.1
2173 368183.000    807699.6599  -5649860.8320   2837755.6776   2   7   0.2239   0.4204   0.2329  -0.2311  -0.2656   0.1420 -23.00    1.1
2173 368184.000    807699.6596  -5649860.8328   2837755.6767   2   7   0.2112   0.3966   0.2197  -0.2181  -0.2506   0.1339 -22.00    1.2
2173 368185.000    807699.6615  -5649860.8331   2837755.6790   2   7   0.2004   0.3764   0.2085  -0.2070  -0.2378   0.1271 -21.00    1.2
2173 368186.000    807699.6620  -5649860.8374   2837755.6807   2   7   0.1912   0.3589   0.1988  -0.1974  -0.2268   0.1212 -20.00    1.2
2173 368187.000    807699.6557  -5649860.8284   2837755.6750   2   7   0.1831   0.3437   0.1903  -0.1891  -0.2171   0.1161 -19.00    1.2
2173 368188.000    807699.6546  -5649860.8271   2837755.6747   2   7   0.1759   0.3302   0.1828  -0.1816  -0.2086   0.1115 -18.00    1.3
2173 368189.000    807699.6519  -5649860.8235   2837755.6721   2   7   0.1694   0.3182   0.1761  -0.1750  -0.2010   0.1074 -17.00    1.3
2173 368190.000    807699.6560  -5649860.8321   2837755.6770   2   7   0.1637   0.3074   0.1701  -0.1690  -0.1941   0.1037 -16.00    1.3
2173 368191.000    807699.6624  -5649860.8432   2837755.6850   2   7   0.1584   0.2975   0.1646  -0.1636  -0.1878   0.1004 -15.00    1.3
2173 368192.000    807699.6638  -5649860.8491   2837755.6880   2   7   0.1536   0.2885   0.1596  -0.1587  -0.1822   0.0973 -14.00    1.3
2173 368193.000    807699.6627  -5649860.8507   2837755.6879   2   7   0.1492   0.2803   0.1550  -0.1541  -0.1769   0.0945 -13.00    1.4
2173 368194.000    807699.6604  -5649860.8462   2837755.6859   2   7   0.1452   0.2727   0.1508  -0.1499  -0.1721   0.0918 -12.00    1.4
2173 368195.000    807699.6600  -5649860.8413   2837755.6846   2   7   0.1414   0.2656   0.1469  -0.1460  -0.1676   0.0894 -11.00    1.4
2173 368196.000    807699.6517  -5649860.8243   2837755.6773   2   7   0.1379   0.2591   0.1432  -0.1423  -0.1634   0.0872 -10.00    1.4
2173 368197.000    807699.6467  -5649860.8151   2837755.6717   2   7   0.1346   0.2530   0.1398  -0.1390  -0.1595   0.0850  -9.00    1.3
2173 368198.000    807699.6452  -5649860.8087   2837755.6682   2   7   0.1316   0.2472   0.1366  -0.1358  -0.1559   0.0831  -8.00    1.2
2173 368199.000    807699.6383  -5649860.7939   2837755.6580   2   7   0.1287   0.2419   0.1336  -0.1328  -0.1524   0.0812  -7.00    1.2
2173 368200.000    807699.6385  -5649860.7882   2837755.6576   2   7   0.1260   0.2368   0.1308  -0.1300  -0.1492   0.0794  -6.00    1.1
2173 368201.000    807699.6322  -5649860.7821   2837755.6529   2   7   0.1235   0.2320   0.1281  -0.1273  -0.1461   0.0778  -5.00    1.0
2173 368202.000    807699.6362  -5649860.7810   2837755.6533   2   7   0.1211   0.2275   0.1256  -0.1248  -0.1432   0.0762  -4.00    1.0
2173 368203.000    807699.6330  -5649860.7834   2837755.6532   2   7   0.1189   0.2232   0.1232  -0.1224  -0.1405   0.0747  -3.00    1.1
2173 368204.000    807699.6354  -5649860.7840   2837755.6544   2   7   0.1167   0.2191   0.1209  -0.1202  -0.1379   0.0733  -2.00    1.1
2173 368205.000    807699.6414  -5649860.8008   2837755.6630   2   7   0.1147   0.2152   0.1188  -0.1181  -0.1354   0.0719  -1.00    1.2
2173 368206.000    807699.6423  -5649860.8088   2837755.6665   2   7   0.1128   0.2116   0.1167  -0.1161  -0.1330   0.0707   0.00    1.2
2173 368207.000    807699.6474  -5649860.8112   2837755.6668   2   7   0.1111   0.2081   0.1148  -0.1142  -0.1308   0.0695   0.00    1.3
2173 368208.000    807699.6509  -5649860.8209   2837755.6742   2   7   0.1093   0.2048   0.1129  -0.1123  -0.1287   0.0683   0.00    1.3
2173 368209.000    807699.6495  -5649860.8176   2837755.6706   2   7   0.1077   0.2017   0.1112  -0.1106  -0.1266   0.0672   0.00    1.4
2173 368210.000    807699.6417  -5649860.8061   2837755.6654   2   7   0.1061   0.1986   0.1095  -0.1089  -0.1247   0.0662   0.00    1.4
2173 368211.000    807699.6416  -5649860.8002   2837755.6638   2   7   0.1046   0.1957   0.1079  -0.1073  -0.1228   0.0652   0.00    1.4
2173 368212.000    807699.6378  -5649860.7948   2837755.6604   2   7   0.1032   0.1929   0.1063  -0.1058  -0.1210   0.0642   0.00    1.4
2173 368213.000    807699.6379  -5649860.7896   2837755.6582   2   7   0.1018   0.1901   0.1048  -0.1043  -0.1192   0.0632   0.00    1.4
2173 368214.000    807699.6322  -5649860.7825   2837755.6547   2   7   0.1004   0.1875   0.1033  -0.1028  -0.1175   0.0623   0.00    1.4
2173 368215.000    807699.6314  -5649860.7816   2837755.6546   2   7   0.0991   0.1850   0.1019  -0.1014  -0.1158   0.0614   0.00    1.4
2173 368216.000    807699.6237  -5649860.7643   2837755.6473   2   7   0.0979   0.1825   0.1005  -0.1001  -0.1142   0.0605   0.00    1.4
2173 368217.000    807699.6180  -5649860.7554   2837755.6426   2   7   0.0966   0.1801   0.0992  -0.0987  -0.1127   0.0597   0.00    1.4
2173 368218.000    807699.6108  -5649860.7367   2837755.6322   2   7   0.0955   0.1778   0.0979  -0.0974  -0.1111   0.0588   0.00    1.4
2173 368219.000    807699.6127  -5649860.7410   2837755.6339   2   7   0.0943   0.1755   0.0966  -0.0962  -0.1097   0.0580   0.00    1.4
2173 368220.000    807699.6086  -5649860.7369   2837755.6295   2   7   0.0932   0.1733   0.0954  -0.0950  -0.1082   0.0572   0.00    1.4
2173 368221.000    807699.6132  -5649860.7439   2837755.6320   2   7   0.0922   0.1712   0.0942  -0.0938  -0.1068   0.0565   0.00    1.4
2173 368222.000    807699.6131  -5649860.7424   2837755.6317   2   7   0.0912   0.1691   0.0931  -0.0926  -0.1054   0.0557   0.00    1.4
2173 368223.000    807699.6167  -5649860.7498   2837755.6353   2   7   0.0901   0.1670   0.0919  -0.0915  -0.1041   0.0550   0.00    1.4
2173 368224.000    807699.6249  -5649860.7611   2837755.6432   2   7   0.0891   0.1650   0.0908  -0.0904  -0.1027   0.0542   0.00    1.4
2173 368225.000    807699.6329  -5649860.7793   2837755.6535   2   7   0.0882   0.1631   0.0897  -0.0893  -0.1014   0.0535   0.00    1.4
2173 368226.000    807699.6367  -5649860.7923   2837755.6556   2   7   0.0873   0.1612   0.0887  -0.0882  -0.1002   0.0528   0.00    1.4
2173 368227.000    807699.6498  -5649860.8207   2837755.6659   2   7   0.0863   0.1593   0.0876  -0.0872  -0.0989   0.0521   0.00    1.4
2173 368228.000    807699.6434  -5649860.8083   2837755.6671   2   7   0.0855   0.1575   0.0866  -0.0861  -0.0977   0.0514   0.00    1.4
2173 368229.000    807699.6343  -5649860.7957   2837755.6590   2   7   0.0846   0.1557   0.0856  -0.0851  -0.0965   0.0507   0.00    1.4
2173 368230.000    807699.6337  -5649860.7911   2837755.6562   2   7   0.0838   0.1539   0.0847  -0.0842  -0.0953   0.0501   0.00    1.4
2173 368231.000    807699.6301  -5649860.7881   2837755.6542   2   7   0.0829   0.1522   0.0837  -0.0832  -0.0941   0.0494   0.00    1.3
2173 368232.000    807699.6316  -5649860.7928   2837755.6567   2   7   0.0822   0.1505   0.0828  -0.0822  -0.0930   0.0488   0.00    1.3
2173 368233.000    807699.6380  -5649860.8145   2837755.6645   2   7   0.0814   0.1488   0.0818  -0.0813  -0.0918   0.0481   0.00    1.3
2173 368234.000    807699.6394  -5649860.8238   2837755.6661   2   7   0.0806   0.1472   0.0809  -0.0804  -0.0907   0.0475   0.00    1.3
2173 368235.000    807699.6410  -5649860.8295   2837755.6684   2   7   0.0798   0.1456   0.0800  -0.0795  -0.0896   0.0469   0.00    1.4
2173 368236.000    807699.6492  -5649860.8440   2837755.6742   2   7   0.0791   0.1440   0.0792  -0.0786  -0.0885   0.0463   0.00    1.4
2173 368237.000    807699.6384  -5649860.8300   2837755.6653   2   7   0.0784   0.1424   0.0783  -0.0777  -0.0875   0.0456   0.00    1.4
2173 368238.000    807699.6345  -5649860.8102   2837755.6549   2   7   0.0777   0.1409   0.0775  -0.0768  -0.0864   0.0451   0.00    1.4
2173 368239.000    807699.6235  -5649860.7846   2837755.6383   2   7   0.0770   0.1394   0.0766  -0.0760  -0.0854   0.0445   0.00    1.4
2173 368240.000    807699.6166  -5649860.7624   2837755.6235   2   7   0.0763   0.1379   0.0758  -0.0751  -0.0844   0.0439   0.00    1.4
2173 368241.000    807699.6068  -5649860.7385   2837755.6103   2   7   0.0757   0.1365   0.0750  -0.0743  -0.0834   0.0433   0.00    1.3
2173 368242.000    807699.5995  -5649860.7264   2837755.5993   2   7   0.0750   0.1351   0.0742  -0.0735  -0.0824   0.0427   0.00    1.3
2173 368243.000    807699.5970  -5649860.7197   2837755.5922   2   7   0.0744   0.1336   0.0735  -0.0727  -0.0814   0.0422   0.00    1.3
2173 368244.000    807699.6023  -5649860.7335   2837755.5989   2   7   0.0737   0.1323   0.0728  -0.0719  -0.0804   0.0417   0.00    1.3
2173 368245.000    807699.6058  -5649860.7419   2837755.6051   2   7   0.0731   0.1309   0.0720  -0.0711  -0.0795   0.0411   0.00    1.3
2173 368246.000    807699.6084  -5649860.7584   2837755.6125   2   7   0.0725   0.1295   0.0712  -0.0703  -0.0785   0.0405   0.00    1.3
2173 368247.000    807699.6169  -5649860.7742   2837755.6181   2   7   0.0719   0.1282   0.0705  -0.0696  -0.0776   0.0400   0.00    1.3
2173 368248.000    807699.6235  -5649860.7953   2837755.6299   2   7   0.0713   0.1269   0.0698  -0.0688  -0.0767   0.0394   0.00    1.3
2173 368249.000    807699.6292  -5649860.8123   2837755.6385   2   7   0.0707   0.1256   0.0691  -0.0681  -0.0758   0.0389   0.00    1.3
2173 368250.000    807699.6339  -5649860.8375   2837755.6495   2   7   0.0702   0.1243   0.0684  -0.0674  -0.0749   0.0384   0.00    1.3
2173 368251.000    807699.6391  -5649860.8478   2837755.6548   2   7   0.0696   0.1231   0.0677  -0.0666  -0.0740   0.0379   0.00    1.3
2173 368252.000    807699.6387  -5649860.8510   2837755.6564   2   7   0.0691   0.1219   0.0670  -0.0659  -0.0731   0.0373   0.00    1.3
2173 368253.000    807699.6401  -5649860.8545   2837755.6574   2   7   0.0686   0.1206   0.0663  -0.0652  -0.0722   0.0368   0.00    1.3
2173 368254.000    807699.6389  -5649860.8548   2837755.6568   2   7   0.0680   0.1194   0.0657  -0.0645  -0.0714   0.0363   0.00    1.3
2173 368255.000    807699.6341  -5649860.8474   2837755.6539   2   7   0.0675   0.1183   0.0650  -0.0639  -0.0706   0.0358   0.00    1.3
2173 368256.000    807699.6369  -5649860.8603   2837755.6577   2   7   0.0670   0.1171   0.0644  -0.0632  -0.0697   0.0353   0.00    1.3
2173 368257.000    807699.6406  -5649860.8669   2837755.6597   2   7   0.0665   0.1159   0.0638  -0.0625  -0.0689   0.0348   0.00    1.3
2173 368258.000    807699.6560  -5649860.8975   2837755.6749   2   7   0.0660   0.1148   0.0631  -0.0619  -0.0681   0.0343   0.00    1.3
2173 368259.000    807699.6546  -5649860.9026   2837755.6751   2   7   0.0655   0.1137   0.0625  -0.0612  -0.0673   0.0338   0.00    1.3
2173 368260.000    807699.6598  -5649860.9191   2837755.6810   2   7   0.0651   0.1126   0.0619  -0.0606  -0.0665   0.0333   0.00    1.3
2173 368261.000    807699.6536  -5649860.9123   2837755.6771   2   7   0.0646   0.1115   0.0614  -0.0599  -0.0657   0.0329   0.00    1.3
2173 368262.000    807699.6397  -5649860.8806   2837755.6596   2   7   0.0641   0.1104   0.0608  -0.0593  -0.0649   0.0324   0.00    1.3
2173 368263.000    807699.6289  -5649860.8495   2837755.6431   2   7   0.0636   0.1093   0.0602  -0.0587  -0.0642   0.0320   0.00    1.3
2173 368264.000    807699.6131  -5649860.8187   2837755.6276   2   7   0.0633   0.1083   0.0597  -0.0581  -0.0634   0.0315   0.00    1.3
2173 368265.000    807699.6088  -5649860.8011   2837755.6188   2   7   0.0628   0.1073   0.0591  -0.0575  -0.0626   0.0310   0.00    1.3
2173 368266.000    807699.6069  -5649860.7908   2837755.6123   2   7   0.0624   0.1063   0.0585  -0.0569  -0.0619   0.0306   0.00    1.2
2173 368267.000    807699.5998  -5649860.7789   2837755.6075   2   7   0.0619   0.1053   0.0580  -0.0563  -0.0612   0.0302   0.00    1.2
2173 368268.000    807699.6032  -5649860.7779   2837755.6045   2   7   0.0615   0.1043   0.0574  -0.0557  -0.0605   0.0297   0.00    1.2
2173 368269.000    807699.5968  -5649860.7617   2837755.5968   2   7   0.0611   0.1033   0.0569  -0.0552  -0.0597   0.0292   0.00    1.2
2173 368270.000    807699.5931  -5649860.7440   2837755.5865   2   7   0.0607   0.1023   0.0564  -0.0546  -0.0590   0.0288   0.00    1.2
2173 368271.000    807699.5789  -5649860.7175   2837755.5733   2   7   0.0603   0.1014   0.0558  -0.0541  -0.0584   0.0284   0.00    1.2
2173 368272.000    807699.5642  -5649860.6846   2837755.5562   2   7   0.0599   0.1004   0.0553  -0.0535  -0.0577   0.0280   0.00    1.1
2173 368273.000    807699.5550  -5649860.6603   2837755.5444   2   7   0.0595   0.0995   0.0549  -0.0530  -0.0570   0.0276   0.00    1.1
2173 368274.000    807699.5486  -5649860.6445   2837755.5368   2   7   0.0591   0.0986   0.0543  -0.0525  -0.0563   0.0272   0.00    1.1
2173 368275.000    807699.5398  -5649860.6277   2837755.5256   2   7   0.0588   0.0977   0.0538  -0.0519  -0.0557   0.0267   0.00    1.1
2173 368276.000    807699.5359  -5649860.6130   2837755.5187   2   7   0.0584   0.0968   0.0534  -0.0514  -0.0550   0.0264   0.00    1.1
2173 368277.000    807699.5434  -5649860.6227   2837755.5235   2   7   0.0581   0.0960   0.0530  -0.0509  -0.0543   0.0260   0.00    1.1
2173 368278.000    807699.5403  -5649860.6152   2837755.5196   2   7   0.0577   0.0951   0.0524  -0.0504  -0.0537   0.0255   0.00    1.0
2173 368279.000    807699.5448  -5649860.6183   2837755.5217   2   7   0.0573   0.0942   0.0520  -0.0499  -0.0531   0.0251   0.00    1.0
2173 368280.000    807699.5460  -5649860.6145   2837755.5175   2   7   0.0570   0.0934   0.0515  -0.0494  -0.0525   0.0247   0.00    1.0
2173 368281.000    807699.5448  -5649860.6145   2837755.5180   2   7   0.0566   0.0926   0.0511  -0.0489  -0.0518   0.0243   0.00    1.0
2173 368282.000    807699.5412  -5649860.6091   2837755.5141   2   7   0.0563   0.0918   0.0507  -0.0484  -0.0512   0.0239   0.00    1.0
2173 368283.000    807699.5387  -5649860.6027   2837755.5110   2   7   0.0559   0.0909   0.0502  -0.0479  -0.0506   0.0236   0.00    1.0
2173 368284.000    807699.5379  -5649860.6053   2837755.5099   2   7   0.0556   0.0902   0.0499  -0.0475  -0.0500   0.0232   0.00    1.0
2173 368285.000    807699.5372  -5649860.6033   2837755.5088   2   7   0.0553   0.0894   0.0494  -0.0470  -0.0495   0.0228   0.00    1.0
2173 368286.000    807699.5388  -5649860.6029   2837755.5050   2   7   0.0549   0.0886   0.0490  -0.0466  -0.0489   0.0224   0.00    1.0
2173 368287.000    807699.5384  -5649860.5955   2837755.4998   2   7   0.0547   0.0879   0.0486  -0.0461  -0.0483   0.0221   0.00    1.0
2173 368288.000    807699.5257  -5649860.5820   2837755.4970   2   7   0.0543   0.0871   0.0482  -0.0457  -0.0477   0.0217   0.00    1.0
2173 368289.000    807699.5271  -5649860.5769   2837755.4935   2   7   0.0540   0.0864   0.0477  -0.0453  -0.0472   0.0213   0.00    1.1
2173 368290.000    807699.5214  -5649860.5680   2837755.4902   2   7   0.0537   0.0856   0.0474  -0.0448  -0.0466   0.0210   0.00    1.1
2173 368291.000    807699.5196  -5649860.5618   2837755.4866   2   7   0.0534   0.0849   0.0470  -0.0444  -0.0461   0.0206   0.00    1.1
2173 368292.000    807699.5262  -5649860.5768   2837755.4947   2   7   0.0531   0.0842   0.0466  -0.0439  -0.0455   0.0202   0.00    1.1
2173 368293.000    807699.5237  -5649860.5793   2837755.4921   2   7   0.0528   0.0835   0.0463  -0.0436  -0.0450   0.0199   0.00    1.1
2173 368294.000    807699.5219  -5649860.5962   2837755.5059   2   7   0.0526   0.0828   0.0458  -0.0431  -0.0445   0.0195   0.00    1.1
2173 368295.000    807699.5339  -5649860.6247   2837755.5204   2   7   0.0523   0.0821   0.0455  -0.0427  -0.0440   0.0191   0.00    1.1
2173 368296.000    807699.5426  -5649860.6521   2837755.5334   2   7   0.0520   0.0814   0.0451  -0.0423  -0.0435   0.0188   0.00    1.1
2173 368297.000    807699.5512  -5649860.6695   2837755.5432   2   7   0.0517   0.0808   0.0448  -0.0420  -0.0429   0.0184   0.00    1.1
2173 368298.000    807699.5610  -5649860.6962   2837755.5565   2   7   0.0514   0.0801   0.0444  -0.0415  -0.0424   0.0182   0.00    1.1
2173 368299.000    807699.5739  -5649860.7204   2837755.5686   2   7   0.0512   0.0795   0.0441  -0.0412  -0.0419   0.0178   0.00    1.1
2173 368300.000    807699.5855  -5649860.7554   2837755.5862   2   7   0.0509   0.0788   0.0437  -0.0408  -0.0415   0.0174   0.00    1.1
2173 368301.000    807699.5982  -5649860.7898   2837755.6003   2   7   0.0506   0.0782   0.0434  -0.0404  -0.0410   0.0172   0.00    1.1
2173 368302.000    807699.6107  -5649860.8250   2837755.6185   2   7   0.0504   0.0776   0.0430  -0.0400  -0.0405   0.0168   0.00    1.1
2173 368303.000    807699.6252  -5649860.8577   2837755.6335   2   7   0.0502   0.0770   0.0427  -0.0397  -0.0400   0.0166   0.00    1.1
2173 368304.000    807699.6346  -5649860.8840   2837755.6472   2   7   0.0499   0.0764   0.0423  -0.0393  -0.0396   0.0161   0.00    1.1
2173 368305.000    807699.6439  -5649860.9031   2837755.6554   2   7   0.0496   0.0758   0.0421  -0.0390  -0.0391   0.0158   0.00    1.1
2173 368306.000    807699.6429  -5649860.9060   2837755.6557   2   7   0.0494   0.0752   0.0418  -0.0386  -0.0386   0.0155   0.00    1.1
2173 368307.000    807699.6527  -5649860.9277   2837755.6660   2   7   0.0492   0.0746   0.0415  -0.0383  -0.0382   0.0151   0.00    1.1
2173 368308.000    807699.6554  -5649860.9285   2837755.6689   2   7   0.0489   0.0741   0.0412  -0.0380  -0.0377   0.0148   0.00    1.1
2173 368309.000    807699.6581  -5649860.9407   2837755.6716   2   7   0.0486   0.0735   0.0409  -0.0376  -0.0373   0.0145   0.00    1.1
2173 368310.000    807699.6550  -5649860.9398   2837755.6724   2   7   0.0485   0.0729   0.0406  -0.0372  -0.0369   0.0142   0.00    1.1
2173 368311.000    807699.6532  -5649860.9392   2837755.6719   2   7   0.0482   0.0724   0.0403  -0.0369  -0.0365   0.0139   0.00    1.1
2173 368312.000    807699.6511  -5649860.9405   2837755.6745   2   7   0.0480   0.0719   0.0399  -0.0366  -0.0361   0.0134   0.00    1.1
2173 368313.000    807699.6518  -5649860.9494   2837755.6814   2   7   0.0478   0.0713   0.0397  -0.0363  -0.0356   0.0131   0.00    1.1
2173 368314.000    807699.6537  -5649860.9479   2837755.6817   2   7   0.0475   0.0708   0.0394  -0.0360  -0.0352   0.0128   0.00    1.1
2173 368315.000    807699.6522  -5649860.9495   2837755.6825   2   7   0.0473   0.0703   0.0391  -0.0357  -0.0348   0.0126   0.00    1.1
2173 368316.000    807699.6495  -5649860.9445   2837755.6800   2   7   0.0471   0.0698   0.0389  -0.0354  -0.0344   0.0123   0.00    1.1
2173 368317.000    807699.6559  -5649860.9596   2837755.6876   2   7   0.0469   0.0693   0.0386  -0.0351  -0.0340   0.0121   0.00    1.1
2173 368318.000    807699.6735  -5649860.9312   2837755.6898   2   7   0.0467   0.0688   0.0382  -0.0348  -0.0336   0.0116   0.00    1.1
2173 368319.000    807699.6774  -5649860.9422   2837755.7028   2   7   0.0465   0.0683   0.0381  -0.0345  -0.0332   0.0113   0.00    1.2
2173 368320.000    807699.6834  -5649860.9636   2837755.7202   2   7   0.0463   0.0678   0.0378  -0.0342  -0.0328   0.0110   0.00    1.2
2173 368321.000    807699.6929  -5649860.9871   2837755.7385   2   7   0.0461   0.0673   0.0376  -0.0339  -0.0324   0.0107   0.00    1.2
2173 368322.000    807699.7056  -5649861.0151   2837755.7601   2   7   0.0459   0.0668   0.0372  -0.0336  -0.0321   0.0102   0.00    1.2
2173 368323.000    807699.7097  -5649861.0260   2837755.7733   2   7   0.0457   0.0664   0.0370  -0.0333  -0.0317   0.0100   0.00    1.2
2173 368324.000    807699.7168  -5649861.0478   2837755.7919   2   7   0.0455   0.0659   0.0368  -0.0330  -0.0313   0.0096   0.00    1.2
2173 368325.000    807699.7217  -5649861.0632   2837755.8053   2   7   0.0453   0.0655   0.0366  -0.0328  -0.0310   0.0094   0.00    1.2
2173 368326.000    807699.7284  -5649861.0780   2837755.8219   2   7   0.0451   0.0650   0.0363  -0.0325  -0.0306   0.0091   0.00    1.2
2173 368327.000    807699.7357  -5649861.1064   2837755.8389   2   7   0.0449   0.0646   0.0361  -0.0322  -0.0302   0.0087   0.00    1.2
2173 368328.000    807699.7490  -5649861.1375   2837755.8599   2   7   0.0447   0.0641   0.0358  -0.0320  -0.0299   0.0082   0.00    1.2
2173 368329.000    807699.7527  -5649861.1610   2837755.8755   2   7   0.0445   0.0637   0.0356  -0.0317  -0.0295   0.0078   0.00    1.2
2173 368330.000    807699.7617  -5649861.1878   2837755.8945   2   7   0.0443   0.0633   0.0353  -0.0315  -0.0292   0.0073   0.00    1.2
2173 368331.000    807699.7715  -5649861.2161   2837755.9126   2   7   0.0442   0.0629   0.0352  -0.0312  -0.0289   0.0072   0.00    1.2
2173 368332.000    807699.7765  -5649861.2325   2837755.9276   2   7   0.0440   0.0624   0.0349  -0.0310  -0.0285   0.0067   0.00    1.2
2173 368333.000    807699.7834  -5649861.2560   2837755.9434   2   7   0.0438   0.0620   0.0348  -0.0307  -0.0282   0.0066   0.00    1.2
2173 368334.000    807699.7893  -5649861.2670   2837755.9538   2   7   0.0436   0.0616   0.0345  -0.0305  -0.0279   0.0059   0.00    1.2
2173 368335.000    807699.7903  -5649861.2711   2837755.9597   2   7   0.0434   0.0612   0.0342  -0.0302  -0.0276   0.0056   0.00    1.2
2173 368336.000    807699.7992  -5649861.2927   2837755.9770   2   7   0.0433   0.0608   0.0341  -0.0300  -0.0273   0.0054   0.00    1.2
2173 368337.000    807699.7995  -5649861.2997   2837755.9853   2   7   0.0432   0.0604   0.0339  -0.0298  -0.0269   0.0046   0.00    1.2
2173 368338.000    807699.8011  -5649861.3039   2837755.9911   2   7   0.0430   0.0601   0.0337  -0.0296  -0.0266   0.0044   0.00    1.2
2173 368339.000    807699.8038  -5649861.3203   2837756.0045   2   7   0.0428   0.0597   0.0334  -0.0293  -0.0263   0.0035   0.00    1.2
2173 368340.000    807699.8138  -5649861.3466   2837756.0237   2   7   0.0427   0.0593   0.0333  -0.0291  -0.0260   0.0034   0.00    1.2
2173 368341.000    807699.8212  -5649861.3705   2837756.0413   2   7   0.0425   0.0589   0.0331  -0.0289  -0.0257   0.0026   0.00    1.2
2173 368342.000    807699.8258  -5649861.3864   2837756.0523   2   7   0.0423   0.0586   0.0329  -0.0286  -0.0254   0.0017   0.00    1.2
2173 368343.000    807699.8268  -5649861.3929   2837756.0620   2   7   0.0421   0.0582   0.0326  -0.0284  -0.0251  -0.0016   0.00    1.1
2173 368344.000    807699.8312  -5649861.4039   2837756.0730   2   7   0.0420   0.0579   0.0325  -0.0282  -0.0248  -0.0029   0.00    1.1
2173 368345.000    807699.8332  -5649861.4163   2837756.0831   2   7   0.0419   0.0575   0.0323  -0.0280  -0.0245  -0.0035   0.00    1.1
2173 368346.000    807699.8399  -5649861.4334   2837756.0951   2   7   0.0417   0.0572   0.0321  -0.0278  -0.0242  -0.0037   0.00    1.1
2173 368347.000    807699.8508  -5649861.4591   2837756.1105   2   7   0.0416   0.0568   0.0320  -0.0276  -0.0239  -0.0042   0.00    1.1
2173 368348.000    807699.8498  -5649861.4658   2837756.1219   2   7   0.0414   0.0565   0.0318  -0.0274  -0.0236  -0.0042   0.00    1.1
2173 368349.000    807699.8541  -5649861.4776   2837756.1302   2   7   0.0413   0.0562   0.0316  -0.0272  -0.0234  -0.0044   0.00    1.1
2173 368350.000    807699.8569  -5649861.4811   2837756.1365   2   7   0.0411   0.0558   0.0313  -0.0270  -0.0231  -0.0054   0.00    1.1
2173 368351.000    807699.8507  -5649861.4762   2837756.1380   2   7   0.0410   0.0555   0.0312  -0.0268  -0.0228  -0.0057   0.00    1.1
2173 368352.000    807699.8545  -5649861.4927   2837756.1531   2   7   0.0408   0.0552   0.0311  -0.0266  -0.0226  -0.0058   0.00    1.1
2173 368353.000    807699.8666  -5649861.5237   2837756.1707   2   7   0.0407   0.0549   0.0309  -0.0264  -0.0223  -0.0061   0.00    1.1
2173 368354.000    807699.8778  -5649861.5509   2837756.1924   2   7   0.0405   0.0545   0.0307  -0.0262  -0.0220  -0.0063   0.00    1.0
2173 368355.000    807699.8690  -5649861.5558   2837756.1889   2   7   0.0404   0.0542   0.0306  -0.0260  -0.0217  -0.0064   0.00    1.0
2173 368356.000    807699.8726  -5649861.5728   2837756.2001   2   7   0.0403   0.0539   0.0304  -0.0259  -0.0215  -0.0068   0.00    1.0
2173 368357.000    807699.8655  -5649861.5683   2837756.2000   2   7   0.0401   0.0536   0.0303  -0.0257  -0.0212  -0.0069   0.00    1.0
2173 368358.000    807699.8626  -5649861.5597   2837756.2010   2   7   0.0400   0.0533   0.0301  -0.0256  -0.0210  -0.0071   0.00    1.0
2173 368359.000    807699.8545  -5649861.5535   2837756.2007   2   7   0.0398   0.0530   0.0299  -0.0253  -0.0207  -0.0071   0.00    1.0
2173 368360.000    807699.8485  -5649861.5513   2837756.2041   2   7   0.0397   0.0527   0.0298  -0.0251  -0.0205  -0.0074   0.00    1.0
2173 368361.000    807699.8516  -5649861.5647   2837756.2144   2   7   0.0396   0.0525   0.0297  -0.0250  -0.0202  -0.0077   0.00    1.0
2173 368362.000    807699.8577  -5649861.5836   2837756.2295   2   7   0.0395   0.0522   0.0294  -0.0248  -0.0200  -0.0078   0.00    1.0
2173 368363.000    807699.8587  -5649861.5914   2837756.2363   2   7   0.0393   0.0519   0.0294  -0.0246  -0.0197  -0.0079   0.00    1.0
2173 368364.000    807699.8649  -5649861.6060   2837756.2458   2   7   0.0392   0.0516   0.0292  -0.0245  -0.0195  -0.0080   0.00    1.0
2173 368365.000    807699.8713  -5649861.6236   2837756.2565   2   7   0.0391   0.0513   0.0291  -0.0243  -0.0193  -0.0081   0.00    1.0
2173 368366.000    807699.8821  -5649861.6460   2837756.2721   2   7   0.0390   0.0511   0.0288  -0.0242  -0.0191  -0.0084   0.00    1.0
2173 368367.000    807699.8841  -5649861.6551   2837756.2811   2   7   0.0388   0.0508   0.0288  -0.0239  -0.0188  -0.0086   0.00    1.0
2173 368368.000    807699.8894  -5649861.6771   2837756.2957   2   7   0.0387   0.0505   0.0286  -0.0238  -0.0186  -0.0086   0.00    1.0
2173 368369.000    807699.9020  -5649861.7038   2837756.3107   2   7   0.0386   0.0503   0.0284  -0.0237  -0.0183  -0.0088   0.00    1.0
2173 368370.000    807699.9006  -5649861.7081   2837756.3167   2   7   0.0384   0.0500   0.0283  -0.0235  -0.0181  -0.0086   0.00    1.0
2173 368371.000    807699.9036  -5649861.7152   2837756.3223   2   7   0.0383   0.0498   0.0281  -0.0234  -0.0179  -0.0090   0.00    1.0
2173 368372.000    807699.9017  -5649861.7173   2837756.3259   2   7   0.0382   0.0495   0.0281  -0.0232  -0.0176  -0.0090   0.00    1.0
2173 368373.000    807699.8980  -5649861.7130   2837756.3278   2   7   0.0381   0.0493   0.0279  -0.0231  -0.0175  -0.0091   0.00    1.0
2173 368374.000    807699.8882  -5649861.6978   2837756.3248   2   7   0.0380   0.0490   0.0279  -0.0229  -0.0172  -0.0090   0.00    1.0
2173 368375.000    807699.8864  -5649861.6962   2837756.3268   2   7   0.0379   0.0488   0.0277  -0.0228  -0.0170  -0.0093   0.00    1.0
2173 368376.000    807699.8804  -5649861.6896   2837756.3248   2   7   0.0377   0.0485   0.0275  -0.0226  -0.0168  -0.0093   0.00    1.0
2173 368377.000    807699.8832  -5649861.6893   2837756.3272   2   7   0.0377   0.0483   0.0274  -0.0225  -0.0166  -0.0094   0.00    1.0
2173 368378.000    807699.8819  -5649861.6845   2837756.3251   2   7   0.0376   0.0481   0.0274  -0.0224  -0.0163  -0.0097   0.00    1.0
2173 368379.000    807699.8806  -5649861.6863   2837756.3297   2   7   0.0374   0.0478   0.0272  -0.0222  -0.0162  -0.0096   0.00    1.0
2173 368380.000    807699.8836  -5649861.6971   2837756.3371   2   7   0.0373   0.0476   0.0269  -0.0221  -0.0160  -0.0097   0.00    1.0
2173 368381.000    807699.8849  -5649861.7001   2837756.3410   2   7   0.0372   0.0474   0.0269  -0.0219  -0.0157  -0.0097   0.00    1.0
2173 368382.000    807699.8851  -5649861.7074   2837756.3478   2   7   0.0371   0.0471   0.0268  -0.0217  -0.0155  -0.0098   0.00    1.0
2173 368383.000    807699.8812  -5649861.7089   2837756.3496   2   7   0.0370   0.0469   0.0267  -0.0216  -0.0153  -0.0100   0.00    1.0
2173 368384.000    807699.8750  -5649861.7011   2837756.3507   2   7   0.0369   0.0467   0.0266  -0.0215  -0.0151  -0.0100   0.00    1.0
2173 368385.000    807699.8658  -5649861.6840   2837756.3474   2   7   0.0367   0.0465   0.0265  -0.0214  -0.0149  -0.0099   0.00    1.0
2173 368386.000    807699.8668  -5649861.6863   2837756.3516   2   7   0.0367   0.0463   0.0263  -0.0213  -0.0147  -0.0100   0.00    1.0
2173 368387.000    807699.8635  -5649861.6808   2837756.3507   2   7   0.0365   0.0460   0.0262  -0.0211  -0.0145  -0.0100   0.00    1.0
2173 368388.000    807699.8575  -5649861.6797   2837756.3536   2   7   0.0365   0.0458   0.0261  -0.0210  -0.0143  -0.0102   0.00    1.0
2173 368389.000    807699.8638  -5649861.6875   2837756.3627   2   7   0.0363   0.0456   0.0260  -0.0209  -0.0141  -0.0101   0.00    1.0
2173 368390.000    807699.8653  -5649861.6980   2837756.3677   2   7   0.0363   0.0454   0.0258  -0.0208  -0.0140  -0.0105   0.00    1.0
2173 368391.000    807699.8673  -5649861.7062   2837756.3739   2   7   0.0362   0.0452   0.0259  -0.0206  -0.0136  -0.0104   0.00    1.0
2173 368392.000    807699.8710  -5649861.7110   2837756.3790   2   7   0.0360   0.0450   0.0257  -0.0205  -0.0135  -0.0104   0.00    1.0
2173 368393.000    807699.8731  -5649861.7219   2837756.3854   2   7   0.0360   0.0448   0.0255  -0.0204  -0.0134  -0.0106   0.00    1.0
2173 368394.000    807699.8753  -5649861.7330   2837756.3918   2   7   0.0359   0.0446   0.0254  -0.0203  -0.0132  -0.0105   0.00    1.0
2173 368395.000    807699.8771  -5649861.7352   2837756.3947   2   7   0.0358   0.0444   0.0253  -0.0202  -0.0130  -0.0106   0.00    1.0
2173 368396.000    807699.8773  -5649861.7382   2837756.3999   2   7   0.0356   0.0442   0.0253  -0.0200  -0.0128  -0.0107   0.00    1.0
2173 368397.000    807699.8721  -5649861.7341   2837756.3980   2   7   0.0356   0.0440   0.0252  -0.0199  -0.0126  -0.0106   0.00    1.0
2173 368398.000    807699.8672  -5649861.7292   2837756.3990   2   7   0.0355   0.0438   0.0251  -0.0198  -0.0124  -0.0106   0.00    1.0
2173 368399.000    807699.8603  -5649861.7128   2837756.3935   2   7   0.0354   0.0437   0.0250  -0.0197  -0.0122  -0.0106   0.00    1.0
2173 368400.000    807699.8596  -5649861.7104   2837756.3963   2   7   0.0353   0.0435   0.0248  -0.0196  -0.0121  -0.0108   0.00    1.0
2173 368401.000    807699.8553  -5649861.7033   2837756.3934   2   7   0.0352   0.0433   0.0247  -0.0195  -0.0120  -0.0108   0.00    1.0
2173 368402.000    807699.8482  -5649861.6920   2837756.3915   2   7   0.0351   0.0431   0.0247  -0.0194  -0.0118  -0.0107   0.00    1.0
2173 368403.000    807699.8422  -5649861.6869   2837756.3917   2   7   0.0350   0.0429   0.0245  -0.0192  -0.0115  -0.0108   0.00    1.0
2173 368404.000    807699.8377  -5649861.6796   2837756.3908   2   7   0.0349   0.0427   0.0244  -0.0191  -0.0113  -0.0109   0.00    1.0
2173 368405.000    807699.8365  -5649861.6790   2837756.3928   2   7   0.0348   0.0426   0.0244  -0.0190  -0.0111  -0.0108   0.00    1.1
2173 368406.000    807699.8384  -5649861.6853   2837756.3972   2   7   0.0347   0.0424   0.0243  -0.0189  -0.0110  -0.0109   0.00    1.1
2173 368407.000    807699.8499  -5649861.7030   2837756.4064   2   7   0.0347   0.0422   0.0242  -0.0188  -0.0108  -0.0110   0.00    1.1
2173 368408.000    807699.8445  -5649861.6946   2837756.4073   2   7   0.0346   0.0421   0.0240  -0.0187  -0.0105  -0.0110   0.00    1.1
2173 368409.000    807699.8444  -5649861.7056   2837756.4136   2   7   0.0345   0.0419   0.0239  -0.0187  -0.0105  -0.0111   0.00    1.1
2173 368410.000    807699.8478  -5649861.7094   2837756.4187   2   7   0.0344   0.0417   0.0239  -0.0186  -0.0103  -0.0111   0.00    1.1
2173 368411.000    807699.8484  -5649861.7110   2837756.4203   2   7   0.0343   0.0415   0.0238  -0.0184  -0.0101  -0.0111   0.00    1.1
2173 368412.000    807699.8438  -5649861.7006   2837756.4170   2   7   0.0342   0.0414   0.0236  -0.0184  -0.0100  -0.0111   0.00    1.1
2173 368413.000    807699.8433  -5649861.6964   2837756.4169   2   7   0.0341   0.0412   0.0236  -0.0183  -0.0098  -0.0111   0.00    1.1
2173 368414.000    807699.8373  -5649861.6874   2837756.4137   2   7   0.0341   0.0411   0.0236  -0.0182  -0.0095  -0.0111   0.00    1.1
2173 368415.000    807699.8228  -5649861.6894   2837756.4218   2   7   0.0340   0.0409   0.0234  -0.0181  -0.0094  -0.0112   0.00    1.1
2173 368416.000    807699.8147  -5649861.6743   2837756.4147   2   7   0.0339   0.0407   0.0233  -0.0180  -0.0093  -0.0111   0.00    1.1
2173 368417.000    807699.8105  -5649861.6623   2837756.4096   2   7   0.0338   0.0406   0.0234  -0.0178  -0.0090  -0.0112   0.00    1.1
2173 368418.000    807699.8010  -5649861.6514   2837756.4045   2   7   0.0337   0.0404   0.0232  -0.0178  -0.0090  -0.0113   0.00    1.1
2173 368419.000    807699.8053  -5649861.6572   2837756.4080   2   7   0.0336   0.0403   0.0232  -0.0176  -0.0087  -0.0112   0.00    1.1
2173 368420.000    807699.7970  -5649861.6440   2837756.4014   2   7   0.0336   0.0401   0.0230  -0.0176  -0.0086  -0.0113   0.00    1.1
2173 368421.000    807699.7920  -5649861.6361   2837756.4002   2   7   0.0335   0.0400   0.0230  -0.0176  -0.0084  -0.0113   0.00    1.1
2173 368422.000    807699.7931  -5649861.6399   2837756.4010   2   7   0.0334   0.0398   0.0229  -0.0174  -0.0082  -0.0112   0.00    1.1
2173 368423.000    807699.7931  -5649861.6439   2837756.4020   2   7   0.0333   0.0397   0.0227  -0.0173  -0.0081  -0.0112   0.00    1.1
2173 368424.000    807699.7931  -5649861.6412   2837756.4041   2   7   0.0333   0.0395   0.0227  -0.0172  -0.0079  -0.0113   0.00    1.1
2173 368425.000    807699.7933  -5649861.6516   2837756.4093   2   7   0.0331   0.0394   0.0226  -0.0171  -0.0077  -0.0113   0.00    1.1
2173 368426.000    807699.7973  -5649861.6647   2837756.4181   2   7   0.0331   0.0393   0.0225  -0.0171  -0.0076  -0.0115   0.00    1.1
2173 368427.000    807699.7960  -5649861.6601   2837756.4169   2   7   0.0330   0.0391   0.0224  -0.0170  -0.0074  -0.0114   0.00    1.1
2173 368428.000    807699.7906  -5649861.6564   2837756.4132   2   7   0.0329   0.0390   0.0224  -0.0169  -0.0072  -0.0114   0.00    1.1
2173 368429.000    807699.7852  -5649861.6539   2837756.4135   2   7   0.0329   0.0388   0.0225  -0.0168  -0.0070  -0.0113   0.00    1.1
2173 368430.000    807699.7750  -5649861.6317   2837756.4019   2   7   0.0328   0.0387   0.0222  -0.0167  -0.0068  -0.0115   0.00    1.1
2173 368431.000    807699.7672  -5649861.6201   2837756.3966   2   7   0.0327   0.0386   0.0222  -0.0166  -0.0067  -0.0114   0.00    1.1
2173 368432.000    807699.7589  -5649861.6072   2837756.3913   2   7   0.0326   0.0384   0.0221  -0.0166  -0.0066  -0.0115   0.00    1.1
2173 368433.000    807699.7581  -5649861.6026   2837756.3894   2   7   0.0326   0.0383   0.0219  -0.0165  -0.0065  -0.0115   0.00    1.1
2173 368434.000    807699.7613  -5649861.6060   2837756.3907   2   7   0.0325   0.0382   0.0221  -0.0164  -0.0061  -0.0115   0.00    1.1
2173 368435.000    807699.7610  -5649861.6068   2837756.3894   2   7   0.0324   0.0380   0.0219  -0.0164  -0.0061  -0.0115   0.00    1.1
2173 368436.000    807699.7614  -5649861.6029   2837756.3870   2   7   0.0324   0.0379   0.0219  -0.0163  -0.0057  -0.0115   0.00    1.1
2173 368437.000    807699.7546  -5649861.5985   2837756.3831   2   7   0.0323   0.0378   0.0216  -0.0162  -0.0058  -0.0115   0.00    1.1
2173 368438.000    807699.7563  -5649861.6042   2837756.3864   2   7   0.0322   0.0376   0.0218  -0.0161  -0.0054  -0.0113   0.00    1.1
2173 368439.000    807699.7579  -5649861.6072   2837756.3874   2   7   0.0321   0.0375   0.0216  -0.0160  -0.0051  -0.0114   0.00    1.1
2173 368440.000    807699.7522  -5649861.5979   2837756.3839   2   7   0.0321   0.0374   0.0216  -0.0160  -0.0050  -0.0116   0.00    1.1
2173 368441.000    807699.7442  -5649861.5839   2837756.3783   2   7   0.0320   0.0373   0.0216  -0.0159  -0.0048  -0.0114   0.00    1.1
2173 368442.000    807699.7382  -5649861.5725   2837756.3739   2   7   0.0319   0.0372   0.0214  -0.0159  -0.0048  -0.0115   0.00    1.1
2173 368443.000    807699.7233  -5649861.5458   2837756.3624   2   7   0.0319   0.0370   0.0213  -0.0158  -0.0044  -0.0115   0.00    1.0
2173 368444.000    807699.7113  -5649861.5251   2837756.3552   2   7   0.0318   0.0369   0.0213  -0.0156  -0.0042  -0.0116   0.00    1.0
2173 368445.000    807699.7048  -5649861.5143   2837756.3510   2   7   0.0318   0.0368   0.0213  -0.0157  -0.0040  -0.0116   0.00    1.0
2173 368446.000    807699.6957  -5649861.4992   2837756.3436   2   7   0.0316   0.0367   0.0211  -0.0155  -0.0038  -0.0114   0.00    1.0
2173 368447.000    807699.6893  -5649861.4944   2837756.3447   2   7   0.0316   0.0366   0.0211  -0.0155  -0.0036  -0.0116   0.00    1.0
2173 368448.000    807699.6943  -5649861.5125   2837756.3550   2   7   0.0316   0.0364   0.0210  -0.0155  -0.0035  -0.0116   0.00    1.0
2173 368449.000    807699.6973  -5649861.5090   2837756.3551   2   7   0.0315   0.0363   0.0209  -0.0154  -0.0032  -0.0116   0.00    1.0
2173 368450.000    807699.6939  -5649861.5095   2837756.3562   2   7   0.0314   0.0362   0.0209  -0.0153  -0.0027  -0.0117   0.00    1.0
2173 368451.000    807699.6954  -5649861.5126   2837756.3589   2   7   0.0313   0.0361   0.0208  -0.0153  -0.0028  -0.0115   0.00    1.0
2173 368452.000    807699.6913  -5649861.5115   2837756.3588   2   7   0.0313   0.0360   0.0206  -0.0152  -0.0029  -0.0117   0.00    1.0
2173 368453.000    807699.6844  -5649861.5016   2837756.3535   2   7   0.0312   0.0359   0.0207  -0.0151  -0.0022  -0.0116   0.00    1.0
2173 368454.000    807699.6764  -5649861.4974   2837756.3534   2   7   0.0311   0.0358   0.0207  -0.0151  -0.0013  -0.0115   0.00    1.0
2173 368455.000    807699.6723  -5649861.4858   2837756.3518   2   7   0.0311   0.0356   0.0207  -0.0151  -0.0015  -0.0116   0.00    1.0
2173 368456.000    807699.6690  -5649861.4850   2837756.3501   2   7   0.0310   0.0355   0.0205  -0.0149  -0.0002  -0.0117   0.00    1.0
2173 368457.000    807699.6675  -5649861.4845   2837756.3523   2   7   0.0309   0.0354   0.0205  -0.0148   0.0016  -0.0116   0.00    1.0
2173 368458.000    807699.6644  -5649861.4801   2837756.3509   2   7   0.0309   0.0353   0.0203  -0.0148   0.0019  -0.0116   0.00    1.0
2173 368459.000    807699.6534  -5649861.4696   2837756.3469   2   7   0.0308   0.0352   0.0205  -0.0147   0.0025  -0.0115   0.00    1.0
2173 368460.000    807699.6527  -5649861.4672   2837756.3470   2   7   0.0308   0.0351   0.0203  -0.0146   0.0027  -0.0115   0.00    1.0
2173 368461.000    807699.6471  -5649861.4584   2837756.3435   2   7   0.0307   0.0350   0.0204  -0.0146   0.0029  -0.0114   0.00    1.0
2173 368462.000    807699.6410  -5649861.4537   2837756.3421   2   7   0.0307   0.0349   0.0202  -0.0146   0.0028  -0.0115   0.00    1.0
2173 368463.000    807699.6434  -5649861.4554   2837756.3439   2   7   0.0306   0.0348   0.0202  -0.0145   0.0029  -0.0116   0.00    1.0
2173 368464.000    807699.6497  -5649861.4656   2837756.3530   2   7   0.0305   0.0347   0.0201  -0.0144   0.0036  -0.0115   0.00    1.0
2173 368465.000    807699.6466  -5649861.4680   2837756.3513   2   7   0.0305   0.0346   0.0200  -0.0144   0.0035  -0.0115   0.00    1.1
2173 368466.000    807699.6491  -5649861.4703   2837756.3518   2   7   0.0304   0.0345   0.0198  -0.0144   0.0033  -0.0117   0.00    1.1
2173 368467.000    807699.6456  -5649861.4669   2837756.3470   2   7   0.0303   0.0344   0.0198  -0.0143   0.0039  -0.0117   0.00    1.1
2173 368468.000    807699.6334  -5649861.4422   2837756.3413   2   7   0.0303   0.0343   0.0199  -0.0143   0.0038  -0.0114   0.00    1.1
2173 368469.000    807699.6255  -5649861.4245   2837756.3315   2   7   0.0303   0.0342   0.0199  -0.0142   0.0042  -0.0115   0.00    1.1
2173 368470.000    807699.6239  -5649861.4225   2837756.3310   2   7   0.0302   0.0341   0.0198  -0.0141   0.0043  -0.0114   0.00    1.1
2173 368471.000    807699.6210  -5649861.4127   2837756.3274   2   7   0.0301   0.0340   0.0196  -0.0141   0.0044  -0.0115   0.00    1.1
2173 368472.000    807699.6226  -5649861.4203   2837756.3332   2   7   0.0300   0.0339   0.0197  -0.0140   0.0043  -0.0115   0.00    1.1
2173 368473.000    807699.6241  -5649861.4234   2837756.3334   2   7   0.0300   0.0338   0.0197  -0.0140   0.0046  -0.0114   0.00    1.1
2173 368474.000    807699.6291  -5649861.4320   2837756.3338   2   7   0.0300   0.0337   0.0195  -0.0138   0.0047  -0.0114   0.00    1.1
2173 368475.000    807699.6321  -5649861.4609   2837756.3403   2   7   0.0298   0.0336   0.0194  -0.0138   0.0046  -0.0115   0.00    1.1
2173 368476.000    807699.6318  -5649861.4593   2837756.3349   2   7   0.0298   0.0336   0.0194  -0.0137   0.0048  -0.0116   0.00    1.0
2173 368477.000    807699.6374  -5649861.4707   2837756.3363   2   7   0.0298   0.0335   0.0194  -0.0137   0.0051  -0.0115   0.00    1.0
2173 368478.000    807699.6384  -5649861.4782   2837756.3366   2   7   0.0296   0.0334   0.0193  -0.0137   0.0050  -0.0115   0.00    1.0
2173 368479.000    807699.6363  -5649861.4708   2837756.3323   2   7   0.0296   0.0333   0.0194  -0.0136   0.0051  -0.0114   0.00    1.0
2173 368480.000    807699.6340  -5649861.4771   2837756.3340   2   7   0.0296   0.0332   0.0192  -0.0136   0.0051  -0.0115   0.00    1.0
2173 368481.000    807699.6358  -5649861.4867   2837756.3360   2   7   0.0295   0.0331   0.0191  -0.0135   0.0051  -0.0114   0.00    1.0
2173 368482.000    807699.6327  -5649861.4842   2837756.3326   2   7   0.0295   0.0330   0.0192  -0.0135   0.0053  -0.0115   0.00    1.0
2173 368483.000    807699.6279  -5649861.4816   2837756.3301   2   7   0.0295   0.0329   0.0190  -0.0135   0.0054  -0.0115   0.00    1.0
2173 368484.000    807699.6303  -5649861.4924   2837756.3311   2   7   0.0294   0.0328   0.0191  -0.0134   0.0055  -0.0113   0.00    1.0
2173 368485.000    807699.6329  -5649861.4942   2837756.3292   2   7   0.0293   0.0327   0.0190  -0.0134   0.0054  -0.0114   0.00    1.0
2173 368486.000    807699.6757  -5649861.5296   2837756.3658   2   7   0.0293   0.0327   0.0190  -0.0133   0.0055  -0.0113   0.00    1.0
2173 368487.000    807699.6761  -5649861.5324   2837756.3655   2   7   0.0292   0.0326   0.0189  -0.0132   0.0056  -0.0115   0.00    1.0
2173 368488.000    807699.6762  -5649861.5290   2837756.3627   2   7   0.0292   0.0325   0.0188  -0.0133   0.0057  -0.0114   0.00    1.0
2173 368489.000    807699.6664  -5649861.5141   2837756.3544   2   7   0.0291   0.0324   0.0190  -0.0131   0.0058  -0.0113   0.00    1.0
2173 368490.000    807699.6663  -5649861.5156   2837756.3519   2   7   0.0291   0.0323   0.0187  -0.0132   0.0059  -0.0114   0.00    1.0
2173 368491.000    807699.6692  -5649861.5199   2837756.3541   2   7   0.0290   0.0323   0.0186  -0.0131   0.0057  -0.0114   0.00    1.0
2173 368492.000    807699.6675  -5649861.5244   2837756.3530   2   7   0.0289   0.0322   0.0187  -0.0130   0.0061  -0.0114   0.00    1.0
2173 368493.000    807699.6745  -5649861.5401   2837756.3594   2   7   0.0289   0.0321   0.0187  -0.0130   0.0061  -0.0115   0.00    1.0
2173 368494.000    807699.6740  -5649861.5432   2837756.3595   2   7   0.0289   0.0320   0.0185  -0.0130   0.0060  -0.0113   0.00    1.0
2173 368495.000    807699.6814  -5649861.5589   2837756.3658   2   7   0.0288   0.0319   0.0187  -0.0129   0.0062  -0.0112   0.00    1.0
2173 368496.000    807699.6806  -5649861.5646   2837756.3666   2   7   0.0287   0.0319   0.0184  -0.0128   0.0062  -0.0113   0.00    1.0
2173 368497.000    807699.6761  -5649861.5511   2837756.3584   2   7   0.0287   0.0318   0.0186  -0.0129   0.0061  -0.0113   0.00    1.0
2173 368498.000    807699.6632  -5649861.5301   2837756.3449   2   7   0.0287   0.0317   0.0185  -0.0128   0.0062  -0.0112   0.00    1.1
2173 368499.000    807699.6554  -5649861.5152   2837756.3368   2   7   0.0286   0.0316   0.0184  -0.0127   0.0063  -0.0113   0.00    1.1
2173 368500.000    807699.6438  -5649861.4953   2837756.3254   2   7   0.0286   0.0316   0.0183  -0.0127   0.0064  -0.0113   0.00    1.1
2173 368501.000    807699.6340  -5649861.4787   2837756.3177   2   7   0.0285   0.0315   0.0183  -0.0127   0.0064  -0.0113   0.00    1.1
2173 368502.000    807699.6312  -5649861.4744   2837756.3164   2   7   0.0285   0.0314   0.0183  -0.0126   0.0065  -0.0112   0.00    1.1
2173 368503.000    807699.6321  -5649861.4727   2837756.3159   2   7   0.0284   0.0313   0.0182  -0.0126   0.0064  -0.0113   0.00    1.1
2173 368504.000    807699.6297  -5649861.4746   2837756.3171   2   7   0.0284   0.0313   0.0182  -0.0125   0.0067  -0.0112   0.00    1.1
2173 368505.000    807699.6321  -5649861.4795   2837756.3198   2   7   0.0283   0.0312   0.0181  -0.0125   0.0065  -0.0114   0.00    1.1
2173 368506.000    807699.6365  -5649861.4919   2837756.3254   2   7   0.0282   0.0311   0.0180  -0.0124   0.0065  -0.0112   0.00    1.1
2173 368507.000    807699.6432  -5649861.5078   2837756.3310   2   7   0.0282   0.0310   0.0181  -0.0124   0.0065  -0.0112   0.00    1.1
2173 368508.000    807699.6509  -5649861.5173   2837756.3355   2   7   0.0282   0.0310   0.0180  -0.0124   0.0065  -0.0111   0.00    1.1
2173 368509.000    807699.6433  -5649861.5119   2837756.3318   2   7   0.0281   0.0309   0.0179  -0.0124   0.0065  -0.0113   0.00    1.1
2173 368510.000    807699.6410  -5649861.5029   2837756.3238   2   7   0.0280   0.0308   0.0177  -0.0123   0.0065  -0.0113   0.00    1.1
2173 368511.000    807699.6307  -5649861.4857   2837756.3146   2   7   0.0280   0.0308   0.0179  -0.0123   0.0067  -0.0113   0.00    1.1
2173 368512.000    807699.6303  -5649861.4817   2837756.3098   2   7   0.0280   0.0307   0.0178  -0.0122   0.0068  -0.0112   0.00    1.1
2173 368513.000    807699.6281  -5649861.4704   2837756.3042   2   7   0.0279   0.0306   0.0178  -0.0122   0.0067  -0.0112   0.00    1.1
2173 368514.000    807699.6253  -5649861.4679   2837756.3011   2   7   0.0278   0.0305   0.0178  -0.0121   0.0068  -0.0112   0.00    1.1
2173 368515.000    807699.6247  -5649861.4704   2837756.2995   2   7   0.0279   0.0305   0.0177  -0.0121   0.0069  -0.0112   0.00    1.1
2173 368516.000    807699.6261  -5649861.4734   2837756.3026   2   7   0.0278   0.0304   0.0177  -0.0121   0.0070  -0.0113   0.00    1.1
2173 368517.000    807699.6175  -5649861.4634   2837756.2935   2   7   0.0278   0.0303   0.0177  -0.0121   0.0068  -0.0111   0.00    1.1
2173 368518.000    807699.6125  -5649861.4556   2837756.2900   2   7   0.0277   0.0303   0.0176  -0.0120   0.0070  -0.0111   0.00    1.1
2173 368519.000    807699.6069  -5649861.4428   2837756.2839   2   7   0.0276   0.0302   0.0176  -0.0119   0.0069  -0.0110   0.00    1.1
2173 368520.000    807699.5998  -5649861.4339   2837756.2785   2   7   0.0276   0.0301   0.0174  -0.0120   0.0067  -0.0112   0.00    1.1
2173 368521.000    807699.6032  -5649861.4410   2837756.2801   2   7   0.0276   0.0301   0.0176  -0.0119   0.0070  -0.0111   0.00    1.1
2173 368522.000    807699.6068  -5649861.4491   2837756.2834   2   7   0.0275   0.0300   0.0174  -0.0119   0.0069  -0.0112   0.00    1.1
2173 368523.000    807699.6107  -5649861.4580   2837756.2859   2   7   0.0275   0.0299   0.0174  -0.0118   0.0071  -0.0111   0.00    1.1
2173 368524.000    807699.6109  -5649861.4618   2837756.2862   2   7   0.0275   0.0299   0.0173  -0.0119   0.0070  -0.0112   0.00    1.1
2173 368525.000    807699.6160  -5649861.4686   2837756.2878   2   7   0.0274   0.0298   0.0173  -0.0118   0.0071  -0.0110   0.00    1.1
2173 368526.000    807699.6205  -5649861.4766   2837756.2886   2   7   0.0274   0.0298   0.0173  -0.0117   0.0070  -0.0110   0.00    1.1
2173 368527.000    807699.6237  -5649861.4795   2837756.2858   2   7   0.0273   0.0297   0.0171  -0.0118   0.0071  -0.0111   0.00    1.1
2173 368528.000    807699.6174  -5649861.4673   2837756.2848   2   7   0.0273   0.0296   0.0174  -0.0117   0.0069  -0.0110   0.00    1.1
2173 368529.000    807699.6211  -5649861.4763   2837756.2860   2   7   0.0272   0.0296   0.0172  -0.0116   0.0071  -0.0109   0.00    1.1
2173 368530.000    807699.6196  -5649861.4775   2837756.2866   2   7   0.0272   0.0295   0.0172  -0.0116   0.0072  -0.0108   0.00    1.1
2173 368531.000    807699.6216  -5649861.4810   2837756.2856   2   7   0.0271   0.0295   0.0171  -0.0116   0.0072  -0.0111   0.00    1.1
2173 368532.000    807699.6203  -5649861.4801   2837756.2837   2   7   0.0271   0.0294   0.0172  -0.0115   0.0072  -0.0109   0.00    1.1
2173 368533.000    807699.6142  -5649861.4683   2837756.2747   2   7   0.0270   0.0293   0.0170  -0.0116   0.0071  -0.0111   0.00    1.1
2173 368534.000    807699.6094  -5649861.4555   2837756.2676   2   7   0.0270   0.0293   0.0170  -0.0115   0.0071  -0.0110   0.00    1.1
2173 368535.000    807699.6120  -5649861.4271   2837756.2613   2   7   0.0269   0.0292   0.0170  -0.0115   0.0072  -0.0110   0.00    1.1
2173 368536.000    807699.6026  -5649861.4076   2837756.2508   2   7   0.0269   0.0291   0.0169  -0.0115   0.0071  -0.0110   0.00    1.1
2173 368537.000    807699.5947  -5649861.3946   2837756.2452   2   7   0.0269   0.0291   0.0169  -0.0114   0.0072  -0.0109   0.00    1.1
2173 368538.000    807699.5909  -5649861.3894   2837756.2443   2   7   0.0268   0.0290   0.0169  -0.0113   0.0073  -0.0110   0.00    1.1
2173 368539.000    807699.5813  -5649861.3797   2837756.2404   2   7   0.0268   0.0290   0.0170  -0.0114   0.0074  -0.0108   0.00    1.1
2173 368540.000    807699.5780  -5649861.3758   2837756.2385   2   7   0.0267   0.0289   0.0169  -0.0113   0.0072  -0.0108   0.00    1.1
2173 368541.000    807699.5767  -5649861.3711   2837756.2378   2   7   0.0267   0.0289   0.0168  -0.0114   0.0071  -0.0110   0.00    1.1
2173 368542.000    807699.5674  -5649861.3631   2837756.2356   2   7   0.0267   0.0288   0.0167  -0.0113   0.0073  -0.0110   0.00    1.1
2173 368543.000    807699.5636  -5649861.3627   2837756.2353   2   7   0.0266   0.0287   0.0171  -0.0112   0.0073  -0.0108   0.00    1.1
2173 368544.000    807699.5630  -5649861.3575   2837756.2348   2   7   0.0266   0.0287   0.0167  -0.0111   0.0074  -0.0109   0.00    1.1
2173 368545.000    807699.5711  -5649861.3633   2837756.2354   2   7   0.0266   0.0287   0.0165  -0.0112   0.0073  -0.0109   0.00    1.1
2173 368546.000    807699.5681  -5649861.3608   2837756.2301   2   7   0.0265   0.0286   0.0167  -0.0112   0.0073  -0.0108   0.00    1.1
2173 368547.000    807699.5659  -5649861.3510   2837756.2251   2   7   0.0265   0.0285   0.0167  -0.0111   0.0074  -0.0106   0.00    1.1
2173 368548.000    807699.5591  -5649861.3416   2837756.2208   2   7   0.0265   0.0285   0.0168  -0.0110   0.0075  -0.0106   0.00    1.1
2173 368549.000    807699.5540  -5649861.3306   2837756.2133   2   7   0.0264   0.0284   0.0167  -0.0111   0.0074  -0.0107   0.00    1.1
2173 368550.000    807699.5488  -5649861.3331   2837756.2141   2   7   0.0264   0.0284   0.0165  -0.0110   0.0073  -0.0107   0.00    1.1
2173 368551.000    807699.5432  -5649861.3270   2837756.2117   2   7   0.0263   0.0283   0.0166  -0.0109   0.0074  -0.0107   0.00    1.1
2173 368552.000    807699.5406  -5649861.3281   2837756.2136   2   7   0.0263   0.0283   0.0165  -0.0111   0.0073  -0.0108   0.00    1.1
2173 368553.000    807699.5392  -5649861.3268   2837756.2141   2   7   0.0262   0.0282   0.0164  -0.0109   0.0072  -0.0107   0.00    1.1
2173 368554.000    807699.5369  -5649861.3212   2837756.2104   2   7   0.0262   0.0281   0.0165  -0.0109   0.0074  -0.0107   0.00    1.1
2173 368555.000    807699.5304  -5649861.3205   2837756.2087   2   7   0.0261   0.0281   0.0164  -0.0108   0.0074  -0.0106   0.00    1.1
2173 368556.000    807699.5278  -5649861.3163   2837756.2075   2   7   0.0261   0.0280   0.0162  -0.0108   0.0074  -0.0107   0.00    1.1
2173 368557.000    807699.5305  -5649861.3268   2837756.2126   2   7   0.0261   0.0280   0.0162  -0.0109   0.0073  -0.0107   0.00    1.1
2173 368558.000    807699.5327  -5649861.3432   2837756.2209   2   7   0.0260   0.0279   0.0162  -0.0108   0.0073  -0.0106   0.00    1.1
2173 368559.000    807699.5388  -5649861.3495   2837756.2254   2   7   0.0260   0.0279   0.0162  -0.0108   0.0075  -0.0106   0.00    1.1
2173 368560.000    807699.5394  -5649861.3531   2837756.2259   2   7   0.0260   0.0278   0.0163  -0.0108   0.0074  -0.0106   0.00    1.1
2173 368561.000    807699.5414  -5649861.3609   2837756.2292   2   7   0.0260   0.0278   0.0163  -0.0108   0.0074  -0.0105   0.00    1.1
2173 368562.000    807699.5406  -5649861.3599   2837756.2304   2   7   0.0258   0.0278   0.0162  -0.0107   0.0073  -0.0107   0.00    1.1
2173 368563.000    807699.5312  -5649861.3498   2837756.2243   2   7   0.0258   0.0277   0.0162  -0.0106   0.0074  -0.0106   0.00    1.1
2173 368564.000    807699.5255  -5649861.3399   2837756.2157   2   7   0.0259   0.0276   0.0161  -0.0108   0.0073  -0.0106   0.00    1.1
2173 368565.000    807699.5203  -5649861.3261   2837756.2084   2   7   0.0258   0.0276   0.0159  -0.0107   0.0074  -0.0106   0.00    1.1
2173 368566.000    807699.5147  -5649861.3227   2837756.2060   2   7   0.0257   0.0276   0.0159  -0.0106   0.0073  -0.0106   0.00    1.1
2173 368567.000    807699.5093  -5649861.3082   2837756.2009   2   7   0.0257   0.0275   0.0159  -0.0107   0.0073  -0.0106   0.00    1.1
2173 368568.000    807699.5035  -5649861.3064   2837756.1981   2   7   0.0257   0.0275   0.0159  -0.0106   0.0073  -0.0105   0.00    1.1
2173 368569.000    807699.5052  -5649861.3073   2837756.2006   2   7   0.0256   0.0274   0.0156  -0.0105   0.0074  -0.0107   0.00    1.1
2173 368570.000    807699.5037  -5649861.3096   2837756.2029   2   7   0.0255   0.0273   0.0159  -0.0106   0.0073  -0.0106   0.00    1.1
2173 368571.000    807699.4981  -5649861.3025   2837756.2000   2   7   0.0256   0.0273   0.0158  -0.0105   0.0074  -0.0105   0.00    1.1
2173 368572.000    807699.4986  -5649861.3048   2837756.2020   2   7   0.0256   0.0273   0.0159  -0.0104   0.0075  -0.0104   0.00    1.1
2173 368573.000    807699.4952  -5649861.2995   2837756.1990   2   7   0.0255   0.0272   0.0158  -0.0104   0.0074  -0.0104   0.00    1.1
2173 368574.000    807699.4918  -5649861.3021   2837756.1997   2   7   0.0254   0.0272   0.0157  -0.0105   0.0074  -0.0105   0.00    1.1
2173 368575.000    807699.4869  -5649861.2945   2837756.1952   2   7   0.0254   0.0271   0.0159  -0.0105   0.0074  -0.0104   0.00    1.1
2173 368576.000    807699.4798  -5649861.2917   2837756.1926   2   7   0.0254   0.0271   0.0157  -0.0105   0.0073  -0.0105   0.00    1.1
2173 368577.000    807699.4780  -5649861.2885   2837756.1914   2   7   0.0254   0.0270   0.0158  -0.0104   0.0073  -0.0105   0.00    1.1
2173 368578.000    807699.4728  -5649861.2764   2837756.1850   2   7   0.0253   0.0270   0.0158  -0.0103   0.0075  -0.0102   0.00    1.1
2173 368579.000    807699.4721  -5649861.2845   2837756.1896   2   7   0.0253   0.0269   0.0158  -0.0104   0.0075  -0.0103   0.00    1.1
2173 368580.000    807699.4713  -5649861.2853   2837756.1897   2   7   0.0253   0.0269   0.0156  -0.0103   0.0073  -0.0103   0.00    1.1
2173 368581.000    807699.4717  -5649861.2830   2837756.1872   2   7   0.0252   0.0269   0.0155  -0.0104   0.0073  -0.0105   0.00    1.1
2173 368582.000    807699.4677  -5649861.2749   2837756.1827   2   7   0.0252   0.0268   0.0154  -0.0103   0.0073  -0.0105   0.00    1.1
2173 368583.000    807699.4627  -5649861.2717   2837756.1807   2   7   0.0251   0.0268   0.0156  -0.0103   0.0073  -0.0104   0.00    1.1
2173 368584.000    807699.4632  -5649861.2771   2837756.1848   2   7   0.0251   0.0267   0.0158  -0.0102   0.0075  -0.0102   0.00    1.1
2173 368585.000    807699.4659  -5649861.2778   2837756.1831   2   7   0.0250   0.0267   0.0155  -0.0102   0.0073  -0.0103   0.00    1.1
2173 368586.000    807699.4721  -5649861.2931   2837756.1881   2   7   0.0250   0.0266   0.0154  -0.0102   0.0073  -0.0103   0.00    1.1
2173 368587.000    807699.4738  -5649861.2940   2837756.1856   2   7   0.0250   0.0266   0.0154  -0.0103   0.0073  -0.0104   0.00    1.1
2173 368588.000    807699.4685  -5649861.2849   2837756.1848   2   7   0.0249   0.0266   0.0154  -0.0102   0.0074  -0.0104   0.00    1.1
2173 368589.000    807699.4639  -5649861.2739   2837756.1765   2   7   0.0250   0.0265   0.0155  -0.0101   0.0073  -0.0103   0.00    1.1
2173 368590.000    807699.4590  -5649861.2616   2837756.1673   2   7   0.0249   0.0265   0.0153  -0.0101   0.0074  -0.0101   0.00    1.1
2173 368591.000    807699.4574  -5649861.2559   2837756.1664   2   7   0.0249   0.0264   0.0153  -0.0102   0.0073  -0.0103   0.00    1.1
2173 368592.000    807699.4529  -5649861.2562   2837756.1623   2   7   0.0248   0.0264   0.0152  -0.0102   0.0073  -0.0104   0.00    1.1
2173 368593.000    807699.4580  -5649861.2681   2837756.1678   2   7   0.0248   0.0264   0.0154  -0.0100   0.0073  -0.0100   0.00    1.1
2173 368594.000    807699.4548  -5649861.2735   2837756.1715   2   7   0.0247   0.0263   0.0153  -0.0100   0.0072  -0.0101   0.00    1.1
2173 368595.000    807699.4627  -5649861.2751   2837756.1754   2   7   0.0247   0.0263   0.0150  -0.0101   0.0072  -0.0102   0.00    1.1
2173 368596.000    807699.4631  -5649861.2734   2837756.1746   2   7   0.0247   0.0262   0.0152  -0.0101   0.0072  -0.0102   0.00    1.1
2173 368597.000    807699.4572  -5649861.2695   2837756.1761   2   7   0.0247   0.0262   0.0152  -0.0100   0.0073  -0.0103   0.00    1.1
2173 368598.000    807699.4469  -5649861.2549   2837756.1698   2   7   0.0246   0.0261   0.0151  -0.0099   0.0073  -0.0103   0.00    1.1
2173 368599.000    807699.4440  -5649861.2462   2837756.1670   2   7   0.0246   0.0261   0.0152  -0.0100   0.0073  -0.0101   0.00    1.1
2173 368600.000    807699.4435  -5649861.2468   2837756.1691   2   7   0.0246   0.0261   0.0151  -0.0100   0.0072  -0.0102   0.00    1.1
2173 368601.000    807699.4400  -5649861.2446   2837756.1702   2   7   0.0245   0.0260   0.0150  -0.0100   0.0072  -0.0102   0.00    1.1
2173 368602.000    807699.4377  -5649861.2454   2837756.1722   2   7   0.0245   0.0260   0.0149  -0.0100   0.0071  -0.0102   0.00    1.1
2173 368603.000    807699.4384  -5649861.2514   2837756.1743   2   7   0.0245   0.0260   0.0151  -0.0098   0.0073  -0.0101   0.00    1.1
2173 368604.000    807699.4333  -5649861.2468   2837756.1751   2   7   0.0244   0.0259   0.0150  -0.0100   0.0072  -0.0101   0.00    1.1
2173 368605.000    807699.4258  -5649861.2345   2837756.1707   2   7   0.0243   0.0259   0.0148  -0.0098   0.0073  -0.0102   0.00    1.1
2173 368606.000    807699.4233  -5649861.2308   2837756.1711   2   7   0.0243   0.0258   0.0149  -0.0098   0.0073  -0.0100   0.00    1.1
2173 368607.000    807699.4158  -5649861.2228   2837756.1689   2   7   0.0244   0.0258   0.0150  -0.0098   0.0074  -0.0100   0.00    1.1
2173 368608.000    807699.4119  -5649861.2181   2837756.1668   2   7   0.0242   0.0257   0.0148  -0.0098   0.0073  -0.0100   0.00    1.1
