     2.11           OBSERVATION DATA    M (MIXED)           RINEX VERSION / TYPE
CONVBIN 2.4.3                           20210901 005142 UTC PGM / RUN BY / DATE 
log: logs/21_08_31_22_24_10_kybo_VZ.rtcm                    COMMENT             
format: RTCM 3, station ID: 1876                            COMMENT             
1876                                                        MARKER NAME         
                                                            MARKER NUMBER       
                                                            OBSERVER / AGENCY   
                    LEICA GR50          4.40/7.701          REC # / TYPE / VERS 
                    GPPNULLANTENNA                          ANT # / TYPE        
   467411.5157 -4939072.8261  3995378.3006                  APPROX POSITION XYZ 
        0.0000        0.0000        0.0000                  ANTENNA: DELTA H/E/N
     1     1                                                WAVELENGTH FACT L1/2
     7    C1    L1    C2    L2    P2    C5    L5            # / TYPES OF OBSERV 
  2021     8    31    22    24   29.0000000     GPS         TIME OF FIRST OBS   
  2021     8    31    22    54   14.0000000     GPS         TIME OF LAST OBS    
                                                            END OF HEADER       
 21  8 31 22 24 29.0000000  0 18G10G21G23G24G31G32R 5R 7R 9R15R16R21
                                R22E 3E 5E13E15E25
  20309697.543   106728202.711    20309697.311    83164843.928    20309697.240  
  20309695.828    79699638.048  
  24463651.631   128557359.019                   100174560.786    24463650.863  
                                
  21481529.450   112886194.049    21481528.306    87963258.873    21481528.038  
  21481532.220    84298137.324  
  22956109.690   120635183.552    22956111.138    94001449.206    22956110.620  
  22956111.442    90084726.852  
  23688076.495   124481691.426    23688076.030    96998713.279    23688075.583  
                                
  20894396.312   109800827.010    20894396.527    85559109.712    20894396.062  
  20894395.222    81994144.489  
  22066045.079   117955645.600    22066049.046    91743313.457    22066049.154  
                                
  22300214.372   119374788.757    22300215.427    92847112.909    22300215.052  
                                
  22999422.094   122815647.249    22999425.167    95523295.023    22999425.096  
                                
  21584579.819   115341483.002    21584581.410    89710029.656    21584581.446  
                                
  20336880.133   108635975.871    20336880.687    84494663.586    20336881.724  
                                
  21900215.311   117192484.677    21900216.508    91149704.424    21900216.347  
                                
  21795548.456   116346116.457    21795550.421    90491437.870    21795549.581  
                                
  23905676.218   125625222.409                                                  
  23905678.827    93811067.170  
  24671071.890   129647355.650                                                  
  24671074.874    96814592.199  
  26920085.919   141466013.301                                                  
  26920089.010   105640202.485  
  24573442.804   129134332.494                                                  
  24573446.538    96431487.216  
  26549789.140   139520087.358                                                  
  26549793.482   104187094.072  
 21  8 31 22 24 30.0000000  0 18G10G21G23G24G31G32R 5R 7R 9R15R16R21
                                R22E 3E 5E13E15E25
  20309685.768   106728140.944    20309685.553    83164795.795    20309685.464  
  20309684.070    79699591.923  
  24463264.820   128555326.270                   100172976.829    24463264.034  
                                
  21481932.146   112888310.244    21481930.985    87964907.856    21481930.717  
  21481934.898    84299717.619  
  22956731.282   120638449.945    22956732.747    94003994.441    22956732.211  
  22956733.033    90087166.028  
  23687341.738   124477830.264    23687341.256    96995704.588    23687340.809  
                                
  20894225.556   109799929.612    20894225.770    85558410.443    20894225.306  
  20894224.466    81993474.350  
  22066468.539   117957909.222    22066472.506    91745074.049    22066472.631  
                                
  22299739.056   119372244.434    22299740.111    92845133.989    22299739.753  
                                
  22998606.444   122811291.691    22998609.500    95519907.374    22998609.428  
                                
  21584952.817   115343476.274    21584954.426    89711579.978    21584954.461  
                                
  20336456.781   108633714.390    20336457.334    84492904.658    20336458.371  
                                
  21900805.614   117195643.541    21900806.811    91152161.321    21900806.650  
                                
  21795546.990   116346108.582    21795548.956    90491431.740    21795548.116  
                                
  23905565.466   125624640.446                                                  
  23905568.093    93810632.587  
  24671331.509   129648719.928                                                  
  24671334.493    96815610.976  
  26919758.683   141464293.747                                                  
  26919761.757   105638918.440  
  24573607.574   129135198.377                                                  
  24573611.308    96432133.816  
  26549283.054   139517427.759                                                  
  26549287.378   104185108.003  
 21  8 31 22 24 31.0000000  0 18G10G21G23G24G31G32R 5R 7R 9R15R16R21
                                R22E 3E 5E13E15E25
  20309674.081   106728079.429    20309673.849    83164747.864    20309673.778  
  20309672.366    79699545.985  
  24462878.009   128553293.681                   100171393.004    24462877.223  
                                
  21482334.914   112890426.692    21482333.770    87966557.034    21482333.502  
  21482337.684    84301298.048  
  22957352.874   120641716.415    22957354.339    94006539.739    22957353.803  
  22957354.625    90089605.269  
  23686606.964   124473969.046    23686606.500    96992695.845    23686606.035  
                                
  20894054.764   109799032.261    20894054.996    85557711.208    20894054.532  
  20894053.692    81992804.254  
  22066891.964   117960172.826    22066895.931    91746834.630    22066896.056  
                                
  22299263.723   119369699.950    22299264.777    92843154.938    22299264.419  
                                
  22997790.741   122806936.040    22997793.815    95516519.655    22997793.743  
                                
  21585325.958   115345470.109    21585327.549    89713130.742    21585327.584  
                                
  20336033.535   108631453.470    20336034.089    84491146.162    20336035.125  
                                
  21901395.988   117198802.734    21901397.186    91154618.474    21901397.025  
                                
  21795545.632   116346101.374    21795547.598    90491426.130    21795546.776  
                                
  23905454.696   125624058.419                                                  
  23905457.323    93810197.954  
  24671591.092   129650084.083                                                  
  24671594.077    96816629.665  
  26919431.519   141462574.448                                                  
  26919434.611   105637634.517  
  24573772.380   129136064.523                                                  
  24573776.114    96432780.616  
  26548776.931   139514768.092                                                  
  26548781.256   104183121.895  
 21  8 31 22 24 32.0000000  0 18G10G21G23G24G31G32R 5R 7R 9R15R16R21
                                R22E 3E 5E13E15E25
  20309662.449   106728018.305    20309662.216    83164700.232    20309662.145  
  20309660.733    79699500.342  
  24462491.270   128551261.437                   100169809.463    24462490.484  
                                
  21482737.700   112892543.377    21482736.538    87968206.408    21482736.270  
  21482740.451    84302878.718  
  22957974.484   120644983.081    22957975.931    94009085.191    22957975.413  
  22957976.253    90092044.677  
  23685872.243   124470108.002    23685871.779    96989687.230    23685871.314  
                                
  20893884.061   109798135.141    20893884.293    85557012.156    20893883.829  
  20893882.989    81992134.325  
  22067315.424   117962436.478    22067319.409    91748595.235    22067319.516  
                                
  22298788.407   119367155.450    22298789.461    92841175.895    22298789.086  
                                
  22996975.074   122802580.437    22996978.129    95513131.973    22996978.058  
                                
  21585699.207   115347464.676    21585700.815    89714682.076    21585700.851  
                                
  20335610.432   108629193.310    20335610.986    84489388.260    20335612.022  
                                
  21901986.435   117201962.373    21901987.632    91157075.970    21901987.471  
                                
  21795544.435   116346094.968    21795546.401    90491421.145    21795545.579  
                                
  23905343.979   125623476.453                                                  
  23905346.606    93809763.371  
  24671850.676   129651448.237                                                  
  24671853.660    96817648.352  
  26919104.427   141460855.448                                                  
  26919107.500   105636350.852  
  24573937.293   129136931.075                                                  
  24573941.028    96433427.718  
  26548270.809   139512108.496                                                  
  26548275.133   104181135.848  
 21  8 31 22 24 33.0000000  0 18G10G21G23G24G31G32R 5R 7R 9R15R16R21
                                R22E 3E 5E13E15E25
  20309650.905   106727957.699    20309650.691    83164653.005    20309650.601  
  20309649.208    79699455.080  
  24462104.620   128549229.634                   100168226.253    24462103.834  
                                
  21483140.593   112894660.555    21483139.431    87969856.150    21483139.163  
  21483143.344    84304459.719  
  22958596.201   120648250.117    22958597.630    94011630.929    22958597.112  
  22958597.952    90094484.349  
  23685137.487   124466247.069    23685137.005    96986678.763    23685136.558  
                                
  20893713.412   109797238.341    20893713.644    85556313.349    20893713.180  
  20893712.340    81991464.637  
  22067738.920   117964700.428    22067742.905    91750356.076    22067743.012  
                                
  22298313.073   119364611.052    22298314.109    92839196.928    22298313.752  
                                
  22996159.424   122798224.956    22996162.498    95509744.381    22996162.426  
                                
  21586072.616   115349460.063    21586074.206    89716234.044    21586074.242  
                                
  20335187.454   108626933.959    20335188.008    84487630.987    20335189.063  
                                
  21902577.006   117205122.600    21902578.185    91159533.922    21902578.024  
                                
  21795543.417   116346089.534    21795545.382    90491416.928    21795544.542  
                                
  23905233.263   125622894.690                                                  
  23905235.890    93809328.931  
  24672110.295   129652812.548                                                  
  24672113.279    96818667.157  
  26918777.388   141459136.909                                                  
  26918780.479   105635067.517  
  24574102.278   129137798.175                                                  
  24574106.030    96434075.226  
  26547764.758   139509449.129                                                  
  26547769.101   104179149.946  
 21  8 31 22 24 34.0000000  0 18G10G21G23G24G31G32R 5R 7R 9R15R16R21
                                R22E 3E 5E13E15E25
  20309639.433   106727897.402    20309639.219    83164606.020    20309639.130  
  20309637.736    79699410.055  
  24461718.024   128547197.992                   100166643.135    24461717.220  
                                
  21483543.503   112896777.939    21483542.360    87971506.060    21483542.092  
  21483546.273    84306040.880  
  22959217.918   120651517.311    22959219.365    94014176.801    22959218.847  
  22959219.687    90096924.131  
  23684402.802   124462386.238    23684402.320    96983670.310    23684401.873  
                                
  20893542.781   109796341.665    20893542.995    85555614.645    20893542.548  
  20893541.691    81990795.043  
  22068162.416   117966964.304    22068166.400    91752116.866    22068166.508  
                                
  22297837.721   119362066.520    22297838.757    92837217.854    22297838.400  
                                
  22995343.775   122793869.443    22995346.848    95506356.760    22995346.777  
                                
  21586446.150   115351456.080    21586447.740    89717786.492    21586447.776  
                                
  20334764.620   108624675.186    20334765.174    84485874.161    20334766.210  
                                
  21903167.631   117208283.215    21903168.810    91161992.169    21903168.649  
                                
  21795542.541   116346084.866    21795544.507    90491413.295    21795543.685  
                                
  23905122.546   125622312.877                                                  
  23905125.173    93808894.463  
  24672369.914   129654176.776                                                  
  24672372.898    96819685.888  
  26918450.403   141457418.625                                                  
  26918453.494   105633784.391  
  24574267.352   129138665.583                                                  
  24574271.104    96434722.953  
  26547258.690   139506789.741                                                  
  26547263.014   104177164.037  
 21  8 31 22 24 35.0000000  0 18G10G21G23G24G31G32R 5R 7R 9R15R16R21
                                R22E 3E 5E13E15E25
  20309628.069   106727837.657    20309627.836    83164559.463    20309627.765  
  20309626.353    79699365.440  
  24461331.499   128545166.887                   100165060.465    24461330.713  
                                
  21483946.521   112898895.836    21483945.395    87973156.371    21483945.127  
  21483949.291    84307622.411  
  22959839.724   120654784.858    22959841.171    94016722.939    22959840.635  
  22959841.493    90099364.190  
  23683668.171   124458525.660    23683667.689    96980662.065    23683667.224  
                                
  20893372.221   109795445.344    20893372.435    85554916.215    20893371.989  
  20893371.131    81990125.719  
  22068585.983   117969228.520    22068589.968    91753877.925    22068590.057  
                                
  22297362.423   119359522.140    22297363.459    92835238.901    22297363.084  
                                
  22994528.143   122789514.102    22994531.217    95502969.275    22994531.128  
                                
  21586819.844   115353452.954    21586821.453    89719339.609    21586821.488  
                                
  20334341.928   108622417.302    20334342.500    84484118.032    20334343.536  
                                
  21903758.380   117211444.407    21903759.560    91164450.877    21903759.399  
                                
  21795541.826   116346081.116    21795543.792    90491410.369    21795542.970  
                                
  23905011.884   125621731.313                                                  
  23905014.510    93808460.176  
  24672629.533   129655541.165                                                  
  24672632.517    96820704.757  
  26918123.489   141455700.796                                                  
  26918126.563   105632501.621  
  24574432.533   129139533.558                                                  
  24574436.268    96435371.116  
  26546752.657   139504130.582                                                  
  26546756.981   104175178.313  
 21  8 31 22 24 36.0000000  0 18G10G21G23G24G31G32R 5R 7R 9R15R16R21
                                R22E 3E 5E13E15E25
  20309616.811   106727778.510    20309616.579    83164513.375    20309616.507  
  20309615.096    79699321.277  
  24460945.099   128543136.322                   100163478.200    24460944.295  
                                
  21484349.628   112901014.220    21484348.485    87974807.062    21484348.235  
  21484352.398    84309204.338  
  22960461.619   120658052.882    22960463.067    94019269.441    22960462.531  
  22960463.389    90101804.581  
  23682933.611   124454665.408    23682933.147    96977654.040    23682932.682  
                                
  20893201.733   109794549.459    20893201.947    85554218.121    20893201.500  
  20893200.642    81989456.710  
  22069009.586   117971493.023    22069013.571    91755639.212    22069013.660  
                                
  22296887.143   119356977.966    22296888.161    92833260.102    22296887.804  
                                
  22993712.583   122785159.039    22993715.657    95499582.006    22993715.567  
                                
  21587193.700   115355450.791    21587195.308    89720893.483    21587195.344  
                                
  20333919.433   108620160.316    20333919.987    84482362.601    20333921.023  
                                
  21904349.238   117214606.245    21904350.435    91166910.091    21904350.274  
                                
  21795541.326   116346078.401    21795543.292    90491408.255    21795542.470  
                                
  23904901.274   125621150.020                                                  
  23904903.901    93808026.091  
  24672889.223   129656905.798                                                  
  24672892.208    96821723.794  
  26917796.736   141453983.527                                                  
  26917799.810   105631219.230  
  24574597.821   129140402.160                                                  
  24574601.556    96436019.752  
  26546246.713   139501471.722                                                  
  26546251.038   104173192.794  
 21  8 31 22 24 37.0000000  0 18G10G21G23G24G31G32R 5R 7R 9R15R16R21
                                R22E 3E 5E13E15E25
  20309605.661   106727719.927    20309605.446    83164467.725    20309605.375  
  20309603.963    79699277.523  
  24460558.807   128541106.230                   100161896.310    24460558.003  
                                
  21484752.861   112903133.115    21484751.717    87976458.152    21484751.449  
  21484755.631    84310786.619  
  22961083.551   120661321.242    22961084.980    94021816.214    22961084.462  
  22961085.302    90104245.259  
  23682199.087   124450805.388    23682198.605    96974646.223    23682198.140  
                                
  20893031.334   109793653.933    20893031.548    85553520.308    20893031.101  
  20893030.243    81988787.968  
  22069433.261   117973757.803    22069437.245    91757400.707    22069437.335  
                                
  22296411.880   119354433.900    22296412.917    92831281.375    22296412.559  
                                
  22992897.059   122780804.149    22992900.132    95496194.867    22992900.061  
                                
  21587567.735   115357449.478    21587569.343    89722448.022    21587569.361  
                                
  20333497.063   108617904.181    20333497.617    84480607.836    20333498.653  
                                
  21904940.220   117217768.683    21904941.417    91169369.769    21904941.256  
                                
  21795541.004   116346076.672    21795542.970    90491406.915    21795542.130  
                                
  23904790.701   125620568.946                                                  
  23904793.310    93807592.174  
  24673148.932   129658270.572                                                  
  24673151.916    96822742.948  
  26917470.019   141452266.713                                                  
  26917473.092   105629937.205  
  24574763.217   129141271.318                                                  
  24574766.952    96436668.798  
  26545740.788   139498813.091                                                  
  26545745.112   104171207.455  
 21  8 31 22 24 38.0000000  0 18G10G21G23G24G31G32R 5R 7R 9R15R16R21
                                R22E 3E 5E13E15E25
  20309594.600   106727661.757    20309594.368    83164422.396    20309594.296  
  20309592.885    79699234.082  
  24460172.568   128539076.478                   100160314.673    24460171.764  
                                
  21485156.129   112905252.326    21485154.985    87978109.488    21485154.717  
  21485158.899    84312369.160  
  22961705.572   120664589.900    22961707.019    94024363.228    22961706.501  
  22961707.358    90106686.109  
  23681464.563   124446945.467    23681464.081    96971638.497    23681463.634  
                                
  20892860.952   109792758.648    20892861.167    85552822.683    20892860.720  
  20892859.880    81988119.411  
  22069856.953   117976022.717    22069860.956    91759162.305    22069861.045  
                                
  22295936.636   119351889.897    22295937.672    92829302.715    22295937.297  
                                
  22992081.552   122776449.321    22992084.608    95492807.776    22992084.537  
                                
  21587941.894   115359448.867    21587943.502    89724003.104    21587943.520  
                                
  20333074.836   108615648.770    20333075.407    84478853.625    20333076.444  
                                
  21905531.291   117220931.620    21905532.489    91171829.832    21905532.328  
                                
  21795540.843   116346075.813    21795542.809    90491406.252    21795541.969  
                                
  23904680.145   125619987.966                                                  
  23904682.772    93807158.326  
  24673408.658   129659635.398                                                  
  24673411.624    96823762.137  
  26917143.391   141450550.281                                                  
  26917146.465   105628655.442  
  24574928.684   129142140.918                                                  
  24574932.419    96437318.173  
  26545234.862   139496154.554                                                  
  26545239.204   104169222.195  
 21  8 31 22 24 39.0000000  0 18G10G21G23G24G31G32R 5R 7R 9R15R16R21
                                R22E 3E 5E13E15E25
  20309583.628   106727604.104    20309583.396    83164377.472    20309583.325  
  20309581.913    79699191.032  
  24459786.383   128537047.175                   100158733.412    24459785.578  
                                
  21485559.486   112907372.019    21485558.361    87979761.192    21485558.093  
  21485562.256    84313952.026  
  22962327.610   120667858.867    22962329.040    94026910.479    22962328.521  
  22962329.379    90109127.254  
  23680730.128   124443085.758    23680729.682    96968630.906    23680729.217  
                                
  20892690.661   109791863.688    20892690.875    85552125.307    20892690.428  
  20892689.571    81987451.092  
  22070280.681   117978287.844    22070284.684    91760924.063    22070284.773  
                                
  22295461.409   119349345.956    22295462.427    92827324.104    22295462.070  
                                
  22991266.046   122772094.616    22991269.102    95489420.788    22991269.030  
                                
  21588316.179   115361449.097    21588317.787    89725558.846    21588317.823  
                                
  20332652.769   108613394.179    20332653.323    84477100.057    20332654.378  
                                
  21906122.488   117224095.167    21906123.685    91174290.361    21906123.524  
                                
  21795540.843   116346075.909    21795542.809    90491406.335    21795541.969  
                                
  23904569.625   125619407.174                                                  
  23904572.234    93806724.620  
  24673668.384   129661000.354                                                  
  24673671.351    96824781.422  
  26916816.817   141448834.260                                                  
  26916819.890   105627374.026  
  24575094.276   129143011.041                                                  
  24575098.011    96437967.942  
  26544729.026   139493496.252                                                  
  26544733.368   104167237.088  
 21  8 31 22 24 40.0000000  0 18G10G21G23G24G31G32R 5R 7R 9R15R16R21
                                R22E 3E 5E13E15E25
  20309572.746   106727546.941    20309572.532    83164332.927    20309572.460  
  20309571.049    79699148.341  
  24459400.287   128535018.276                   100157152.459    24459399.483  
                                
  21485962.933   112909492.111    21485961.790    87981413.214    21485961.539  
  21485965.703    84315535.214  
  22962949.756   120671128.174    22962951.185    94029457.996    22962950.667  
  22962951.525    90111568.611  
  23679995.658   124439226.318    23679995.193    96965623.603    23679994.729  
                                
  20892520.405   109790969.033    20892520.619    85551428.172    20892520.154  
  20892519.315    81986783.006  
  22070704.463   117980553.129    22070708.466    91762685.947    22070708.555  
                                
  22294986.182   119346802.103    22294987.201    92825345.555    22294986.843  
                                
  22990450.575   122767740.066    22990453.631    95486033.918    22990453.559  
                                
  21588690.660   115363450.184    21588692.268    89727115.251    21588692.304  
                                
  20332230.864   108611140.394    20332231.418    84475347.115    20332232.454  
                                
  21906713.774   117227259.252    21906714.971    91176751.311    21906714.810  
                                
  21795541.022   116346076.931    21795543.006    90491407.133    21795542.166  
                                
  23904459.123   125618826.553                                                  
  23904461.732    93806291.039  
  24673928.146   129662365.430                                                  
  24673931.130    96825800.797  
  26916490.385   141447118.699                                                  
  26916493.459   105626092.908  
  24575259.940   129143881.683                                                  
  24575263.693    96438618.090  
  26544223.190   139490838.106                                                  
  26544227.532   104165252.111  
 21  8 31 22 24 41.0000000  0 18G10G21G23G24G31G32R 5R 7R 9R15R16R21
                                R22E 3E 5E13E15E25
  20309561.971   106727490.348    20309561.757    83164288.825    20309561.685  
  20309560.274    79699106.079  
  24459014.316   128532989.915                   100155571.902    24459013.512  
                                
  21486366.469   112911612.685    21486365.326    87983065.611    21486365.058  
  21486369.239    84317118.761  
  22963571.955   120674397.878    22963573.385    94032005.816    22963572.867  
  22963573.724    90114010.266  
  23679261.259   124435367.152    23679260.776    96962616.493    23679260.312  
                                
  20892350.238   109790074.769    20892350.452    85550731.345    20892349.988  
  20892349.148    81986115.211  
  22071128.298   117982818.727    22071132.301    91764448.076    22071132.390  
                                
  22294510.991   119344258.404    22294512.010    92823367.126    22294511.653  
                                
  22989635.158   122763385.718    22989638.214    95482647.210    22989638.142  
                                
  21589065.302   115365452.136    21589066.928    89728672.328    21589066.946  
                                
  20331809.119   108608887.527    20331809.691    84473594.885    20331810.727  
                                
  21907305.149   117230423.928    21907306.346    91179212.722    21907306.186  
                                
  21795541.415   116346078.940    21795543.381    90491408.695    21795542.559  
                                
  23904348.693   125618246.166                                                  
  23904351.301    93805857.633  
  24674187.962   129663730.694                                                  
  24674190.946    96826820.310  
  26916164.008   141445403.643                                                  
  26916167.081   105624812.196  
  24575425.747   129144752.900                                                  
  24575429.481    96439268.674  
  26543717.389   139488180.203                                                  
  26543721.731   104163267.322  
 21  8 31 22 24 42.0000000  0 18G10G21G23G24G31G32R 5R 7R 9R15R16R21
                                R22E 3E 5E13E15E25
  20309551.285   106727434.100    20309551.053    83164244.999    20309550.982  
  20309549.570    79699064.074  
  24458628.398   128530961.748                   100153991.502    24458627.594  
                                
  21486770.059   112913733.551    21486768.933    87984718.239    21486768.683  
  21486772.847    84318702.512  
  22964194.208   120677667.751    22964195.638    94034553.767    22964195.120  
  22964195.977    90116452.046  
  23678526.896   124431508.024    23678526.431    96959609.361    23678525.949  
                                
  20892180.107   109789180.660    20892180.321    85550034.634    20892179.857  
  20892179.017    81985447.533  
  22071552.134   117985084.393    22071556.136    91766210.254    22071556.226  
                                
  22294035.818   119341714.658    22294036.837    92821388.647    22294036.479  
                                
  22988819.705   122759031.347    22988822.761    95479260.481    22988822.689  
                                
  21589440.087   115367454.786    21589441.695    89730229.940    21589441.730  
                                
  20331387.482   108606635.317    20331388.053    84471843.173    20331389.090  
                                
  21907896.632   117233588.978    21907897.811    91181674.425    21907897.668  
                                
  21795541.933   116346081.709    21795543.899    90491410.851    21795543.077  
                                
  23904238.244   125617665.799                                                  
  23904240.853    93805424.240  
  24674447.760   129665095.914                                                  
  24674450.744    96827839.792  
  26915837.684   141443688.857                                                  
  26915840.739   105623531.693  
  24575591.589   129145624.475                                                  
  24575595.324    96439919.528  
  26543211.642   139485522.344                                                  
  26543215.984   104161282.548  
 21  8 31 22 24 43.0000000  0 18G10G21G23G24G31G32R 5R 7R 9R15R16R21
                                R22E 3E 5E13E15E25
  20309540.653   106727378.287    20309540.421    83164201.505    20309540.350  
  20309538.938    79699022.398  
  24458242.517   128528933.962                   100152411.398    24458241.731  
                                
  21487173.702   112915854.779    21487172.577    87986371.139    21487172.309  
  21487176.490    84320286.541  
  22964816.461   120680937.865    22964817.909    94037101.913    22964817.373  
  22964818.248    90118894.031  
  23677792.568   124427649.027    23677792.104    96956602.335    23677791.621  
                                
  20892009.994   109788286.798    20892010.208    85549338.118    20892009.744  
  20892008.904    81984780.042  
  22071975.987   117987350.138    22071980.007    91767972.491    22071980.097  
                                
  22293560.627   119339170.915    22293561.646    92819410.169    22293561.289  
                                
  22988004.288   122754677.068    22988007.344    95475873.827    22988007.272  
                                
  21589814.961   115369458.144    21589816.587    89731788.111    21589816.623  
                                
  20330966.005   108604383.847    20330966.577    84470092.032    20330967.613  
                                
  21908488.186   117236754.548    21908489.383    91184136.534    21908489.222  
                                
  21795542.595   116346085.328    21795544.560    90491413.668    21795543.738  
                                
  23904127.814   125617085.538                                                  
  23904130.422    93804990.931  
  24674707.557   129666461.189                                                  
  24674710.524    96828859.318  
  26915511.449   141441974.455                                                  
  26915514.522   105622251.454  
  24575757.539   129146496.505                                                  
  24575761.273    96440570.719  
  26542705.877   139482864.611                                                  
  26542710.219   104159297.880  
 21  8 31 22 24 44.0000000  0 18G10G21G23G24G31G32R 5R 7R 9R15R16R21
                                R22E 3E 5E13E15E25
  20309530.129   106727323.037    20309529.914    83164158.454    20309529.843  
  20309528.431    79698981.142  
  24457856.743   128526906.674                   100150831.682    24457855.956  
                                
  21487577.453   112917976.470    21487576.309    87988024.394    21487576.041  
  21487580.223    84321870.926  
  22965438.821   120684208.399    22965440.269    94039650.374    22965439.733  
  22965440.608    90121336.313  
  23677058.241   124423790.269    23677057.758    96953595.554    23677057.294  
                                
  20891839.970   109787393.320    20891840.184    85548641.901    20891839.738  
  20891838.880    81984112.837  
  22072399.911   117989616.231    22072403.914    91769735.008    22072404.003  
                                
  22293085.490   119336627.351    22293086.509    92817431.839    22293086.151  
                                
  22987188.925   122750323.000    22987191.980    95472487.335    22987191.909  
                                
  21590190.032   115371462.355    21590191.658    89733346.942    21590191.675  
                                
  20330544.689   108602133.247    20330545.261    84468341.568    20330546.297  
                                
  21909079.883   117239920.766    21909081.080    91186599.151    21909080.919  
                                
  21795543.470   116346089.948    21795545.454    90491417.255    21795544.614  
                                
  23904017.455   125616505.527                                                  
  23904020.063    93804557.803  
  24674967.409   129667826.662                                                  
  24674970.375    96829878.982  
  26915185.321   141440260.588                                                  
  26915188.395   105620971.572  
  24575923.578   129147369.125                                                  
  24575927.330    96441222.347  
  26542200.166   139480207.110                                                  
  26542204.490   104157313.391  
 21  8 31 22 24 45.0000000  0 18G10G21G23G24G31G32R 5R 7R 9R15R16R21
                                R22E 3E 5E13E15E25
  20309519.711   106727268.192    20309519.496    83164115.715    20309519.425  
  20309518.013    79698940.186  
  24457471.022   128524879.704                   100149252.225    24457470.236  
                                
  21487981.257   112920098.505    21487980.114    87989677.920    21487979.863  
  21487984.027    84323455.562  
  22966061.235   120687479.167    22966062.665    94042199.027    22966062.129  
  22966063.004    90123778.770  
  23676324.003   124419931.721    23676323.520    96950588.884    23676323.055  
                                
  20891669.982   109786500.056    20891670.196    85547945.856    20891669.750  
  20891668.892    81983445.783  
  22072823.836   117991882.415    22072827.839    91771497.600    22072827.928  
                                
  22292610.335   119334083.802    22292611.353    92815453.518    22292610.996  
                                
  22986373.543   122745968.957    22986376.599    95469100.852    22986376.527  
                                
  21590565.227   115373467.285    21590566.853    89734906.334    21590566.871  
                                
  20330123.498   108599883.340    20330124.070    84466591.640    20330125.107  
                                
  21909671.651   117243087.424    21909672.848    91189062.114    21909672.688  
                                
  21795544.507   116346095.388    21795546.472    90491421.474    21795545.650  
                                
  23903907.078   125615925.580                                                  
  23903909.704    93804124.726  
  24675227.224   129669192.140                                                  
  24675230.208    96830898.662  
  26914859.212   141438546.987                                                  
  26914862.267   105619691.966  
  24576089.724   129148242.156                                                  
  24576093.459    96441874.283  
  26541694.508   139477549.720                                                  
  26541698.851   104155328.963  
 21  8 31 22 24 46.0000000  0 18G10G21G23G24G31G32R 5R 7R 9R15R16R21
                                R22E 3E 5E13E15E25
  20309509.365   106727213.782    20309509.132    83164073.320    20309509.061  
  20309507.649    79698899.555  
  24457085.390   128522853.118                   100147673.065    24457084.604  
                                
  21488385.151   112922220.921    21488384.025    87991331.746    21488383.757  
  21488387.938    84325040.468  
  22966683.703   120690750.200    22966685.132    94044747.886    22966684.596  
  22966685.472    90126221.420  
  23675589.747   124416073.280    23675589.264    96947582.336    23675588.782  
                                
  20891500.048   109785607.039    20891500.262    85547249.994    20891499.815  
  20891498.975    81982778.919  
  22073247.797   117994148.732    22073251.799    91773260.286    22073251.871  
                                
  22292135.180   119331540.277    22292136.216    92813475.209    22292135.841  
                                
  22985558.180   122741614.958    22985561.235    95465714.418    22985561.164  
                                
  21590940.566   115375472.985    21590942.192    89736466.330    21590942.210  
                                
  20329702.451   108597634.166    20329703.022    84464842.287    20329704.059  
                                
  21910263.473   117246254.532    21910264.670    91191525.421    21910264.510  
                                
  21795545.686   116346101.696    21795547.669    90491426.368    21795546.847  
                                
  23903796.754   125615345.739                                                  
  23903799.363    93803691.730  
  24675487.076   129670557.674                                                  
  24675490.060    96831918.377  
  26914533.227   141436833.807                                                  
  26914536.301   105618412.627  
  24576255.924   129149115.629                                                  
  24576259.676    96442526.550  
  26541188.833   139474892.430                                                  
  26541193.175   104153344.626  
 21  8 31 22 24 47.0000000  0 18G10G21G23G24G31G32R 5R 7R 9R15R16R21
                                R22E 3E 5E13E15E25
  20309499.054   106727159.697    20309498.840    83164031.176    20309498.768  
  20309497.357    79698859.167  
  24456699.777   128520826.759                   100146094.104    24456698.973  
                                
  21488789.080   112924343.563    21488787.936    87992985.753    21488787.686  
  21488791.850    84326625.562  
  22967306.206   120694021.400    22967307.635    94047296.868    22967307.099  
  22967307.993    90128664.188  
  23674855.526   124412214.870    23674855.079    96944575.735    23674854.579  
                                
  20891330.149   109784714.168    20891330.363    85546554.251    20891329.917  
  20891329.077    81982112.161  
  22073671.739   117996415.091    22073675.742    91775023.010    22073675.813  
                                
  22291660.024   119328996.680    22291661.061    92811496.854    22291660.686  
                                
  22984742.798   122737260.951    22984745.854    95462327.970    22984745.783  
                                
  21591316.012   115377479.362    21591317.638    89738026.848    21591317.674  
                                
  20329281.492   108595385.607    20329282.064    84463093.410    20329283.118  
                                
  21910855.402   117249422.017    21910856.600    91193989.027    21910856.439  
                                
  21795547.026   116346108.751    21795549.010    90491431.847    21795548.170  
                                
  23903686.413   125614765.898                                                  
  23903689.022    93803258.732  
  24675746.927   129671923.152                                                  
  24675749.893    96832938.050  
  26914207.278   141435120.904                                                  
  26914210.334   105617133.501  
  24576422.213   129149989.441                                                  
  24576425.965    96443179.074  
  26540683.175   139472235.155                                                  
  26540687.500   104151360.293  
 21  8 31 22 24 48.0000000  0 18G10G21G23G24G31G32R 5R 7R 9R15R16R21
                                R22E 3E 5E13E15E25
  20309488.833   106727105.996    20309488.619    83163989.331    20309488.547  
  20309487.136    79698819.068  
  24456314.217   128518800.689                   100144515.348    24456313.413  
                                
  21489193.063   112926466.525    21489191.937    87994640.014    21489191.669  
  21489195.833    84328210.888  
  22967928.727   120697292.814    22967930.156    94049846.027    22967929.620  
  22967930.514    90131107.121  
  23674121.342   124408356.528    23674120.895    96941569.203    23674120.395  
                                
  20891160.268   109783821.492    20891160.483    85545858.659    20891160.018  
  20891159.178    81981445.561  
  22074095.717   117998681.475    22074099.720    91776785.755    22074099.792  
                                
  22291184.851   119326453.030    22291185.870    92809518.462    22291185.495  
                                
  22983927.435   122732906.958    22983930.490    95458941.533    22983930.419  
                                
  21591691.619   115379486.446    21591693.245    89739587.914    21591693.263  
                                
  20328860.695   108593137.755    20328861.266    84461345.083    20328862.321  
                                
  21911447.421   117252589.969    21911448.618    91196452.989    21911448.457  
                                
  21795548.491   116346116.663    21795550.475    90491438.000    21795549.653  
                                
  23903576.072   125614186.116                                                  
  23903578.681    93802825.775  
  24676006.778   129673288.630                                                  
  24676009.744    96833957.731  
  26913881.383   141433408.299                                                  
  26913884.457   105615854.587  
  24576588.556   129150863.660                                                  
  24576592.308    96443831.902  
  26540177.500   139469577.933                                                  
  26540181.824   104149376.019  
 21  8 31 22 24 49.0000000  0 18G10G21G23G24G31G32R 5R 7R 9R15R16R21
                                R22E 3E 5E13E15E25
  20309478.701   106727052.771    20309478.487    83163947.857    20309478.416  
  20309477.004    79698779.316  
  24455928.746   128516775.036                   100142936.904    24455927.942  
                                
  21489597.135   112928589.886    21489595.992    87996294.583    21489595.741  
  21489599.905    84329796.515  
  22968551.301   120700564.492    22968552.731    94052395.382    22968552.195  
  22968553.088    90133550.261  
  23673387.139   124404498.451    23673386.693    96938562.957    23673386.192  
                                
  20890990.459   109782929.094    20890990.673    85545163.284    20890990.226  
  20890989.387    81980779.153  
  22074519.732   118000948.123    22074523.752    91778548.748    22074523.824  
                                
  22290709.678   119323909.397    22290710.697    92807540.104    22290710.322  
                                
  22983112.089   122728553.067    22983115.145    95455555.222    22983115.073  
                                
  21592067.369   115381494.333    21592068.995    89741149.597    21592069.031  
                                
  20328440.040   108590890.717    20328440.612    84459597.389    20328441.648  
                                
  21912039.547   117255758.473    21912040.744    91198917.360    21912040.583  
                                
  21795550.135   116346125.465    21795552.119    90491444.872    21795551.297  
                                
  23903465.784   125613606.477                                                  
  23903468.393    93802392.932  
  24676266.630   129674654.193                                                  
  24676269.614    96834977.466  
  26913555.559   141431696.051                                                  
  26913558.615   105614575.996  
  24576755.023   129151738.354                                                  
  24576758.776    96444485.085  
  26539671.896   139466920.881                                                  
  26539676.238   104147391.856  
 21  8 31 22 24 50.0000000  0 18G10G21G23G24G31G32R 5R 7R 9R15R16R21
                                R22E 3E 5E13E15E25
  20309468.659   106727000.019    20309468.445    83163906.751    20309468.373  
  20309466.962    79698739.929  
  24455543.365   128514749.742                   100141358.757    24455542.561  
                                
  21490001.279   112930713.646    21490000.153    87997949.461    21489999.885  
  21490004.049    84331382.435  
  22969173.965   120703836.522    22969175.395    94054945.011    22969174.859  
  22969175.752    90135993.643  
  23672652.973   124400640.470    23672652.490    96935556.786    23672652.008  
                                
  20890820.685   109782036.989    20890820.900    85544468.135    20890820.453  
  20890819.595    81980112.975  
  22074943.781   118003214.886    22074947.784    91780311.788    22074947.855  
                                
  22290234.523   119321365.851    22290235.542    92805561.790    22290235.166  
                                
  22982296.761   122724199.301    22982299.799    95452168.971    22982299.728  
                                
  21592443.262   115383502.979    21592444.906    89742711.872    21592444.924  
                                
  20328019.546   108588644.475    20328020.118    84457850.313    20328021.154  
                                
  21912631.726   117258927.479    21912632.924    91201382.145    21912632.781  
                                
  21795551.958   116346135.188    21795553.941    90491452.439    21795553.102  
                                
  23903355.497   125613026.976                                                  
  23903358.123    93801960.188  
  24676526.499   129676019.850                                                  
  24676529.483    96835997.279  
  26913229.771   141429984.214                                                  
  26913232.827   105613297.711  
  24576921.563   129152613.545                                                  
  24576925.315    96445138.630  
  26539166.292   139464263.976                                                  
  26539170.616   104145407.810  
 21  8 31 22 24 51.0000000  0 18G10G21G23G24G31G32R 5R 7R 9R15R16R21
                                R22E 3E 5E13E15E25
  20309458.724   106726947.747    20309458.509    83163866.020    20309458.438  
  20309457.026    79698700.895  
  24455158.038   128512724.905                   100139780.982    24455157.216  
                                
  21490405.494   112932837.814    21490404.368    87999604.664    21490404.100  
  21490408.264    84332968.667  
  22969796.647   120707108.823    22969798.077    94057494.853    22969797.541  
  22969798.452    90138437.257  
  23671918.824   124396782.768    23671918.323    96932550.825    23671917.841  
                                
  20890650.983   109781145.198    20890651.198    85543773.233    20890650.751  
  20890649.911    81979447.023  
  22075367.867   118005481.884    22075371.887    91782075.006    22075371.941  
                                
  22289759.386   119318822.386    22289760.404    92803583.533    22289760.029  
                                
  22981481.469   122719845.678    22981484.507    95448782.824    22981484.436  
                                
  21592819.315   115385512.402    21592820.959    89744274.755    21592820.977  
                                
  20327599.195   108586399.054    20327599.767    84456103.874    20327600.803  
                                
  21913224.031   117262097.005    21913225.228    91203847.332    21913225.085  
                                
  21795553.959   116346145.833    21795555.925    90491460.718    21795555.103  
                                
  23903245.263   125612447.652                                                  
  23903247.889    93801527.574  
  24676786.404   129677385.622                                                  
  24676789.388    96837017.171  
  26912904.162   141428272.902                                                  
  26912907.235   105612019.727  
  24577088.209   129153489.240                                                  
  24577091.962    96445792.558  
  26538660.724   139461607.252                                                  
  26538665.048   104143423.907  
 21  8 31 22 24 52.0000000  0 18G10G21G23G24G31G32R 5R 7R 9R15R16R21
                                R22E 3E 5E13E15E25
  20309448.860   106726895.863    20309448.628    83163825.593    20309448.556  
  20309447.145    79698662.151  
  24454772.781   128510700.358                   100138203.425    24454771.960  
                                
  21490809.763   112934962.290    21490808.637    88001260.107    21490808.387  
  21490812.550    84334555.124  
  22970419.401   120710381.361    22970420.830    94060044.883    22970420.294  
  22970421.205    90140881.031  
  23671184.764   124392925.068    23671184.282    96929544.789    23671183.799  
                                
  20890481.335   109780253.593    20890481.549    85543078.478    20890481.084  
  20890480.245    81978781.218  
  22075791.970   118007749.013    22075795.973    91783838.327    22075796.044  
                                
  22289284.249   119316278.891    22289285.267    92801605.256    22289284.892  
                                
  22980666.159   122715492.055    22980669.197    95445396.683    22980669.126  
                                
  21593195.476   115387522.536    21593197.138    89745838.187    21593197.156  
                                
  20327178.969   108584154.301    20327179.559    84454357.957    20327180.595  
                                
  21913816.425   117265266.986    21913817.622    91206312.875    21913817.479  
                                
  21795556.104   116346157.294    21795558.087    90491469.632    21795557.247  
                                
  23903135.011   125611868.359                                                  
  23903137.637    93801094.987  
  24677046.309   129678751.384                                                  
  24677049.275    96838037.061  
  26912578.535   141426561.796                                                  
  26912581.590   105610741.979  
  24577254.909   129154365.331                                                  
  24577258.662    96446446.782  
  26538155.173   139458950.602                                                  
  26538159.497   104141440.038  
 21  8 31 22 24 53.0000000  0 18G10G21G23G24G31G32R 5R 7R 9R15R16R21
                                R22E 3E 5E13E15E25
  20309439.068   106726844.475    20309438.854    83163785.551    20309438.782  
  20309437.370    79698623.774  
  24454387.579   128508676.243                   100136626.202    24454386.757  
                                
  21491214.139   112937087.218    21491213.013    88002915.895    21491212.763  
  21491216.926    84336141.901  
  22971042.225   120713654.245    22971043.655    94062595.182    22971043.119  
  22971044.012    90143325.046  
  23670450.687   124389067.607    23670450.205    96926539.005    23670449.722  
                                
  20890311.704   109779362.301    20890311.918    85542383.962    20890311.472  
  20890310.632    81978115.641  
  22076216.091   118010016.244    22076220.094    91785601.717    22076220.166  
                                
  22288809.111   119313735.435    22288810.130    92799627.003    22288809.754  
                                
  22979850.903   122711138.566    22979853.941    95442010.638    22979853.869  
                                
  21593571.816   115389533.500    21593573.477    89747402.266    21593573.495  
                                
  20326758.887   108581910.345    20326759.476    84452612.653    20326760.513  
                                
  21914408.926   117268437.534    21914410.123    91208778.852    21914409.980  
                                
  21795558.409   116346169.652    21795560.374    90491479.242    21795559.552  
                                
  23903024.830   125611289.255                                                  
  23903027.439    93800662.541  
  24677306.231   129680117.267                                                  
  24677309.198    96839057.034  
  26912252.997   141424851.174                                                  
  26912256.070   105609464.566  
  24577421.735   129155241.930                                                  
  24577425.487    96447101.385  
  26537649.676   139456294.154                                                  
  26537654.018   104139456.325  
 21  8 31 22 24 54.0000000  0 18G10G21G23G24G31G32R 5R 7R 9R15R16R21
                                R22E 3E 5E13E15E25
  20309429.365   106726793.463    20309429.151    83163745.801    20309429.061  
  20309427.650    79698585.678  
  24454002.466   128506652.410                   100135049.180    24454001.644  
                                
  21491618.550   112939212.387    21491617.425    88004571.859    21491617.175  
  21491621.338    84337728.869  
  22971665.068   120716927.299    22971666.498    94065145.605    22971665.961  
  22971666.873    90145769.208  
  23669716.663   124385210.265    23669716.181    96923533.230    23669715.680  
                                
  20890142.145   109778471.182    20890142.359    85541689.586    20890141.895  
  20890141.055    81977450.202  
  22076640.248   118012283.549    22076644.233    91787365.170    22076644.287  
                                
  22288333.956   119311191.943    22288334.975    92797648.743    22288334.599  
                                
  22979035.611   122706785.071    22979038.649    95438624.594    22979038.577  
                                
  21593948.262   115391545.165    21593949.924    89748966.894    21593949.942  
                                
  20326338.947   108579667.048    20326339.536    84450867.869    20326340.573  
                                
  21915001.480   117271608.476    21915002.695    91211245.138    21915002.535  
                                
  21795560.857   116346182.753    21795562.840    90491489.422    21795562.018  
                                
  23902914.632   125610710.179                                                  
  23902917.241    93800230.113  
  24677566.154   129681483.144                                                  
  24677569.121    96840077.003  
  26911927.566   141423140.866                                                  
  26911930.622   105608187.375  
  24577588.613   129156118.905                                                  
  24577592.366    96447756.271  
  26537144.180   139453637.736                                                  
  26537148.504   104137472.636  
 21  8 31 22 24 55.0000000  0 18G10G21G23G24G31G32R 5R 7R 9R15R16R21
                                R22E 3E 5E13E15E25
  20309419.769   106726742.988    20309419.555    83163706.472    20309419.484  
  20309418.054    79698547.986  
  24453617.442   128504629.049                   100133472.546    24453616.602  
                                
  21492023.034   112941338.043    21492021.926    88006228.207    21492021.658  
  21492025.821    84339316.216  
  22972287.982   120720200.726    22972289.412    94067696.320    22972288.876  
  22972289.787    90148213.654  
  23668982.711   124381353.144    23668982.246    96920527.635    23668981.746  
                                
  20889972.639   109777580.436    20889972.854    85540995.499    20889972.407  
  20889971.567    81976785.032  
  22077064.423   118014551.148    22077068.426    91789128.857    22077068.480  
                                
  22287858.854   119308648.624    22287859.855    92795670.616    22287859.480  
                                
  22978220.391   122702431.794    22978223.428    95435238.723    22978223.357  
                                
  21594324.888   115393557.695    21594326.550    89750532.183    21594326.567  
                                
  20325919.150   108577424.618    20325919.739    84449123.752    20325920.776  
                                
  21915594.160   117274780.028    21915595.375    91213711.899    21915595.214  
                                
  21795563.501   116346196.879    21795565.485    90491500.414    21795564.663  
                                
  23902804.487   125610131.336                                                  
  23902807.096    93799797.857  
  24677826.095   129682849.171                                                  
  24677829.061    96841097.090  
  26911602.171   141421431.013                                                  
  26911605.245   105606910.545  
  24577755.617   129156996.451                                                  
  24577759.370    96448411.577  
  26536638.701   139450981.556                                                  
  26536643.043   104135489.127  
