     2.11           OBSERVATION DATA    M (MIXED)           RINEX VERSION / TYPE
CONVBIN 2.4.3                           20210831 165147 UTC PGM / RUN BY / DATE 
log: logs/21_08_31_06_17_38_momf_SW.rtcm                    COMMENT             
format: RTCM 3, station ID: 1184                            COMMENT             
1184                                                        MARKER NAME         
                                                            MARKER NUMBER       
                                                            OBSERVER / AGENCY   
                    SWFT                                    REC # / TYPE / VERS 
                    NULL                                    ANT # / TYPE        
  -264395.9025 -5129855.8395  3768288.3508                  APPROX POSITION XYZ 
        0.0000        0.0000        0.0000                  ANTENNA: DELTA H/E/N
     1     1                                                WAVELENGTH FACT L1/2
     5    C1    L1    P2    L2    C2                        # / TYPES OF OBSERV 
  2021     8    31     6    17   43.0000000     GPS         TIME OF FIRST OBS   
  2021     8    31     6    47   41.0000000     GPS         TIME OF LAST OBS    
                                                            END OF HEADER       
 21  8 31  6 17 43.0000000  0 21G 4G 7G 8G 9G14G16G27C20C23C25C28C32
                                C34E 1E 4E 9E13E19E21E26E31
  22370788.454   117559278.314    22370790.009    91604631.663                  
  21177705.919   111289609.302    21177705.258    86719179.265                  
  20500209.061   107729283.769    20500211.491    83944886.192                  
  20945811.335   110070949.575    20945813.336    85769563.056                  
  24633359.353   129449167.849    24633360.765   100869481.198                  
  23988641.913   126061169.821    23988641.163    98229484.587                  
  21618383.687   113605344.782    21618385.420    88523639.184                  
                 131200756.578                   131200756.578    25195719.485  
                 115920253.351                   115920253.351    22261256.132  
                 128545221.069                   128545221.069    24685755.885  
                 127641050.866                   127641050.866    24512123.178  
                 128712383.050                   128712383.050    24717866.055  
                 130694477.250                   130694477.250    25098499.366  
  23987080.768   126052932.610                                                  
  24428019.316   128370122.238                                                  
  24599804.848   129272842.031                                                  
  26971823.602   141737845.778                                                  
  26310779.718   138264056.985                                                  
  26134616.454   137338310.878                                                  
  26282303.393   138114399.294                                                  
  25677092.076   134934005.628                                                  
 21  8 31  6 17 44.0000000  0 21G 4G 7G 8G 9G14G16G27C20C23C25C28C32
                                C34E 1E 4E 9E13E19E21E26E31
  22371411.082   117562550.159    22371412.601    91607181.156                  
  21177362.548   111287804.845    21177361.905    86717773.194                  
  20500194.819   107729209.005    20500197.285    83944827.930                  
  20946102.260   110072478.403    20946104.262    85770754.352                  
  24632823.675   129446352.782    24632825.087   100867287.640                  
  23989256.036   126064397.101    23989255.285    98231999.348                  
  21618761.884   113607332.210    21618763.618    88525187.827                  
                 131200687.356                   131200687.356    25195706.172  
                 115920468.950                   115920468.950    22261297.535  
                 128547184.219                   128547184.219    24686132.886  
                 127637909.816                   127637909.816    24511519.974  
                 128714700.515                   128714700.515    24718311.118  
                 130696233.835                   130696233.835    25098836.680  
  23987157.605   126053336.396                                                  
  24428204.439   128371095.008                                                  
  24599484.385   129271157.980                                                  
  26971764.277   141737534.043                                                  
  26311355.422   138267082.360                                                  
  26134969.242   137340164.786                                                  
  26281858.955   138112063.734                                                  
  25676812.568   134932536.684                                                  
 21  8 31  6 17 45.0000000  0 21G 4G 7G 8G 9G14G16G27C20C23C25C28C32
                                C34E 1E 4E 9E13E19E21E26E31
  22372033.746   117565822.310    22372035.283    91609730.883                  
  21177019.195   111286000.590    21177018.551    86716367.282                  
  20500180.721   107729134.930    20500183.187    83944770.210                  
  20946393.293   110074007.837    20946395.294    85771946.117                  
  24632287.998   129443537.854    24632289.392   100865094.192                  
  23989870.176   126067624.378    23989869.426    98234514.110                  
  21619140.207   113609320.226    21619141.923    88526736.932                  
                 131200618.665                   131200618.665    25195693.003  
                 115920684.727                   115920684.727    22261338.973  
                 128549147.477                   128549147.477    24686509.904  
                 127634768.902                   127634768.902    24510916.805  
                 128717018.247                   128717018.247    24718756.200  
                 130697990.885                   130697990.885    25099174.118  
  23987234.459   126053740.305                                                  
  24428389.634   128372068.218                                                  
  24599163.993   129269474.305                                                  
  26971705.041   141737222.774                                                  
  26311931.162   138270107.824                                                  
  26135322.013   137342018.691                                                  
  26281414.552   138109728.368                                                  
  25676533.061   134931067.875                                                  
 21  8 31  6 17 46.0000000  0 21G 4G 7G 8G 9G14G16G27C20C23C25C28C32
                                C34E 1E 4E 9E13E19E21E26E31
  22372656.482   117569094.780    22372658.000    91612280.860                  
  21176675.895   111284196.524    21176675.252    86714961.516                  
  20500166.765   107729061.563    20500169.213    83944713.039                  
  20946684.469   110075537.879    20946686.452    85773138.355                  
  24631752.374   129440723.081    24631753.785   100862900.862                  
  23990484.316   126070851.661    23990483.548    98237028.871                  
  21619518.620   113611308.849    21619520.335    88528286.509                  
                 131200550.495                   131200550.495    25195679.905  
                 115920900.688                   115920900.688    22261380.465  
                 128551110.839                   128551110.839    24686886.940  
                 127631628.116                   127631628.116    24510313.636  
                 128719336.247                   128719336.247    24719201.353  
                 130699748.404                   130699748.404    25099511.629  
  23987311.368   126054144.343                                                  
  24428574.918   128373041.879                                                  
  24598843.655   129267791.000                                                  
  26971645.895   141736911.963                                                  
  26312506.902   138273133.390                                                  
  26135674.819   137343872.602                                                  
  26280970.185   138107393.193                                                  
  25676253.554   134929599.184                                                  
 21  8 31  6 17 47.0000000  0 22G 4G 7G 8G 9G14G16G27G30C20C23C25C28
                                C32C34E 1E 4E 9E13E19E21E26E31
  22373279.289   117572367.570    22373280.807    91614831.082                  
  21176332.649   111282392.651    21176331.988    86713555.903                  
  20500152.934   107728988.892    20500155.400    83944656.414                  
  20946975.734   110077068.522    20946977.735    85774331.067                  
  24631216.786   129437908.458    24631218.179   100860707.649                  
  23991098.439   126074078.929    23991097.689    98239543.630                  
  21619897.139   113613298.067    21619898.873    88529836.547                  
  23509642.918   123543967.774    23509645.080    96268017.078                  
                 131200482.855                   131200482.855    25195666.914  
                 115921116.825                   115921116.825    22261421.957  
                 128553074.312                   128553074.312    24687264.013  
                 127628487.464                   127628487.464    24509710.503  
                 128721654.512                   128721654.512    24719646.560  
                 130701506.375                   130701506.375    25099849.228  
  23987388.258   126054548.508                                                  
  24428760.273   128374015.981                                                  
  24598523.425   129266108.071                                                  
  26971586.837   141736601.622                                                  
  26313082.660   138276159.050                                                  
  26136027.607   137345726.516                                                  
  26280525.854   138105058.199                                                  
  25675974.100   134928130.621                                                  
 21  8 31  6 17 48.0000000  0 22G 4G 7G 8G 9G14G16G27G30C20C23C25C28
                                C32C34E 1E 4E 9E13E19E21E26E31
  22373902.113   117575640.684    22373903.668    91617381.562                  
  21175989.403   111280588.969    21175988.760    86712150.434                  
  20500139.247   107728916.875    20500141.677    83944600.296                  
  20947267.124   110078599.776    20947269.125    85775524.249                  
  24630681.197   129435093.985    24630682.591   100858514.551                  
  23991712.562   126077306.177    23991711.793    98242058.364                  
  21620275.802   113615287.879    21620277.535    88531387.052                  
  23509104.613   123541138.981    23509106.776    96265812.823                  
                 131200415.743                   131200415.743    25195654.012  
                 115921333.140                   115921333.140    22261463.502  
                 128555037.890                   128555037.890    24687641.103  
                 127625346.948                   127625346.948    24509107.406  
                 128723973.044                   128723973.044    24720091.802  
                 130703264.810                   130703264.810    25100186.917  
  23987465.202   126054952.802                                                  
  24428945.736   128374990.532                                                  
  24598203.247   129264425.517                                                  
  26971527.888   141736291.735                                                  
  26313658.436   138279184.812                                                  
  26136380.395   137347580.433                                                  
  26280081.559   138102723.394                                                  
  25675694.682   134926662.182                                                  
 21  8 31  6 17 49.0000000  0 22G 4G 7G 8G 9G14G16G27G30C20C23C25C28
                                C32C34E 1E 4E 9E13E19E21E26E31
  22374525.045   117578914.099    22374526.564    91619932.273                  
  21175646.228   111278785.480    21175645.567    86710745.120                  
  20500125.666   107728845.585    20500128.114    83944544.751                  
  20947558.621   110080131.626    20947560.623    85776717.898                  
  24630145.645   129432279.661    24630147.039   100856321.573                  
  23992326.684   126080533.407    23992325.916    98244573.091                  
  21620654.554   113617278.289    21620656.305    88532938.020                  
  23508566.327   123538310.219    23508568.471    96263608.594                  
                 131200349.155                   131200349.155    25195641.236  
                 115921549.641                   115921549.641    22261505.083  
                 128557001.578                   128557001.578    24688018.193  
                 127622206.564                   127622206.564    24508504.326  
                 128726291.840                   128726291.840    24720537.098  
                 130705023.706                   130705023.706    25100524.677  
  23987542.164   126055357.215                                                  
  24429131.252   128375965.526                                                  
  24597883.124   129262743.332                                                  
  26971468.991   141735982.321                                                  
  26314234.265   138282210.669                                                  
  26136733.183   137349434.348                                                  
  26279637.281   138100388.773                                                  
  25675415.264   134925193.864                                                  
 21  8 31  6 17 50.0000000  0 22G 4G 7G 8G 9G14G16G27G30C20C23C25C28
                                C32C34E 1E 4E 9E13E19E21E26E31
  22375147.995   117582187.837    22375149.532    91622483.235                  
  21175303.054   111276982.194    21175302.393    86709339.960                  
  20500112.247   107728775.020    20500114.695    83944489.763                  
  20947850.244   110081664.095    20947852.245    85777912.032                  
  24629610.128   129429465.484    24629611.522   100854128.710                  
  23992940.825   126083760.640    23992940.038    98247087.813                  
  21621033.448   113619269.300    21621035.164    88534489.458                  
  23508028.023   123535481.499    23508030.203    96261404.394                  
                 131200283.097                   131200283.097    25195628.567  
                 115921766.317                   115921766.317    22261546.700  
                 128558965.376                   128558965.376    24688395.318  
                 127619066.313                   127619066.313    24507901.282  
                 128728610.902                   128728610.902    24720982.466  
                 130706783.068                   130706783.068    25100862.562  
  23987619.144   126055761.764                                                  
  24429316.893   128376940.969                                                  
  24597563.108   129261061.532                                                  
  26971410.202   141735673.359                                                  
  26314810.076   138285236.622                                                  
  26137085.971   137351288.273                                                  
  26279193.057   138098054.355                                                  
  25675135.882   134923725.683                                                  
 21  8 31  6 17 51.0000000  0 22G 4G 7G 8G 9G14G16G27G30C20C23C25C28
                                C32C34E 1E 4E 9E13E19E21E26E31
  22375771.034   117585461.883    22375772.553    91625034.440                  
  21174959.933   111275179.105    21174959.307    86707934.957                  
  20500098.934   107728705.125    20500101.400    83944435.301                  
  20948141.973   110083197.156    20948143.975    85779106.625                  
  24629074.647   129426651.453    24629076.041   100851935.962                  
  23993554.947   126086987.867    23993554.179    98249602.536                  
  21621412.415   113621260.901    21621414.166    88536041.355                  
  23507489.736   123532652.799    23507491.916    96259200.214                  
                 131200217.567                   131200217.567    25195615.987  
                 115921983.172                   115921983.172    22261588.335  
                 128560929.262                   128560929.262    24688772.480  
                 127615926.216                   127615926.216    24507298.238  
                 128730930.251                   128730930.251    24721427.851  
                 130708542.909                   130708542.909    25101200.519  
  23987696.141   126056166.442                                                  
  24429502.606   128377916.864                                                  
  24597243.127   129259380.105                                                  
  26971351.502   141735364.866                                                  
  26315385.906   138288262.663                                                  
  26137438.759   137353142.211                                                  
  26278748.851   138095720.101                                                  
  25674856.518   134922257.625                                                  
 21  8 31  6 17 52.0000000  0 22G 4G 7G 8G 9G14G16G27G30C20C23C25C28
                                C32C34E 1E 4E 9E13E19E21E26E31
  22376394.127   117588736.238    22376395.664    91627585.888                  
  21174616.865   111273376.215    21174616.222    86706530.110                  
  20500085.765   107728635.922    20500088.213    83944381.374                  
  20948433.828   110084730.819    20948435.812    85780301.687                  
  24628539.166   129423837.570    24628540.560   100849743.325                  
  23994169.052   126090215.085    23994168.301    98252117.249                  
  21621791.542   113623253.104    21621793.257    88537593.723                  
  23506951.486   123529824.141    23506953.648    96256996.067                  
                 131200152.561                   131200152.561    25195603.479  
                 115922200.211                   115922200.211    22261630.024  
                 128562893.278                   128562893.278    24689149.641  
                 127612786.230                   127612786.230    24506695.248  
                 128733249.847                   128733249.847    24721873.326  
                 130710303.193                   130710303.193    25101538.565  
  23987773.175   126056571.235                                                  
  24429688.372   128378893.190                                                  
  24596923.236   129257699.042                                                  
  26971292.874   141735056.849                                                  
  26315961.753   138291288.813                                                  
  26137791.565   137354996.146                                                  
  26278304.717   138093386.049                                                  
  25674577.172   134920789.679                                                  
 21  8 31  6 17 53.0000000  0 22G 4G 7G 8G 9G14G16G27G30C20C23C25C28
                                C32C34E 1E 4E 9E13E19E21E26E31
  22377017.274   117592010.915    22377018.793    91630137.582                  
  21174273.816   111271573.513    21174273.173    86705125.405                  
  20500072.720   107728567.405    20500075.186    83944327.985                  
  20948725.772   110086265.093    20948727.774    85781497.223                  
  24628003.739   129421023.838    24628005.133   100847550.805                  
  23994783.157   126093442.289    23994782.406    98254631.953                  
  21622170.740   113625245.906    21622172.473    88539146.551                  
  23506413.199   123526995.503    23506415.361    96254791.934                  
                 131200088.087                   131200088.087    25195591.096  
                 115922417.425                   115922417.425    22261671.748  
                 128564857.399                   128564857.399    24689526.838  
                 127609646.380                   127609646.380    24506092.258  
                 128735569.711                   128735569.711    24722318.819  
                 130712063.933                   130712063.933    25101876.701  
  23987850.244   126056976.159                                                  
  24429874.264   128379869.962                                                  
  24596603.398   129256018.363                                                  
  26971234.353   141734749.266                                                  
  26316537.636   138294315.048                                                  
  26138144.353   137356850.095                                                  
  26277860.600   138091052.189                                                  
  25674297.861   134919321.874                                                  
 21  8 31  6 17 54.0000000  0 22G 4G 7G 8G 9G14G16G27G30C20C23C25C28
                                C32C34E 1E 4E 9E13E19E21E26E31
  22377640.492   117595285.906    22377642.028    91632689.518                  
  21173930.820   111269771.019    21173930.159    86703720.862                  
  20500059.819   107728499.581    20500062.285    83944275.137                  
  20949017.859   110087799.965    20949019.861    85782693.227                  
  24627468.311   129418210.266    24627469.723   100845358.411                  
  23995397.279   126096669.481    23995396.529    98257146.648                  
  21622550.082   113627239.297    21622551.797    88540699.843                  
  23505874.948   123524166.909    23505877.093    96252587.832                  
                 131200024.134                   131200024.134    25195578.820  
                 115922634.824                   115922634.824    22261713.472  
                 128566821.625                   128566821.625    24689904.036  
                 127606506.662                   127606506.662    24505489.321  
                 128737889.836                   128737889.836    24722764.383  
                 130713825.135                   130713825.135    25102214.926  
  23987927.295   126057381.210                                                  
  24430060.226   128380847.186                                                  
  24596283.668   129254338.060                                                  
  26971175.921   141734442.176                                                  
  26317113.536   138297341.380                                                  
  26138497.142   137358704.032                                                  
  26277416.501   138088718.507                                                  
  25674018.568   134917854.195                                                  
 21  8 31  6 17 55.0000000  0 22G 4G 7G 8G 9G14G16G27G30C20C23C25C28
                                C32C34E 1E 4E 9E13E19E21E26E31
  22378263.763   117598561.208    22378265.282    91635241.704                  
  21173587.842   111267968.722    21173587.199    86702316.477                  
  20500047.042   107728432.453    20500049.508    83944222.827                  
  20949310.054   110089335.438    20949312.055    85783889.700                  
  24626932.955   129415396.837    24626934.331   100843166.129                  
  23996011.402   126099896.661    23996010.633    98259661.336                  
  21622929.512   113629233.293    21622931.264    88542253.611                  
  23505336.680   123521338.335    23505338.842    96250383.751                  
                 131199960.712                   131199960.712    25195566.633  
                 115922852.401                   115922852.401    22261755.267  
                 128568785.965                   128568785.965    24690281.286  
                 127603367.074                   127603367.074    24504886.403  
                 128740210.229                   128740210.229    24723209.982  
                 130715586.800                   130715586.800    25102553.222  
  23988004.418   126057786.387                                                  
  24430246.261   128381824.857                                                  
  24595963.973   129252658.126                                                  
  26971117.561   141734135.526                                                  
  26317689.437   138300367.806                                                  
  26138849.948   137360557.985                                                  
  26276972.456   138086385.025                                                  
  25673739.293   134916386.636                                                  
 21  8 31  6 17 56.0000000  0 22G 4G 7G 8G 9G14G16G27G30C20C23C25C28
                                C32C34E 1E 4E 9E13E19E21E26E31
  22378887.088   117601836.825    22378888.625    91637794.132                  
  21173244.917   111266166.621    21173244.274    86700912.243                  
  20500034.391   107728366.032    20500036.857    83944171.070                  
  20949602.355   110090871.519    20949604.356    85785086.644                  
  24626397.599   129412583.546    24626398.993   100840973.956                  
  23996625.507   126103123.841    23996624.738    98262176.020                  
  21623309.086   113631227.887    21623310.820    88543807.835                  
  23504798.411   123518509.806    23504800.591    96248179.700                  
                 131199897.811                   131199897.811    25195554.553  
                 115923070.161                   115923070.161    22261797.081  
                 128570750.411                   128570750.411    24690658.519  
                 127600227.625                   127600227.625    24504283.502  
                 128742530.890                   128742530.890    24723655.636  
                 130717348.927                   130717348.927    25102891.626  
  23988081.540   126058191.687                                                  
  24430432.403   128382802.964                                                  
  24595644.368   129250978.574                                                  
  26971059.308   141733829.361                                                  
  26318265.374   138303394.329                                                  
  26139202.736   137362411.934                                                  
  26276528.446   138084051.707                                                  
  25673460.054   134914919.203                                                  
 21  8 31  6 17 57.0000000  0 22G 4G 7G 8G 9G14G16G27G30C20C23C25C28
                                C32C34E 1E 4E 9E13E19E21E26E31
  22379510.485   117605112.746    22379512.004    91640346.796                  
  21172902.029   111264364.714    21172901.386    86699508.160                  
  20500021.901   107728300.306    20500024.367    83944119.855                  
  20949894.782   110092408.208    20949896.783    85786284.066                  
  24625862.279   129409770.414    24625863.673   100838781.903                  
  23997239.611   126106350.995    23997238.861    98264690.683                  
  21623688.767   113633223.066    21623690.483    88545362.520                  
  23504260.178   123515681.294    23504262.341    96245975.665                  
                 131199835.442                   131199835.442    25195542.581  
                 115923288.099                   115923288.099    22261838.948  
                 128572714.966                   128572714.966    24691035.806  
                 127597088.308                   127597088.308    24503680.619  
                 128744851.815                   128744851.815    24724101.361  
                 130719111.516                   130719111.516    25103230.101  
  23988158.681   126058597.122                                                  
  24430618.598   128383781.523                                                  
  24595324.816   129249299.380                                                  
  26971001.127   141733523.632                                                  
  26318841.328   138306420.957                                                  
  26139555.524   137364265.883                                                  
  26276084.455   138081718.586                                                  
  25673180.832   134913451.894                                                  
 21  8 31  6 17 58.0000000  0 22G 4G 7G 8G 9G14G16G27G30C20C23C25C28
                                C32C34E 1E 4E 9E13E19E21E26E31
  22380133.917   117608388.987    22380135.454    91642899.711                  
  21172559.176   111262563.004    21172558.515    86698104.230                  
  20500009.518   107728235.273    20500011.983    83944069.185                  
  20950187.315   110093945.501    20950189.317    85787481.956                  
  24625326.977   129406957.434    24625328.389   100836589.973                  
  23997853.716   126109578.157    23997852.965    98267205.351                  
  21624068.538   113635218.840    21624070.253    88546917.671                  
  23503721.946   123512852.823    23503724.108    96243771.664                  
                 131199773.597                   131199773.597    25195530.716  
                 115923506.214                   115923506.214    22261880.815  
                 128574679.628                   128574679.628    24691413.075  
                 127593949.130                   127593949.130    24503077.772  
                 128747173.008                   128747173.008    24724547.121  
                 130720874.562                   130720874.562    25103568.683  
  23988235.857   126059002.675                                                  
  24430804.900   128384760.520                                                  
  24595005.354   129247620.567                                                  
  26970943.034   141733218.376                                                  
  26319417.282   138309447.667                                                  
  26139908.312   137366119.850                                                  
  26275640.517   138079385.661                                                  
  25672901.647   134911984.711                                                  
 21  8 31  6 17 59.0000000  0 22G 4G 7G 8G 9G14G16G27G30C20C23C25C28
                                C32C34E 1E 4E 9E13E19E21E26E31
  22380757.439   117611665.539    22380758.958    91645452.871                  
  21172216.359   111260761.499    21172215.715    86696700.462                  
  20499997.277   107728170.941    20499999.743    83944019.054                  
  20950479.956   110095483.389    20950481.976    85788680.314                  
  24624791.728   129404144.595    24624793.122   100834398.145                  
  23998467.839   126112805.305    23998467.088    98269720.016                  
  21624448.433   113637215.219    21624450.166    88548473.288                  
  23503183.695   123510024.390    23503185.875    96241567.688                  
                 131199712.281                   131199712.281    25195518.941  
                 115923724.512                   115923724.512    22261922.736  
                 128576644.398                   128576644.398    24691790.397  
                 127590810.077                   127590810.077    24502474.960  
                 128749494.465                   128749494.465    24724992.918  
                 130722638.071                   130722638.071    25103907.337  
  23988313.052   126059408.356                                                  
  24430991.274   128385739.960                                                  
  24594685.963   129245942.142                                                  
  26970885.032   141732913.593                                                  
  26319993.255   138312474.483                                                  
  26140261.118   137367973.811                                                  
  26275196.615   138077052.909                                                  
  25672622.479   134910517.657                                                  
 21  8 31  6 18  0.0000000  0 22G 4G 7G 8G 9G14G16G27G30C20C23C25C28
                                C32C34E 1E 4E 9E13E19E21E26E31
  22381380.996   117614942.412    22381382.533    91648006.274                  
  21171873.577   111258960.182    21171872.934    86695296.836                  
  20499985.180   107728107.304    20499987.646    83943969.465                  
  20950772.740   110097021.891    20950774.742    85789879.144                  
  24624256.480   129401331.911    24624257.873   100832206.446                  
  23999081.943   126116032.439    23999081.175    98272234.665                  
  21624828.436   113639212.178    21624830.187    88550029.363                  
  23502645.480   123507195.981    23502647.642    96239363.735                  
                 131199651.491                   131199651.491    25195507.254  
                 115923942.987                   115923942.987    22261964.692  
                 128578609.278                   128578609.278    24692167.737  
                 127587671.164                   127587671.164    24501872.167  
                 128751816.184                   128751816.184    24725438.804  
                 130724402.044                   130724402.044    25104246.098  
  23988390.281   126059814.164                                                  
  24431177.755   128386719.854                                                  
  24594366.643   129244264.075                                                  
  26970827.118   141732609.273                                                  
  26320569.262   138315501.381                                                  
  26140613.924   137369827.778                                                  
  26274752.748   138074720.349                                                  
  25672343.311   134909050.729                                                  
 21  8 31  6 18  1.0000000  0 22G 4G 7G 8G 9G14G16G27G30C20C23C25C28
                                C32C34E 1E 4E 9E13E19E21E26E31
  22382004.625   117618219.589    22382006.162    91650559.923                  
  21171530.831   111257159.068    21171530.206    86693893.370                  
  20499973.208   107728044.366    20499975.656    83943920.426                  
  20951065.614   110098560.995    20951067.615    85791078.445                  
  24623721.284   129398519.369    24623722.678   100830014.855                  
  23999696.048   126119259.575    23999695.280    98274749.312                  
  21625208.563   113641209.751    21625210.297    88551585.913                  
  23502107.265   123504367.604    23502109.427    96237159.805                  
                 131199591.230                   131199591.230    25195495.693  
                 115924161.646                   115924161.646    22262006.703  
                 128580574.266                   128580574.266    24692545.095  
                 127584532.387                   127584532.387    24501269.373  
                 128754138.171                   128754138.171    24725884.707  
                 130726166.474                   130726166.474    25104584.948  
  23988467.547   126060220.092                                                  
  24431364.308   128387700.192                                                  
  24594047.377   129242586.395                                                  
  26970769.294   141732305.413                                                  
  26321145.288   138318528.385                                                  
  26140966.712   137371681.742                                                  
  26274308.917   138072387.982                                                  
  25672064.197   134907583.922                                                  
 21  8 31  6 18  2.0000000  0 22G 4G 7G 8G 9G14G16G27G30C20C23C25C28
                                C32C34E 1E 4E 9E13E19E21E26E31
  22382628.326   117621497.086    22382629.844    91653113.812                  
  21171188.139   111255358.153    21171187.478    86692490.062                  
  20499961.361   107727982.135    20499963.826    83943871.933                  
  20951358.612   110100100.700    20951360.613    85792278.216                  
  24623186.107   129395706.987    24623187.501   100827823.391                  
  24000310.135   126122486.696    24000309.384    98277263.952                  
  21625588.798   113643207.902    21625590.532    88553142.914                  
  23501569.032   123501539.265    23501571.194    96234955.902                  
                 131199531.496                   131199531.496    25195484.221  
                 115924380.485                   115924380.485    22262048.713  
                 128582539.364                   128582539.364    24692922.453  
                 127581393.738                   127581393.738    24500666.633  
                 128756460.422                   128756460.422    24726330.664  
                 130727931.363                   130727931.363    25104923.852  
  23988544.795   126060626.161                                                  
  24431550.932   128388680.972                                                  
  24593728.219   129240909.093                                                  
  26970711.559   141732002.021                                                  
  26321721.314   138321555.492                                                  
  26141319.518   137373535.712                                                  
  26273865.104   138070055.793                                                  
  25671785.101   134906117.237                                                  
 21  8 31  6 18  3.0000000  0 22G 4G 7G 8G 9G14G16G27G30C20C23C25C28
                                C32C34E 1E 4E 9E13E19E21E26E31
  22383252.062   117624774.891    22383253.598    91655667.946                  
  21170845.483   111253557.429    21170844.822    86691086.898                  
  20499949.638   107727920.597    20499952.104    83943823.981                  
  20951651.718   110101641.007    20951653.719    85793478.452                  
  24622650.948   129392894.738    24622652.342   100825632.028                  
  24000924.240   126125713.809    24000923.471    98279778.586                  
  21625969.158   113645206.655    21625970.874    88554700.386                  
  23501030.817   123498710.956    23501032.997    96232752.027                  
                 131199472.285                   131199472.285    25195472.838  
                 115924599.501                   115924599.501    22262090.776  
                 128584504.567                   128584504.567    24693299.865  
                 127578255.226                   127578255.226    24500063.929  
                 128758782.940                   128758782.940    24726776.675  
                 130729696.715                   130729696.715    25105262.881  
  23988622.096   126061032.339                                                  
  24431737.663   128389662.199                                                  
  24593409.096   129239232.153                                                  
  26970653.914   141731699.074                                                  
  26322297.376   138324582.675                                                  
  26141672.324   137375389.691                                                  
  26273421.345   138067723.796                                                  
  25671506.023   134904650.688                                                  
 21  8 31  6 18  4.0000000  0 22G 4G 7G 8G 9G14G16G27G30C20C23C25C28
                                C32C34E 1E 4E 9E13E19E21E26E31
  22383875.851   117628053.008    22383877.406    91658222.320                  
  21170502.844   111251756.898    21170502.201    86689683.892                  
  20499938.059   107727859.757    20499940.525    83943776.575                  
  20951944.966   110103181.909    20951946.967    85794679.155                  
  24622115.824   129390082.653    24622117.218   100823440.793                  
  24001538.344   126128940.907    24001537.576    98282293.207                  
  21626349.626   113647206.009    21626351.341    88556258.320                  
  23500492.620   123495882.685    23500494.800    96230548.179                  
                 131199413.600                   131199413.600    25195461.581  
                 115924818.700                   115924818.700    22262132.876  
                 128586469.880                   128586469.880    24693677.276  
                 127575116.851                   127575116.851    24499461.242  
                 128761105.723                   128761105.723    24727222.757  
                 130731462.532                   130731462.532    25105601.981  
  23988699.416   126061438.657                                                  
  24431924.466   128390643.875                                                  
  24593090.062   129237555.594                                                  
  26970596.357   141731396.603                                                  
  26322873.455   138327609.937                                                  
  26142025.112   137377243.669                                                  
  26272977.621   138065391.984                                                  
  25671226.980   134903184.262                                                  
 21  8 31  6 18  5.0000000  0 22G 4G 7G 8G 9G14G16G27G30C20C23C25C28
                                C32C34E 1E 4E 9E13E19E21E26E31
  22384499.748   117631331.438    22384501.267    91660776.941                  
  21170160.242   111249956.567    21170159.598    86688281.032                  
  20499926.623   107727799.607    20499929.071    83943729.700                  
  20952238.304   110104723.425    20952240.305    85795880.341                  
  24621580.718   129387270.712    24621582.112   100821249.668                  
  24002152.431   126132168.005    24002151.681    98284807.825                  
  21626730.200   113649205.950    21626731.915    88557816.715                  
  23499954.423   123493054.434    23499956.603    96228344.348                  
                 131199355.448                   131199355.448    25195450.413  
                 115925038.074                   115925038.074    22262174.993  
                 128588435.301                   128588435.301    24694054.724  
                 127571978.610                   127571978.610    24498858.556  
                 128763428.768                   128763428.768    24727668.858  
                 130733228.806                   130733228.806    25105941.189  
  23988776.753   126061845.087                                                  
  24432111.358   128391625.976                                                  
  24592771.100   129235879.411                                                  
  26970538.909   141731094.587                                                  
  26323449.535   138330637.331                                                  
  26142377.918   137379097.648                                                  
  26272533.916   138063060.379                                                  
  25670947.937   134901717.950                                                  
 21  8 31  6 18  6.0000000  0 22G 4G 7G 8G 9G14G16G27G30C20C23C25C28
                                C32C34E 1E 4E 9E13E19E21E26E31
  22385123.663   117634610.194    22385125.182    91663331.816                  
  21169817.692   111248156.432    21169817.031    86686878.332                  
  20499915.294   107727740.155    20499917.760    83943683.379                  
  20952531.731   110106265.542    20952533.768    85797081.988                  
  24621045.666   129384458.909    24621047.060   100819058.657                  
  24002766.518   126135395.088    24002765.785    98287322.437                  
  21627110.882   113651206.496    21627112.615    88559375.582                  
  23499416.244   123490226.218    23499418.406    96226140.543                  
                 131199297.822                   131199297.822    25195439.334  
                 115925257.631                   115925257.631    22262217.164  
                 128590400.827                   128590400.827    24694432.171  
                 127568840.499                   127568840.499    24498255.923  
                 128765752.081                   128765752.081    24728115.047  
                 130734995.539                   130734995.539    25106280.468  
  23988854.126   126062251.643                                                  
  24432298.339   128392608.532                                                  
  24592452.192   129234203.615                                                  
  26970481.513   141730793.057                                                  
  26324025.668   138333664.807                                                  
  26142730.724   137380951.644                                                  
  26272090.264   138060728.946                                                  
  25670668.948   134900251.753                                                  
 21  8 31  6 18  7.0000000  0 22G 4G 7G 8G 9G14G16G27G30C20C23C25C28
                                C32C34E 1E 4E 9E13E19E21E26E31
  22385747.632   117637889.270    22385749.186    91665886.938                  
  21169475.179   111246356.486    21169474.518    86685475.778                  
  20499904.126   107727681.395    20499906.574    83943637.585                  
  20952825.319   110107808.267    20952827.321    85798284.109                  
  24620510.614   129381647.259    24620512.026   100816867.758                  
  24003380.623   126138622.160    24003379.854    98289837.039                  
  21627491.688   113653207.634    21627493.422    88560934.911                  
  23498878.047   123487398.035    23498880.227    96223936.766                  
                 131199240.716                   131199240.716    25195428.380  
                 115925477.372                   115925477.372    22262259.353  
                 128592366.469                   128592366.469    24694809.654  
                 127565702.528                   127565702.528    24497653.308  
                 128768075.655                   128768075.655    24728561.254  
                 130736762.731                   130736762.731    25106619.836  
  23988931.498   126062658.320                                                  
  24432485.375   128393591.522                                                  
  24592133.373   129232528.212                                                  
  26970424.225   141730491.977                                                  
  26324601.783   138336692.386                                                  
  26143083.548   137382805.655                                                  
  26271646.647   138058397.699                                                  
  25670389.941   134898785.676                                                  
 21  8 31  6 18  8.0000000  0 22G 4G 7G 8G 9G14G16G27G30C20C23C25C28
                                C32C34E 1E 4E 9E13E19E21E26E31
  22386371.671   117641168.604    22386373.226    91668442.266                  
  21169132.701   111244556.747    21169132.040    86684073.383                  
  20499893.083   107727623.296    20499895.513    83943592.320                  
  20953118.997   110109351.587    20953120.998    85799486.694                  
  24619975.616   129378835.781    24619976.991   100814677.001                  
  24003994.727   126141849.220    24003993.959    98292351.626                  
  21627872.602   113655209.356    21627874.336    88562494.696                  
  23498339.885   123484569.914    23498342.047    96221733.035                  
                 131199184.139                   131199184.139    25195417.516  
                 115925697.289                   115925697.289    22262301.595  
                 128594332.215                   128594332.215    24695187.155  
                 127562564.690                   127562564.690    24497050.711  
                 128770399.497                   128770399.497    24729007.515  
                 130738530.386                   130738530.386    25106959.294  
  23989008.943   126063065.172                                                  
  24432672.535   128394575.003                                                  
  24591814.625   129230853.103                                                  
  26970367.009   141730191.349                                                  
  26325177.934   138339720.039                                                  
  26143436.318   137384659.625                                                  
  26271203.067   138056066.650                                                  
  25670111.006   134897319.808                                                  
 21  8 31  6 18  9.0000000  0 22G 4G 7G 8G 9G14G16G27G30C20C23C25C28
                                C32C34E 1E 4E 9E13E19E21E26E31
  22386995.783   117644448.296    22386997.320    91670997.868                  
  21168790.259   111242757.203    21168789.598    86682671.140                  
  20499882.165   107727565.937    20499884.613    83943547.622                  
  20953412.799   110110895.503    20953414.801    85800689.750                  
  24619440.617   129376024.433    24619442.029   100812486.340                  
  24004608.796   126145076.265    24004608.046    98294866.207                  
  21628253.641   113657211.692    21628255.357    88564054.958                  
  23497801.706   123481741.792    23497803.886    96219529.302                  
                 131199128.095                   131199128.095    25195406.759  
                 115925917.387                   115925917.387    22262343.855  
                 128596298.067                   128596298.067    24695564.674  
                 127559426.989                   127559426.989    24496448.168  
                 128772723.603                   128772723.603    24729453.848  
                 130740298.503                   130740298.503    25107298.842  
  23989086.351   126063472.119                                                  
  24432859.766   128395558.891                                                  
  24591495.949   129229178.422                                                  
  26970309.899   141729891.199                                                  
  26325754.102   138342747.797                                                  
  26143789.142   137386513.642                                                  
  26270759.522   138053735.785                                                  
  25669832.052   134895853.995                                                  
 21  8 31  6 18 10.0000000  0 22G 4G 7G 8G 9G14G16G27G30C20C23C25C28
                                C32C34E 1E 4E 9E13E19E21E26E31
  22387619.966   117647728.288    22387621.485    91673553.703                  
  21168447.853   111240957.890    21168447.192    86681269.078                  
  20499871.372   107727509.269    20499873.820    83943503.466                  
  20953706.727   110112440.032    20953708.728    85801893.277                  
  24618905.672   129373213.243    24618907.084   100810295.800                  
  24005222.883   126148303.302    24005222.115    98297380.781                  
  21628634.788   113659214.605    21628636.503    88565615.668                  
  23497263.545   123478913.711    23497265.707    96217325.605                  
                 131199072.571                   131199072.571    25195396.073  
                 115926137.663                   115926137.663    22262386.151  
                 128598264.031                   128598264.031    24695942.229  
                 127556289.422                   127556289.422    24495845.624  
                 128775047.974                   128775047.974    24729900.216  
                 130742067.079                   130742067.079    25107638.478  
  23989163.831   126063879.182                                                  
  24433047.087   128396543.231                                                  
  24591177.326   129227504.116                                                  
  26970252.861   141729591.506                                                  
  26326330.271   138345775.640                                                  
  26144141.948   137388367.644                                                  
  26270315.995   138051405.105                                                  
  25669553.153   134894388.332                                                  
 21  8 31  6 18 11.0000000  0 22G 4G 7G 8G 9G14G16G27G30C20C23C25C28
                                C32C34E 1E 4E 9E13E19E21E26E31
  22388244.184   117651008.590    22388245.703    91676109.785                  
  21168105.501   111239158.747    21168104.839    86679867.149                  
  20499860.722   107727453.298    20499863.188    83943459.847                  
  20954000.744   110113985.163    20954002.745    85803097.278                  
  24618370.763   129370402.194    24618372.139   100808105.370                  
  24005836.952   126151530.320    24005836.202    98299895.341                  
  21629016.041   113661218.121    21629017.757    88567176.850                  
  23496725.383   123476085.660    23496727.545    96215121.929                  
                 131199017.573                   131199017.573    25195385.513  
                 115926358.124                   115926358.124    22262428.501  
                 128600230.101                   128600230.101    24696319.801  
                 127553151.989                   127553151.989    24495243.099  
                 128777372.606                   128777372.606    24730346.638  
                 130743836.112                   130743836.112    25107978.204  
  23989241.312   126064286.384                                                  
  24433234.480   128397528.023                                                  
  24590858.775   129225830.181                                                  
  26970195.913   141729292.281                                                  
  26326906.476   138348803.609                                                  
  26144494.736   137390221.646                                                  
  26269872.521   138049074.625                                                  
  25669274.289   134892922.781                                                  
 21  8 31  6 18 12.0000000  0 22G 4G 7G 8G 9G14G16G27G30C20C23C25C28
                                C32C34E 1E 4E 9E13E19E21E26E31
  22388868.456   117654289.207    22388869.975    91678666.105                  
  21167763.166   111237359.804    21167762.523    86678465.375                  
  20499850.197   107727398.030    20499852.663    83943416.788                  
  20954294.886   110115530.895    20954296.887    85804301.738                  
  24617835.854   129367591.301    24617837.265   100805915.064                  
  24006451.039   126154757.333    24006450.289    98302409.894                  
  21629397.402   113663222.226    21629399.135    88568738.493                  
  23496187.222   123473257.653    23496189.402    96212918.285                  
                 131198963.105                   131198963.105    25195375.059  
                 115926578.763                   115926578.763    22262470.886  
                 128602196.281                   128602196.281    24696697.374  
                 127550014.693                   127550014.693    24494640.627  
                 128779697.503                   128779697.503    24730793.113  
                 130745605.611                   130745605.611    25108318.019  
  23989318.827   126064693.691                                                  
  24433421.962   128398513.241                                                  
  24590540.314   129224156.630                                                  
  26970139.053   141728993.519                                                  
  26327482.698   138351831.652                                                  
  26144847.560   137392075.660                                                  
  26269429.084   138046744.309                                                  
  25668995.425   134891457.343                                                  
 21  8 31  6 18 13.0000000  0 22G 4G 7G 8G 9G14G16G27G30C20C23C25C28
                                C32C34E 1E 4E 9E13E19E21E26E31
  22389492.800   117657570.128    22389494.319    91681222.672                  
  21167420.885   111235561.043    21167420.224    86677063.743                  
  20499839.815   107727343.461    20499842.281    83943374.265                  
  20954589.135   110117077.235    20954591.136    85805506.680                  
  24617300.980   129364780.551    24617302.374   100803724.871                  
  24007065.126   126157984.340    24007064.357    98304924.445                  
  21629778.888   113665226.932    21629780.621    88570300.602                  
  23495649.078   123470429.664    23495651.241    96210714.656                  
                 131198909.163                   131198909.163    25195364.695  
                 115926799.582                   115926799.582    22262513.271  
                 128604162.571                   128604162.571    24697074.982  
                 127546877.527                   127546877.527    24494038.155  
                 128782022.668                   128782022.668    24731239.642  
                 130747375.565                   130747375.565    25108657.924  
  23989396.361   126065101.139                                                  
  24433609.515   128399498.913                                                  
  24590221.923   129222483.442                                                  
  26970082.301   141728695.217                                                  
