% program   : rnx2rtkp ver.2.4.3 b31
% inp file  : ngs/21_09_01_11_43_00_fmyr.obs
% inp file  : ngs/21_09_01_11_43_00_fmyr_P1.obs
% inp file  : ngs/21_09_01_11_43_00_brdc.nav
% obs start : 2021/09/01 11:00:00.0 GPST (week2173 298800.0s)
% obs end   : 2021/09/01 11:59:59.0 GPST (week2173 302399.0s)
% ref pos   :   831182.1150  -5646790.9740   2837091.8490
%
% (x/y/z-ecef=WGS84,Q=1:fix,2:float,3:sbas,4:dgps,5:single,6:ppp,ns=# of satellites)
%  GPST              x-ecef(m)      y-ecef(m)      z-ecef(m)   Q  ns   sdx(m)   sdy(m)   sdz(m)  sdxy(m)  sdyz(m)  sdzx(m) age(s)  ratio
2173 301355.000    807699.9223  -5649860.3912   2837755.4137   2   7   0.4887   1.0563   0.8422  -0.2203  -0.7856  -0.2116 -30.00    1.2
2173 301356.000    807699.9225  -5649860.4003   2837755.4155   2   7   0.3480   0.7525   0.5992  -0.1579  -0.5595  -0.1495 -29.00    1.1
2173 301357.000    807699.9212  -5649860.3896   2837755.4100   2   7   0.2849   0.6163   0.4906  -0.1296  -0.4582  -0.1222 -28.00    1.1
2173 301358.000    807699.9207  -5649860.3862   2837755.4071   2   7   0.2472   0.5347   0.4256  -0.1125  -0.3975  -0.1060 -27.00    1.1
2173 301359.000    807699.9189  -5649860.3806   2837755.4023   2   7   0.2214   0.4789   0.3812  -0.1008  -0.3560  -0.0949 -26.00    1.2
2173 301360.000    807699.9164  -5649860.3809   2837755.3975   2   7   0.2023   0.4376   0.3484  -0.0922  -0.3253  -0.0867 -25.00    1.2
2173 301361.000    807699.9169  -5649860.3857   2837755.3964   2   7   0.1874   0.4054   0.3228  -0.0854  -0.3014  -0.0804 -24.00    1.2
2173 301362.000    807699.9171  -5649860.3805   2837755.3930   2   7   0.1754   0.3794   0.3021  -0.0800  -0.2821  -0.0752 -23.00    1.2
2173 301363.000    807699.9137  -5649860.3793   2837755.3895   2   7   0.1654   0.3579   0.2850  -0.0755  -0.2661  -0.0709 -22.00    1.3
2173 301364.000    807699.9117  -5649860.3792   2837755.3886   2   7   0.1570   0.3396   0.2704  -0.0717  -0.2525  -0.0673 -21.00    1.3
2173 301365.000    807699.9172  -5649860.3816   2837755.3866   2   7   0.1497   0.3239   0.2579  -0.0684  -0.2408  -0.0641 -20.00    1.3
2173 301366.000    807699.9152  -5649860.3786   2837755.3823   2   7   0.1433   0.3101   0.2469  -0.0655  -0.2306  -0.0613 -19.00    1.3
2173 301367.000    807699.9132  -5649860.3786   2837755.3816   2   7   0.1377   0.2980   0.2372  -0.0630  -0.2215  -0.0589 -18.00    1.4
2173 301368.000    807699.9113  -5649860.3756   2837755.3779   2   7   0.1327   0.2871   0.2285  -0.0608  -0.2135  -0.0567 -17.00    1.4
2173 301369.000    807699.9116  -5649860.3699   2837755.3737   2   7   0.1282   0.2774   0.2207  -0.0587  -0.2062  -0.0547 -16.00    1.4
2173 301370.000    807699.9100  -5649860.3731   2837755.3745   2   7   0.1241   0.2685   0.2137  -0.0569  -0.1996  -0.0529 -15.00    1.5
2173 301371.000    807699.9111  -5649860.3759   2837755.3740   2   7   0.1204   0.2605   0.2072  -0.0553  -0.1936  -0.0512 -14.00    1.5
2173 301372.000    807699.9100  -5649860.3737   2837755.3717   2   7   0.1169   0.2531   0.2013  -0.0537  -0.1881  -0.0497 -13.00    1.6
2173 301373.000    807699.9094  -5649860.3713   2837755.3685   2   7   0.1138   0.2463   0.1958  -0.0524  -0.1830  -0.0483 -12.00    1.6
2173 301374.000    807699.9083  -5649860.3726   2837755.3677   2   7   0.1109   0.2400   0.1907  -0.0511  -0.1783  -0.0470 -11.00    1.6
2173 301375.000    807699.9061  -5649860.3706   2837755.3636   2   7   0.1082   0.2341   0.1860  -0.0499  -0.1740  -0.0457 -10.00    1.7
2173 301376.000    807699.9051  -5649860.3734   2837755.3642   2   7   0.1056   0.2287   0.1817  -0.0488  -0.1699  -0.0446  -9.00    1.7
2173 301377.000    807699.9057  -5649860.3677   2837755.3606   2   7   0.1033   0.2236   0.1776  -0.0477  -0.1661  -0.0435  -8.00    1.8
2173 301378.000    807699.9073  -5649860.3689   2837755.3583   2   7   0.1011   0.2188   0.1737  -0.0468  -0.1626  -0.0425  -7.00    1.8
2173 301379.000    807699.9061  -5649860.3714   2837755.3610   2   7   0.0990   0.2144   0.1701  -0.0459  -0.1592  -0.0415  -6.00    1.9
2173 301380.000    807699.9060  -5649860.3767   2837755.3626   2   7   0.0970   0.2102   0.1667  -0.0450  -0.1561  -0.0406  -5.00    1.9
2173 301381.000    807699.9033  -5649860.3716   2837755.3602   2   7   0.0952   0.2062   0.1635  -0.0442  -0.1531  -0.0397  -4.00    2.0
2173 301382.000    807699.9047  -5649860.3706   2837755.3609   2   7   0.0934   0.2024   0.1604  -0.0434  -0.1503  -0.0389  -3.00    2.0
2173 301383.000    807699.9034  -5649860.3694   2837755.3584   2   7   0.0918   0.1989   0.1576  -0.0428  -0.1476  -0.0382  -2.00    2.1
2173 301384.000    807699.9017  -5649860.3684   2837755.3570   2   7   0.0902   0.1955   0.1549  -0.0421  -0.1451  -0.0374  -1.00    2.2
2173 301385.000    807699.9026  -5649860.3673   2837755.3558   2   7   0.0887   0.1923   0.1523  -0.0414  -0.1427  -0.0367   0.00    2.3
2173 301386.000    807699.9069  -5649860.3836   2837755.3553   2   7   0.4873   1.0560   0.8405  -0.2232  -0.7849  -0.2072   0.00    2.7
2173 301387.000    807699.9423  -5649860.3755   2837755.3485   2   7   0.4872   1.0561   0.8405  -0.2233  -0.7849  -0.2071   0.00    2.9
2173 301388.000    807699.9541  -5649860.3626   2837755.3978   2   7   0.4872   1.0561   0.8404  -0.2234  -0.7849  -0.2070   0.00    2.9
2173 301389.000    807699.9491  -5649860.4122   2837755.4749   2   7   0.4872   1.0561   0.8404  -0.2235  -0.7849  -0.2069   0.00    2.8
2173 301390.000    807699.8953  -5649861.3880   2837755.8877   1   7   0.0049   0.0107   0.0085  -0.0023  -0.0080  -0.0021   0.00    3.1
2173 301391.000    807699.9654  -5649860.4362   2837755.4783   2   7   0.4872   1.0562   0.8404  -0.2237  -0.7849  -0.2067   0.00    2.8
2173 301392.000    807699.9667  -5649860.4851   2837755.6106   2   7   0.4871   1.0562   0.8404  -0.2238  -0.7849  -0.2066   0.00    2.9
2173 301393.000    807699.8946  -5649861.3903   2837755.8875   1   7   0.0049   0.0107   0.0085  -0.0023  -0.0080  -0.0020   0.00    3.2
2173 301394.000    807700.0028  -5649860.6135   2837755.7256   2   7   0.4871   1.0563   0.8404  -0.2240  -0.7849  -0.2063   0.00    2.8
2173 301395.000    807699.9663  -5649860.7965   2837755.7920   2   7   0.4871   1.0563   0.8403  -0.2241  -0.7849  -0.2062   0.00    2.9
2173 301396.000    807699.8950  -5649861.3884   2837755.8886   1   7   0.0049   0.0107   0.0085  -0.0023  -0.0080  -0.0020   0.00    3.2
2173 301397.000    807699.9629  -5649860.8959   2837755.8769   2   7   0.4870   1.0564   0.8403  -0.2243  -0.7849  -0.2060   0.00    2.9
2173 301398.000    807699.9244  -5649860.8927   2837755.9115   2   7   0.4870   1.0564   0.8403  -0.2243  -0.7849  -0.2059   0.00    3.0
2173 301399.000    807699.8902  -5649860.7945   2837755.8723   2   7   0.4870   1.0564   0.8403  -0.2244  -0.7850  -0.2058   0.00    2.8
2173 301400.000    807699.8640  -5649860.6955   2837755.8058   2   7   0.4870   1.0565   0.8403  -0.2245  -0.7850  -0.2057   0.00    2.9
2173 301401.000    807699.8972  -5649861.3865   2837755.8873   1   7   0.0049   0.0107   0.0085  -0.0023  -0.0080  -0.0020   0.00    3.1
2173 301402.000    807699.8079  -5649860.5898   2837755.8344   2   7   0.4869   1.0565   0.8402  -0.2247  -0.7850  -0.2055   0.00    2.8
2173 301403.000    807699.7988  -5649860.6180   2837755.8344   2   7   0.4869   1.0566   0.8402  -0.2248  -0.7850  -0.2054   0.00    2.7
2173 301404.000    807699.8444  -5649860.5536   2837755.7954   2   7   0.4869   1.0566   0.8402  -0.2249  -0.7850  -0.2052   0.00    2.7
2173 301405.000    807699.8962  -5649861.3858   2837755.8872   1   7   0.0049   0.0107   0.0085  -0.0023  -0.0080  -0.0020   0.00    3.0
2173 301406.000    807699.8474  -5649860.4905   2837755.6936   2   7   0.4868   1.0567   0.8402  -0.2251  -0.7850  -0.2050   0.00    2.5
2173 301407.000    807699.8835  -5649860.4745   2837755.7038   2   7   0.4868   1.0567   0.8401  -0.2252  -0.7850  -0.2049   0.00    2.5
2173 301408.000    807699.8821  -5649860.4507   2837755.7015   2   7   0.4868   1.0567   0.8401  -0.2253  -0.7850  -0.2048   0.00    2.7
2173 301409.000    807699.8672  -5649860.4972   2837755.8124   2   7   0.4868   1.0568   0.8401  -0.2254  -0.7850  -0.2047   0.00    2.7
2173 301410.000    807699.8953  -5649861.3873   2837755.8887   1   7   0.0049   0.0107   0.0085  -0.0023  -0.0080  -0.0020   0.00    3.1
2173 301411.000    807699.7934  -5649860.4847   2837755.7532   2   7   0.4867   1.0568   0.8401  -0.2255  -0.7850  -0.2045   0.00    2.7
2173 301412.000    807699.8515  -5649860.3658   2837755.6368   2   7   0.4867   1.0569   0.8401  -0.2256  -0.7850  -0.2044   0.00    2.3
2173 301413.000    807699.8571  -5649860.5118   2837755.7528   2   7   0.4867   1.0569   0.8400  -0.2257  -0.7850  -0.2043   0.00    2.6
2173 301414.000    807699.8781  -5649860.6158   2837755.8800   2   7   0.4867   1.0569   0.8400  -0.2258  -0.7850  -0.2041   0.00    2.8
2173 301415.000    807699.8961  -5649861.3849   2837755.8883   1   7   0.0049   0.0107   0.0085  -0.0023  -0.0080  -0.0020   0.00    3.1
2173 301416.000    807699.9077  -5649860.7624   2837755.9417   2   7   0.4866   1.0570   0.8400  -0.2260  -0.7850  -0.2039   0.00    2.3
2173 301417.000    807699.8954  -5649860.7527   2837755.9411   2   7   0.4866   1.0570   0.8400  -0.2261  -0.7850  -0.2038   0.00    2.5
2173 301418.000    807699.9345  -5649860.7818   2837755.8919   2   7   0.4866   1.0571   0.8400  -0.2262  -0.7851  -0.2037   0.00    2.6
2173 301419.000    807699.8967  -5649860.8952   2837755.9307   2   7   0.4866   1.0571   0.8399  -0.2263  -0.7851  -0.2036   0.00    2.5
2173 301420.000    807699.9230  -5649860.8643   2837755.8696   2   7   0.4866   1.0571   0.8399  -0.2264  -0.7851  -0.2035   0.00    2.6
2173 301421.000    807699.9165  -5649860.8993   2837755.8731   2   7   0.4865   1.0572   0.8399  -0.2265  -0.7851  -0.2034   0.00    2.4
2173 301422.000    807699.9564  -5649860.8126   2837755.7580   2   7   0.4865   1.0572   0.8399  -0.2266  -0.7851  -0.2032   0.00    2.7
2173 301423.000    807699.9315  -5649860.7829   2837755.7243   2   7   0.4865   1.0572   0.8399  -0.2267  -0.7851  -0.2031   0.00    2.1
2173 301424.000    807699.8733  -5649860.7727   2837755.7517   2   7   0.4865   1.0573   0.8399  -0.2267  -0.7851  -0.2030   0.00    2.5
2173 301425.000    807699.8677  -5649860.6861   2837755.6532   2   7   0.4865   1.0573   0.8398  -0.2268  -0.7851  -0.2029   0.00    2.4
2173 301426.000    807699.8120  -5649860.6793   2837755.7048   2   7   0.4864   1.0573   0.8398  -0.2269  -0.7851  -0.2028   0.00    2.5
2173 301427.000    807699.8568  -5649860.7023   2837755.7078   2   7   0.4864   1.0574   0.8398  -0.2270  -0.7851  -0.2027   0.00    2.3
2173 301428.000    807699.8126  -5649860.6331   2837755.7122   2   7   0.4864   1.0574   0.8398  -0.2271  -0.7851  -0.2026   0.00    2.0
2173 301429.000    807699.7941  -5649860.7144   2837755.7905   2   7   0.4864   1.0574   0.8398  -0.2272  -0.7851  -0.2025   0.00    1.9
2173 301430.000    807699.8248  -5649860.6711   2837755.7540   2   7   0.4864   1.0575   0.8398  -0.2273  -0.7851  -0.2023   0.00    2.2
2173 301431.000    807699.8745  -5649860.7780   2837755.7536   2   7   0.4863   1.0575   0.8397  -0.2274  -0.7851  -0.2022   0.00    2.2
2173 301432.000    807699.9023  -5649860.6992   2837755.7443   2   7   0.4863   1.0575   0.8397  -0.2275  -0.7851  -0.2021   0.00    1.7
2173 301433.000    807699.9461  -5649860.7151   2837755.6641   2   7   0.4863   1.0576   0.8397  -0.2276  -0.7851  -0.2020   0.00    1.9
2173 301434.000    807699.9836  -5649860.7613   2837755.6518   2   7   0.4863   1.0576   0.8397  -0.2277  -0.7851  -0.2019   0.00    2.1
2173 301435.000    807700.0537  -5649860.8508   2837755.7287   2   7   0.4863   1.0576   0.8397  -0.2278  -0.7851  -0.2018   0.00    2.0
2173 301436.000    807700.0674  -5649860.8699   2837755.7102   2   7   0.4862   1.0577   0.8397  -0.2279  -0.7851  -0.2017   0.00    2.7
2173 301437.000    807700.0777  -5649860.8603   2837755.6861   2   7   0.4862   1.0577   0.8396  -0.2280  -0.7851  -0.2016   0.00    2.3
2173 301438.000    807700.0285  -5649860.6753   2837755.6318   2   7   0.4862   1.0577   0.8396  -0.2281  -0.7851  -0.2014   0.00    2.1
2173 301439.000    807700.0500  -5649860.6283   2837755.6195   2   7   0.4862   1.0578   0.8396  -0.2281  -0.7851  -0.2013   0.00    2.2
2173 301440.000    807700.0139  -5649860.5957   2837755.6703   2   7   0.4862   1.0578   0.8396  -0.2282  -0.7851  -0.2012   0.00    2.0
2173 301441.000    807699.9438  -5649860.5883   2837755.7029   2   7   0.4861   1.0578   0.8396  -0.2283  -0.7852  -0.2011   0.00    2.1
2173 301442.000    807699.9537  -5649860.5678   2837755.7081   2   7   0.4861   1.0579   0.8395  -0.2284  -0.7852  -0.2010   0.00    1.9
2173 301443.000    807699.9133  -5649860.7805   2837755.8152   2   7   0.4861   1.0579   0.8395  -0.2285  -0.7852  -0.2009   0.00    1.7
2173 301444.000    807699.9194  -5649860.8159   2837755.8066   2   7   0.4861   1.0579   0.8395  -0.2286  -0.7852  -0.2008   0.00    1.8
2173 301445.000    807699.9263  -5649860.8526   2837755.7869   2   7   0.4861   1.0580   0.8395  -0.2287  -0.7852  -0.2006   0.00    2.0
2173 301446.000    807699.9311  -5649860.7932   2837755.6910   2   7   0.4860   1.0580   0.8395  -0.2288  -0.7852  -0.2005   0.00    2.0
2173 301447.000    807699.9793  -5649860.8163   2837755.6684   2   7   0.4860   1.0580   0.8395  -0.2289  -0.7852  -0.2004   0.00    2.4
2173 301448.000    807699.9909  -5649860.7971   2837755.6453   2   7   0.4860   1.0581   0.8394  -0.2290  -0.7852  -0.2003   0.00    2.2
2173 301449.000    807700.0219  -5649860.8173   2837755.6802   2   7   0.4860   1.0581   0.8394  -0.2291  -0.7852  -0.2002   0.00    1.7
2173 301450.000    807700.0214  -5649860.8154   2837755.6867   2   7   0.4860   1.0581   0.8394  -0.2292  -0.7852  -0.2001   0.00    2.2
2173 301451.000    807700.0520  -5649860.8078   2837755.6263   2   7   0.4859   1.0582   0.8394  -0.2293  -0.7852  -0.2000   0.00    1.9
2173 301452.000    807700.0276  -5649860.7999   2837755.6070   2   7   0.4859   1.0582   0.8394  -0.2294  -0.7852  -0.1998   0.00    2.0
2173 301453.000    807700.0328  -5649860.7588   2837755.6396   2   7   0.4859   1.0582   0.8393  -0.2295  -0.7852  -0.1997   0.00    2.1
2173 301454.000    807700.0133  -5649860.8021   2837755.6497   2   7   0.4859   1.0583   0.8393  -0.2296  -0.7852  -0.1996   0.00    1.8
2173 301455.000    807699.9451  -5649860.9411   2837755.7080   2   7   0.4859   1.0583   0.8393  -0.2297  -0.7852  -0.1995   0.00    1.8
2173 301456.000    807699.9259  -5649860.9747   2837755.6993   2   7   0.4859   1.0583   0.8393  -0.2297  -0.7852  -0.1994   0.00    1.9
2173 301457.000    807699.9631  -5649860.7903   2837755.5916   2   7   0.4858   1.0584   0.8393  -0.2298  -0.7852  -0.1993   0.00    1.7
2173 301458.000    807700.0282  -5649860.8179   2837755.5778   2   7   0.4858   1.0584   0.8393  -0.2299  -0.7852  -0.1991   0.00    1.8
2173 301459.000    807700.0184  -5649860.8265   2837755.5837   2   7   0.4858   1.0584   0.8392  -0.2300  -0.7852  -0.1990   0.00    1.8
2173 301460.000    807700.0555  -5649860.7727   2837755.5445   2   7   0.4858   1.0585   0.8392  -0.2301  -0.7852  -0.1989   0.00    2.1
2173 301461.000    807700.0494  -5649860.7185   2837755.5404   2   7   0.4858   1.0585   0.8392  -0.2302  -0.7852  -0.1988   0.00    1.8
2173 301462.000    807700.0077  -5649860.7352   2837755.5402   2   7   0.4857   1.0585   0.8392  -0.2303  -0.7852  -0.1987   0.00    1.8
2173 301463.000    807699.9898  -5649860.8061   2837755.5473   2   7   0.4857   1.0586   0.8392  -0.2304  -0.7852  -0.1986   0.00    1.8
2173 301464.000    807700.0080  -5649860.6569   2837755.4786   2   7   0.4857   1.0586   0.8391  -0.2305  -0.7852  -0.1984   0.00    2.1
2173 301465.000    807700.0444  -5649860.6336   2837755.4382   2   7   0.4857   1.0586   0.8391  -0.2306  -0.7852  -0.1983   0.00    2.2
2173 301466.000    807700.0421  -5649860.6552   2837755.4401   2   7   0.4857   1.0587   0.8391  -0.2307  -0.7852  -0.1982   0.00    1.9
2173 301467.000    807700.0297  -5649860.6539   2837755.4435   2   7   0.4856   1.0587   0.8391  -0.2308  -0.7852  -0.1981   0.00    2.3
2173 301468.000    807700.0630  -5649860.6379   2837755.4429   2   7   0.4856   1.0587   0.8391  -0.2309  -0.7852  -0.1980   0.00    2.1
2173 301469.000    807700.0463  -5649860.6546   2837755.4952   2   7   0.4856   1.0588   0.8390  -0.2310  -0.7853  -0.1979   0.00    1.8
2173 301470.000    807700.0286  -5649860.7256   2837755.5746   2   7   0.4856   1.0588   0.8390  -0.2311  -0.7853  -0.1977   0.00    1.9
2173 301471.000    807700.1083  -5649860.7310   2837755.5556   2   7   0.4856   1.0588   0.8390  -0.2312  -0.7853  -0.1976   0.00    2.2
2173 301472.000    807700.0597  -5649860.7269   2837755.5469   2   7   0.4855   1.0589   0.8390  -0.2313  -0.7853  -0.1975   0.00    2.2
2173 301473.000    807700.0862  -5649860.5765   2837755.4368   2   7   0.4855   1.0589   0.8390  -0.2314  -0.7853  -0.1974   0.00    2.3
2173 301474.000    807700.0978  -5649860.5442   2837755.4020   2   7   0.4855   1.0589   0.8389  -0.2314  -0.7853  -0.1973   0.00    1.9
2173 301475.000    807700.0652  -5649860.5181   2837755.4481   2   7   0.4855   1.0590   0.8389  -0.2315  -0.7853  -0.1972   0.00    2.1
2173 301476.000    807700.0260  -5649860.6150   2837755.5052   2   7   0.4855   1.0590   0.8389  -0.2316  -0.7853  -0.1970   0.00    2.0
2173 301477.000    807700.0746  -5649860.7278   2837755.5863   2   7   0.4854   1.0590   0.8389  -0.2317  -0.7853  -0.1969   0.00    1.8
2173 301478.000    807700.0696  -5649860.7856   2837755.6282   2   7   0.4854   1.0591   0.8389  -0.2318  -0.7853  -0.1968   0.00    2.5
2173 301479.000    807700.0167  -5649860.6683   2837755.6894   2   7   0.4854   1.0591   0.8388  -0.2319  -0.7853  -0.1967   0.00    1.8
2173 301480.000    807700.0101  -5649860.4652   2837755.5393   2   7   0.4854   1.0591   0.8388  -0.2320  -0.7853  -0.1966   0.00    2.0
2173 301481.000    807700.0558  -5649860.4005   2837755.5494   2   7   0.4854   1.0592   0.8388  -0.2321  -0.7853  -0.1964   0.00    2.2
2173 301482.000    807700.0583  -5649860.4481   2837755.5728   2   7   0.4853   1.0592   0.8388  -0.2322  -0.7853  -0.1963   0.00    2.3
2173 301483.000    807700.0464  -5649860.5643   2837755.6146   2   7   0.4853   1.0592   0.8388  -0.2323  -0.7853  -0.1962   0.00    2.0
2173 301484.000    807699.9904  -5649860.5419   2837755.6763   2   7   0.4853   1.0593   0.8387  -0.2324  -0.7853  -0.1961   0.00    2.0
2173 301485.000    807699.9456  -5649860.5833   2837755.6936   2   7   0.4853   1.0593   0.8387  -0.2325  -0.7853  -0.1960   0.00    1.8
2173 301486.000    807700.0133  -5649860.7307   2837755.7847   2   7   0.4853   1.0593   0.8387  -0.2326  -0.7853  -0.1959   0.00    2.0
2173 301487.000    807700.0277  -5649860.6003   2837755.7120   2   7   0.4852   1.0594   0.8387  -0.2327  -0.7853  -0.1957   0.00    1.9
2173 301488.000    807700.0321  -5649860.6262   2837755.6805   2   7   0.4852   1.0594   0.8387  -0.2328  -0.7853  -0.1956   0.00    1.9
2173 301489.000    807700.1101  -5649860.4941   2837755.5812   2   7   0.4852   1.0595   0.8386  -0.2329  -0.7853  -0.1955   0.00    2.3
2173 301490.000    807700.0550  -5649860.4561   2837755.5892   2   7   0.4852   1.0595   0.8386  -0.2330  -0.7853  -0.1954   0.00    2.1
2173 301491.000    807700.0521  -5649860.3564   2837755.5626   2   7   0.4852   1.0595   0.8386  -0.2331  -0.7853  -0.1953   0.00    2.3
2173 301492.000    807700.0041  -5649860.4461   2837755.6121   2   7   0.4851   1.0596   0.8386  -0.2332  -0.7853  -0.1951   0.00    1.9
2173 301493.000    807700.0014  -5649860.4382   2837755.5523   2   7   0.4851   1.0596   0.8386  -0.2333  -0.7853  -0.1950   0.00    1.9
2173 301494.000    807699.9760  -5649860.4296   2837755.5489   2   7   0.4851   1.0596   0.8385  -0.2334  -0.7853  -0.1949   0.00    2.1
2173 301495.000    807700.0215  -5649860.5464   2837755.5440   2   7   0.4851   1.0597   0.8385  -0.2334  -0.7853  -0.1948   0.00    2.2
2173 301496.000    807699.9873  -5649860.5593   2837755.5794   2   7   0.4851   1.0597   0.8385  -0.2335  -0.7853  -0.1947   0.00    1.8
2173 301497.000    807700.0362  -5649860.7084   2837755.5923   2   7   0.4850   1.0597   0.8385  -0.2336  -0.7853  -0.1945   0.00    2.0
2173 301498.000    807700.0871  -5649860.7819   2837755.6728   2   7   0.4850   1.0598   0.8385  -0.2337  -0.7853  -0.1944   0.00    1.9
2173 301499.000    807700.1216  -5649860.6944   2837755.7014   2   7   0.4850   1.0598   0.8384  -0.2338  -0.7853  -0.1943   0.00    2.1
2173 301500.000    807700.1968  -5649860.5820   2837755.6051   2   7   0.4850   1.0598   0.8384  -0.2339  -0.7853  -0.1942   0.00    2.1
2173 301501.000    807700.1649  -5649860.7357   2837755.6854   2   7   0.4850   1.0599   0.8384  -0.2340  -0.7853  -0.1940   0.00    1.9
2173 301502.000    807700.1393  -5649860.7418   2837755.7430   2   7   0.4850   1.0599   0.8384  -0.2341  -0.7853  -0.1939   0.00    1.9
2173 301503.000    807700.1427  -5649860.7569   2837755.7766   2   7   0.4849   1.0599   0.8384  -0.2342  -0.7853  -0.1938   0.00    2.2
2173 301504.000    807700.0923  -5649860.8191   2837755.8185   2   7   0.4849   1.0600   0.8383  -0.2343  -0.7853  -0.1937   0.00    2.1
2173 301505.000    807700.1125  -5649860.8834   2837755.7807   2   7   0.4849   1.0600   0.8383  -0.2344  -0.7853  -0.1936   0.00    2.3
2173 301506.000    807700.1191  -5649860.9398   2837755.7595   2   7   0.4849   1.0600   0.8383  -0.2345  -0.7853  -0.1934   0.00    2.2
2173 301507.000    807700.1074  -5649860.7646   2837755.6576   2   7   0.4849   1.0601   0.8383  -0.2346  -0.7853  -0.1933   0.00    2.1
2173 301508.000    807700.1247  -5649860.8157   2837755.7341   2   7   0.4848   1.0601   0.8382  -0.2347  -0.7853  -0.1932   0.00    2.1
2173 301509.000    807700.1412  -5649860.7812   2837755.7218   2   7   0.4848   1.0601   0.8382  -0.2348  -0.7853  -0.1931   0.00    2.1
2173 301510.000    807700.0908  -5649860.8255   2837755.8307   2   7   0.4848   1.0602   0.8382  -0.2349  -0.7853  -0.1930   0.00    2.0
2173 301511.000    807700.0847  -5649860.8142   2837755.8217   2   7   0.4848   1.0602   0.8382  -0.2350  -0.7853  -0.1928   0.00    2.1
2173 301512.000    807700.0948  -5649860.8030   2837755.8265   2   7   0.4848   1.0602   0.8382  -0.2351  -0.7853  -0.1927   0.00    2.0
2173 301513.000    807700.1114  -5649860.9008   2837755.8502   2   7   0.4847   1.0603   0.8381  -0.2352  -0.7853  -0.1926   0.00    1.8
2173 301514.000    807700.1237  -5649860.9411   2837755.8938   2   7   0.4847   1.0603   0.8381  -0.2353  -0.7854  -0.1925   0.00    2.1
2173 301515.000    807700.0993  -5649860.9905   2837755.8862   2   7   0.4847   1.0604   0.8381  -0.2354  -0.7854  -0.1923   0.00    2.1
2173 301516.000    807700.1158  -5649860.8737   2837755.8008   2   7   0.4847   1.0604   0.8381  -0.2355  -0.7854  -0.1922   0.00    2.3
2173 301517.000    807700.0991  -5649860.8967   2837755.8355   2   7   0.4847   1.0604   0.8381  -0.2356  -0.7854  -0.1921   0.00    2.2
2173 301518.000    807700.0718  -5649860.7361   2837755.8198   2   7   0.4846   1.0605   0.8380  -0.2357  -0.7854  -0.1920   0.00    2.1
2173 301519.000    807700.0937  -5649860.7447   2837755.7935   2   7   0.4846   1.0605   0.8380  -0.2357  -0.7854  -0.1919   0.00    2.1
2173 301520.000    807700.1364  -5649860.7837   2837755.8307   2   7   0.4846   1.0605   0.8380  -0.2358  -0.7854  -0.1917   0.00    2.1
2173 301521.000    807700.1188  -5649860.9870   2837755.9519   2   7   0.4846   1.0606   0.8380  -0.2359  -0.7854  -0.1916   0.00    2.1
2173 301522.000    807700.1374  -5649861.0479   2837756.0400   2   7   0.4846   1.0606   0.8379  -0.2360  -0.7854  -0.1915   0.00    2.3
2173 301523.000    807700.1296  -5649860.8960   2837755.9869   2   7   0.4845   1.0606   0.8379  -0.2361  -0.7854  -0.1914   0.00    2.2
2173 301524.000    807700.1603  -5649861.1053   2837756.1256   2   7   0.4845   1.0607   0.8379  -0.2362  -0.7854  -0.1912   0.00    2.1
2173 301525.000    807700.1510  -5649861.0062   2837756.1347   2   7   0.4845   1.0607   0.8379  -0.2363  -0.7854  -0.1911   0.00    2.3
2173 301526.000    807700.1270  -5649860.9302   2837756.1514   2   7   0.4845   1.0607   0.8379  -0.2364  -0.7854  -0.1910   0.00    1.8
2173 301527.000    807700.1361  -5649860.8810   2837756.0952   2   7   0.4845   1.0608   0.8378  -0.2365  -0.7854  -0.1909   0.00    2.3
2173 301528.000    807700.1063  -5649861.0765   2837756.1620   2   7   0.4845   1.0608   0.8378  -0.2366  -0.7854  -0.1907   0.00    2.2
2173 301529.000    807700.1168  -5649860.8984   2837756.0249   2   7   0.4844   1.0608   0.8378  -0.2367  -0.7854  -0.1906   0.00    2.2
2173 301530.000    807700.1133  -5649861.0070   2837756.0917   2   7   0.4844   1.0609   0.8378  -0.2368  -0.7854  -0.1905   0.00    1.9
2173 301531.000    807700.1719  -5649860.9724   2837756.0570   2   7   0.4844   1.0609   0.8377  -0.2369  -0.7854  -0.1904   0.00    2.1
2173 301532.000    807700.2229  -5649860.9364   2837755.9907   2   7   0.4844   1.0610   0.8377  -0.2370  -0.7854  -0.1902   0.00    2.4
2173 301533.000    807700.2846  -5649861.0042   2837756.0058   2   7   0.4844   1.0610   0.8377  -0.2371  -0.7854  -0.1901   0.00    2.0
2173 301534.000    807700.2722  -5649860.9361   2837755.9119   2   7   0.4843   1.0610   0.8377  -0.2372  -0.7854  -0.1900   0.00    2.2
2173 301535.000    807700.2322  -5649861.0297   2837755.9275   2   7   0.4843   1.0611   0.8377  -0.2373  -0.7854  -0.1899   0.00    2.5
2173 301536.000    807700.3220  -5649860.9973   2837755.8735   2   7   0.4843   1.0611   0.8376  -0.2374  -0.7854  -0.1897   0.00    2.0
2173 301537.000    807700.3756  -5649861.0575   2837755.8749   2   7   0.4843   1.0611   0.8376  -0.2375  -0.7854  -0.1896   0.00    2.1
2173 301538.000    807700.3850  -5649861.1074   2837755.9017   2   7   0.4843   1.0612   0.8376  -0.2376  -0.7854  -0.1895   0.00    2.2
2173 301539.000    807700.3911  -5649860.9939   2837755.8588   2   7   0.4842   1.0612   0.8376  -0.2377  -0.7854  -0.1894   0.00    2.1
2173 301540.000    807700.3785  -5649861.0672   2837755.8897   2   7   0.4842   1.0612   0.8375  -0.2378  -0.7854  -0.1892   0.00    1.9
2173 301541.000    807700.3402  -5649860.9572   2837755.8662   2   7   0.4842   1.0613   0.8375  -0.2379  -0.7854  -0.1891   0.00    2.3
2173 301542.000    807700.2851  -5649860.9653   2837755.8873   2   7   0.4842   1.0613   0.8375  -0.2380  -0.7854  -0.1890   0.00    2.3
2173 301543.000    807700.2673  -5649860.9354   2837755.8160   2   7   0.4842   1.0613   0.8375  -0.2381  -0.7854  -0.1889   0.00    2.2
2173 301544.000    807700.2318  -5649861.0981   2837755.9446   2   7   0.4841   1.0614   0.8374  -0.2382  -0.7854  -0.1887   0.00    2.1
2173 301545.000    807700.1956  -5649861.0478   2837755.8748   2   7   0.4841   1.0614   0.8374  -0.2383  -0.7854  -0.1886   0.00    2.4
2173 301546.000    807700.1801  -5649860.9695   2837755.8172   2   7   0.4841   1.0614   0.8374  -0.2384  -0.7854  -0.1885   0.00    2.2
2173 301547.000    807700.1906  -5649860.8228   2837755.7621   2   7   0.4841   1.0615   0.8374  -0.2385  -0.7854  -0.1884   0.00    2.1
2173 301548.000    807700.2014  -5649860.8660   2837755.8023   2   7   0.4841   1.0615   0.8374  -0.2386  -0.7854  -0.1882   0.00    2.2
2173 301549.000    807700.2298  -5649860.7600   2837755.6836   2   7   0.4841   1.0616   0.8373  -0.2387  -0.7854  -0.1881   0.00    2.2
2173 301550.000    807700.2865  -5649860.7670   2837755.6496   2   7   0.4840   1.0616   0.8373  -0.2387  -0.7854  -0.1880   0.00    2.1
2173 301551.000    807700.2667  -5649860.9103   2837755.7076   2   7   0.4840   1.0616   0.8373  -0.2388  -0.7854  -0.1878   0.00    2.3
2173 301552.000    807700.2849  -5649860.9563   2837755.7844   2   7   0.4840   1.0617   0.8373  -0.2389  -0.7854  -0.1877   0.00    1.8
2173 301553.000    807700.2711  -5649860.9838   2837755.7491   2   7   0.4840   1.0617   0.8372  -0.2390  -0.7854  -0.1876   0.00    2.3
2173 301554.000    807700.2812  -5649861.0988   2837755.8346   2   7   0.4840   1.0617   0.8372  -0.2391  -0.7854  -0.1875   0.00    2.3
2173 301555.000    807700.3111  -5649861.0213   2837755.7783   2   7   0.4839   1.0618   0.8372  -0.2392  -0.7854  -0.1873   0.00    2.0
2173 301556.000    807700.2708  -5649861.0583   2837755.8185   2   7   0.4839   1.0618   0.8372  -0.2393  -0.7854  -0.1872   0.00    2.3
2173 301557.000    807700.2568  -5649860.9297   2837755.7235   2   7   0.4839   1.0618   0.8371  -0.2394  -0.7854  -0.1871   0.00    2.4
2173 301558.000    807700.2437  -5649861.0081   2837755.8187   2   7   0.4839   1.0619   0.8371  -0.2395  -0.7854  -0.1870   0.00    2.4
2173 301559.000    807700.2556  -5649861.1086   2837755.8481   2   7   0.4839   1.0619   0.8371  -0.2396  -0.7854  -0.1868   0.00    2.2
2173 301560.000    807700.2424  -5649861.0112   2837755.8095   2   7   0.4838   1.0620   0.8371  -0.2397  -0.7854  -0.1867   0.00    2.3
2173 301561.000    807700.2540  -5649860.8831   2837755.6229   2   7   0.4838   1.0620   0.8370  -0.2398  -0.7854  -0.1866   0.00    2.3
2173 301562.000    807700.2820  -5649860.8479   2837755.5308   2   7   0.4838   1.0620   0.8370  -0.2399  -0.7854  -0.1864   0.00    2.0
2173 301563.000    807700.2850  -5649860.9476   2837755.5259   2   7   0.4838   1.0621   0.8370  -0.2400  -0.7854  -0.1863   0.00    2.3
2173 301564.000    807700.2718  -5649860.8992   2837755.4844   2   7   0.4838   1.0621   0.8370  -0.2401  -0.7854  -0.1862   0.00    2.0
2173 301565.000    807700.2914  -5649860.7987   2837755.4595   2   7   0.4838   1.0621   0.8369  -0.2402  -0.7854  -0.1861   0.00    2.1
2173 301566.000    807700.2738  -5649860.8083   2837755.4786   2   7   0.4837   1.0622   0.8369  -0.2403  -0.7854  -0.1859   0.00    2.5
2173 301567.000    807700.2590  -5649860.6028   2837755.4231   2   7   0.4837   1.0622   0.8369  -0.2404  -0.7854  -0.1858   0.00    2.6
2173 301568.000    807700.2532  -5649860.7061   2837755.5096   2   7   0.4837   1.0622   0.8369  -0.2405  -0.7854  -0.1857   0.00    2.5
2173 301569.000    807700.2574  -5649860.7912   2837755.5023   2   7   0.4837   1.0623   0.8368  -0.2406  -0.7854  -0.1855   0.00    2.4
2173 301570.000    807700.1895  -5649860.8100   2837755.5663   2   7   0.4837   1.0623   0.8368  -0.2407  -0.7854  -0.1854   0.00    2.4
2173 301571.000    807700.1983  -5649860.7511   2837755.5232   2   7   0.4836   1.0624   0.8368  -0.2408  -0.7854  -0.1853   0.00    2.5
2173 301572.000    807700.2036  -5649860.8411   2837755.5229   2   7   0.4836   1.0624   0.8368  -0.2409  -0.7854  -0.1852   0.00    2.7
2173 301573.000    807700.1988  -5649860.7775   2837755.5180   2   7   0.4836   1.0624   0.8368  -0.2410  -0.7854  -0.1850   0.00    2.4
2173 301574.000    807700.2558  -5649860.8768   2837755.5104   2   7   0.4836   1.0625   0.8367  -0.2411  -0.7854  -0.1849   0.00    2.4
2173 301575.000    807700.2574  -5649860.8411   2837755.4681   2   7   0.4836   1.0625   0.8367  -0.2412  -0.7854  -0.1848   0.00    2.1
2173 301576.000    807700.2444  -5649860.9116   2837755.4429   2   7   0.4835   1.0625   0.8367  -0.2413  -0.7854  -0.1846   0.00    2.4
2173 301577.000    807700.1460  -5649861.0618   2837755.5423   2   7   0.4835   1.0626   0.8367  -0.2414  -0.7854  -0.1845   0.00    2.7
2173 301578.000    807700.1841  -5649860.9263   2837755.4351   2   7   0.4835   1.0626   0.8366  -0.2415  -0.7854  -0.1844   0.00    2.4
2173 301579.000    807700.1324  -5649860.9623   2837755.4903   2   7   0.4835   1.0626   0.8366  -0.2416  -0.7854  -0.1842   0.00    2.3
2173 301580.000    807700.0898  -5649860.8716   2837755.4486   2   7   0.4835   1.0627   0.8366  -0.2417  -0.7854  -0.1841   0.00    2.5
2173 301581.000    807700.0979  -5649860.9921   2837755.5535   2   7   0.4835   1.0627   0.8366  -0.2418  -0.7854  -0.1840   0.00    2.5
2173 301582.000    807700.0737  -5649860.9768   2837755.5349   2   7   0.4834   1.0628   0.8365  -0.2419  -0.7854  -0.1838   0.00    2.5
2173 301583.000    807700.0890  -5649860.9632   2837755.4849   2   7   0.4834   1.0628   0.8365  -0.2420  -0.7854  -0.1837   0.00    2.3
2173 301584.000    807700.0986  -5649861.1046   2837755.5245   2   7   0.4834   1.0628   0.8365  -0.2421  -0.7854  -0.1836   0.00    2.4
2173 301585.000    807700.1187  -5649861.2172   2837755.5762   2   7   0.4834   1.0629   0.8365  -0.2422  -0.7854  -0.1835   0.00    2.4
2173 301586.000    807700.1168  -5649861.2537   2837755.5987   2   7   0.4834   1.0629   0.8364  -0.2423  -0.7854  -0.1833   0.00    2.4
2173 301587.000    807700.0898  -5649861.3546   2837755.6655   2   7   0.4833   1.0629   0.8364  -0.2424  -0.7854  -0.1832   0.00    2.2
2173 301588.000    807700.0964  -5649861.4492   2837755.7186   2   7   0.4833   1.0630   0.8364  -0.2425  -0.7854  -0.1831   0.00    2.2
2173 301589.000    807700.0907  -5649861.4266   2837755.7446   2   7   0.4833   1.0630   0.8364  -0.2426  -0.7854  -0.1829   0.00    2.1
2173 301590.000    807700.0391  -5649861.5165   2837755.8100   2   7   0.4833   1.0630   0.8363  -0.2427  -0.7854  -0.1828   0.00    2.2
2173 301591.000    807700.0600  -5649861.5164   2837755.7791   2   7   0.4833   1.0631   0.8363  -0.2428  -0.7854  -0.1827   0.00    2.3
2173 301592.000    807700.0428  -5649861.6157   2837755.8598   2   7   0.4833   1.0631   0.8363  -0.2429  -0.7854  -0.1825   0.00    2.3
2173 301593.000    807700.0713  -5649861.5898   2837755.8473   2   7   0.4832   1.0632   0.8362  -0.2430  -0.7853  -0.1824   0.00    2.2
2173 301594.000    807700.0887  -5649861.5053   2837755.8147   2   7   0.4832   1.0632   0.8362  -0.2431  -0.7853  -0.1823   0.00    2.4
2173 301595.000    807700.0687  -5649861.4786   2837755.8911   2   7   0.4832   1.0632   0.8362  -0.2431  -0.7853  -0.1821   0.00    2.0
2173 301596.000    807699.9516  -5649861.4637   2837755.8785   2   7   0.4832   1.0633   0.8362  -0.2432  -0.7853  -0.1820   0.00    2.2
2173 301597.000    807699.9788  -5649861.4815   2837755.8529   2   7   0.4832   1.0633   0.8361  -0.2433  -0.7853  -0.1819   0.00    2.1
2173 301598.000    807699.9548  -5649861.5643   2837755.8527   2   7   0.4831   1.0633   0.8361  -0.2434  -0.7853  -0.1817   0.00    2.4
2173 301599.000    807699.9374  -5649861.6793   2837755.9780   2   7   0.4831   1.0634   0.8361  -0.2435  -0.7853  -0.1816   0.00    2.2
2173 301600.000    807699.9576  -5649861.8521   2837756.0315   2   7   0.4831   1.0634   0.8361  -0.2436  -0.7853  -0.1815   0.00    2.1
2173 301601.000    807699.9034  -5649861.8196   2837756.0087   2   7   0.4831   1.0635   0.8360  -0.2437  -0.7853  -0.1813   0.00    2.0
2173 301602.000    807699.8875  -5649861.7719   2837755.9764   2   7   0.4831   1.0635   0.8360  -0.2438  -0.7853  -0.1812   0.00    2.2
2173 301603.000    807699.9188  -5649861.7042   2837756.0067   2   7   0.4831   1.0635   0.8360  -0.2439  -0.7853  -0.1811   0.00    1.8
2173 301604.000    807699.8889  -5649861.6408   2837755.9469   2   7   0.4830   1.0636   0.8360  -0.2440  -0.7853  -0.1809   0.00    2.0
2173 301605.000    807699.8261  -5649861.6426   2837755.9571   2   7   0.4830   1.0636   0.8359  -0.2441  -0.7853  -0.1808   0.00    2.0
2173 301606.000    807699.8045  -5649861.5858   2837755.9388   2   7   0.4830   1.0636   0.8359  -0.2442  -0.7853  -0.1807   0.00    2.1
2173 301607.000    807699.8372  -5649861.6194   2837755.9968   2   7   0.4830   1.0637   0.8359  -0.2443  -0.7853  -0.1805   0.00    2.2
2173 301608.000    807699.8272  -5649861.6439   2837756.1067   2   7   0.4830   1.0637   0.8359  -0.2444  -0.7853  -0.1804   0.00    2.2
2173 301609.000    807699.8157  -5649861.5943   2837756.1254   2   7   0.4829   1.0638   0.8358  -0.2445  -0.7853  -0.1803   0.00    1.8
2173 301610.000    807699.8376  -5649861.5315   2837756.0392   2   7   0.4829   1.0638   0.8358  -0.2446  -0.7853  -0.1801   0.00    1.7
2173 301611.000    807699.8569  -5649861.4889   2837756.0176   2   7   0.4829   1.0638   0.8358  -0.2447  -0.7853  -0.1800   0.00    2.1
2173 301612.000    807699.8125  -5649861.6068   2837756.1241   2   7   0.4829   1.0639   0.8358  -0.2448  -0.7853  -0.1799   0.00    1.9
2173 301613.000    807699.8247  -5649861.6045   2837756.1438   2   7   0.4829   1.0639   0.8357  -0.2449  -0.7853  -0.1797   0.00    2.0
2173 301614.000    807699.9114  -5649861.8832   2837756.2696   2   7   0.4829   1.0639   0.8357  -0.2450  -0.7853  -0.1796   0.00    1.9
2173 301615.000    807699.9144  -5649861.7305   2837756.2074   2   7   0.4828   1.0640   0.8357  -0.2451  -0.7853  -0.1794   0.00    1.7
2173 301616.000    807699.8282  -5649861.6490   2837756.2074   2   7   0.4828   1.0640   0.8356  -0.2452  -0.7853  -0.1793   0.00    1.9
2173 301617.000    807699.8001  -5649861.5274   2837756.0637   2   7   0.4828   1.0641   0.8356  -0.2453  -0.7853  -0.1792   0.00    1.8
2173 301618.000    807699.7966  -5649861.4193   2837755.9177   2   7   0.4828   1.0641   0.8356  -0.2454  -0.7853  -0.1790   0.00    1.8
2173 301619.000    807699.8100  -5649861.4217   2837755.9377   2   7   0.4828   1.0641   0.8356  -0.2455  -0.7853  -0.1789   0.00    1.9
2173 301620.000    807699.7560  -5649861.2700   2837755.9134   2   7   0.4827   1.0642   0.8355  -0.2456  -0.7853  -0.1788   0.00    1.8
2173 301621.000    807699.7676  -5649861.3006   2837755.9481   2   7   0.4827   1.0642   0.8355  -0.2457  -0.7853  -0.1786   0.00    1.8
2173 301622.000    807699.7769  -5649861.3033   2837755.9125   2   7   0.4827   1.0642   0.8355  -0.2458  -0.7853  -0.1785   0.00    1.8
2173 301623.000    807699.7821  -5649861.3018   2837755.9488   2   7   0.4827   1.0643   0.8355  -0.2459  -0.7853  -0.1784   0.00    1.8
2173 301624.000    807699.8418  -5649861.3597   2837755.9737   2   7   0.4827   1.0643   0.8354  -0.2460  -0.7853  -0.1782   0.00    1.7
2173 301625.000    807699.8172  -5649861.4033   2837756.0265   2   7   0.4827   1.0644   0.8354  -0.2461  -0.7853  -0.1781   0.00    1.7
2173 301626.000    807699.7581  -5649861.3768   2837756.0344   2   7   0.4826   1.0644   0.8354  -0.2462  -0.7853  -0.1780   0.00    1.8
2173 301627.000    807699.7731  -5649861.2587   2837755.9251   2   7   0.4826   1.0644   0.8354  -0.2463  -0.7853  -0.1778   0.00    1.6
2173 301628.000    807699.7705  -5649861.2549   2837755.9429   2   7   0.4826   1.0645   0.8353  -0.2464  -0.7853  -0.1777   0.00    1.6
2173 301629.000    807699.7317  -5649861.2170   2837755.9570   2   7   0.4826   1.0645   0.8353  -0.2465  -0.7853  -0.1775   0.00    1.5
2173 301630.000    807699.7638  -5649861.2794   2837755.9819   2   7   0.4826   1.0645   0.8353  -0.2466  -0.7853  -0.1774   0.00    1.4
2173 301631.000    807699.8240  -5649861.2571   2837755.9195   2   7   0.4825   1.0646   0.8352  -0.2467  -0.7853  -0.1773   0.00    1.6
2173 301632.000    807699.7796  -5649861.3693   2837756.0004   2   7   0.4825   1.0646   0.8352  -0.2468  -0.7853  -0.1771   0.00    1.6
2173 301633.000    807699.8315  -5649861.3213   2837755.8960   2   7   0.4825   1.0647   0.8352  -0.2469  -0.7853  -0.1770   0.00    1.5
2173 301634.000    807699.7984  -5649861.4049   2837755.9089   2   7   0.4825   1.0647   0.8352  -0.2470  -0.7853  -0.1769   0.00    1.7
2173 301635.000    807699.7972  -5649861.5542   2837755.9527   2   7   0.4825   1.0647   0.8351  -0.2471  -0.7853  -0.1767   0.00    1.5
2173 301636.000    807699.7935  -5649861.4800   2837755.8981   2   7   0.4825   1.0648   0.8351  -0.2472  -0.7853  -0.1766   0.00    1.9
2173 301637.000    807699.7931  -5649861.3636   2837755.8410   2   7   0.4824   1.0648   0.8351  -0.2473  -0.7853  -0.1764   0.00    1.8
2173 301638.000    807699.7686  -5649861.4206   2837755.9171   2   7   0.4824   1.0648   0.8351  -0.2474  -0.7853  -0.1763   0.00    1.6
2173 301639.000    807699.7405  -5649861.3480   2837755.8797   2   7   0.4824   1.0649   0.8350  -0.2475  -0.7853  -0.1762   0.00    1.8
2173 301640.000    807699.7201  -5649861.3540   2837755.9362   2   7   0.4824   1.0649   0.8350  -0.2476  -0.7852  -0.1760   0.00    1.8
2173 301641.000    807699.6918  -5649861.3500   2837755.9081   2   7   0.4824   1.0650   0.8350  -0.2477  -0.7852  -0.1759   0.00    1.7
2173 301642.000    807699.7229  -5649861.3098   2837755.9308   2   7   0.4823   1.0650   0.8349  -0.2478  -0.7852  -0.1757   0.00    1.7
2173 301643.000    807699.6895  -5649861.4017   2837756.0369   2   7   0.4823   1.0650   0.8349  -0.2479  -0.7852  -0.1756   0.00    1.7
2173 301644.000    807699.6949  -5649861.4491   2837756.0810   2   7   0.4823   1.0651   0.8349  -0.2480  -0.7852  -0.1755   0.00    1.6
2173 301645.000    807699.6831  -5649861.4489   2837756.0456   2   7   0.4823   1.0651   0.8349  -0.2481  -0.7852  -0.1753   0.00    1.6
2173 301646.000    807699.7077  -5649861.3387   2837755.9729   2   7   0.4823   1.0652   0.8348  -0.2482  -0.7852  -0.1752   0.00    1.5
2173 301647.000    807699.7125  -5649861.3081   2837756.0034   2   7   0.4823   1.0652   0.8348  -0.2483  -0.7852  -0.1750   0.00    1.6
2173 301648.000    807699.7399  -5649861.2713   2837755.9976   2   7   0.4822   1.0652   0.8348  -0.2484  -0.7852  -0.1749   0.00    1.6
2173 301649.000    807699.7999  -5649861.2497   2837755.9173   2   7   0.4822   1.0653   0.8347  -0.2485  -0.7852  -0.1748   0.00    1.9
2173 301650.000    807699.8164  -5649861.2829   2837755.8648   2   7   0.4822   1.0653   0.8347  -0.2486  -0.7852  -0.1746   0.00    1.6
2173 301651.000    807699.8631  -5649861.2987   2837755.8407   2   7   0.4822   1.0653   0.8347  -0.2487  -0.7852  -0.1745   0.00    1.8
2173 301652.000    807699.8669  -5649861.3871   2837755.8892   2   7   0.4822   1.0654   0.8347  -0.2488  -0.7852  -0.1743   0.00    1.5
2173 301653.000    807699.8726  -5649861.3416   2837755.8071   2   7   0.4822   1.0654   0.8346  -0.2489  -0.7852  -0.1742   0.00    1.9
2173 301654.000    807699.8720  -5649861.2651   2837755.8014   2   7   0.4821   1.0655   0.8346  -0.2490  -0.7852  -0.1741   0.00    1.6
2173 301655.000    807699.8518  -5649861.2817   2837755.7969   2   7   0.4821   1.0655   0.8346  -0.2491  -0.7852  -0.1739   0.00    1.7
2173 301656.000    807699.8211  -5649861.3691   2837755.9931   2   7   0.4821   1.0655   0.8345  -0.2492  -0.7852  -0.1738   0.00    1.5
2173 301657.000    807699.8364  -5649861.2970   2837755.9333   2   7   0.4821   1.0656   0.8345  -0.2493  -0.7852  -0.1736   0.00    1.6
2173 301658.000    807699.8724  -5649861.1488   2837755.8321   2   7   0.4821   1.0656   0.8345  -0.2494  -0.7852  -0.1735   0.00    1.6
2173 301659.000    807699.8859  -5649861.0826   2837755.8407   2   7   0.4820   1.0657   0.8345  -0.2495  -0.7852  -0.1734   0.00    1.6
2173 301660.000    807699.8942  -5649861.2140   2837755.9266   2   7   0.4820   1.0657   0.8344  -0.2496  -0.7852  -0.1732   0.00    1.7
2173 301661.000    807699.8916  -5649861.1623   2837755.9236   2   7   0.4820   1.0657   0.8344  -0.2497  -0.7852  -0.1731   0.00    1.5
2173 301662.000    807699.8989  -5649861.0975   2837755.9847   2   7   0.4820   1.0658   0.8344  -0.2498  -0.7852  -0.1729   0.00    1.7
2173 301663.000    807699.9102  -5649861.0647   2837755.9876   2   7   0.4820   1.0658   0.8343  -0.2499  -0.7852  -0.1728   0.00    1.4
2173 301664.000    807699.8966  -5649860.9930   2837755.8807   2   7   0.4820   1.0658   0.8343  -0.2500  -0.7852  -0.1726   0.00    1.7
2173 301665.000    807699.8516  -5649861.0499   2837755.9216   2   7   0.4819   1.0659   0.8343  -0.2501  -0.7852  -0.1725   0.00    1.6
2173 301666.000    807699.8056  -5649861.1590   2837756.0262   2   7   0.4819   1.0659   0.8343  -0.2502  -0.7852  -0.1724   0.00    1.6
2173 301667.000    807699.7890  -5649861.1450   2837755.9891   2   7   0.4819   1.0660   0.8342  -0.2503  -0.7852  -0.1722   0.00    1.6
2173 301668.000    807699.7546  -5649861.1930   2837756.0339   2   7   0.4819   1.0660   0.8342  -0.2504  -0.7852  -0.1721   0.00    1.6
2173 301669.000    807699.7554  -5649861.1988   2837756.0417   2   7   0.4819   1.0660   0.8342  -0.2505  -0.7851  -0.1719   0.00    1.7
2173 301670.000    807699.7949  -5649861.3238   2837756.1276   2   7   0.4819   1.0661   0.8341  -0.2506  -0.7851  -0.1718   0.00    1.7
2173 301671.000    807699.8439  -5649861.3620   2837756.1868   2   7   0.4818   1.0661   0.8341  -0.2507  -0.7851  -0.1716   0.00    1.6
2173 301672.000    807699.8316  -5649861.3956   2837756.2690   2   7   0.4818   1.0662   0.8341  -0.2508  -0.7851  -0.1715   0.00    1.9
2173 301673.000    807699.8823  -5649861.5275   2837756.4021   2   7   0.4818   1.0662   0.8341  -0.2509  -0.7851  -0.1714   0.00    1.7
2173 301674.000    807699.9217  -5649861.5703   2837756.4801   2   7   0.4818   1.0662   0.8340  -0.2510  -0.7851  -0.1712   0.00    1.8
2173 301675.000    807699.9111  -5649861.5052   2837756.4347   2   7   0.4818   1.0663   0.8340  -0.2511  -0.7851  -0.1711   0.00    1.7
2173 301676.000    807699.9121  -5649861.6158   2837756.5073   2   7   0.4817   1.0663   0.8340  -0.2512  -0.7851  -0.1709   0.00    1.5
2173 301677.000    807699.8793  -5649861.4782   2837756.4310   2   7   0.4817   1.0664   0.8339  -0.2513  -0.7851  -0.1708   0.00    1.7
2173 301678.000    807699.8346  -5649861.4353   2837756.3855   2   7   0.4817   1.0664   0.8339  -0.2514  -0.7851  -0.1706   0.00    1.5
2173 301679.000    807699.8103  -5649861.3775   2837756.3056   2   7   0.4817   1.0664   0.8339  -0.2515  -0.7851  -0.1705   0.00    2.0
2173 301680.000    807699.7970  -5649861.5288   2837756.3551   2   7   0.4817   1.0665   0.8338  -0.2516  -0.7851  -0.1703   0.00    2.2
2173 301681.000    807699.8256  -5649861.4274   2837756.2618   2   7   0.4817   1.0665   0.8338  -0.2517  -0.7851  -0.1702   0.00    2.1
2173 301682.000    807699.8278  -5649861.3544   2837756.2595   2   7   0.4816   1.0666   0.8338  -0.2518  -0.7851  -0.1701   0.00    1.8
2173 301683.000    807699.8540  -5649861.1252   2837756.1476   2   7   0.4816   1.0666   0.8338  -0.2519  -0.7851  -0.1699   0.00    1.7
2173 301684.000    807699.8267  -5649861.1558   2837756.1813   2   7   0.4816   1.0666   0.8337  -0.2520  -0.7851  -0.1698   0.00    1.7
2173 301685.000    807699.8426  -5649861.2205   2837756.2087   2   7   0.4816   1.0667   0.8337  -0.2521  -0.7851  -0.1696   0.00    2.1
2173 301686.000    807699.8292  -5649861.2540   2837756.2746   2   7   0.4816   1.0667   0.8337  -0.2522  -0.7851  -0.1695   0.00    2.0
2173 301687.000    807699.8237  -5649861.2035   2837756.2550   2   7   0.4816   1.0667   0.8336  -0.2523  -0.7851  -0.1693   0.00    1.7
2173 301688.000    807699.8035  -5649861.1908   2837756.2586   2   7   0.4815   1.0668   0.8336  -0.2524  -0.7851  -0.1692   0.00    1.7
2173 301689.000    807699.8440  -5649861.1249   2837756.1837   2   7   0.4815   1.0668   0.8336  -0.2525  -0.7851  -0.1690   0.00    1.9
2173 301690.000    807699.8161  -5649861.2133   2837756.2447   2   7   0.4815   1.0669   0.8335  -0.2526  -0.7851  -0.1689   0.00    2.2
2173 301691.000    807699.8725  -5649861.2966   2837756.2910   2   7   0.4815   1.0669   0.8335  -0.2527  -0.7851  -0.1687   0.00    2.0
2173 301692.000    807699.8788  -5649861.2934   2837756.3236   2   7   0.4815   1.0669   0.8335  -0.2528  -0.7851  -0.1686   0.00    2.3
2173 301693.000    807699.8181  -5649861.1081   2837756.2832   2   7   0.4815   1.0670   0.8335  -0.2529  -0.7850  -0.1684   0.00    2.2
2173 301694.000    807699.8079  -5649861.0584   2837756.2383   2   7   0.4814   1.0670   0.8334  -0.2530  -0.7850  -0.1683   0.00    2.2
2173 301695.000    807699.8490  -5649861.1529   2837756.2330   2   7   0.4814   1.0671   0.8334  -0.2531  -0.7850  -0.1682   0.00    2.1
2173 301696.000    807699.8257  -5649861.2164   2837756.3277   2   7   0.4814   1.0671   0.8334  -0.2532  -0.7850  -0.1680   0.00    2.1
2173 301697.000    807699.8192  -5649861.2455   2837756.3412   2   7   0.4814   1.0671   0.8333  -0.2533  -0.7850  -0.1679   0.00    1.8
2173 301698.000    807699.8064  -5649861.1837   2837756.2584   2   7   0.4814   1.0672   0.8333  -0.2534  -0.7850  -0.1677   0.00    2.1
2173 301699.000    807699.7945  -5649861.0618   2837756.2004   2   7   0.4813   1.0672   0.8333  -0.2535  -0.7850  -0.1676   0.00    1.8
2173 301700.000    807699.7996  -5649861.0317   2837756.1955   2   7   0.4813   1.0673   0.8332  -0.2536  -0.7850  -0.1674   0.00    1.8
2173 301701.000    807699.7828  -5649860.9968   2837756.1454   2   7   0.4813   1.0673   0.8332  -0.2537  -0.7850  -0.1673   0.00    2.0
2173 301702.000    807699.8478  -5649860.9568   2837756.0985   2   7   0.4813   1.0673   0.8332  -0.2538  -0.7850  -0.1671   0.00    2.3
2173 301703.000    807699.8298  -5649860.8766   2837756.0615   2   7   0.4813   1.0674   0.8332  -0.2539  -0.7850  -0.1670   0.00    2.0
2173 301704.000    807699.8262  -5649860.8604   2837756.1123   2   7   0.4813   1.0674   0.8331  -0.2540  -0.7850  -0.1668   0.00    1.9
2173 301705.000    807699.7896  -5649860.7828   2837756.0014   2   7   0.4812   1.0675   0.8331  -0.2541  -0.7850  -0.1667   0.00    2.1
2173 301706.000    807699.8244  -5649860.7195   2837755.9217   2   7   0.4812   1.0675   0.8331  -0.2542  -0.7850  -0.1665   0.00    2.2
2173 301707.000    807699.7990  -5649860.5434   2837755.8168   2   7   0.4812   1.0675   0.8330  -0.2543  -0.7850  -0.1664   0.00    2.0
2173 301708.000    807699.7602  -5649860.5076   2837755.8490   2   7   0.4812   1.0676   0.8330  -0.2544  -0.7850  -0.1662   0.00    2.2
2173 301709.000    807699.7578  -5649860.5393   2837755.8480   2   7   0.4812   1.0676   0.8330  -0.2545  -0.7850  -0.1661   0.00    1.9
2173 301710.000    807699.7490  -5649860.4934   2837755.7862   2   7   0.4812   1.0677   0.8329  -0.2546  -0.7850  -0.1659   0.00    2.1
2173 301711.000    807699.7363  -5649860.4300   2837755.6927   2   7   0.4811   1.0677   0.8329  -0.2547  -0.7850  -0.1658   0.00    2.4
2173 301712.000    807699.7586  -5649860.4995   2837755.7169   2   7   0.4811   1.0677   0.8329  -0.2548  -0.7850  -0.1656   0.00    2.5
2173 301713.000    807699.7413  -5649860.6542   2837755.7450   2   7   0.4811   1.0678   0.8328  -0.2549  -0.7849  -0.1655   0.00    2.4
2173 301714.000    807699.7424  -5649860.7660   2837755.8155   2   7   0.4811   1.0678   0.8328  -0.2550  -0.7849  -0.1653   0.00    2.1
2173 301715.000    807699.7517  -5649860.8604   2837755.8932   2   7   0.4811   1.0679   0.8328  -0.2551  -0.7849  -0.1652   0.00    2.4
2173 301716.000    807699.7656  -5649860.8379   2837755.8695   2   7   0.4811   1.0679   0.8328  -0.2552  -0.7849  -0.1650   0.00    2.4
2173 301717.000    807699.7584  -5649860.8646   2837755.8780   2   7   0.4810   1.0679   0.8327  -0.2553  -0.7849  -0.1649   0.00    2.3
2173 301718.000    807699.8942  -5649861.3950   2837755.8807   1   7   0.0049   0.0108   0.0084  -0.0026  -0.0080  -0.0016   0.00    3.1
2173 301719.000    807699.7812  -5649861.1294   2837755.9715   2   7   0.4810   1.0680   0.8327  -0.2555  -0.7849  -0.1646   0.00    2.0
2173 301720.000    807699.7290  -5649861.0980   2837755.9774   2   7   0.4810   1.0681   0.8326  -0.2556  -0.7849  -0.1644   0.00    2.3
2173 301721.000    807699.7606  -5649861.0627   2837755.9419   2   7   0.4810   1.0681   0.8326  -0.2557  -0.7849  -0.1643   0.00    2.5
2173 301722.000    807699.6980  -5649861.1114   2837755.9283   2   7   0.4810   1.0681   0.8326  -0.2558  -0.7849  -0.1641   0.00    2.1
2173 301723.000    807699.7432  -5649860.9540   2837755.7674   2   7   0.4809   1.0682   0.8325  -0.2559  -0.7849  -0.1640   0.00    2.5
2173 301724.000    807699.7264  -5649860.8352   2837755.7160   2   7   0.4809   1.0682   0.8325  -0.2560  -0.7849  -0.1638   0.00    2.7
2173 301725.000    807699.7043  -5649860.6904   2837755.6384   2   7   0.4809   1.0683   0.8325  -0.2561  -0.7849  -0.1637   0.00    2.2
2173 301726.000    807699.7220  -5649860.6751   2837755.5913   2   7   0.4809   1.0683   0.8324  -0.2562  -0.7849  -0.1635   0.00    2.2
2173 301727.000    807699.6668  -5649860.7134   2837755.6040   2   7   0.4809   1.0684   0.8324  -0.2563  -0.7849  -0.1634   0.00    2.6
2173 301728.000    807699.6958  -5649860.6331   2837755.5356   2   7   0.4809   1.0684   0.8324  -0.2564  -0.7849  -0.1632   0.00    2.3
2173 301729.000    807699.6697  -5649860.6604   2837755.5600   2   7   0.4808   1.0684   0.8323  -0.2565  -0.7849  -0.1631   0.00    2.9
2173 301730.000    807699.6557  -5649860.7049   2837755.5509   2   7   0.4808   1.0685   0.8323  -0.2566  -0.7849  -0.1629   0.00    2.4
2173 301731.000    807699.8976  -5649861.3950   2837755.8787   1   7   0.0049   0.0108   0.0084  -0.0026  -0.0080  -0.0016   0.00    3.2
2173 301732.000    807699.6930  -5649860.7899   2837755.5158   2   7   0.4808   1.0686   0.8322  -0.2568  -0.7848  -0.1626   0.00    2.8
2173 301733.000    807699.6889  -5649860.7219   2837755.4533   2   7   0.4808   1.0686   0.8322  -0.2569  -0.7848  -0.1624   0.00    2.8
2173 301734.000    807699.7312  -5649860.6804   2837755.4056   2   7   0.4808   1.0686   0.8322  -0.2570  -0.7848  -0.1623   0.00    2.8
2173 301735.000    807699.7192  -5649860.8319   2837755.5093   2   7   0.4807   1.0687   0.8322  -0.2571  -0.7848  -0.1621   0.00    2.9
2173 301736.000    807699.7277  -5649860.8602   2837755.5219   2   7   0.4807   1.0687   0.8321  -0.2572  -0.7848  -0.1620   0.00    2.6
2173 301737.000    807699.7401  -5649860.8301   2837755.5323   2   7   0.4807   1.0688   0.8321  -0.2573  -0.7848  -0.1618   0.00    2.5
2173 301738.000    807699.6533  -5649860.8866   2837755.6087   2   7   0.4807   1.0688   0.8321  -0.2574  -0.7848  -0.1617   0.00    2.8
2173 301739.000    807699.6376  -5649860.8441   2837755.5487   2   7   0.4807   1.0688   0.8320  -0.2575  -0.7848  -0.1615   0.00    2.5
2173 301740.000    807699.5617  -5649860.8690   2837755.6261   2   7   0.4807   1.0689   0.8320  -0.2576  -0.7848  -0.1614   0.00    2.6
2173 301741.000    807699.5308  -5649860.9433   2837755.6534   2   7   0.4806   1.0689   0.8320  -0.2577  -0.7848  -0.1612   0.00    2.4
2173 301742.000    807699.8981  -5649861.4007   2837755.8824   1   7   0.0049   0.0108   0.0084  -0.0026  -0.0080  -0.0016   0.00    3.0
2173 301743.000    807699.9003  -5649861.4026   2837755.8819   1   7   0.0049   0.0108   0.0084  -0.0026  -0.0080  -0.0016   0.00    3.1
2173 301744.000    807699.5049  -5649861.1200   2837755.6946   2   7   0.4806   1.0690   0.8319  -0.2580  -0.7848  -0.1607   0.00    2.5
2173 301745.000    807699.8990  -5649861.3975   2837755.8808   1   7   0.0049   0.0108   0.0084  -0.0026  -0.0080  -0.0016   0.00    3.3
2173 301746.000    807699.9011  -5649861.3966   2837755.8801   1   7   0.0049   0.0108   0.0084  -0.0026  -0.0080  -0.0016   0.00    3.1
2173 301747.000    807699.9001  -5649861.3976   2837755.8819   1   7   0.0049   0.0108   0.0084  -0.0026  -0.0080  -0.0016   0.00    3.5
2173 301748.000    807699.9014  -5649861.3966   2837755.8810   1   7   0.0049   0.0108   0.0084  -0.0026  -0.0080  -0.0016   0.00    3.3
2173 301749.000    807699.6902  -5649861.0911   2837755.5652   2   7   0.4805   1.0693   0.8317  -0.2585  -0.7847  -0.1600   0.00    2.9
2173 301750.000    807699.7275  -5649860.9878   2837755.4786   2   7   0.4805   1.0693   0.8317  -0.2586  -0.7847  -0.1598   0.00    3.0
2173 301751.000    807699.8982  -5649861.3987   2837755.8802   1   7   0.0049   0.0108   0.0084  -0.0026  -0.0080  -0.0016   0.00    3.0
2173 301752.000    807699.8989  -5649861.3975   2837755.8791   1   7   0.0049   0.0108   0.0084  -0.0026  -0.0080  -0.0016   0.00    3.5
2173 301753.000    807699.8996  -5649861.3977   2837755.8812   1   7   0.0049   0.0108   0.0084  -0.0027  -0.0080  -0.0016   0.00    3.5
2173 301754.000    807699.9003  -5649861.4006   2837755.8828   1   7   0.0049   0.0108   0.0084  -0.0027  -0.0080  -0.0016   0.00    3.4
2173 301755.000    807699.8997  -5649861.4025   2837755.8843   1   7   0.0049   0.0108   0.0084  -0.0027  -0.0080  -0.0016   0.00    3.4
2173 301756.000    807699.7113  -5649861.3069   2837755.5996   2   7   0.4804   1.0695   0.8315  -0.2593  -0.7847  -0.1589   0.00    2.8
2173 301757.000    807699.6858  -5649861.2942   2837755.6218   2   7   0.4804   1.0696   0.8314  -0.2594  -0.7847  -0.1587   0.00    2.9
2173 301758.000    807699.7037  -5649861.4632   2837755.6568   2   7   0.4804   1.0696   0.8314  -0.2595  -0.7847  -0.1586   0.00    2.9
2173 301759.000    807699.7073  -5649861.4893   2837755.6960   2   7   0.4803   1.0697   0.8314  -0.2596  -0.7847  -0.1584   0.00    2.6
2173 301760.000    807699.8997  -5649861.4030   2837755.8828   1   7   0.0049   0.0109   0.0084  -0.0027  -0.0080  -0.0015   0.00    3.8
2173 301761.000    807699.9015  -5649861.3992   2837755.8809   1   7   0.0049   0.0109   0.0084  -0.0027  -0.0080  -0.0015   0.00    3.0
2173 301762.000    807699.9015  -5649861.3996   2837755.8841   1   7   0.0049   0.0109   0.0084  -0.0027  -0.0080  -0.0015   0.00    3.8
2173 301763.000    807699.9022  -5649861.3989   2837755.8807   1   7   0.0049   0.0109   0.0084  -0.0027  -0.0080  -0.0015   0.00    3.4
2173 301764.000    807699.9024  -5649861.3987   2837755.8815   1   7   0.0049   0.0109   0.0084  -0.0027  -0.0080  -0.0015   0.00    3.2
2173 301765.000    807699.9011  -5649861.4058   2837755.8834   1   7   0.0049   0.0109   0.0084  -0.0027  -0.0080  -0.0015   0.00    3.1
2173 301766.000    807699.9032  -5649861.4063   2837755.8857   1   7   0.0049   0.0109   0.0084  -0.0027  -0.0080  -0.0015   0.00    3.4
2173 301767.000    807699.9032  -5649861.4016   2837755.8816   1   7   0.0049   0.0109   0.0084  -0.0027  -0.0080  -0.0015   0.00    3.6
2173 301768.000    807699.9016  -5649861.4020   2837755.8830   1   7   0.0049   0.0109   0.0084  -0.0027  -0.0080  -0.0015   0.00    4.1
2173 301769.000    807699.9027  -5649861.4018   2837755.8823   1   7   0.0049   0.0109   0.0084  -0.0027  -0.0080  -0.0015   0.00    4.0
2173 301770.000    807699.9026  -5649861.3999   2837755.8830   1   7   0.0049   0.0109   0.0084  -0.0027  -0.0080  -0.0015   0.00    3.0
2173 301771.000    807699.9024  -5649861.3998   2837755.8821   1   7   0.0049   0.0109   0.0084  -0.0027  -0.0080  -0.0015   0.00    3.4
2173 301772.000    807699.9012  -5649861.4047   2837755.8860   1   7   0.0049   0.0109   0.0084  -0.0027  -0.0080  -0.0015   0.00    4.6
2173 301773.000    807699.9239  -5649861.6759   2837755.8142   2   7   0.4801   1.0703   0.8309  -0.2610  -0.7846  -0.1562   0.00    2.9
2173 301774.000    807699.9027  -5649861.3998   2837755.8829   1   7   0.0049   0.0109   0.0084  -0.0027  -0.0080  -0.0015   0.00    3.8
2173 301775.000    807699.9503  -5649861.8762   2837755.8756   2   7   0.4801   1.0703   0.8308  -0.2612  -0.7846  -0.1558   0.00    3.0
2173 301776.000    807699.9041  -5649861.4043   2837755.8829   1   7   0.0049   0.0109   0.0084  -0.0027  -0.0080  -0.0015   0.00    3.8
2173 301777.000    807699.9056  -5649861.4047   2837755.8835   1   7   0.0049   0.0109   0.0084  -0.0027  -0.0080  -0.0015   0.00    3.1
2173 301778.000    807699.9037  -5649861.4020   2837755.8820   1   7   0.0049   0.0109   0.0084  -0.0027  -0.0080  -0.0015   0.00    3.3
2173 301779.000    807699.9069  -5649861.4034   2837755.8807   1   7   0.0049   0.0109   0.0084  -0.0027  -0.0080  -0.0015   0.00    3.1
2173 301780.000    807699.9044  -5649861.4033   2837755.8834   1   7   0.0049   0.0109   0.0084  -0.0027  -0.0080  -0.0015   0.00    3.5
2173 301781.000    807699.9045  -5649861.3993   2837755.8798   1   7   0.0049   0.0109   0.0084  -0.0027  -0.0080  -0.0015   0.00    3.9
2173 301782.000    807699.9036  -5649861.3990   2837755.8831   1   7   0.0049   0.0109   0.0084  -0.0027  -0.0080  -0.0015   0.00    3.7
2173 301783.000    807699.9040  -5649861.3962   2837755.8790   1   7   0.0049   0.0109   0.0084  -0.0027  -0.0080  -0.0015   0.00    4.1
2173 301784.000    807699.9037  -5649861.4019   2837755.8816   1   7   0.0049   0.0109   0.0084  -0.0027  -0.0080  -0.0015   0.00    4.1
2173 301785.000    807699.9047  -5649861.4016   2837755.8796   1   7   0.0049   0.0109   0.0084  -0.0027  -0.0080  -0.0015   0.00    3.8
2173 301786.000    807699.9051  -5649861.4020   2837755.8828   1   7   0.0049   0.0109   0.0084  -0.0027  -0.0080  -0.0015   0.00    3.7
2173 301787.000    807699.9034  -5649861.4022   2837755.8812   1   7   0.0049   0.0109   0.0084  -0.0027  -0.0080  -0.0015   0.00    3.8
