     2.11           OBSERVATION DATA    M (MIXED)           RINEX VERSION / TYPE
CONVBIN 2.4.3                           20210901 005044 UTC PGM / RUN BY / DATE 
log: logs/21_08_31_20_49_03_mada_VZ.rtcm                    COMMENT             
format: RTCM 3, station ID: 387                             COMMENT             
0387                                                        MARKER NAME         
                                                            MARKER NUMBER       
                                                            OBSERVER / AGENCY   
                    LEICA GR50          4.40/7.701          REC # / TYPE / VERS 
                    GPPNULLANTENNA                          ANT # / TYPE        
  1518334.5958 -4512851.7454  4229505.7673                  APPROX POSITION XYZ 
        0.0000        0.0000        0.0000                  ANTENNA: DELTA H/E/N
     1     1                                                WAVELENGTH FACT L1/2
     7    C1    L1    C2    L2    P2    C5    L5            # / TYPES OF OBSERV 
  2021     8    31    20    49   12.0000000     GPS         TIME OF FIRST OBS   
  2021     8    31    21    19   40.0000000     GPS         TIME OF LAST OBS    
                                                            END OF HEADER       
 21  8 31 20 49 12.0000000  0 19G10G15G18G23G24G32R 4R 5R14R15R20R21
                                E 3E 5E 9E15E24E31E36
  21968702.701   115446334.893    21968702.755    89958194.259    21968702.540  
  21968701.307    86209935.295  
  22105208.742   116163688.382    22105207.348    90517170.443    22105206.759  
                                
  21194995.021   111380461.941    21194993.734    86789974.592    21194993.323  
  21194997.826    83173741.018  
  20270491.495   106522184.322    20270489.762    83004312.421    20270489.423  
  20270493.729    79545811.951  
  20327722.241   106822946.646    20327722.706    83238682.423    20327722.152  
  20327723.313    79770414.619  
  23812748.132   125136855.765    23812749.901    97509248.731    23812749.275  
  23812748.954    93446366.025  
  22162344.979   118678379.381    22162345.533    92305418.872    22162345.568  
                                
  19825351.511   105977906.716    19825352.440    82427282.403    19825352.333  
                                
  21635664.408   115330298.561    21635667.553    89701374.297    21635667.660  
                                
  21216102.715   113372453.731    21216104.734    88178608.635    21216104.573  
                                
  21219582.225   113470649.309    21219586.031    88254960.606    21219584.976  
                                
  21407902.106   114558029.204    21407902.535    89100694.124    21407902.464  
                                
  25950962.228   136373255.982                                                  
  25950965.659   101837194.033  
  23468528.083   123327991.681                                                  
  23468530.638    92095615.182  
  23687703.229   124479753.959                                                  
  23687706.213    92955685.506  
  25677013.952   134933632.219                                                  
  25677017.758   100762149.157  
  27350803.940   143729462.873                                                  
  27350807.299   107330467.608  
  26991560.974   141841622.567                                                  
  26991565.424   105920727.209  
  26483410.526   139171256.956                                                  
  26483415.691   103926601.196  
 21  8 31 20 49 13.0000000  0 19G10G15G18G23G24G32R 4R 5R14R15R20R21
                                E 3E 5E 9E15E24E31E36
  21968235.551   115443879.987    21968235.623    89956281.344    21968235.408  
  21968234.158    86208102.081  
  22105740.667   116166483.682    22105739.273    90519348.598    22105738.702  
                                
  21195456.292   111382885.901    21195455.005    86791863.390    21195454.576  
  21195459.079    83175551.112  
  20270370.665   106521549.366    20270368.932    83003817.652    20270368.592  
  20270372.899    79545337.791  
  20327679.784   106822723.540    20327680.249    83238508.576    20327679.695  
  20327680.857    79770248.014  
  23812220.817   125134084.730    23812222.586    97507089.490    23812221.961  
  23812221.657    93444296.737  
  22162823.118   118680939.759    22162823.672    92307410.277    22162823.690  
                                
  19825411.480   105978227.299    19825412.409    82427531.746    19825412.319  
                                
  21635844.027   115331256.001    21635847.190    89702118.970    21635847.297  
                                
  21215587.712   113369701.800    21215589.731    88176468.247    21215589.570  
                                
  21220191.665   113473908.293    21220195.472    88257495.369    21220194.417  
                                
  21407719.646   114557052.797    21407720.075    89099934.696    21407719.985  
                                
  25950604.973   136371378.496                                                  
  25950608.386   101835792.016  
  23468531.156   123328007.779                                                  
  23468533.694    92095627.201  
  23688062.557   124481642.300                                                  
  23688065.541    92957095.628  
  25676717.059   134932072.117                                                  
  25676720.865   100760984.139  
  27350318.260   143726910.563                                                  
  27350321.619   107328561.660  
  26991400.671   141840780.137                                                  
  26991405.121   105920098.113  
  26484007.942   139174396.352                                                  
  26484013.088   103928945.559  
 21  8 31 20 49 14.0000000  0 19G10G15G18G23G24G32R 4R 5R14R15R20R21
                                E 3E 5E 9E15E24E31E36
  21967768.419   115441425.171    21967768.491    89954368.501    21967768.276  
  21967767.043    86206268.939  
  22106272.592   116169279.058    22106271.198    90521526.816    22106270.627  
                                
  21195917.634   111385310.266    21195916.348    86793752.503    21195915.919  
  21195920.422    83177361.518  
  20270249.906   106520914.713    20270248.173    83003323.117    20270247.833  
  20270252.140    79544863.861  
  20327637.453   106822501.059    20327637.917    83238335.217    20327637.363  
  20327638.525    79770081.879  
  23811693.520   125131313.760    23811695.289    97504930.297    23811694.664  
  23811694.342    93442227.506  
  22163301.257   118683500.185    22163301.811    92309401.715    22163301.829  
                                
  19825471.484   105978548.074    19825472.413    82427781.240    19825472.324  
                                
  21636023.790   115332214.232    21636026.934    89702864.259    21636027.042  
                                
  21215072.834   113366950.427    21215074.853    88174328.292    21215074.674  
                                
  21220801.214   113477167.800    21220805.020    88260030.541    21220803.965  
                                
  21407537.346   114556077.232    21407537.775    89099175.921    21407537.686  
                                
  25950247.699   136369501.065                                                  
  25950251.130   101834390.032  
  23468534.230   123328023.977                                                  
  23468536.785    92095639.297  
  23688421.885   124483530.600                                                  
  23688424.869    92958505.725  
  25676420.254   134930512.334                                                  
  25676424.060   100759819.375  
  27349832.562   143724358.309                                                  
  27349835.921   107326655.763  
  26991240.422   141839938.050                                                  
  26991244.871   105919469.295  
  26484605.357   139177535.810                                                  
  26484610.521   103931289.937  
 21  8 31 20 49 15.0000000  0 19G10G15G18G23G24G32R 4R 5R14R15R20R21
                                E 3E 5E 9E15E24E31E36
  21967301.287   115438970.426    21967301.359    89952455.715    21967301.144  
  21967299.894    86204435.854  
  22106804.571   116172074.507    22106803.159    90523705.084    22106802.587  
                                
  21196379.048   111387735.059    21196377.761    86795641.952    21196377.333  
  21196381.853    83179172.241  
  20270129.183   106520280.382    20270127.450    83002828.831    20270127.128  
  20270131.417    79544390.168  
  20327595.228   106822279.197    20327595.693    83238162.337    20327595.157  
  20327596.300    79769916.199  
  23811166.241   125128542.863    23811168.010    97502771.159    23811167.384  
  23811167.081    93440158.334  
  22163779.415   118686060.662    22163779.969    92311393.202    22163780.004  
                                
  19825531.542   105978869.037    19825532.471    82428030.875    19825532.363  
                                
  21636203.713   115333173.280    21636206.876    89703610.187    21636206.965  
                                
  21214558.045   113364199.609    21214560.082    88172188.770    21214559.903  
                                
  21221410.851   113480427.764    21221414.657    88262566.068    21221413.603  
                                
  21407355.207   114555102.489    21407355.636    89098417.788    21407355.547  
                                
  25949890.444   136367623.646                                                  
  25949893.875   101832988.070  
  23468537.339   123328040.264                                                  
  23468539.876    92095651.461  
  23688781.231   124485418.868                                                  
  23688784.197    92959915.799  
  25676123.485   134928952.889                                                  
  25676127.291   100758654.852  
  27349346.900   143721806.105                                                  
  27349350.259   107324749.894  
  26991080.244   141839096.309                                                  
  26991084.693   105918840.718  
  26485202.772   139180675.259                                                  
  26485207.918   103933634.338  
 21  8 31 20 49 16.0000000  0 19G10G15G18G23G24G32R 4R 5R14R15R20R21
                                E 3E 5E 9E15E24E31E36
  21966834.191   115436515.871    21966834.263    89950543.072    21966834.048  
  21966832.815    86202602.908  
  22107336.550   116174870.127    22107335.156    90525883.491    22107334.566  
                                
  21196840.569   111390160.378    21196839.283    86797531.809    21196838.872  
  21196843.375    83180983.353  
  20270008.549   106519646.444    20270006.816    83002334.851    20270006.476  
  20270010.783    79543916.778  
  20327553.147   106822058.054    20327553.611    83237990.018    20327553.075  
  20327554.219    79769751.064  
  23810638.980   125125772.122    23810640.731    97500612.144    23810640.105  
  23810639.802    93438089.296  
  22164257.590   118688621.244    22164258.144    92313384.766    22164258.161  
                                
  19825591.635   105979190.280    19825592.564    82428280.733    19825592.457  
                                
  21636383.779   115334133.190    21636386.942    89704356.782    21636387.049  
                                
  21214043.399   113361449.421    21214045.418    88170049.737    21214045.240  
                                
  21222020.596   113483688.352    21222024.402    88265102.081    21222023.348  
                                
  21407173.193   114554128.621    21407173.622    89097660.336    21407173.533  
                                
  25949533.206   136365746.385                                                  
  25949536.637   101831586.210  
  23468540.466   123328056.746                                                  
  23468543.003    92095663.770  
  23689140.559   124487307.218                                                  
  23689143.543    92961325.924  
  25675826.824   134927393.852                                                  
  25675830.630   100757490.631  
  27348861.273   143719254.065                                                  
  27348864.633   107322844.150  
  26990920.155   141838255.012                                                  
  26990924.587   105918212.479  
  26485800.222   139183814.861                                                  
  26485805.387   103935978.841  
 21  8 31 20 49 17.0000000  0 19G10G15G18G23G24G32R 4R 5R14R15R20R21
                                E 3E 5E 9E15E24E31E36
  21966367.184   115434061.674    21966367.256    89948630.714    21966367.041  
  21966365.808    86200770.233  
  22107868.600   116177666.099    22107867.206    90528062.172    22107866.634  
                                
  21197302.233   111392586.395    21197300.947    86799422.209    21197300.518  
  21197305.021    83182794.981  
  20269888.041   106519013.108    20269886.307    83001841.342    20269885.968  
  20269890.274    79543443.827  
  20327511.244   106821837.815    20327511.708    83237818.403    20327511.172  
  20327512.316    79769586.593  
  23810111.790   125123001.759    23810113.559    97498453.420    23810112.933  
  23810112.612    93436020.510  
  22164735.800   118691182.113    22164736.354    92315376.550    22164736.390  
                                
  19825651.800   105979512.031    19825652.729    82428530.984    19825652.640  
                                
  21636564.042   115335094.124    21636567.187    89705104.175    21636567.294  
                                
  21213528.896   113358700.044    21213530.916    88167911.335    21213530.737  
                                
  21222630.483   113486949.728    21222634.289    88267638.705    21222633.235  
                                
  21406991.412   114553155.833    21406991.841    89096903.724    21406991.751  
                                
  25949176.040   136363869.412                                                  
  25949179.471   101830184.579  
  23468543.683   123328073.611                                                  
  23468546.220    92095676.361  
  23689499.941   124489195.796                                                  
  23689502.925    92962736.226  
  25675530.252   134925835.413                                                  
  25675534.058   100756326.862  
  27348375.665   143716702.327                                                  
  27348379.024   107320938.642  
  26990760.192   141837414.345                                                  
  26990764.641   105917584.701  
  26486397.727   139186954.741                                                  
  26486402.873   103938323.557  
 21  8 31 20 49 18.0000000  0 19G10G15G18G23G24G32R 4R 5R14R15R20R21
                                E 3E 5E 9E15E24E31E36
  21965900.195   115431607.686    21965900.267    89946718.513    21965900.052  
  21965898.801    86198937.709  
  22108400.704   116180462.282    22108399.310    90530241.012    22108398.738  
                                
  21197763.987   111395012.928    21197762.682    86801313.012    21197762.271  
  21197766.774    83184607.009  
  20269767.585   106518380.186    20269765.852    83001348.156    20269765.531  
  20269769.819    79542971.195  
  20327469.466   106821618.300    20327469.949    83237647.353    20327469.395  
  20327470.556    79769422.679  
  23809584.636   125120231.572    23809586.405    97496294.835    23809585.779  
  23809585.458    93433951.862  
  22165214.047   118693743.087    22165214.601    92317368.416    22165214.619  
                                
  19825712.054   105979834.098    19825712.984    82428781.483    19825712.876  
                                
  21636744.465   115336055.889    21636747.628    89705852.215    21636747.735  
                                
  21213014.501   113355951.318    21213016.520    88165773.437    21213016.359  
                                
  21223240.496   113490211.695    21223244.302    88270175.790    21223243.248  
                                
  21406809.791   114552183.976    21406810.220    89096147.831    21406810.130  
                                
  25948818.892   136361992.592                                                  
  25948822.305   101828783.057  
  23468546.917   123328090.666                                                  
  23468549.472    92095689.101  
  23689859.341   124491084.463                                                  
  23689862.325    92964146.592  
  25675233.787   134924277.418                                                  
  25675237.593   100755163.426  
  27347890.127   143714150.751                                                  
  27347893.469   107319033.264  
  26990600.300   141836574.119                                                  
  26990604.749   105916957.262  
  26486995.249   139190094.780                                                  
  26487000.413   103940668.387  
 21  8 31 20 49 19.0000000  0 19G10G15G18G23G24G32R 4R 5R14R15R20R21
                                E 3E 5E 9E15E24E31E36
  21965433.260   115429153.868    21965433.331    89944806.449    21965433.117  
  21965431.866    86197105.313  
  22108932.825   116183258.606    22108931.431    90532419.966    22108930.842  
                                
  21198225.847   111397439.996    21198224.543    86803204.236    21198224.132  
  21198228.635    83186419.425  
  20269647.220   106517747.677    20269645.486    83000855.292    20269645.147  
  20269649.453    79542498.867  
  20327427.831   106821399.508    20327428.296    83237476.865    20327427.742  
  20327428.903    79769259.286  
  23809057.535   125117461.561    23809059.304    97494136.392    23809058.679  
  23809058.357    93431883.345  
  22165692.329   118696304.180    22165692.865    92319360.378    22165692.901  
                                
  19825772.362   105980156.461    19825773.292    82429032.209    19825773.184  
                                
  21636925.049   115337018.532    21636928.212    89706600.939    21636928.319  
                                
  21212500.230   113353203.225    21212502.250    88163636.031    21212502.071  
                                
  21223850.616   113493474.256    21223854.404    88272713.336    21223853.350  
                                
  21406628.349   114551213.043    21406628.778    89095392.668    21406628.706  
                                
  25948461.762   136360115.898                                                  
  25948465.193   101827381.639  
  23468550.205   123328107.932                                                  
  23468552.742    92095701.988  
  23690218.758   124492973.192                                                  
  23690221.742    92965557.006  
  25674937.393   134922719.839                                                  
  25674941.199   100754000.295  
  27347404.608   143711599.354                                                  
  27347407.968   107317127.985  
  26990440.479   141835734.338                                                  
  26990444.929   105916330.144  
  26487592.807   139193234.927                                                  
  26487597.989   103943013.306  
 21  8 31 20 49 20.0000000  0 19G10G15G18G23G24G32R 4R 5R14R15R20R21
                                E 3E 5E 9E15E24E31E36
  21964966.342   115426700.220    21964966.414    89942894.516    21964966.199  
  21964964.966    86195273.043  
  22109464.983   116186055.103    22109463.589    90534599.054    22109463.017  
                                
  21198687.797   111399867.554    21198686.493    86805095.837    21198686.082  
  21198690.585    83188232.214  
  20269526.943   106517115.559    20269525.210    83000362.733    20269524.871  
  20269529.177    79542026.833  
  20327386.322   106821181.405    20327386.786    83237306.913    20327386.250  
  20327387.394    79769096.422  
  23808530.435   125114691.688    23808532.204    97491978.052    23808531.578  
  23808531.257    93429814.945  
  22166170.611   118698865.410    22166171.165    92321352.446    22166171.183  
                                
  19825832.706   105980479.083    19825833.635    82429283.135    19825833.546  
                                
  21637105.795   115337982.033    21637108.957    89707350.331    21637109.065  
                                
  21211986.085   113350455.788    21211988.104    88161499.135    21211987.926  
                                
  21224460.825   113496737.388    21224464.631    88275251.330    21224463.577  
                                
  21406447.068   114550242.979    21406447.496    89094638.177    21406447.425  
                                
  25948104.667   136358239.330                                                  
  25948108.080   101825980.301  
  23468553.546   123328125.363                                                  
  23468556.084    92095715.007  
  23690578.194   124494861.970                                                  
  23690581.160    92966967.460  
  25674641.071   134921162.656                                                  
  25674644.859   100752837.464  
  27346919.143   143709048.092                                                  
  27346922.502   107315222.828  
  26990280.766   141834894.992                                                  
  26990285.215   105915703.358  
  26488190.383   139196375.189                                                  
  26488195.547   103945358.296  
 21  8 31 20 49 21.0000000  0 19G10G15G18G23G24G32R 4R 5R14R15R20R21
                                E 3E 5E 9E15E24E31E36
  21964499.442   115424246.634    21964499.514    89940982.633    21964499.299  
  21964498.049    86193440.815  
  22109997.140   116188851.644    22109995.746    90536778.175    22109995.174  
                                
  21199149.837   111402295.516    21199148.550    86806987.756    21199148.121  
  21199152.624    83190045.299  
  20269406.703   106516483.722    20269404.969    82999870.395    20269404.648  
  20269408.936    79541555.005  
  20327344.937   106820963.895    20327345.401    83237137.424    20327344.865  
  20327346.009    79768933.995  
  23808003.352   125111921.874    23808005.121    97489819.760    23808004.496  
  23808004.174    93427746.572  
  22166648.894   118701426.659    22166649.448    92323344.530    22166649.483  
                                
  19825893.103   105980801.870    19825894.033    82429534.192    19825893.925  
                                
  21637286.683   115338946.298    21637289.846    89708100.315    21637289.953  
                                
  21211472.047   113347708.885    21211474.066    88159362.657    21211473.887  
                                
  21225071.142   113500000.977    21225074.948    88277789.674    21225073.893  
                                
  21406265.929   114549273.681    21406266.358    89093884.278    21406266.269  
                                
  25947747.555   136356362.770                                                  
  25947750.986   101824578.972  
  23468556.870   123328142.858                                                  
  23468559.407    92095728.071  
  23690937.593   124496750.683                                                  
  23690940.577    92968377.860  
  25674344.803   134919605.767                                                  
  25674348.591   100751674.862  
  27346433.641   143706496.835                                                  
  27346437.001   107313317.660  
  26990121.088   141834055.939                                                  
  26990125.538   105915076.803  
  26488787.941   139199515.439                                                  
  26488793.123   103947703.288  
 21  8 31 20 49 22.0000000  0 19G10G15G18G23G24G32R 4R 5R14R15R20R21
                                E 3E 5E 9E15E24E31E36
  21964032.578   115421793.291    21964032.650    89939070.937    21964032.453  
  21964031.203    86191608.774  
  22110529.351   116191648.426    22110527.957    90538957.483    22110527.385  
                                
  21199611.965   111404724.051    21199610.679    86808880.121    21199610.268  
  21199614.771    83191858.813  
  20269286.569   106515852.355    20269284.836    82999378.420    20269284.514  
  20269288.803    79541083.531  
  20327303.695   106820747.165    20327304.160    83236968.547    20327303.624  
  20327304.767    79768772.152  
  23807476.323   125109152.280    23807478.092    97487661.634    23807477.467  
  23807477.145    93425678.380  
  22167127.230   118703988.066    22167127.766    92325336.734    22167127.801  
                                
  19825953.554   105981125.023    19825954.483    82429785.536    19825954.376  
                                
  21637467.767   115339911.507    21637470.930    89708851.033    21637471.037  
                                
  21210958.134   113344962.674    21210960.153    88157226.713    21210959.974  
                                
  21225681.583   113503265.238    21225685.371    88280328.541    21225684.317  
                                
  21406084.970   114548305.365    21406085.399    89093131.143    21406085.327  
                                
  25947390.496   136354486.390                                                  
  25947393.927   101823177.779  
  23468560.247   123328160.614                                                  
  23468562.784    92095741.329  
  23691297.029   124498639.523                                                  
  23691299.995    92969788.362  
  25674048.606   134918049.362                                                  
  25674052.412   100750512.616  
  27345948.194   143703945.808                                                  
  27345951.553   107311412.690  
  26989961.536   141833217.406                                                  
  26989965.967   105914450.619  
  26489385.553   139202655.880                                                  
  26489390.735   103950048.427  
 21  8 31 20 49 23.0000000  0 19G10G15G18G23G24G32R 4R 5R14R15R20R21
                                E 3E 5E 9E15E24E31E36
  21963565.750   115419340.013    21963565.822    89937159.292    21963565.607  
  21963564.356    86189776.782  
  22111061.580   116194445.254    22111060.186    90541136.832    22111059.614  
                                
  21200074.183   111407152.991    21200072.897    86810772.799    21200072.468  
  21200076.971    83193672.631  
  20269166.489   106515221.293    20269164.756    82998886.684    20269164.417  
  20269168.723    79540612.279  
  20327262.579   106820531.043    20327263.043    83236800.137    20327262.489  
  20327263.651    79768610.760  
  23806949.312   125106382.766    23806951.081    97485503.575    23806950.456  
  23806950.116    93423610.223  
  22167605.548   118706549.446    22167606.102    92327328.921    22167606.119  
                                
  19826014.041   105981448.383    19826014.970    82430037.038    19826014.881  
                                
  21637648.977   115340877.466    21637652.140    89709602.336    21637652.247  
                                
  21210444.310   113342216.973    21210446.329    88155091.173    21210446.150  
                                
  21226292.096   113506529.955    21226295.902    88282867.763    21226294.848  
                                
  21405904.189   114547337.881    21405904.618    89092378.660    21405904.528  
                                
  25947033.437   136352610.045                                                  
  25947036.850   101821776.619  
  23468563.624   123328178.444                                                  
  23468566.180    92095754.639  
  23691656.464   124500528.325                                                  
  23691659.448    92971198.824  
  25673752.516   134916493.277                                                  
  25673756.304   100749350.600  
  27345462.746   143701394.798                                                  
  27345466.105   107309507.713  
  26989802.037   141832379.213                                                  
  26989806.486   105913824.696  
  26489983.164   139205796.324                                                  
  26489988.328   103952393.563  
 21  8 31 20 49 24.0000000  0 19G10G15G18G23G24G32R 4R 5R14R15R20R21
                                E 3E 5E 9E15E24E31E36
  21963098.922   115416886.920    21963098.993    89935247.795    21963098.779  
  21963097.546    86187944.936  
  22111593.826   116197242.283    22111592.433    90543316.330    22111591.861  
                                
  21200536.491   111409582.456    21200535.204    86812665.891    21200534.793  
  21200539.296    83195486.840  
  20269046.463   106514590.639    20269044.730    82998395.265    20269044.390  
  20269048.697    79540141.341  
  20327221.587   106820315.637    20327222.052    83236632.293    20327221.498  
  20327222.659    79768449.909  
  23806422.301   125103613.397    23806424.070    97483345.629    23806423.427  
  23806423.105    93421542.206  
  22168083.901   118709110.961    22168084.437    92329321.212    22168084.473  
                                
  19826074.599   105981772.056    19826075.528    82430288.781    19826075.421  
                                
  21637830.348   115341844.273    21637833.528    89710354.293    21637833.618  
                                
  21209930.593   113339471.935    21209932.613    88152956.143    21209932.452  
                                
  21226902.734   113509795.255    21226906.523    88285407.436    21226905.468  
                                
  21405723.551   114546371.307    21405723.980    89091626.881    21405723.908  
                                
  25946676.414   136350733.826                                                  
  25946679.845   101820375.544  
  23468567.055   123328196.473                                                  
  23468569.610    92095768.113  
  23692015.899   124502417.194                                                  
  23692018.866    92972609.346  
  25673456.462   134914937.605                                                  
  25673460.268   100748188.898  
  27344977.352   143698843.976                                                  
  27344980.711   107307602.880  
  26989642.610   141831541.449                                                  
  26989647.059   105913199.101  
  26490580.794   139208936.902                                                  
  26490585.958   103954738.792  
 21  8 31 20 49 25.0000000  0 19G10G15G18G23G24G32R 4R 5R14R15R20R21
                                E 3E 5E 9E15E24E31E36
  21962632.183   115414434.132    21962632.255    89933336.527    21962632.040  
  21962630.789    86186113.304  
  22112126.145   116200039.569    22112124.751    90545496.034    22112124.179  
                                
  21200998.923   111412012.546    21200997.637    86814559.463    21200997.226  
  21201001.729    83197301.513  
  20268926.562   106513960.501    20268924.829    82997904.249    20268924.507  
  20268928.796    79539670.781  
  20327180.756   106820101.070    20327181.221    83236465.096    20327180.685  
  20327181.828    79768289.678  
  23805895.362   125100844.323    23805897.113    97481187.908    23805896.487  
  23805896.166    93419474.392  
  22168562.273   118711672.688    22168562.827    92331313.666    22168562.845  
                                
  19826135.229   105982096.144    19826136.158    82430540.849    19826136.051  
                                
  21638011.897   115342812.056    21638015.078    89711107.014    21638015.185  
                                
  21209417.038   113336727.640    21209419.057    88150821.694    21209418.878  
                                
  21227513.480   113513061.244    21227517.286    88287947.648    21227516.232  
                                
  21405543.109   114545405.720    21405543.538    89090875.866    21405543.467  
                                
  25946319.409   136348857.851                                                  
  25946322.840   101818974.660  
  23468570.540   123328214.805                                                  
  23468573.095    92095781.798  
  23692375.371   124504306.240                                                  
  23692378.355    92974019.988  
  25673160.551   134913382.471                                                  
  25673164.339   100747027.587  
  27344491.975   143696293.385                                                  
  27344495.335   107305698.223  
  26989483.271   141830704.256                                                  
  26989487.721   105912573.914  
  26491178.477   139212077.719                                                  
  26491183.659   103957084.209  
 21  8 31 20 49 26.0000000  0 19G10G15G18G23G24G32R 4R 5R14R15R20R21
                                E 3E 5E 9E15E24E31E36
  21962165.480   115411981.599    21962165.551    89931425.465    21962165.337  
  21962164.104    86184281.867  
  22112658.481   116202837.105    22112657.087    90547675.937    22112656.515  
                                
  21201461.463   111414443.220    21201460.176    86816453.493    21201459.747  
  21201464.268    83199116.627  
  20268806.732   106513330.842    20268804.999    82997413.607    20268804.677  
  20268808.966    79539200.583  
  20327140.051   106819887.281    20327140.533    83236298.507    20327139.979  
  20327141.141    79768130.028  
  23805368.476   125098075.498    23805370.245    97479030.384    23805369.619  
  23805369.297    93417406.759  
  22169040.698   118714234.612    22169041.234    92333306.270    22169041.270  
                                
  19826195.912   105982420.593    19826196.841    82430793.199    19826196.752  
                                
  21638193.625   115343780.787    21638196.806    89711860.470    21638196.913  
                                
  21208903.625   113333984.070    21208905.626    88148687.809    21208905.465  
                                
  21228124.368   113516327.867    21228128.174    88290488.352    21228127.120  
                                
  21405362.829   114544441.080    21405363.258    89090125.595    21405363.186  
                                
  25945962.475   136346982.084                                                  
  25945965.906   101817573.919  
  23468574.078   123328233.391                                                  
  23468576.633    92095795.680  
  23692734.860   124506195.411                                                  
  23692737.844    92975430.737  
  25672864.712   134911827.815                                                  
  25672868.500   100745866.647  
  27344006.671   143693743.036                                                  
  27344010.030   107303793.741  
  26989324.058   141829867.554                                                  
  26989328.508   105911949.106  
  26491776.195   139215218.720                                                  
  26491781.377   103959429.753  
 21  8 31 20 49 27.0000000  0 19G10G15G18G23G24G32R 4R 5R14R15R20R21
                                E 3E 5E 9E15E24E31E36
  21961698.813   115409529.319    21961698.884    89929514.595    21961698.687  
  21961697.437    86182450.619  
  22113190.888   116205634.893    22113189.494    90549856.029    22113188.923  
                                
  21201924.128   111416874.490    21201922.823    86818347.989    21201922.412  
  21201926.915    83200932.186  
  20268687.010   106512701.673    20268685.277    82996923.343    20268684.937  
  20268689.244    79538730.745  
  20327099.524   106819674.290    20327100.006    83236132.540    20327099.452  
  20327100.614    79767970.978  
  23804841.625   125095306.898    23804843.376    97476873.034    23804842.751  
  23804842.429    93415339.307  
  22169519.159   118716796.719    22169519.695    92335299.019    22169519.731  
                                
  19826256.684   105982745.392    19826257.614    82431045.822    19826257.506  
                                
  21638375.550   115344750.454    21638378.712    89712614.659    21638378.820  
                                
  21208390.337   113331241.214    21208392.356    88146554.473    21208392.178  
                                
  21228735.364   113519595.161    21228739.170    88293029.583    21228738.115  
                                
  21405182.763   114543477.471    21405183.192    89089376.121    21405183.102  
                                
  25945605.559   136345106.520                                                  
  25945608.990   101816173.339  
  23468577.669   123328252.260                                                  
  23468580.225    92095809.770  
  23693094.384   124508084.732                                                  
  23693097.368    92976841.596  
  25672568.944   134910273.669                                                  
  25672572.750   100744706.086  
  27343521.402   143691192.900                                                  
  27343524.761   107301889.423  
  26989164.953   141829031.383                                                  
  26989169.384   105911324.691  
  26492373.932   139218359.915                                                  
  26492379.132   103961775.455  
 21  8 31 20 49 28.0000000  0 19G10G15G18G23G24G32R 4R 5R14R15R20R21
                                E 3E 5E 9E15E24E31E36
  21961232.181   115407077.059    21961232.252    89927603.743    21961232.038  
  21961230.805    86180619.377  
  22113723.314   116208432.705    22113721.920    90552036.137    22113721.330  
                                
  21202386.846   111419306.109    21202385.541    86820242.759    21202385.130  
  21202389.633    83202748.007  
  20268567.341   106512072.744    20268565.608    82996433.269    20268565.268  
  20268569.575    79538261.090  
  20327059.104   106819461.848    20327059.569    83235966.998    20327059.032  
  20327060.176    79767812.336  
  23804314.775   125092538.323    23804316.544    97474715.700    23804315.919  
  23804315.579    93413271.862  
  22169997.602   118719358.784    22169998.138    92337291.737    22169998.174  
                                
  19826317.457   105983070.315    19826318.386    82431298.538    19826318.297  
                                
  21638557.581   115345720.807    21638560.744    89713369.373    21638560.851  
                                
  21207877.139   113328498.828    21207879.158    88144421.507    21207878.979  
                                
  21229346.448   113522862.895    21229350.254    88295571.154    21229349.200  
                                
  21405002.840   114542514.635    21405003.268    89088627.247    21405003.179  
                                
  25945248.661   136343230.923                                                  
  25945252.074   101814772.733  
  23468581.261   123328271.149                                                  
  23468583.816    92095823.871  
  23693453.909   124509973.951                                                  
  23693456.875    92978252.376  
  25672273.265   134908719.779                                                  
  25672277.053   100743545.709  
  27343036.097   143688642.736                                                  
  27343039.456   107299985.093  
  26989005.865   141828195.473                                                  
  26989010.314   105910700.479  
  26492971.687   139221501.069                                                  
  26492976.869   103964121.122  
 21  8 31 20 49 29.0000000  0 19G10G15G18G23G24G32R 4R 5R14R15R20R21
                                E 3E 5E 9E15E24E31E36
  21960765.549   115404624.852    21960765.621    89925692.932    21960765.406  
  21960764.155    86178788.186  
  22114255.721   116211230.549    22114254.327    90554216.278    22114253.738  
                                
  21202849.636   111421738.127    21202848.349    86822137.840    21202847.938  
  21202852.441    83204564.120  
  20268447.708   106511444.100    20268445.975    82995943.414    20268445.635  
  20268449.942    79537791.648  
  20327018.791   106819249.989    20327019.256    83235801.918    20327018.702  
  20327019.864    79767654.135  
  23803787.960   125089769.797    23803789.729    97472558.419    23803789.086  
  23803788.765    93411204.458  
  22170476.063   118721920.870    22170476.599    92339284.468    22170476.617  
                                
  19826378.283   105983395.415    19826379.212    82431551.394    19826379.105  
                                
  21638739.756   115346691.888    21638742.937    89714124.654    21638743.044  
                                
  21207364.030   113325756.956    21207366.049    88142288.942    21207365.888  
                                
  21229957.605   113526131.085    21229961.393    88298113.080    21229960.339  
                                
  21404823.059   114541552.601    21404823.488    89087878.998    21404823.399  
                                
  25944891.728   136341355.323                                                  
  25944895.159   101813372.128  
  23468584.871   123328290.106                                                  
  23468587.408    92095838.033  
  23693813.398   124511863.110                                                  
  23693816.364    92979663.108  
  25671977.604   134907166.176                                                  
  25671981.410   100742385.556  
  27342550.828   143686092.624                                                  
  27342554.187   107298080.786  
  26988846.866   141827359.889                                                  
  26988851.316   105910076.510  
  26493569.441   139224642.235                                                  
  26493574.623   103966466.787  
 21  8 31 20 49 30.0000000  0 19G10G15G18G23G24G32R 4R 5R14R15R20R21
                                E 3E 5E 9E15E24E31E36
  21960298.900   115402172.671    21960298.971    89923782.142    21960298.757  
  21960297.524    86176957.016  
  22114788.129   116214028.419    22114786.753    90556396.432    22114786.163  
                                
  21203312.497   111424170.500    21203311.210    86824033.193    21203310.799  
  21203315.302    83206380.505  
  20268328.128   106510815.712    20268326.377    82995453.761    20268326.056  
  20268330.344    79537322.399  
  20326978.586   106819038.697    20326979.051    83235637.273    20326978.497  
  20326979.658    79767496.354  
  23803261.110   125087001.282    23803262.879    97470401.135    23803262.254  
  23803261.932    93409137.059  
  22170954.506   118724482.935    22170955.042    92341277.180    22170955.078  
                                
  19826439.127   105983720.658    19826440.056    82431804.361    19826439.949  
                                
  21638922.056   115347663.673    21638925.219    89714880.488    21638925.326  
                                
  21206851.010   113323015.571    21206853.029    88140156.751    21206852.851  
                                
  21230568.850   113529399.711    21230572.656    88300655.344    21230571.602  
                                
  21404643.422   114540591.296    21404643.851    89087131.321    21404643.762  
                                
  25944534.830   136339479.721                                                  
  25944538.243   101811971.518  
  23468588.498   123328309.106                                                  
  23468591.053    92095852.218  
  23694172.869   124513752.185                                                  
  23694175.853    92981073.783  
  25671682.032   134905612.841                                                  
  25671685.821   100741225.606  
  27342065.559   143683542.506                                                  
  27342068.918   107296176.475  
  26988687.903   141826524.592                                                  
  26988692.353   105909452.752  
  26494167.160   139227783.362                                                  
  26494172.360   103968812.429  
 21  8 31 20 49 31.0000000  0 19G10G15G18G23G24G32R 4R 5R14R15R20R21
                                E 3E 5E 9E15E24E31E36
  21959832.268   115399720.458    21959832.339    89921871.327    21959832.125  
  21959830.874    86175125.816  
  22115320.536   116216826.228    22115319.142    90558576.545    22115318.553  
                                
  21203775.430   111426603.175    21203774.125    86825928.785    21203773.714  
  21203778.217    83208197.113  
  20268208.585   106510187.514    20268206.851    82994964.256    20268206.530  
  20268210.818    79536853.286  
  20326938.470   106818827.910    20326938.953    83235473.025    20326938.399  
  20326939.560    79767338.944  
  23802734.278   125084232.718    23802736.047    97468243.812    23802735.421  
  23802735.082    93407069.621  
  22171432.949   118727044.853    22171433.485    92343269.776    22171433.503  
                                
  19826499.989   105984045.991    19826500.918    82432057.395    19826500.811  
                                
  21639104.481   115348636.100    21639107.661    89715636.823    21639107.768  
                                
  21206338.080   113320274.600    21206340.099    88138024.885    21206339.920  
                                
  21231180.168   113532668.704    21231183.974    88303197.893    21231182.919  
                                
  21404463.892   114539630.651    21404464.321    89086384.153    21404464.231  
                                
  25944177.878   136337604.012                                                  
  25944181.309   101810570.824  
  23468592.108   123328328.066                                                  
  23468594.645    92095866.378  
  23694532.323   124515641.095                                                  
  23694535.289    92982484.333  
  25671386.461   134904059.696                                                  
  25671390.249   100740065.788  
  27341580.272   143680992.312                                                  
  27341583.631   107294272.114  
  26988529.012   141825689.519                                                  
  26988533.444   105908829.154  
  26494764.879   139230924.378                                                  
  26494770.079   103971158.000  
 21  8 31 20 49 32.0000000  0 19G10G15G18G23G24G32R 4R 5R14R15R20R21
                                E 3E 5E 9E15E24E31E36
  21959365.654   115397268.354    21959365.726    89919960.596    21959365.511  
  21959364.260    86173294.699  
  22115852.962   116219624.136    22115851.568    90560756.729    22115850.996  
                                
  21204238.434   111429036.303    21204237.147    86827824.723    21204236.736  
  21204241.239    83210014.050  
  20268089.112   106509559.653    20268087.361    82994475.014    20268087.040  
  20268091.346    79536384.429  
  20326898.497   106818617.774    20326898.962    83235309.281    20326898.426  
  20326899.569    79767182.020  
  23802207.445   125081464.257    23802209.214    97466086.572    23802208.589  
  23802208.249    93405002.272  
  22171911.375   118729606.820    22171911.911    92345262.415    22171911.946  
                                
  19826560.887   105984371.548    19826561.816    82432310.610    19826561.726  
                                
  21639287.048   115349609.340    21639290.229    89716393.785    21639290.336  
                                
  21205825.257   113317534.205    21205827.276    88135893.469    21205827.097  
                                
  21231791.592   113535938.238    21231795.380    88305740.863    21231794.326  
                                
  21404284.523   114538670.840    21404284.969    89085637.628    21404284.880  
                                
  25943820.962   136335728.383                                                  
  25943824.375   101809170.190  
  23468595.735   123328347.154                                                  
  23468598.290    92095880.635  
  23694891.776   124517530.003                                                  
  23694894.742    92983894.880  
  25671090.997   134902506.918                                                  
  25671094.785   100738906.239  
  27341095.003   143678442.205                                                  
  27341098.362   107292367.814  
  26988370.156   141824854.818                                                  
  26988374.606   105908205.838  
  26495362.616   139234065.459                                                  
  26495367.815   103973503.603  
 21  8 31 20 49 33.0000000  0 19G10G15G18G23G24G32R 4R 5R14R15R20R21
                                E 3E 5E 9E15E24E31E36
  21958899.130   115394816.819    21958899.201    89918050.311    21958898.987  
  21958897.736    86171464.014  
  22116385.512   116222422.603    22116384.118    90562937.352    22116383.529  
                                
  21204701.617   111431470.322    21204700.330    86829721.362    21204699.902  
  21204704.422    83211831.664  
  20267969.765   106508932.588    20267968.032    82993986.392    20267967.710  
  20267971.999    79535916.166  
  20326858.703   106818408.736    20326859.167    83235146.396    20326858.614  
  20326859.775    79767025.922  
  23801680.720   125078696.324    23801682.489    97463929.739    23801681.864  
  23801681.524    93402935.324  
  22172389.889   118732169.288    22172390.443    92347255.443    22172390.461  
                                
  19826621.909   105984697.782    19826622.838    82432564.348    19826622.731  
                                
  21639469.884   115350583.832    21639473.047    89717151.721    21639473.154  
                                
  21205312.612   113314794.833    21205314.632    88133762.849    21205314.453  
                                
  21232403.195   113539208.731    21232406.983    88308284.580    21232405.929  
                                
  21404105.421   114537712.355    21404105.850    89084892.145    21404105.761  
                                
  25943464.136   136333853.259                                                  
  25943467.567   101807769.937  
  23468599.470   123328366.815                                                  
  23468602.025    92095895.319  
  23695251.301   124519419.359                                                  
  23695254.285    92985305.763  
  25670795.657   134900954.947                                                  
  25670799.446   100737747.293  
  27340609.823   143675892.607                                                  
  27340613.182   107290463.910  
  26988211.497   141824020.962                                                  
  26988215.947   105907583.143  
  26495960.442   139237207.053                                                  
  26495965.624   103975849.594  
 21  8 31 20 49 34.0000000  0 19G10G15G18G23G24G32R 4R 5R14R15R20R21
                                E 3E 5E 9E15E24E31E36
  21958432.677   115392365.574    21958432.748    89916140.251    21958432.534  
  21958431.301    86169633.530  
  22116918.081   116225221.356    22116916.687    90565118.201    22116916.115  
                                
  21205164.907   111433904.960    21205163.621    86831618.478    21205163.210  
  21205167.713    83213649.736  
  20267850.561   106508306.028    20267848.810    82993498.163    20267848.488  
  20267852.795    79535448.282  
  20326819.087   106818200.510    20326819.552    83234984.140    20326818.998  
  20326820.159    79766870.426  
  23801154.084   125075928.702    23801155.853    97461773.152    23801155.210  
  23801154.888    93400868.571  
  22172868.457   118734731.984    22172868.993    92349248.651    22172869.029  
                                
  19826683.003   105985024.392    19826683.933    82432818.376    19826683.825  
                                
  21639652.863   115351559.284    21639656.044    89717910.408    21639656.151  
                                
  21204800.129   113312056.223    21204802.148    88131632.821    21204801.969  
                                
  21233014.923   113542479.901    21233018.711    88310828.819    21233017.657  
                                
  21403926.499   114536754.905    21403926.928    89084147.459    21403926.838  
                                
  25943107.345   136331978.367                                                  
  25943110.776   101806369.855  
  23468603.276   123328386.775                                                  
  23468605.813    92095910.219  
  23695610.861   124521308.886                                                  
  23695613.845    92986716.771  
  25670500.425   134899403.475                                                  
  25670504.214   100736588.739  
  27340124.715   143673343.317                                                  
  27340128.092   107288560.211  
  26988052.910   141823187.614                                                  
  26988057.359   105906960.852  
  26496558.303   139240348.843                                                  
  26496563.503   103978195.739  
 21  8 31 20 49 35.0000000  0 19G10G15G18G23G24G32R 4R 5R14R15R20R21
                                E 3E 5E 9E15E24E31E36
  21957966.242   115389914.459    21957966.313    89914230.298    21957966.099  
  21957964.866    86167803.165  
  22117450.703   116228020.233    22117449.309    90567299.142    22117448.719  
                                
  21205628.287   111436340.074    21205627.000    86833515.972    21205626.589  
  21205631.092    83215468.167  
  20267731.392   106507679.834    20267729.641    82993010.220    20267729.320  
  20267733.626    79534980.675  
  20326779.579   106817992.959    20326780.061    83234822.412    20326779.507  
  20326780.669    79766715.442  
  23800627.413   125073161.191    23800629.182    97459616.657    23800628.556  
  23800628.217    93398801.942  
  22173347.043   118737294.779    22173347.579    92351241.934    22173347.615  
                                
  19826744.151   105985351.268    19826745.080    82433072.608    19826744.991  
                                
  21639836.021   115352535.572    21639839.201    89718669.743    21639839.308  
                                
  21204287.735   113309318.221    21204289.754    88129503.261    21204289.575  
                                
  21233626.741   113545751.615    21233630.547    88313373.485    21233629.492  
                                
  21403747.737   114535798.300    21403748.166    89083403.430    21403748.077  
                                
  25942750.590   136330103.568                                                  
  25942754.021   101804969.847  
  23468607.100   123328406.891                                                  
  23468609.655    92095925.239  
  23695970.439   124523198.439                                                  
  23695973.423    92988127.794  
  25670205.265   134897852.404                                                  
  25670209.053   100735430.468  
  27339639.624   143670794.111                                                  
  27339642.984   107286656.579  
  26987894.412   141822354.682                                                  
  26987898.861   105906338.858  
  26497156.183   139243490.740                                                  
  26497161.383   103980541.956  
 21  8 31 20 49 36.0000000  0 19G10G15G18G23G24G32R 4R 5R14R15R20R21
                                E 3E 5E 9E15E24E31E36
  21957499.878   115387463.769    21957499.950    89912320.667    21957499.753  
  21957498.502    86165973.100  
  22117983.378   116230819.503    22117981.984    90569480.391    22117981.395  
                                
  21206091.827   111438775.945    21206090.540    86835414.051    21206090.112  
  21206094.632    83217287.160  
  20267612.349   106507054.292    20267610.616    82992522.789    20267610.276  
  20267614.583    79534513.549  
  20326740.267   106817786.366    20326740.732    83234661.430    20326740.196  
  20326741.339    79766561.174  
  23800100.884   125070394.100    23800102.653    97457460.492    23800102.010  
  23800101.670    93396735.605  
  22173825.701   118739857.935    22173826.237    92353235.500    22173826.273  
                                
  19826805.406   105985678.682    19826806.335    82433327.265    19826806.228  
                                
  21640019.375   115353512.958    21640022.537    89719429.928    21640022.645  
                                
  21203775.519   113306581.102    21203777.538    88127374.394    21203777.377  
                                
  21234238.719   113549024.135    21234242.525    88315918.778    21234241.471  
                                
  21403569.190   114534842.860    21403569.637    89082660.311    21403569.547  
                                
  25942393.906   136328229.139                                                  
  25942397.319   101803570.109  
  23468611.013   123328427.423                                                  
  23468613.550    92095940.573  
  23696330.071   124525088.285                                                  
  23696333.055    92989539.048  
  25669910.229   134896301.989                                                  
  25669914.018   100734272.686  
  27339154.588   143668245.276                                                  
  27339157.947   107284753.250  
  26987736.038   141821522.435                                                  
  26987740.488   105905717.370  
  26497754.134   139246632.976                                                  
  26497759.334   103982888.433  
 21  8 31 20 49 37.0000000  0 19G10G15G18G23G24G32R 4R 5R14R15R20R21
                                E 3E 5E 9E15E24E31E36
  21957033.550   115385013.126    21957033.622    89910411.075    21957033.407  
  21957032.174    86164143.070  
  22118516.072   116233618.809    22118514.678    90571661.666    22118514.106  
                                
  21206555.439   111441212.174    21206554.152    86837312.411    21206553.741  
  21206558.244    83219106.422  
  20267493.359   106506429.002    20267491.626    82992035.550    20267491.304  
  20267495.593    79534046.610  
  20326701.080   106817580.344    20326701.545    83234500.893    20326700.991  
  20326702.152    79766407.317  
  23799574.302   125067627.018    23799576.071    97455304.324    23799575.445  
  23799575.106    93394669.291  
  22174304.341   118742421.029    22174304.877    92355229.017    22174304.912  
                                
  19826866.679   105986006.250    19826867.608    82433582.041    19826867.519  
                                
  21640202.854   115354491.061    21640206.034    89720190.680    21640206.124  
                                
  21203263.411   113303844.476    21203265.412    88125245.909    21203265.251  
                                
  21234850.786   113552297.103    21234854.593    88318464.415    21234853.538  
                                
  21403390.768   114533888.162    21403391.197    89081917.770    21403391.107  
