% program   : rnx2rtkp ver.2.4.3 b31
% inp file  : ngs/21_08_31_06_17_36_momf.obs
% inp file  : ngs/21_08_31_06_17_36_momf_SNMO.obs
% inp file  : ngs/21_08_31_06_17_36_brdc.nav
% obs start : 2021/08/31 06:00:00.0 GPST (week2173 194400.0s)
% obs end   : 2021/08/31 06:59:59.0 GPST (week2173 197999.0s)
% ref pos   :  -261313.9276  -5070058.8207   3847994.0302
%
% (x/y/z-ecef=WGS84,Q=1:fix,2:float,3:sbas,4:dgps,5:single,6:ppp,ns=# of satellites)
%  GPST              x-ecef(m)      y-ecef(m)      z-ecef(m)   Q  ns   sdx(m)   sdy(m)   sdz(m)  sdxy(m)  sdyz(m)  sdzx(m) age(s)  ratio
2173 195433.000   -261330.7708  -5070389.7099   3848246.3936   2   7   0.4588   0.9542   0.8659   0.1160  -0.7849  -0.1549 -30.00    2.4
2173 195434.000   -261330.6652  -5070389.5498   3848246.4569   2   7   0.3265   0.6793   0.6158   0.0834  -0.5585  -0.1106 -29.00    2.9
2173 195435.000   -261330.5495  -5070389.5219   3848246.4787   2   7   0.2673   0.5562   0.5040   0.0683  -0.4573  -0.0906 -28.00    2.3
2173 195436.000   -261330.5939  -5070389.4570   3848246.3480   2   7   0.2319   0.4825   0.4372   0.0591  -0.3966  -0.0785 -27.00    2.4
2173 195437.000   -261330.6264  -5070389.4895   3848246.4111   2   7   0.2077   0.4321   0.3915   0.0528  -0.3552  -0.0703 -26.00    2.8
2173 195438.000   -261330.9755  -5070389.4744   3848246.6665   1   7   0.0200   0.0391   0.0404  -0.0058  -0.0338  -0.0021 -25.00    3.0
2173 195439.000   -261330.9770  -5070389.4728   3848246.6673   1   7   0.0193   0.0377   0.0388  -0.0055  -0.0325  -0.0021 -24.00    3.5
2173 195440.000   -261330.9756  -5070389.4673   3848246.6646   1   7   0.0185   0.0362   0.0373  -0.0052  -0.0312  -0.0021 -23.00    3.9
2173 195441.000   -261330.9771  -5070389.4631   3848246.6609   1   7   0.0178   0.0348   0.0358  -0.0050  -0.0300  -0.0021 -22.00    4.5
2173 195442.000   -261330.9769  -5070389.4670   3848246.6606   1   7   0.0171   0.0333   0.0342  -0.0047  -0.0287  -0.0021 -21.00    4.9
2173 195443.000   -261330.9775  -5070389.4599   3848246.6582   1   7   0.0163   0.0319   0.0327  -0.0044  -0.0275  -0.0021 -20.00    4.8
2173 195444.000   -261330.9805  -5070389.4633   3848246.6586   1   7   0.0156   0.0305   0.0312  -0.0042  -0.0262  -0.0021 -19.00    4.8
2173 195445.000   -261330.9806  -5070389.4597   3848246.6544   1   7   0.0149   0.0291   0.0297  -0.0039  -0.0250  -0.0021 -18.00    4.9
2173 195446.000   -261330.9807  -5070389.4611   3848246.6549   1   7   0.0142   0.0276   0.0282  -0.0036  -0.0237  -0.0021 -17.00    5.1
2173 195447.000   -261330.9819  -5070389.4624   3848246.6583   1   7   0.0134   0.0262   0.0267  -0.0032  -0.0225  -0.0021 -16.00    5.2
2173 195448.000   -261330.9769  -5070389.4648   3848246.6565   1   7   0.0127   0.0249   0.0252  -0.0030  -0.0213  -0.0021 -15.00    5.4
2173 195449.000   -261330.9795  -5070389.4672   3848246.6606   1   7   0.0120   0.0235   0.0237  -0.0026  -0.0201  -0.0022 -14.00    5.4
2173 195450.000   -261330.9781  -5070389.4639   3848246.6546   1   7   0.0113   0.0221   0.0223  -0.0022  -0.0189  -0.0021 -13.00    5.4
2173 195451.000   -261330.9777  -5070389.4604   3848246.6533   1   7   0.0106   0.0208   0.0209  -0.0020  -0.0177  -0.0022 -12.00    5.7
2173 195452.000   -261330.9757  -5070389.4573   3848246.6542   1   7   0.0100   0.0195   0.0194  -0.0016  -0.0166  -0.0021 -11.00    5.8
2173 195453.000   -261330.9751  -5070389.4549   3848246.6528   1   7   0.0093   0.0182   0.0181  -0.0013  -0.0154  -0.0022 -10.00    5.9
2173 195454.000   -261330.9723  -5070389.4484   3848246.6463   1   7   0.0087   0.0170   0.0167  -0.0010  -0.0143  -0.0022  -9.00    6.2
2173 195455.000   -261330.9734  -5070389.4462   3848246.6445   1   7   0.0081   0.0158   0.0154  -0.0005  -0.0133  -0.0021  -8.00    6.9
2173 195456.000   -261330.9706  -5070389.4493   3848246.6473   1   7   0.0074   0.0146   0.0141   0.0014  -0.0122  -0.0020  -7.00    7.3
2173 195457.000   -261330.9704  -5070389.4500   3848246.6502   1   7   0.0068   0.0135   0.0129   0.0011  -0.0113  -0.0019  -6.00    8.2
2173 195458.000   -261330.9690  -5070389.4428   3848246.6458   1   7   0.0063   0.0125   0.0118   0.0011  -0.0104  -0.0020  -5.00    9.4
2173 195459.000   -261330.9675  -5070389.4374   3848246.6376   1   7   0.0057   0.0116   0.0108   0.0015  -0.0096  -0.0018  -4.00   10.6
2173 195460.000   -261330.9667  -5070389.4370   3848246.6392   1   7   0.0053   0.0108   0.0100   0.0014  -0.0089  -0.0022  -3.00   11.8
2173 195461.000   -261330.9665  -5070389.4452   3848246.6455   1   7   0.0053   0.0102   0.0093   0.0012  -0.0084  -0.0014  -2.00   12.9
2173 195462.000   -261330.9660  -5070389.4448   3848246.6458   1   7   0.0048   0.0098   0.0088   0.0014  -0.0080  -0.0015  -1.00   14.1
2173 195463.000   -261330.9644  -5070389.4464   3848246.6482   1   7   0.0045   0.0096   0.0087   0.0015  -0.0079  -0.0015   0.00   15.6
2173 195464.000   -261330.9686  -5070389.4554   3848246.6536   1   7   0.0048   0.0096   0.0088   0.0006  -0.0078  -0.0015   0.00   16.9
2173 195465.000   -261330.9672  -5070389.4528   3848246.6508   1   7   0.0042   0.0096   0.0086   0.0016  -0.0079  -0.0013   0.00   18.1
2173 195466.000   -261330.9670  -5070389.4469   3848246.6491   1   7   0.0052   0.0097   0.0086   0.0008  -0.0079  -0.0017   0.00   19.1
2173 195467.000   -261330.9622  -5070389.4498   3848246.6501   1   7   0.0046   0.0095   0.0088   0.0014  -0.0079  -0.0007   0.00   20.1
2173 195468.000   -261330.9677  -5070389.4441   3848246.6498   1   7   0.0048   0.0097   0.0087   0.0012  -0.0079  -0.0016   0.00   20.7
2173 195469.000   -261330.9676  -5070389.4540   3848246.6536   1   7   0.0048   0.0097   0.0086   0.0017  -0.0079  -0.0016   0.00   21.2
2173 195470.000   -261330.9650  -5070389.4533   3848246.6510   1   7   0.0045   0.0097   0.0087   0.0009  -0.0079  -0.0016   0.00   21.7
2173 195471.000   -261330.9666  -5070389.4477   3848246.6516   1   7   0.0044   0.0097   0.0086   0.0002  -0.0079  -0.0013   0.00   22.4
2173 195472.000   -261330.9629  -5070389.4527   3848246.6491   1   7   0.0049   0.0097   0.0086  -0.0009  -0.0078  -0.0021   0.00   22.8
2173 195473.000   -261330.9646  -5070389.4545   3848246.6570   1   7   0.0042   0.0096   0.0087   0.0019  -0.0079  -0.0015   0.00   23.2
2173 195474.000   -261330.9658  -5070389.4543   3848246.6552   1   7   0.0048   0.0096   0.0087   0.0014  -0.0079  -0.0018   0.00   23.5
2173 195475.000   -261330.9662  -5070389.4534   3848246.6578   1   7   0.0043   0.0096   0.0086   0.0018  -0.0079  -0.0012   0.00   24.0
2173 195476.000   -261330.9655  -5070389.4557   3848246.6546   1   7   0.0047   0.0096   0.0087   0.0014  -0.0079  -0.0016   0.00   23.8
2173 195477.000   -261330.9660  -5070389.4572   3848246.6538   1   7   0.0049   0.0097   0.0088   0.0012  -0.0078  -0.0018   0.00   23.6
2173 195478.000   -261330.9654  -5070389.4558   3848246.6521   1   7   0.0043   0.0096   0.0086   0.0016  -0.0079  -0.0018   0.00   23.9
2173 195479.000   -261330.9642  -5070389.4507   3848246.6487   1   7   0.0049   0.0096   0.0085  -0.0003  -0.0079  -0.0021   0.00   23.7
2173 195480.000   -261330.9633  -5070389.4532   3848246.6480   1   7   0.0046   0.0096   0.0087   0.0010  -0.0078  -0.0014   0.00   24.3
2173 195481.000   -261330.9638  -5070389.4490   3848246.6457   1   7   0.0050   0.0096   0.0086   0.0010  -0.0079  -0.0011   0.00   23.9
2173 195482.000   -261330.9656  -5070389.4523   3848246.6526   1   7   0.0043   0.0096   0.0086   0.0008  -0.0079  -0.0015   0.00   23.8
2173 195483.000   -261330.9659  -5070389.4532   3848246.6533   1   7   0.0048   0.0096   0.0087   0.0006  -0.0079  -0.0016   0.00   23.9
2173 195484.000   -261330.9670  -5070389.4515   3848246.6500   1   7   0.0050   0.0097   0.0087   0.0007  -0.0078  -0.0015   0.00   23.8
2173 195485.000   -261330.9628  -5070389.4556   3848246.6510   1   7   0.0046   0.0096   0.0087   0.0018  -0.0079  -0.0011   0.00   23.9
2173 195486.000   -261330.9635  -5070389.4556   3848246.6508   1   7   0.0046   0.0097   0.0086   0.0017  -0.0079  -0.0013   0.00   23.5
2173 195487.000   -261330.9667  -5070389.4572   3848246.6557   1   7   0.0051   0.0097   0.0087  -0.0018  -0.0079  -0.0011   0.00   23.7
2173 195488.000   -261330.9644  -5070389.4556   3848246.6518   1   7   0.0049   0.0096   0.0087   0.0018  -0.0078  -0.0011   0.00   23.7
2173 195489.000   -261330.9655  -5070389.4536   3848246.6517   1   7   0.0043   0.0096   0.0086   0.0014  -0.0079  -0.0016   0.00   23.9
2173 195490.000   -261330.9679  -5070389.4532   3848246.6499   1   7   0.0044   0.0097   0.0087   0.0007  -0.0078  -0.0017   0.00   24.1
2173 195491.000   -261330.9666  -5070389.4530   3848246.6507   1   7   0.0047   0.0097   0.0085   0.0006  -0.0079  -0.0021   0.00   24.5
2173 195492.000   -261330.9653  -5070389.4522   3848246.6488   1   7   0.0044   0.0096   0.0086   0.0014  -0.0079  -0.0017   0.00   24.3
2173 195493.000   -261330.9645  -5070389.4472   3848246.6458   1   7   0.0043   0.0096   0.0086   0.0015  -0.0079  -0.0015   0.00   24.2
2173 195494.000   -261330.9651  -5070389.4576   3848246.6536   1   7   0.0042   0.0096   0.0087   0.0014  -0.0079  -0.0019   0.00   24.7
2173 195495.000   -261330.9679  -5070389.4517   3848246.6525   1   7   0.0046   0.0096   0.0088   0.0002  -0.0079  -0.0018   0.00   24.3
2173 195496.000   -261330.9690  -5070389.4530   3848246.6536   1   7   0.0042   0.0096   0.0086   0.0013  -0.0080  -0.0020   0.00   24.1
2173 195497.000   -261330.9694  -5070389.4519   3848246.6521   1   7   0.0045   0.0096   0.0085   0.0016  -0.0079  -0.0016   0.00   24.4
2173 195498.000   -261330.9676  -5070389.4549   3848246.6531   1   7   0.0042   0.0096   0.0086   0.0014  -0.0079  -0.0015   0.00   24.5
2173 195499.000   -261330.9685  -5070389.4541   3848246.6492   1   7   0.0048   0.0095   0.0087   0.0018  -0.0079  -0.0006   0.00   24.5
2173 195500.000   -261330.9698  -5070389.4537   3848246.6524   1   7   0.0049   0.0097   0.0087  -0.0014  -0.0078  -0.0017   0.00   24.6
2173 195501.000   -261330.9685  -5070389.4540   3848246.6528   1   7   0.0048   0.0098   0.0087  -0.0006  -0.0077  -0.0018   0.00   24.6
2173 195502.000   -261330.9693  -5070389.4551   3848246.6487   1   7   0.0051   0.0097   0.0088  -0.0009  -0.0077  -0.0004   0.00   25.1
2173 195503.000   -261330.9673  -5070389.4535   3848246.6503   1   7   0.0051   0.0096   0.0087   0.0010  -0.0079  -0.0018   0.00   25.0
2173 195504.000   -261330.9709  -5070389.4557   3848246.6537   1   7   0.0049   0.0097   0.0088   0.0013  -0.0078  -0.0013   0.00   25.4
2173 195505.000   -261330.9694  -5070389.4465   3848246.6482   1   7   0.0045   0.0096   0.0086   0.0016  -0.0079  -0.0017   0.00   25.3
2173 195506.000   -261330.9669  -5070389.4535   3848246.6523   1   7   0.0044   0.0095   0.0086   0.0014  -0.0079  -0.0011   0.00   25.6
2173 195507.000   -261330.9671  -5070389.4584   3848246.6538   1   7   0.0049   0.0097   0.0086   0.0015  -0.0078  -0.0021   0.00   25.8
2173 195508.000   -261330.9704  -5070389.4584   3848246.6550   1   7   0.0043   0.0096   0.0086   0.0021  -0.0078  -0.0014   0.00   25.9
2173 195509.000   -261330.9692  -5070389.4540   3848246.6522   1   7   0.0046   0.0096   0.0086  -0.0000  -0.0079  -0.0018   0.00   26.0
2173 195510.000   -261330.9695  -5070389.4610   3848246.6580   1   7   0.0047   0.0096   0.0087   0.0010  -0.0079  -0.0019   0.00   26.3
2173 195511.000   -261330.9708  -5070389.4584   3848246.6564   1   7   0.0048   0.0097   0.0086  -0.0005  -0.0078  -0.0027   0.00   26.1
2173 195512.000   -261330.9698  -5070389.4509   3848246.6512   1   7   0.0045   0.0097   0.0086   0.0010  -0.0079  -0.0016   0.00   26.2
2173 195513.000   -261330.9703  -5070389.4552   3848246.6552   1   7   0.0046   0.0097   0.0084  -0.0008  -0.0078  -0.0018   0.00   26.1
2173 195514.000   -261330.9699  -5070389.4518   3848246.6539   1   7   0.0042   0.0096   0.0085   0.0017  -0.0079  -0.0020   0.00   26.1
2173 195515.000   -261330.9692  -5070389.4556   3848246.6556   1   7   0.0045   0.0096   0.0087   0.0015  -0.0078  -0.0020   0.00   26.1
2173 195516.000   -261330.9710  -5070389.4512   3848246.6512   1   7   0.0048   0.0097   0.0086   0.0011  -0.0078  -0.0012   0.00   26.1
2173 195517.000   -261330.9717  -5070389.4566   3848246.6558   1   7   0.0049   0.0097   0.0087  -0.0012  -0.0079  -0.0017   0.00   25.9
2173 195518.000   -261330.9701  -5070389.4528   3848246.6504   1   7   0.0046   0.0096   0.0087   0.0019  -0.0078  -0.0016   0.00   26.2
2173 195519.000   -261330.9711  -5070389.4564   3848246.6549   1   7   0.0044   0.0096   0.0085   0.0015  -0.0078  -0.0016   0.00   26.2
2173 195520.000   -261330.9688  -5070389.4567   3848246.6566   1   7   0.0045   0.0097   0.0086  -0.0006  -0.0078  -0.0016   0.00   26.2
2173 195521.000   -261330.9700  -5070389.4530   3848246.6510   1   7   0.0045   0.0096   0.0086   0.0010  -0.0079  -0.0011   0.00   26.1
2173 195522.000   -261330.9695  -5070389.4563   3848246.6542   1   7   0.0046   0.0096   0.0086   0.0007  -0.0078  -0.0015   0.00   26.3
2173 195523.000   -261330.9693  -5070389.4524   3848246.6552   1   7   0.0046   0.0097   0.0086   0.0011  -0.0078  -0.0017   0.00   26.0
2173 195524.000   -261330.9680  -5070389.4510   3848246.6499   1   7   0.0048   0.0096   0.0085   0.0008  -0.0079  -0.0018   0.00   26.3
2173 195525.000   -261330.9688  -5070389.4565   3848246.6532   1   7   0.0045   0.0096   0.0087   0.0017  -0.0079   0.0008   0.00   26.3
2173 195526.000   -261330.9714  -5070389.4504   3848246.6490   1   7   0.0050   0.0097   0.0085  -0.0012  -0.0078  -0.0021   0.00   26.4
2173 195527.000   -261330.9689  -5070389.4583   3848246.6540   1   7   0.0041   0.0096   0.0084   0.0021  -0.0079  -0.0008   0.00   26.1
2173 195528.000   -261330.9703  -5070389.4569   3848246.6553   1   7   0.0043   0.0096   0.0086   0.0019  -0.0079  -0.0010   0.00   26.0
2173 195529.000   -261330.9725  -5070389.4619   3848246.6587   1   7   0.0043   0.0096   0.0087   0.0008  -0.0079  -0.0013   0.00   25.9
2173 195530.000   -261330.9700  -5070389.4636   3848246.6600   1   7   0.0048   0.0097   0.0085   0.0010  -0.0079  -0.0021   0.00   26.3
2173 195531.000   -261330.9713  -5070389.4608   3848246.6584   1   7   0.0046   0.0097   0.0086   0.0015  -0.0078  -0.0018   0.00   26.1
2173 195532.000   -261330.9710  -5070389.4577   3848246.6534   1   7   0.0044   0.0097   0.0088   0.0021  -0.0077  -0.0016   0.00   26.3
2173 195533.000   -261330.9694  -5070389.4552   3848246.6559   1   7   0.0047   0.0095   0.0087   0.0021  -0.0079  -0.0008   0.00   26.3
2173 195534.000   -261330.9655  -5070389.4553   3848246.6514   1   7   0.0049   0.0096   0.0086  -0.0009  -0.0078  -0.0022   0.00   26.3
2173 195535.000   -261330.9687  -5070389.4563   3848246.6581   1   7   0.0048   0.0096   0.0086   0.0016  -0.0078  -0.0010   0.00   26.3
2173 195536.000   -261330.9701  -5070389.4556   3848246.6551   1   7   0.0052   0.0097   0.0086   0.0016  -0.0078  -0.0018   0.00   26.3
2173 195537.000   -261330.9658  -5070389.4470   3848246.6485   1   7   0.0043   0.0096   0.0086   0.0017  -0.0078  -0.0018   0.00   26.4
2173 195538.000   -261330.9688  -5070389.4492   3848246.6525   1   7   0.0051   0.0097   0.0086   0.0012  -0.0077  -0.0018   0.00   26.3
2173 195539.000   -261330.9682  -5070389.4535   3848246.6510   1   7   0.0043   0.0097   0.0086   0.0012  -0.0078  -0.0008   0.00   26.1
2173 195540.000   -261330.9691  -5070389.4504   3848246.6515   1   7   0.0051   0.0097   0.0087  -0.0009  -0.0078  -0.0008   0.00   26.0
2173 195541.000   -261330.9697  -5070389.4507   3848246.6525   1   7   0.0048   0.0096   0.0086   0.0007  -0.0078  -0.0002   0.00   26.1
2173 195542.000   -261330.9693  -5070389.4562   3848246.6569   1   7   0.0044   0.0096   0.0086   0.0015  -0.0078  -0.0014   0.00   26.1
2173 195543.000   -261330.9678  -5070389.4608   3848246.6578   1   7   0.0049   0.0097   0.0086   0.0007  -0.0079  -0.0021   0.00   25.9
2173 195544.000   -261330.9663  -5070389.4564   3848246.6546   1   7   0.0045   0.0097   0.0085   0.0009  -0.0079  -0.0019   0.00   26.0
2173 195545.000   -261330.9682  -5070389.4546   3848246.6556   1   7   0.0046   0.0096   0.0084  -0.0001  -0.0078  -0.0020   0.00   26.1
2173 195546.000   -261330.9728  -5070389.4517   3848246.6522   1   7   0.0048   0.0097   0.0085  -0.0005  -0.0078  -0.0022   0.00   25.9
2173 195547.000   -261330.9664  -5070389.4481   3848246.6517   1   7   0.0047   0.0096   0.0085   0.0011  -0.0079  -0.0021   0.00   25.6
2173 195548.000   -261330.9706  -5070389.4561   3848246.6550   1   7   0.0051   0.0096   0.0086   0.0012  -0.0078  -0.0011   0.00   25.4
2173 195549.000   -261330.9680  -5070389.4503   3848246.6502   1   7   0.0045   0.0096   0.0085   0.0013  -0.0078  -0.0010   0.00   25.1
2173 195550.000   -261330.9670  -5070389.4544   3848246.6568   1   7   0.0043   0.0096   0.0085   0.0020  -0.0078  -0.0013   0.00   24.9
2173 195551.000   -261330.9678  -5070389.4543   3848246.6549   1   7   0.0043   0.0097   0.0085   0.0010  -0.0078  -0.0017   0.00   24.7
2173 195552.000   -261330.9698  -5070389.4562   3848246.6572   1   7   0.0042   0.0096   0.0086   0.0013  -0.0078  -0.0020   0.00   24.7
2173 195553.000   -261330.9699  -5070389.4533   3848246.6571   1   7   0.0048   0.0097   0.0087   0.0008  -0.0078  -0.0014   0.00   24.6
2173 195554.000   -261330.9680  -5070389.4541   3848246.6533   1   7   0.0045   0.0096   0.0085   0.0016  -0.0077  -0.0020   0.00   24.5
2173 195555.000   -261330.9691  -5070389.4517   3848246.6516   1   7   0.0048   0.0097   0.0084   0.0014  -0.0078  -0.0024   0.00   24.5
2173 195556.000   -261330.9708  -5070389.4556   3848246.6591   1   7   0.0045   0.0095   0.0085   0.0016  -0.0079  -0.0021   0.00   24.5
2173 195557.000   -261330.9697  -5070389.4554   3848246.6537   1   7   0.0046   0.0096   0.0083  -0.0013  -0.0079  -0.0018   0.00   24.3
2173 195558.000   -261330.9665  -5070389.4595   3848246.6588   1   7   0.0048   0.0096   0.0085   0.0012  -0.0078  -0.0018   0.00   24.3
2173 195559.000   -261330.9663  -5070389.4543   3848246.6579   1   7   0.0044   0.0097   0.0085   0.0005  -0.0078  -0.0022   0.00   24.1
2173 195560.000   -261330.9673  -5070389.4495   3848246.6539   1   7   0.0048   0.0097   0.0086   0.0007  -0.0078  -0.0021   0.00   24.0
2173 195561.000   -261330.9691  -5070389.4529   3848246.6529   1   7   0.0054   0.0097   0.0088  -0.0011  -0.0077  -0.0015   0.00   23.8
2173 195562.000   -261330.9692  -5070389.4491   3848246.6552   1   7   0.0047   0.0096   0.0085   0.0015  -0.0078  -0.0018   0.00   23.7
2173 195563.000   -261330.9704  -5070389.4536   3848246.6544   1   7   0.0043   0.0096   0.0084   0.0017  -0.0079  -0.0018   0.00   23.6
2173 195564.000   -261330.9670  -5070389.4527   3848246.6559   1   7   0.0051   0.0097   0.0085  -0.0013  -0.0078  -0.0021   0.00   23.6
2173 195565.000   -261330.9683  -5070389.4513   3848246.6535   1   7   0.0048   0.0096   0.0084   0.0016  -0.0078  -0.0017   0.00   23.5
2173 195566.000   -261330.9700  -5070389.4541   3848246.6543   1   7   0.0047   0.0097   0.0084   0.0014  -0.0078  -0.0019   0.00   23.4
2173 195567.000   -261330.9698  -5070389.4519   3848246.6529   1   7   0.0049   0.0096   0.0086   0.0020  -0.0078  -0.0016   0.00   23.3
2173 195568.000   -261330.9695  -5070389.4544   3848246.6574   1   7   0.0047   0.0096   0.0088   0.0016  -0.0078  -0.0008   0.00   23.3
2173 195569.000   -261330.9675  -5070389.4577   3848246.6560   1   7   0.0049   0.0096   0.0085  -0.0013  -0.0079  -0.0019   0.00   23.2
2173 195570.000   -261330.9685  -5070389.4522   3848246.6523   1   7   0.0046   0.0097   0.0084  -0.0005  -0.0078  -0.0008   0.00   23.0
2173 195571.000   -261330.9675  -5070389.4467   3848246.6485   1   7   0.0044   0.0096   0.0087   0.0013  -0.0077  -0.0007   0.00   22.8
2173 195572.000   -261330.9726  -5070389.4514   3848246.6521   1   7   0.0046   0.0097   0.0087   0.0013  -0.0077  -0.0016   0.00   22.8
2173 195573.000   -261330.9686  -5070389.4525   3848246.6551   1   7   0.0044   0.0097   0.0087  -0.0006  -0.0078  -0.0011   0.00   22.7
2173 195574.000   -261330.9696  -5070389.4515   3848246.6541   1   7   0.0046   0.0097   0.0084   0.0009  -0.0077  -0.0019   0.00   22.5
2173 195575.000   -261330.9685  -5070389.4498   3848246.6498   1   7   0.0048   0.0097   0.0085   0.0008  -0.0077  -0.0011   0.00   22.5
2173 195576.000   -261330.9660  -5070389.4482   3848246.6508   1   7   0.0048   0.0096   0.0085   0.0016  -0.0078  -0.0013   0.00   22.4
2173 195577.000   -261330.9672  -5070389.4491   3848246.6512   1   7   0.0051   0.0097   0.0084   0.0005  -0.0078  -0.0022   0.00   22.2
2173 195578.000   -261330.9675  -5070389.4498   3848246.6497   1   7   0.0045   0.0096   0.0084  -0.0009  -0.0079  -0.0011   0.00   22.1
2173 195579.000   -261330.9696  -5070389.4500   3848246.6514   1   7   0.0048   0.0096   0.0086   0.0009  -0.0078  -0.0017   0.00   21.9
2173 195580.000   -261330.9689  -5070389.4505   3848246.6538   1   7   0.0051   0.0096   0.0086   0.0010  -0.0078  -0.0017   0.00   21.8
2173 195581.000   -261330.9690  -5070389.4472   3848246.6496   1   7   0.0042   0.0096   0.0085   0.0014  -0.0078  -0.0010   0.00   21.7
2173 195582.000   -261330.9692  -5070389.4437   3848246.6500   1   7   0.0047   0.0097   0.0086   0.0012  -0.0077  -0.0012   0.00   21.7
2173 195583.000   -261330.9675  -5070389.4445   3848246.6508   1   7   0.0045   0.0097   0.0085   0.0015  -0.0078  -0.0020   0.00   21.5
2173 195584.000   -261330.9675  -5070389.4439   3848246.6473   1   7   0.0047   0.0097   0.0086   0.0013  -0.0078  -0.0016   0.00   21.4
2173 195585.000   -261330.9703  -5070389.4463   3848246.6506   1   7   0.0046   0.0096   0.0086  -0.0007  -0.0078  -0.0014   0.00   21.3
2173 195586.000   -261330.9693  -5070389.4453   3848246.6511   1   7   0.0051   0.0096   0.0085   0.0008  -0.0078  -0.0014   0.00   21.2
2173 195587.000   -261330.9675  -5070389.4477   3848246.6531   1   7   0.0048   0.0096   0.0087   0.0009  -0.0078  -0.0019   0.00   21.2
2173 195588.000   -261330.9707  -5070389.4493   3848246.6563   1   7   0.0046   0.0096   0.0086   0.0004  -0.0078  -0.0019   0.00   21.3
2173 195589.000   -261330.9705  -5070389.4475   3848246.6501   1   7   0.0043   0.0096   0.0086   0.0014  -0.0079   0.0008   0.00   21.1
2173 195590.000   -261330.9659  -5070389.4483   3848246.6541   1   7   0.0047   0.0097   0.0083  -0.0009  -0.0078  -0.0015   0.00   21.0
2173 195591.000   -261330.9694  -5070389.4478   3848246.6560   1   7   0.0048   0.0096   0.0086   0.0008  -0.0078  -0.0017   0.00   21.0
2173 195592.000   -261330.9676  -5070389.4434   3848246.6483   1   7   0.0042   0.0096   0.0084   0.0015  -0.0079  -0.0015   0.00   21.0
2173 195593.000   -261330.9676  -5070389.4484   3848246.6518   1   7   0.0044   0.0097   0.0086   0.0016  -0.0077  -0.0012   0.00   20.8
2173 195594.000   -261330.9692  -5070389.4428   3848246.6504   1   7   0.0047   0.0096   0.0085   0.0002  -0.0078  -0.0020   0.00   20.8
2173 195595.000   -261330.9680  -5070389.4529   3848246.6531   1   7   0.0052   0.0098   0.0087  -0.0008  -0.0076   0.0003   0.00   20.7
2173 195596.000   -261330.9675  -5070389.4493   3848246.6534   1   7   0.0048   0.0097   0.0086   0.0009  -0.0077  -0.0016   0.00   20.6
2173 195597.000   -261330.9670  -5070389.4495   3848246.6539   1   7   0.0043   0.0097   0.0083   0.0017  -0.0077  -0.0020   0.00   20.4
2173 195598.000   -261330.9694  -5070389.4447   3848246.6495   1   7   0.0054   0.0096   0.0084   0.0009  -0.0078  -0.0020   0.00   20.3
2173 195599.000   -261330.9693  -5070389.4457   3848246.6531   1   7   0.0044   0.0096   0.0086   0.0014  -0.0077   0.0002   0.00   20.1
2173 195600.000   -261330.9678  -5070389.4414   3848246.6476   1   7   0.0042   0.0096   0.0085   0.0015  -0.0079  -0.0011   0.00   20.1
2173 195601.000   -261330.9707  -5070389.4477   3848246.6519   1   7   0.0043   0.0096   0.0085  -0.0010  -0.0078  -0.0016   0.00   20.0
2173 195602.000   -261330.9663  -5070389.4514   3848246.6550   1   7   0.0038   0.0095   0.0084   0.0017  -0.0079  -0.0004   0.00   19.9
2173 195603.000   -261330.9699  -5070389.4537   3848246.6569   1   7   0.0046   0.0096   0.0085   0.0018  -0.0077  -0.0018   0.00   19.8
2173 195604.000   -261330.9687  -5070389.4454   3848246.6506   1   7   0.0050   0.0096   0.0086   0.0017  -0.0077  -0.0019   0.00   19.7
2173 195605.000   -261330.9694  -5070389.4507   3848246.6522   1   7   0.0050   0.0097   0.0086   0.0010  -0.0077  -0.0023   0.00   19.6
2173 195606.000   -261330.9699  -5070389.4528   3848246.6545   1   7   0.0049   0.0096   0.0085   0.0011  -0.0077  -0.0015   0.00   19.4
2173 195607.000   -261330.9690  -5070389.4487   3848246.6531   1   7   0.0050   0.0097   0.0085  -0.0009  -0.0078  -0.0019   0.00   19.4
2173 195608.000   -261330.9720  -5070389.4489   3848246.6573   1   7   0.0050   0.0097   0.0085  -0.0009  -0.0077  -0.0017   0.00   19.4
2173 195609.000   -261330.9714  -5070389.4504   3848246.6536   1   7   0.0051   0.0096   0.0084   0.0008  -0.0078  -0.0020   0.00   19.4
2173 195610.000   -261330.9679  -5070389.4476   3848246.6556   1   7   0.0046   0.0097   0.0085   0.0012  -0.0078   0.0006   0.00   19.4
2173 195611.000   -261330.9699  -5070389.4495   3848246.6557   1   7   0.0052   0.0097   0.0086  -0.0012  -0.0077  -0.0016   0.00   19.5
2173 195612.000   -261330.9699  -5070389.4507   3848246.6576   1   7   0.0045   0.0096   0.0087   0.0017  -0.0078  -0.0011   0.00   19.4
2173 195613.000   -261330.9698  -5070389.4490   3848246.6564   1   7   0.0047   0.0097   0.0084  -0.0008  -0.0078  -0.0010   0.00   19.4
2173 195614.000   -261330.9699  -5070389.4415   3848246.6507   1   7   0.0046   0.0097   0.0085   0.0008  -0.0077  -0.0027   0.00   19.3
2173 195615.000   -261330.9716  -5070389.4474   3848246.6527   1   7   0.0043   0.0097   0.0085   0.0016  -0.0078  -0.0009   0.00   19.4
2173 195616.000   -261330.9692  -5070389.4470   3848246.6546   1   7   0.0044   0.0096   0.0086   0.0019  -0.0078  -0.0007   0.00   19.4
2173 195617.000   -261330.9682  -5070389.4439   3848246.6507   1   7   0.0051   0.0096   0.0086   0.0007  -0.0078  -0.0016   0.00   19.4
2173 195618.000   -261330.9692  -5070389.4468   3848246.6538   1   7   0.0046   0.0096   0.0085   0.0013  -0.0078  -0.0014   0.00   19.3
2173 195619.000   -261330.9717  -5070389.4499   3848246.6563   1   7   0.0049   0.0096   0.0086  -0.0007  -0.0078  -0.0018   0.00   19.4
2173 195620.000   -261330.9714  -5070389.4473   3848246.6534   1   7   0.0046   0.0096   0.0084   0.0015  -0.0077  -0.0017   0.00   19.4
2173 195621.000   -261330.9728  -5070389.4462   3848246.6496   1   7   0.0048   0.0097   0.0085   0.0012  -0.0078  -0.0013   0.00   19.4
2173 195622.000   -261330.9727  -5070389.4518   3848246.6544   1   7   0.0044   0.0097   0.0085   0.0016  -0.0078  -0.0021   0.00   19.3
2173 195623.000   -261330.9707  -5070389.4492   3848246.6539   1   7   0.0046   0.0096   0.0085   0.0009  -0.0078  -0.0022   0.00   19.3
2173 195624.000   -261330.9690  -5070389.4462   3848246.6527   1   7   0.0045   0.0096   0.0086   0.0009  -0.0078   0.0014   0.00   19.3
2173 195625.000   -261330.9690  -5070389.4480   3848246.6531   1   7   0.0052   0.0096   0.0084   0.0013  -0.0077  -0.0016   0.00   19.1
2173 195626.000   -261330.9685  -5070389.4497   3848246.6494   1   7   0.0050   0.0096   0.0084   0.0004  -0.0078  -0.0016   0.00   19.0
2173 195627.000   -261330.9714  -5070389.4456   3848246.6506   1   7   0.0046   0.0096   0.0084   0.0015  -0.0078  -0.0015   0.00   18.9
2173 195628.000   -261330.9714  -5070389.4474   3848246.6535   1   7   0.0048   0.0096   0.0085   0.0012  -0.0078  -0.0021   0.00   18.9
2173 195629.000   -261330.9690  -5070389.4477   3848246.6516   1   7   0.0043   0.0097   0.0084   0.0011  -0.0077  -0.0022   0.00   18.8
2173 195630.000   -261330.9689  -5070389.4426   3848246.6488   1   7   0.0051   0.0096   0.0085  -0.0009  -0.0078  -0.0016   0.00   18.8
2173 195631.000   -261330.9679  -5070389.4474   3848246.6513   1   7   0.0046   0.0096   0.0085  -0.0009  -0.0078  -0.0012   0.00   18.6
2173 195632.000   -261330.9688  -5070389.4497   3848246.6522   1   7   0.0041   0.0097   0.0085   0.0014  -0.0077  -0.0016   0.00   18.5
2173 195633.000   -261330.9687  -5070389.4519   3848246.6532   1   7   0.0049   0.0097   0.0085   0.0009  -0.0077  -0.0015   0.00   18.5
2173 195634.000   -261330.9705  -5070389.4483   3848246.6492   1   7   0.0040   0.0096   0.0086   0.0021  -0.0077  -0.0012   0.00   18.4
2173 195635.000   -261330.9674  -5070389.4512   3848246.6537   1   7   0.0050   0.0096   0.0085   0.0013  -0.0077  -0.0015   0.00   18.5
2173 195636.000   -261330.9698  -5070389.4448   3848246.6478   1   7   0.0045   0.0096   0.0085   0.0016  -0.0078   0.0016   0.00   18.4
2173 195637.000   -261330.9690  -5070389.4452   3848246.6505   1   7   0.0043   0.0096   0.0084   0.0018  -0.0077  -0.0026   0.00   18.3
2173 195638.000   -261330.9697  -5070389.4449   3848246.6508   1   7   0.0046   0.0097   0.0085  -0.0008  -0.0077  -0.0019   0.00   18.3
2173 195639.000   -261330.9726  -5070389.4474   3848246.6541   1   7   0.0045   0.0096   0.0085  -0.0010  -0.0078  -0.0021   0.00   18.3
2173 195640.000   -261330.9711  -5070389.4550   3848246.6592   1   7   0.0048   0.0097   0.0085   0.0011  -0.0077  -0.0014   0.00   18.3
2173 195641.000   -261330.9698  -5070389.4474   3848246.6500   1   7   0.0049   0.0096   0.0084   0.0015  -0.0077  -0.0014   0.00   18.2
2173 195642.000   -261330.9695  -5070389.4479   3848246.6515   1   7   0.0043   0.0096   0.0084   0.0016  -0.0078  -0.0017   0.00   18.2
2173 195643.000   -261330.9697  -5070389.4449   3848246.6519   1   7   0.0053   0.0097   0.0086  -0.0010  -0.0077  -0.0015   0.00   18.1
2173 195644.000   -261330.9700  -5070389.4423   3848246.6482   1   7   0.0052   0.0096   0.0084  -0.0009  -0.0078  -0.0017   0.00   18.0
2173 195645.000   -261330.9687  -5070389.4443   3848246.6496   1   7   0.0045   0.0096   0.0083   0.0019  -0.0077  -0.0017   0.00   18.0
2173 195646.000   -261330.9674  -5070389.4429   3848246.6493   1   7   0.0046   0.0097   0.0084   0.0004  -0.0077  -0.0018   0.00   17.9
2173 195647.000   -261330.9679  -5070389.4488   3848246.6529   1   7   0.0049   0.0096   0.0086   0.0010  -0.0078  -0.0013   0.00   17.8
2173 195648.000   -261330.9666  -5070389.4510   3848246.6547   1   7   0.0048   0.0096   0.0085  -0.0012  -0.0078  -0.0021   0.00   17.8
2173 195649.000   -261330.9723  -5070389.4468   3848246.6532   1   7   0.0046   0.0095   0.0085   0.0009  -0.0078  -0.0018   0.00   17.8
2173 195650.000   -261330.9692  -5070389.4469   3848246.6517   1   7   0.0049   0.0096   0.0085  -0.0012  -0.0078  -0.0017   0.00   17.7
2173 195651.000   -261330.9701  -5070389.4442   3848246.6505   1   7   0.0051   0.0096   0.0084  -0.0013  -0.0078  -0.0020   0.00   17.7
2173 195652.000   -261330.9694  -5070389.4509   3848246.6538   1   7   0.0045   0.0096   0.0084   0.0014  -0.0078  -0.0013   0.00   17.6
2173 195653.000   -261330.9682  -5070389.4428   3848246.6475   1   7   0.0048   0.0096   0.0085   0.0009  -0.0077  -0.0016   0.00   17.5
2173 195654.000   -261330.9674  -5070389.4562   3848246.6584   1   7   0.0046   0.0096   0.0084   0.0002  -0.0078  -0.0020   0.00   17.4
2173 195655.000   -261330.9678  -5070389.4395   3848246.6474   1   7   0.0053   0.0097   0.0085  -0.0017  -0.0077  -0.0020   0.00   17.3
2173 195656.000   -261330.9667  -5070389.4475   3848246.6507   1   7   0.0048   0.0097   0.0085   0.0013  -0.0077  -0.0012   0.00   17.2
2173 195657.000   -261330.9693  -5070389.4443   3848246.6510   1   7   0.0048   0.0097   0.0085   0.0008  -0.0077  -0.0019   0.00   17.2
2173 195658.000   -261330.9679  -5070389.4485   3848246.6518   1   7   0.0045   0.0096   0.0083   0.0010  -0.0078  -0.0019   0.00   17.1
2173 195659.000   -261330.9664  -5070389.4460   3848246.6535   1   7   0.0046   0.0096   0.0086   0.0011  -0.0077  -0.0023   0.00   17.1
2173 195660.000   -261330.9693  -5070389.4458   3848246.6484   1   7   0.0048   0.0096   0.0086   0.0012  -0.0077  -0.0014   0.00   17.0
2173 195661.000   -261330.9662  -5070389.4436   3848246.6484   1   7   0.0049   0.0097   0.0084   0.0011  -0.0077  -0.0020   0.00   16.9
2173 195662.000   -261330.9669  -5070389.4414   3848246.6492   1   7   0.0043   0.0096   0.0083   0.0013  -0.0077  -0.0018   0.00   16.8
2173 195663.000   -261330.9667  -5070389.4507   3848246.6555   1   7   0.0048   0.0096   0.0084   0.0016  -0.0077  -0.0019   0.00   16.8
2173 195664.000   -261330.9693  -5070389.4425   3848246.6531   1   7   0.0046   0.0096   0.0085   0.0014  -0.0077  -0.0004   0.00   16.7
2173 195665.000   -261330.9671  -5070389.4408   3848246.6515   1   7   0.0042   0.0096   0.0085   0.0006  -0.0078  -0.0013   0.00   16.6
2173 195666.000   -261330.9652  -5070389.4413   3848246.6458   1   7   0.0046   0.0096   0.0084   0.0012  -0.0078  -0.0013   0.00   16.6
2173 195667.000   -261330.9667  -5070389.4462   3848246.6500   1   7   0.0043   0.0096   0.0084   0.0016  -0.0078  -0.0020   0.00   16.5
2173 195668.000   -261330.9673  -5070389.4459   3848246.6498   1   7   0.0045   0.0096   0.0084   0.0007  -0.0077  -0.0017   0.00   16.5
2173 195669.000   -261330.9654  -5070389.4459   3848246.6506   1   7   0.0050   0.0097   0.0084  -0.0011  -0.0077  -0.0021   0.00   16.4
2173 195670.000   -261330.9689  -5070389.4489   3848246.6550   1   7   0.0046   0.0096   0.0084   0.0012  -0.0078  -0.0012   0.00   16.5
2173 195671.000   -261330.9666  -5070389.4438   3848246.6503   1   7   0.0047   0.0096   0.0085   0.0017  -0.0077  -0.0016   0.00   16.5
2173 195672.000   -261330.9642  -5070389.4500   3848246.6532   1   7   0.0043   0.0096   0.0084   0.0016  -0.0077  -0.0019   0.00   16.4
2173 195673.000   -261330.9660  -5070389.4499   3848246.6527   1   7   0.0049   0.0097   0.0084   0.0015  -0.0077  -0.0016   0.00   16.4
2173 195674.000   -261330.9618  -5070389.4438   3848246.6458   1   7   0.0041   0.0096   0.0085   0.0021  -0.0077  -0.0016   0.00   16.4
2173 195675.000   -261330.9638  -5070389.4474   3848246.6490   1   7   0.0048   0.0097   0.0083   0.0006  -0.0078  -0.0020   0.00   16.3
2173 195676.000   -261330.9621  -5070389.4392   3848246.6453   1   7   0.0052   0.0097   0.0085  -0.0007  -0.0077  -0.0019   0.00   16.3
2173 195677.000   -261330.9662  -5070389.4443   3848246.6509   1   7   0.0052   0.0096   0.0084  -0.0015  -0.0078  -0.0027   0.00   16.3
2173 195678.000   -261330.9631  -5070389.4497   3848246.6529   1   7   0.0045   0.0096   0.0083   0.0016  -0.0077  -0.0014   0.00   16.2
2173 195679.000   -261330.9665  -5070389.4484   3848246.6516   1   7   0.0040   0.0096   0.0082   0.0019  -0.0078  -0.0015   0.00   16.2
2173 195680.000   -261330.9649  -5070389.4470   3848246.6490   1   7   0.0046   0.0096   0.0084   0.0010  -0.0078  -0.0016   0.00   16.2
2173 195681.000   -261330.9666  -5070389.4464   3848246.6487   1   7   0.0046   0.0096   0.0084   0.0020  -0.0078  -0.0018   0.00   16.2
2173 195682.000   -261330.9664  -5070389.4458   3848246.6502   1   7   0.0046   0.0096   0.0083   0.0020  -0.0077  -0.0014   0.00   16.2
2173 195683.000   -261330.9663  -5070389.4508   3848246.6525   1   7   0.0047   0.0097   0.0084   0.0005  -0.0076  -0.0019   0.00   16.2
2173 195684.000   -261330.9633  -5070389.4482   3848246.6513   1   7   0.0048   0.0097   0.0083  -0.0011  -0.0077  -0.0022   0.00   16.1
2173 195685.000   -261330.9646  -5070389.4462   3848246.6510   1   7   0.0047   0.0097   0.0083   0.0009  -0.0076  -0.0021   0.00   16.1
2173 195686.000   -261330.9640  -5070389.4442   3848246.6485   1   7   0.0049   0.0097   0.0084   0.0008  -0.0077  -0.0020   0.00   16.1
2173 195687.000   -261330.9630  -5070389.4513   3848246.6517   1   7   0.0052   0.0096   0.0083   0.0012  -0.0077  -0.0018   0.00   16.1
2173 195688.000   -261330.9619  -5070389.4487   3848246.6547   1   7   0.0049   0.0096   0.0083   0.0011  -0.0077  -0.0016   0.00   16.1
2173 195689.000   -261330.9652  -5070389.4503   3848246.6535   1   7   0.0052   0.0097   0.0085   0.0008  -0.0077  -0.0021   0.00   16.1
2173 195690.000   -261330.9640  -5070389.4505   3848246.6522   1   7   0.0046   0.0096   0.0084   0.0018  -0.0077  -0.0012   0.00   16.1
2173 195691.000   -261330.9628  -5070389.4557   3848246.6558   1   7   0.0045   0.0096   0.0085   0.0006  -0.0078  -0.0013   0.00   16.1
2173 195692.000   -261330.9650  -5070389.4524   3848246.6564   1   7   0.0046   0.0096   0.0085   0.0017  -0.0077  -0.0012   0.00   16.1
2173 195693.000   -261330.9629  -5070389.4504   3848246.6546   1   7   0.0047   0.0096   0.0085   0.0018  -0.0076  -0.0020   0.00   16.1
2173 195694.000   -261330.9602  -5070389.4505   3848246.6504   1   7   0.0039   0.0096   0.0085   0.0016  -0.0078  -0.0011   0.00   16.1
2173 195695.000   -261330.9642  -5070389.4471   3848246.6515   1   7   0.0043   0.0096   0.0083   0.0018  -0.0078  -0.0018   0.00   16.1
2173 195696.000   -261330.9636  -5070389.4472   3848246.6535   1   7   0.0052   0.0097   0.0084  -0.0008  -0.0077  -0.0019   0.00   16.1
2173 195697.000   -261330.9640  -5070389.4460   3848246.6485   1   7   0.0048   0.0096   0.0083   0.0015  -0.0077  -0.0015   0.00   16.1
2173 195698.000   -261330.9635  -5070389.4472   3848246.6504   1   7   0.0045   0.0096   0.0083   0.0014  -0.0078  -0.0021   0.00   16.1
2173 195699.000   -261330.9606  -5070389.4515   3848246.6550   1   7   0.0048   0.0096   0.0084   0.0013  -0.0077  -0.0021   0.00   16.0
2173 195700.000   -261330.9661  -5070389.4503   3848246.6531   1   7   0.0048   0.0096   0.0084   0.0014  -0.0078  -0.0014   0.00   16.1
2173 195701.000   -261330.9639  -5070389.4526   3848246.6520   1   7   0.0047   0.0097   0.0082  -0.0006  -0.0077  -0.0023   0.00   16.1
2173 195702.000   -261330.9623  -5070389.4509   3848246.6540   1   7   0.0049   0.0097   0.0084   0.0015  -0.0077  -0.0018   0.00   16.1
2173 195703.000   -261330.9616  -5070389.4511   3848246.6550   1   7   0.0043   0.0096   0.0084   0.0019  -0.0077  -0.0019   0.00   16.0
2173 195704.000   -261330.9648  -5070389.4498   3848246.6535   1   7   0.0043   0.0096   0.0084   0.0019  -0.0076  -0.0014   0.00   16.0
2173 195705.000   -261330.9624  -5070389.4494   3848246.6528   1   7   0.0050   0.0096   0.0085   0.0005  -0.0077  -0.0016   0.00   16.0
2173 195706.000   -261330.9640  -5070389.4497   3848246.6553   1   7   0.0045   0.0096   0.0084   0.0019  -0.0078  -0.0017   0.00   16.0
2173 195707.000   -261330.9645  -5070389.4514   3848246.6505   1   7   0.0050   0.0097   0.0084  -0.0011  -0.0076  -0.0013   0.00   16.0
2173 195708.000   -261330.9642  -5070389.4493   3848246.6533   1   7   0.0044   0.0096   0.0084  -0.0007  -0.0077  -0.0015   0.00   16.0
2173 195709.000   -261330.9606  -5070389.4506   3848246.6544   1   7   0.0050   0.0096   0.0083   0.0013  -0.0077  -0.0013   0.00   16.0
2173 195710.000   -261330.9626  -5070389.4474   3848246.6529   1   7   0.0052   0.0096   0.0085  -0.0003  -0.0077  -0.0013   0.00   16.0
2173 195711.000   -261330.9626  -5070389.4525   3848246.6572   1   7   0.0044   0.0096   0.0084   0.0015  -0.0077  -0.0020   0.00   16.0
2173 195712.000   -261330.9622  -5070389.4483   3848246.6510   1   7   0.0050   0.0097   0.0084   0.0013  -0.0076  -0.0020   0.00   16.0
2173 195713.000   -261330.9616  -5070389.4503   3848246.6527   1   7   0.0043   0.0096   0.0083   0.0013  -0.0077  -0.0017   0.00   15.9
2173 195714.000   -261330.9647  -5070389.4449   3848246.6503   1   7   0.0046   0.0097   0.0083   0.0008  -0.0077  -0.0021   0.00   15.9
2173 195715.000   -261330.9633  -5070389.4486   3848246.6547   1   7   0.0046   0.0096   0.0083   0.0013  -0.0077  -0.0010   0.00   15.9
2173 195716.000   -261330.9618  -5070389.4464   3848246.6538   1   7   0.0049   0.0097   0.0083  -0.0010  -0.0077  -0.0015   0.00   15.9
2173 195717.000   -261330.9610  -5070389.4444   3848246.6491   1   7   0.0049   0.0097   0.0084  -0.0007  -0.0077  -0.0011   0.00   15.8
2173 195718.000   -261330.9620  -5070389.4474   3848246.6531   1   7   0.0047   0.0097   0.0083   0.0014  -0.0077  -0.0017   0.00   15.8
2173 195719.000   -261330.9609  -5070389.4479   3848246.6517   1   7   0.0046   0.0096   0.0083   0.0019  -0.0077  -0.0019   0.00   15.8
2173 195720.000   -261330.9626  -5070389.4550   3848246.6588   1   7   0.0047   0.0096   0.0083   0.0013  -0.0077  -0.0022   0.00   15.8
2173 195721.000   -261330.9619  -5070389.4517   3848246.6555   1   7   0.0050   0.0097   0.0084  -0.0008  -0.0077  -0.0010   0.00   15.8
2173 195722.000   -261330.9587  -5070389.4516   3848246.6545   1   7   0.0045   0.0096   0.0083   0.0006  -0.0077  -0.0019   0.00   15.8
2173 195723.000   -261330.9628  -5070389.4509   3848246.6574   1   7   0.0048   0.0097   0.0084   0.0018  -0.0077  -0.0017   0.00   15.8
2173 195724.000   -261330.9620  -5070389.4493   3848246.6563   1   7   0.0049   0.0096   0.0084   0.0016  -0.0076  -0.0020   0.00   15.8
2173 195725.000   -261330.9623  -5070389.4607   3848246.6587   1   7   0.0046   0.0096   0.0081   0.0006  -0.0078  -0.0026   0.00   15.8
2173 195726.000   -261330.9611  -5070389.4576   3848246.6579   1   7   0.0048   0.0097   0.0084   0.0011  -0.0076  -0.0016   0.00   15.8
2173 195727.000   -261330.9629  -5070389.4543   3848246.6558   1   7   0.0043   0.0095   0.0083   0.0013  -0.0078  -0.0015   0.00   15.8
2173 195728.000   -261330.9627  -5070389.4535   3848246.6554   1   7   0.0051   0.0097   0.0085  -0.0005  -0.0077  -0.0013   0.00   15.8
2173 195729.000   -261330.9610  -5070389.4522   3848246.6532   1   7   0.0050   0.0097   0.0085  -0.0005  -0.0076  -0.0016   0.00   15.7
2173 195730.000   -261330.9616  -5070389.4549   3848246.6543   1   7   0.0043   0.0096   0.0084   0.0018  -0.0076  -0.0018   0.00   15.7
2173 195731.000   -261330.9620  -5070389.4530   3848246.6544   1   7   0.0043   0.0096   0.0084   0.0019  -0.0077  -0.0019   0.00   15.7
2173 195732.000   -261330.9630  -5070389.4461   3848246.6483   1   7   0.0043   0.0097   0.0084   0.0011  -0.0077  -0.0016   0.00   15.7
2173 195733.000   -261330.9639  -5070389.4531   3848246.6533   1   7   0.0049   0.0097   0.0084   0.0017  -0.0077  -0.0010   0.00   15.7
2173 195734.000   -261330.9657  -5070389.4562   3848246.6561   1   7   0.0039   0.0096   0.0084   0.0022  -0.0077  -0.0010   0.00   15.7
2173 195735.000   -261330.9620  -5070389.4537   3848246.6564   1   7   0.0049   0.0096   0.0084   0.0009  -0.0076  -0.0014   0.00   15.7
2173 195736.000   -261330.9597  -5070389.4538   3848246.6558   1   7   0.0046   0.0096   0.0084   0.0013  -0.0077  -0.0016   0.00   15.7
2173 195737.000   -261330.9630  -5070389.4575   3848246.6583   1   7   0.0041   0.0097   0.0082   0.0009  -0.0077  -0.0015   0.00   15.7
2173 195738.000   -261330.9624  -5070389.4495   3848246.6529   1   7   0.0044   0.0095   0.0081   0.0016  -0.0078  -0.0018   0.00   15.7
2173 195739.000   -261330.9625  -5070389.4541   3848246.6542   1   7   0.0047   0.0096   0.0082   0.0013  -0.0077  -0.0022   0.00   15.8
2173 195740.000   -261330.9612  -5070389.4548   3848246.6569   1   7   0.0050   0.0097   0.0082  -0.0003  -0.0077  -0.0017   0.00   15.8
2173 195741.000   -261330.9630  -5070389.4595   3848246.6602   1   7   0.0046   0.0096   0.0083   0.0010  -0.0076  -0.0016   0.00   15.8
2173 195742.000   -261330.9624  -5070389.4562   3848246.6562   1   7   0.0046   0.0097   0.0083  -0.0006  -0.0077  -0.0016   0.00   15.8
2173 195743.000   -261330.9631  -5070389.4538   3848246.6584   1   7   0.0049   0.0096   0.0084   0.0016  -0.0077  -0.0015   0.00   15.8
2173 195744.000   -261330.9622  -5070389.4551   3848246.6567   1   7   0.0045   0.0095   0.0085   0.0013  -0.0077  -0.0015   0.00   15.8
2173 195745.000   -261330.9621  -5070389.4613   3848246.6614   1   7   0.0049   0.0096   0.0082   0.0012  -0.0077  -0.0019   0.00   15.9
2173 195746.000   -261330.9656  -5070389.4535   3848246.6586   1   7   0.0048   0.0096   0.0084   0.0010  -0.0077  -0.0017   0.00   15.9
2173 195747.000   -261330.9636  -5070389.4539   3848246.6573   1   7   0.0047   0.0097   0.0084   0.0015  -0.0077  -0.0012   0.00   15.9
2173 195748.000   -261330.9672  -5070389.4566   3848246.6579   1   7   0.0045   0.0096   0.0083   0.0017  -0.0076  -0.0019   0.00   15.9
2173 195749.000   -261330.9612  -5070389.4527   3848246.6532   1   7   0.0045   0.0096   0.0082   0.0019  -0.0077  -0.0012   0.00   15.9
2173 195750.000   -261330.9625  -5070389.4508   3848246.6529   1   7   0.0046   0.0096   0.0083   0.0014  -0.0077  -0.0017   0.00   16.0
2173 195751.000   -261330.9637  -5070389.4506   3848246.6548   1   7   0.0048   0.0096   0.0083   0.0018  -0.0078  -0.0014   0.00   16.0
2173 195752.000   -261330.9652  -5070389.4512   3848246.6540   1   7   0.0046   0.0096   0.0084   0.0015  -0.0077  -0.0020   0.00   16.1
2173 195753.000   -261330.9640  -5070389.4560   3848246.6558   1   7   0.0046   0.0097   0.0082   0.0012  -0.0077  -0.0019   0.00   16.1
2173 195754.000   -261330.9643  -5070389.4520   3848246.6537   1   7   0.0042   0.0095   0.0082   0.0020  -0.0077  -0.0012   0.00   16.2
2173 195755.000   -261330.9627  -5070389.4569   3848246.6553   1   7   0.0050   0.0096   0.0085  -0.0011  -0.0077  -0.0020   0.00   16.2
2173 195756.000   -261330.9635  -5070389.4594   3848246.6569   1   7   0.0044   0.0096   0.0083   0.0014  -0.0078  -0.0017   0.00   16.3
2173 195757.000   -261330.9603  -5070389.4560   3848246.6550   1   7   0.0048   0.0096   0.0083   0.0011  -0.0077  -0.0016   0.00   16.3
2173 195758.000   -261330.9612  -5070389.4597   3848246.6627   1   7   0.0050   0.0097   0.0082  -0.0014  -0.0076  -0.0025   0.00   16.3
2173 195759.000   -261330.9604  -5070389.4565   3848246.6603   1   7   0.0046   0.0096   0.0081  -0.0004  -0.0077  -0.0017   0.00   16.3
2173 195760.000   -261330.9614  -5070389.4584   3848246.6586   1   7   0.0046   0.0096   0.0083   0.0005  -0.0077  -0.0018   0.00   16.3
2173 195761.000   -261330.9614  -5070389.4581   3848246.6599   1   7   0.0042   0.0096   0.0082   0.0018  -0.0077  -0.0018   0.00   16.4
2173 195762.000   -261330.9639  -5070389.4570   3848246.6590   1   7   0.0048   0.0096   0.0082  -0.0006  -0.0077  -0.0019   0.00   16.4
2173 195763.000   -261330.9612  -5070389.4591   3848246.6589   1   7   0.0048   0.0096   0.0084   0.0013  -0.0076  -0.0011   0.00   16.5
2173 195764.000   -261330.9617  -5070389.4545   3848246.6582   1   7   0.0041   0.0096   0.0084   0.0014  -0.0077  -0.0009   0.00   16.5
2173 195765.000   -261330.9614  -5070389.4555   3848246.6589   1   7   0.0048   0.0097   0.0083   0.0007  -0.0076  -0.0025   0.00   16.5
2173 195766.000   -261330.9632  -5070389.4591   3848246.6605   1   7   0.0043   0.0096   0.0082   0.0018  -0.0077  -0.0014   0.00   16.5
2173 195767.000   -261330.9634  -5070389.4500   3848246.6570   1   7   0.0048   0.0096   0.0082  -0.0014  -0.0077  -0.0019   0.00   16.5
2173 195768.000   -261330.9616  -5070389.4517   3848246.6551   1   7   0.0047   0.0095   0.0083   0.0013  -0.0077  -0.0010   0.00   16.6
2173 195769.000   -261330.9652  -5070389.4561   3848246.6585   1   7   0.0047   0.0096   0.0083   0.0013  -0.0076  -0.0013   0.00   16.5
2173 195770.000   -261330.9618  -5070389.4603   3848246.6630   1   7   0.0047   0.0097   0.0083   0.0015  -0.0076  -0.0018   0.00   16.5
2173 195771.000   -261330.9638  -5070389.4523   3848246.6581   1   7   0.0047   0.0097   0.0084   0.0011  -0.0076   0.0004   0.00   16.5
2173 195772.000   -261330.9603  -5070389.4509   3848246.6561   1   7   0.0053   0.0097   0.0082   0.0008  -0.0077  -0.0013   0.00   16.6
2173 195773.000   -261330.9598  -5070389.4512   3848246.6539   1   7   0.0046   0.0096   0.0084   0.0006  -0.0077  -0.0013   0.00   16.6
2173 195774.000   -261330.9582  -5070389.4539   3848246.6568   1   7   0.0048   0.0097   0.0083   0.0007  -0.0077  -0.0016   0.00   16.6
2173 195775.000   -261330.9612  -5070389.4535   3848246.6599   1   7   0.0045   0.0096   0.0080   0.0013  -0.0077  -0.0023   0.00   16.6
2173 195776.000   -261330.9623  -5070389.4561   3848246.6585   1   7   0.0048   0.0096   0.0081  -0.0013  -0.0077  -0.0018   0.00   16.6
2173 195777.000   -261330.9617  -5070389.4565   3848246.6550   1   7   0.0044   0.0095   0.0084   0.0017  -0.0077  -0.0014   0.00   16.6
2173 195778.000   -261330.9621  -5070389.4522   3848246.6525   1   7   0.0044   0.0096   0.0081   0.0022  -0.0076  -0.0015   0.00   16.6
2173 195779.000   -261330.9619  -5070389.4569   3848246.6576   1   7   0.0048   0.0096   0.0083   0.0016  -0.0077   0.0007   0.00   16.6
2173 195780.000   -261330.9620  -5070389.4571   3848246.6593   1   7   0.0051   0.0097   0.0084  -0.0013  -0.0076  -0.0023   0.00   16.6
2173 195781.000   -261330.9651  -5070389.4528   3848246.6578   1   7   0.0050   0.0097   0.0083   0.0002  -0.0076  -0.0017   0.00   16.5
2173 195782.000   -261330.9634  -5070389.4549   3848246.6572   1   7   0.0043   0.0096   0.0082   0.0016  -0.0076  -0.0018   0.00   16.5
2173 195783.000   -261330.9636  -5070389.4611   3848246.6634   1   7   0.0038   0.0095   0.0082   0.0015  -0.0077  -0.0018   0.00   16.5
2173 195784.000   -261330.9591  -5070389.4511   3848246.6587   1   7   0.0047   0.0097   0.0084   0.0011  -0.0077  -0.0011   0.00   16.4
2173 195785.000   -261330.9620  -5070389.4549   3848246.6584   1   7   0.0046   0.0097   0.0083   0.0010  -0.0077  -0.0018   0.00   16.4
2173 195786.000   -261330.9608  -5070389.4604   3848246.6594   1   7   0.0047   0.0096   0.0083  -0.0005  -0.0077  -0.0018   0.00   16.4
2173 195787.000   -261330.9612  -5070389.4562   3848246.6560   1   7   0.0047   0.0096   0.0083   0.0013  -0.0076  -0.0012   0.00   16.4
2173 195788.000   -261330.9618  -5070389.4567   3848246.6615   1   7   0.0045   0.0096   0.0082   0.0016  -0.0077  -0.0016   0.00   16.4
2173 195789.000   -261330.9614  -5070389.4559   3848246.6587   1   7   0.0052   0.0097   0.0081   0.0007  -0.0076  -0.0021   0.00   16.4
2173 195790.000   -261330.9603  -5070389.4562   3848246.6577   1   7   0.0051   0.0096   0.0082   0.0010  -0.0077  -0.0021   0.00   16.3
2173 195791.000   -261330.9598  -5070389.4573   3848246.6570   1   7   0.0045   0.0096   0.0082   0.0018  -0.0077  -0.0022   0.00   16.3
2173 195792.000   -261330.9589  -5070389.4553   3848246.6607   1   7   0.0048   0.0096   0.0080   0.0010  -0.0077  -0.0017   0.00   16.3
2173 195793.000   -261330.9615  -5070389.4519   3848246.6568   1   7   0.0046   0.0096   0.0082   0.0015  -0.0076  -0.0021   0.00   16.3
2173 195794.000   -261330.9610  -5070389.4567   3848246.6584   1   7   0.0046   0.0096   0.0082   0.0007  -0.0077  -0.0020   0.00   16.2
2173 195795.000   -261330.9619  -5070389.4480   3848246.6553   1   7   0.0042   0.0095   0.0084   0.0018  -0.0077   0.0012   0.00   16.2
2173 195796.000   -261330.9607  -5070389.4531   3848246.6572   1   7   0.0047   0.0096   0.0082   0.0011  -0.0078  -0.0014   0.00   16.2
2173 195797.000   -261330.9593  -5070389.4547   3848246.6575   1   7   0.0048   0.0097   0.0083   0.0009  -0.0076   0.0003   0.00   16.2
2173 195798.000   -261330.9620  -5070389.4478   3848246.6547   1   7   0.0046   0.0096   0.0083   0.0011  -0.0076  -0.0017   0.00   16.2
2173 195799.000   -261330.9594  -5070389.4529   3848246.6571   1   7   0.0049   0.0097   0.0082   0.0013  -0.0076  -0.0020   0.00   16.2
2173 195800.000   -261330.9601  -5070389.4466   3848246.6542   1   7   0.0046   0.0096   0.0084   0.0014  -0.0076  -0.0014   0.00   16.2
2173 195801.000   -261330.9610  -5070389.4593   3848246.6601   1   7   0.0045   0.0096   0.0083   0.0018  -0.0077  -0.0015   0.00   16.1
2173 195802.000   -261330.9594  -5070389.4531   3848246.6560   1   7   0.0047   0.0096   0.0082   0.0008  -0.0077  -0.0017   0.00   16.1
2173 195803.000   -261330.9599  -5070389.4486   3848246.6525   1   7   0.0041   0.0096   0.0083   0.0016  -0.0077   0.0005   0.00   16.1
2173 195804.000   -261330.9624  -5070389.4560   3848246.6579   1   7   0.0046   0.0096   0.0082   0.0014  -0.0077  -0.0021   0.00   16.0
2173 195805.000   -261330.9598  -5070389.4523   3848246.6565   1   7   0.0044   0.0096   0.0081   0.0020  -0.0077  -0.0018   0.00   16.0
2173 195806.000   -261330.9620  -5070389.4573   3848246.6609   1   7   0.0052   0.0096   0.0080  -0.0006  -0.0077  -0.0020   0.00   15.9
2173 195807.000   -261330.9604  -5070389.4535   3848246.6605   1   7   0.0044   0.0096   0.0082   0.0017  -0.0076  -0.0018   0.00   15.8
2173 195808.000   -261330.9594  -5070389.4571   3848246.6571   1   7   0.0046   0.0097   0.0083   0.0005  -0.0076  -0.0015   0.00   15.8
2173 195809.000   -261330.9592  -5070389.4567   3848246.6608   1   7   0.0044   0.0096   0.0082   0.0012  -0.0077  -0.0021   0.00   15.7
2173 195810.000   -261330.9594  -5070389.4539   3848246.6566   1   7   0.0046   0.0096   0.0082   0.0015  -0.0077  -0.0010   0.00   15.6
2173 195811.000   -261330.9602  -5070389.4559   3848246.6596   1   7   0.0046   0.0097   0.0083  -0.0012  -0.0077  -0.0021   0.00   15.5
2173 195812.000   -261330.9598  -5070389.4538   3848246.6577   1   7   0.0049   0.0096   0.0081   0.0006  -0.0077  -0.0025   0.00   15.5
2173 195813.000   -261330.9585  -5070389.4523   3848246.6563   1   7   0.0045   0.0097   0.0081   0.0010  -0.0077  -0.0020   0.00   15.4
2173 195814.000   -261330.9602  -5070389.4538   3848246.6583   1   7   0.0043   0.0096   0.0082   0.0017  -0.0077  -0.0017   0.00   15.4
2173 195815.000   -261330.9598  -5070389.4582   3848246.6587   1   7   0.0047   0.0097   0.0082   0.0009  -0.0076  -0.0016   0.00   15.3
2173 195816.000   -261330.9589  -5070389.4465   3848246.6520   1   7   0.0049   0.0096   0.0082  -0.0015  -0.0076  -0.0022   0.00   15.2
2173 195817.000   -261330.9585  -5070389.4527   3848246.6549   1   7   0.0051   0.0096   0.0083   0.0006  -0.0076  -0.0019   0.00   15.2
2173 195818.000   -261330.9577  -5070389.4515   3848246.6556   1   7   0.0041   0.0096   0.0082   0.0011  -0.0078  -0.0007   0.00   15.1
2173 195819.000   -261330.9599  -5070389.4525   3848246.6554   1   7   0.0048   0.0097   0.0081  -0.0009  -0.0077  -0.0017   0.00   15.1
2173 195820.000   -261330.9586  -5070389.4513   3848246.6544   1   7   0.0052   0.0097   0.0082  -0.0006  -0.0076  -0.0022   0.00   15.0
2173 195821.000   -261330.9591  -5070389.4493   3848246.6505   1   7   0.0047   0.0096   0.0082   0.0014  -0.0076  -0.0015   0.00   14.9
2173 195822.000   -261330.9605  -5070389.4503   3848246.6556   1   7   0.0043   0.0097   0.0081   0.0016  -0.0077  -0.0015   0.00   14.8
2173 195823.000   -261330.9576  -5070389.4509   3848246.6527   1   7   0.0043   0.0096   0.0081   0.0011  -0.0076  -0.0020   0.00   14.8
2173 195824.000   -261330.9563  -5070389.4529   3848246.6538   1   7   0.0047   0.0096   0.0083   0.0009  -0.0076  -0.0021   0.00   14.7
2173 195825.000   -261330.9583  -5070389.4576   3848246.6549   1   7   0.0051   0.0096   0.0082   0.0005  -0.0076  -0.0016   0.00   14.6
2173 195826.000   -261330.9609  -5070389.4518   3848246.6535   1   7   0.0045   0.0097   0.0081   0.0018  -0.0077  -0.0019   0.00   14.5
2173 195827.000   -261330.9585  -5070389.4495   3848246.6536   1   7   0.0048   0.0096   0.0083   0.0016  -0.0076  -0.0018   0.00   14.5
2173 195828.000   -261330.9581  -5070389.4485   3848246.6510   1   7   0.0049   0.0097   0.0082   0.0012  -0.0076  -0.0009   0.00   14.4
2173 195829.000   -261330.9600  -5070389.4485   3848246.6544   1   7   0.0046   0.0097   0.0083   0.0015  -0.0076  -0.0017   0.00   14.4
2173 195830.000   -261330.9587  -5070389.4509   3848246.6553   1   7   0.0048   0.0097   0.0084   0.0018  -0.0075  -0.0026   0.00   14.3
2173 195831.000   -261330.9616  -5070389.4517   3848246.6549   1   7   0.0048   0.0096   0.0083  -0.0008  -0.0076  -0.0016   0.00   14.2
2173 195832.000   -261330.9597  -5070389.4481   3848246.6517   1   7   0.0049   0.0097   0.0084  -0.0011  -0.0076  -0.0020   0.00   14.2
2173 195833.000   -261330.9580  -5070389.4502   3848246.6547   1   7   0.0049   0.0097   0.0083   0.0007  -0.0075  -0.0012   0.00   14.1
2173 195834.000   -261330.9601  -5070389.4519   3848246.6535   1   7   0.0048   0.0096   0.0081   0.0013  -0.0077  -0.0017   0.00   14.0
2173 195835.000   -261330.9588  -5070389.4493   3848246.6545   1   7   0.0046   0.0097   0.0082   0.0020  -0.0076  -0.0012   0.00   14.0
2173 195836.000   -261330.9591  -5070389.4543   3848246.6553   1   7   0.0046   0.0096   0.0083   0.0016  -0.0076  -0.0010   0.00   14.0
2173 195837.000   -261330.9594  -5070389.4516   3848246.6545   1   7   0.0050   0.0096   0.0083   0.0014  -0.0076  -0.0016   0.00   13.9
2173 195838.000   -261330.9563  -5070389.4556   3848246.6602   1   7   0.0050   0.0097   0.0085   0.0008  -0.0076  -0.0009   0.00   13.9
2173 195839.000   -261330.9609  -5070389.4533   3848246.6590   1   7   0.0048   0.0097   0.0081   0.0014  -0.0076  -0.0019   0.00   13.8
2173 195840.000   -261330.9619  -5070389.4501   3848246.6544   1   7   0.0048   0.0096   0.0084   0.0015  -0.0076  -0.0014   0.00   13.8
2173 195841.000   -261330.9622  -5070389.4516   3848246.6531   1   7   0.0048   0.0097   0.0083   0.0012  -0.0075  -0.0020   0.00   13.7
2173 195842.000   -261330.9606  -5070389.4541   3848246.6571   1   7   0.0049   0.0096   0.0084   0.0011  -0.0076  -0.0014   0.00   13.7
2173 195843.000   -261330.9614  -5070389.4497   3848246.6528   1   7   0.0044   0.0096   0.0082   0.0014  -0.0076  -0.0014   0.00   13.7
2173 195844.000   -261330.9601  -5070389.4535   3848246.6533   1   7   0.0049   0.0096   0.0082   0.0012  -0.0076  -0.0021   0.00   13.6
2173 195845.000   -261330.9615  -5070389.4549   3848246.6570   1   7   0.0041   0.0096   0.0081   0.0010  -0.0077  -0.0018   0.00   13.6
2173 195846.000   -261330.9608  -5070389.4535   3848246.6571   1   7   0.0047   0.0096   0.0083   0.0012  -0.0076  -0.0012   0.00   13.5
2173 195847.000   -261330.9597  -5070389.4547   3848246.6549   1   7   0.0048   0.0097   0.0082  -0.0006  -0.0076  -0.0025   0.00   13.4
2173 195848.000   -261330.9593  -5070389.4545   3848246.6556   1   7   0.0044   0.0096   0.0083   0.0018  -0.0076  -0.0021   0.00   13.4
2173 195849.000   -261330.9611  -5070389.4506   3848246.6509   1   7   0.0048   0.0096   0.0084   0.0014  -0.0076  -0.0023   0.00   13.4
2173 195850.000   -261330.9624  -5070389.4586   3848246.6587   1   7   0.0048   0.0096   0.0082   0.0003  -0.0076  -0.0021   0.00   13.3
2173 195851.000   -261330.9610  -5070389.4549   3848246.6596   1   7   0.0051   0.0097   0.0083   0.0015  -0.0075  -0.0016   0.00   13.2
2173 195852.000   -261330.9614  -5070389.4526   3848246.6552   1   7   0.0038   0.0096   0.0080   0.0020  -0.0077  -0.0013   0.00   13.1
2173 195853.000   -261330.9609  -5070389.4543   3848246.6593   1   7   0.0049   0.0096   0.0080  -0.0003  -0.0076  -0.0024   0.00   13.1
2173 195854.000   -261330.9581  -5070389.4516   3848246.6569   1   7   0.0047   0.0097   0.0083   0.0019  -0.0076  -0.0010   0.00   13.1
2173 195855.000   -261330.9622  -5070389.4474   3848246.6546   1   7   0.0046   0.0096   0.0082   0.0011  -0.0077  -0.0007   0.00   13.0
2173 195856.000   -261330.9598  -5070389.4523   3848246.6554   1   7   0.0050   0.0097   0.0084  -0.0008  -0.0075  -0.0009   0.00   13.0
2173 195857.000   -261330.9588  -5070389.4565   3848246.6556   1   7   0.0048   0.0097   0.0081  -0.0001  -0.0076  -0.0021   0.00   12.9
2173 195858.000   -261330.9593  -5070389.4516   3848246.6541   1   7   0.0049   0.0097   0.0081   0.0012  -0.0076  -0.0021   0.00   12.9
2173 195859.000   -261330.9581  -5070389.4524   3848246.6537   1   7   0.0050   0.0097   0.0080  -0.0005  -0.0076  -0.0023   0.00   12.8
2173 195860.000   -261330.9619  -5070389.4497   3848246.6510   1   7   0.0049   0.0097   0.0081   0.0012  -0.0076  -0.0019   0.00   12.8
2173 195861.000   -261330.9612  -5070389.4516   3848246.6539   1   7   0.0048   0.0096   0.0084   0.0009  -0.0076  -0.0014   0.00   12.7
2173 195862.000   -261330.9598  -5070389.4582   3848246.6578   1   7   0.0052   0.0097   0.0083   0.0014  -0.0076  -0.0015   0.00   12.7
2173 195863.000   -261330.9625  -5070389.4497   3848246.6537   1   7   0.0049   0.0097   0.0082   0.0006  -0.0076  -0.0017   0.00   12.6
2173 195864.000   -261330.9612  -5070389.4497   3848246.6515   1   7   0.0045   0.0097   0.0083   0.0018  -0.0075   0.0006   0.00   12.5
2173 195865.000   -261330.9611  -5070389.4539   3848246.6526   1   7   0.0045   0.0096   0.0081   0.0012  -0.0076  -0.0018   0.00   12.5
