     2.11           OBSERVATION DATA    M (MIXED)           RINEX VERSION / TYPE
CONVBIN 2.4.3                           20210901 005048 UTC PGM / RUN BY / DATE 
log: logs/21_08_31_20_49_04_mada_SW.rtcm                    COMMENT             
format: RTCM 3, station ID: 2025                            COMMENT             
2025                                                        MARKER NAME         
                                                            MARKER NUMBER       
                                                            OBSERVER / AGENCY   
                    SWFT                                    REC # / TYPE / VERS 
                    NULL                                    ANT # / TYPE        
  1573307.6515 -4576524.1628  4140723.8171                  APPROX POSITION XYZ 
        0.0000        0.0000        0.0000                  ANTENNA: DELTA H/E/N
     1     1                                                WAVELENGTH FACT L1/2
     5    C1    L1    P2    L2    C2                        # / TYPES OF OBSERV 
  2021     8    31    20    49    9.0000000     GPS         TIME OF FIRST OBS   
  2021     8    31    21    19   41.0000000     GPS         TIME OF LAST OBS    
                                                            END OF HEADER       
 21  8 31 20 49  9.0000000  0 12G10G15G18G23G24G32E 3E 5E 9E15E31E36
  22041727.787   115830012.284    22041730.914    90257139.828                  
  22125699.580   116271332.774    22125700.580    90601037.437                  
  21128209.672   111029485.864    21128211.013    86516483.118                  
  20299889.094   106676639.212    20299889.987    83124656.222                  
  20300364.517   106679090.685    20300367.716    83126552.950                  
  23811342.662   125129391.825    23811346.915    97503407.474                  
  25970697.206   136476901.378                                                  
  23499761.044   123492065.880                                                  
  23709129.134   124592293.536                                                  
  25767099.274   135406974.628                                                  
  27003007.495   141901711.831                                                  
  26376884.829   138611385.293                                                  
 21  8 31 20 49 10.0000000  0 12G10G15G18G23G24G32E 3E 5E 9E15E31E36
  22041256.277   115827534.501    22041259.422    90255209.085                  
  22126226.072   116274099.539    22126227.073    90603193.355                  
  21128656.202   111031832.255    21128657.524    86518311.472                  
  20299755.076   106675934.944    20299755.952    83124107.445                  
  20300337.964   106678951.114    20300341.162    83126444.195                  
  23810825.925   125126676.363    23810830.178    97501291.531                  
  25970349.028   136475071.747                                                  
  23499766.637   123492095.345                                                  
  23709482.584   124594150.854                                                  
  25766794.035   135405370.488                                                  
  27002858.914   141900931.106                                                  
  26377476.525   138614494.614                                                  
 21  8 31 20 49 11.0000000  0 16G10G15G18G23G24G32C19C21C22C34E 3E 5
                                E 9E15E31E36
  22040784.803   115825056.902    22040787.948    90253278.493                  
  22126752.619   116276866.457    22126753.602    90605349.395                  
  21129102.802   111034179.165    21129104.142    86520140.233                  
  20299621.148   106675231.075    20299622.023    83123558.973                  
  20300311.535   106678812.262    20300314.734    83126335.997                  
  23810309.207   125123961.062    23810313.477    97499175.710                  
                 119482829.484                   119482829.484    22945422.246  
                 130981401.589                   130981401.589    25153601.822  
                 115505155.789                   115505155.789    22181545.780  
                 133339185.226                   133339185.226    25606392.697  
  25970000.886   136473242.227                                                  
  23499772.284   123492124.977                                                  
  23709836.015   124596008.214                                                  
  25766488.868   135403766.759                                                  
  27002710.440   141900150.813                                                  
  26378068.222   138617604.061                                                  
 21  8 31 20 49 12.0000000  0 16G10G15G18G23G24G32C19C21C22C34E 3E 5
                                E 9E15E31E36
  22040313.365   115822579.461    22040316.492    90251348.020                  
  22127279.183   116279633.542    22127280.166    90607505.565                  
  21129549.492   111036526.598    21129550.832    86521969.406                  
  20299487.273   106674527.594    20299488.149    83123010.808                  
  20300285.232   106678674.117    20300288.449    83126228.356                  
  23809792.542   125121245.940    23809796.795    97497060.035                  
                 119484529.792                   119484529.792    22945748.766  
                 130979054.380                   130979054.380    25153151.058  
                 115504542.964                   115504542.964    22181428.077  
                 133338621.319                   133338621.319    25606284.392  
  25969652.761   136471412.847                                                  
  23499777.966   123492154.794                                                  
  23710189.482   124597865.649                                                  
  25766183.736   135402163.438                                                  
  27002562.038   141899370.966                                                  
  26378659.955   138620713.641                                                  
 21  8 31 20 49 13.0000000  0 16G10G15G18G23G24G32C19C21C22C34E 3E 5
                                E 9E15E31E36
  22039841.962   115820102.180    22039845.107    90249417.673                  
  22127805.766   116282400.783    22127806.748    90609661.855                  
  21129996.307   111038874.561    21129997.647    86523798.984                  
  20299353.488   106673824.512    20299354.363    83122462.952                  
  20300259.108   106678536.696    20300262.306    83126121.273                  
  23809275.895   125118530.992    23809280.165    97494944.493                  
                 119486230.262                   119486230.262    22946075.323  
                 130976707.218                   130976707.218    25152700.312  
                 115503930.346                   115503930.346    22181310.445  
                 133338057.950                   133338057.950    25606176.196  
  25969304.655   136469583.583                                                  
  23499783.667   123492184.781                                                  
  23710542.931   124599723.111                                                  
  25765878.712   135400560.531                                                  
  27002413.725   141898591.544                                                  
  26379251.724   138623823.355                                                  
 21  8 31 20 49 14.0000000  0 16G10G15G18G23G24G32C19C21C22C34E 3E 5
                                E 9E15E31E36
  22039370.577   115817625.080    22039373.722    90247487.461                  
  22128332.384   116285168.199    22128333.384    90611818.285                  
  21130443.193   111041223.047    21130444.533    86525628.973                  
  20299219.756   106673121.820    20299220.631    83121915.398                  
  20300233.072   106678399.977    20300236.289    83126014.738                  
  23808759.283   125115816.204    23808763.554    97492829.070                  
                 119487930.899                   119487930.899    22946401.915  
                 130974360.097                   130974360.097    25152249.584  
                 115503317.946                   115503317.946    22181192.849  
                 133337495.110                   133337495.110    25606068.124  
  25968956.584   136467754.453                                                  
  23499789.420   123492214.956                                                  
  23710896.416   124601580.646                                                  
  25765573.777   135398958.035                                                  
  27002265.502   141897812.577                                                  
  26379843.492   138626933.195                                                  
 21  8 31 20 49 15.0000000  0 16G10G15G18G23G24G32C19C21C22C34E 3E 5
                                E 9E15E31E36
  22038899.228   115815148.132    22038902.355    90245557.372                  
  22128859.037   116287935.763    22128860.020    90613974.824                  
  21130890.205   111043572.070    21130891.545    86527459.378                  
  20299086.113   106672419.528    20299087.007    83121368.159                  
  20300207.198   106678263.980    20300210.397    83125908.765                  
  23808242.726   125113101.587    23808246.979    97490713.788                  
                 119489631.704                   119489631.704    22946728.543  
                 130972013.022                   130972013.022    25151798.838  
                 115502705.753                   115502705.753    22181075.253  
                 133336932.808                   133336932.808    25605960.141  
  25968608.531   136465925.438                                                  
  23499795.174   123492245.313                                                  
  23711249.919   124603438.234                                                  
  25765268.914   135397355.952                                                  
  27002117.332   141897034.038                                                  
  26380435.296   138630043.156                                                  
 21  8 31 20 49 16.0000000  0 16G10G15G18G23G24G32C19C21C22C34E 3E 5
                                E 9E15E31E36
  22038427.915   115812671.355    22038431.060    90243627.418                  
  22129385.727   116290703.493    22129386.692    90616131.497                  
  21131337.305   111045921.610    21131338.646    86529290.188                  
  20298952.560   106671717.628    20298953.418    83120821.222                  
  20300181.467   106678128.688    20300184.665    83125803.344                  
  23807726.168   125110387.137    23807730.439    97488598.637                  
                 119491332.672                   119491332.672    22947055.188  
                 130969665.991                   130969665.991    25151348.127  
                 115502093.769                   115502093.769    22180957.746  
                 133336371.039                   133336371.039    25605852.266  
  25968260.514   136464096.554                                                  
  23499800.999   123492275.849                                                  
  23711603.404   124605295.872                                                  
  25764964.122   135395754.268                                                  
  27001969.287   141896255.940                                                  
  26381027.136   138633153.249                                                  
 21  8 31 20 49 17.0000000  0 16G10G15G18G23G24G32C19C21C22C34E 3E 5
                                E 9E15E31E36
  22037956.619   115810194.751    22037959.764    90241697.594                  
  22129912.434   116293471.391    22129913.417    90618288.301                  
  21131784.513   111048271.675    21131785.854    86531121.410                  
  20298819.061   106671016.125    20298819.936    83120274.598                  
  20300155.843   106677994.114    20300159.041    83125698.481                  
  23807209.664   125107672.855    23807213.917    97486483.614                  
                 119493033.805                   119493033.805    22947381.888  
                 130967319.003                   130967319.003    25150897.399  
                 115501481.997                   115501481.997    22180840.257  
                 133335809.804                   133335809.804    25605744.480  
  25967912.515   136462267.809                                                  
  23499806.843   123492306.563                                                  
  23711956.925   124607153.574                                                  
  25764659.419   135394153.013                                                  
  27001821.278   141895478.282                                                  
  26381618.994   138636263.468                                                  
 21  8 31 20 49 18.0000000  0 16G10G15G18G23G24G32C19C21C22C34E 3E 5
                                E 9E15E31E36
  22037485.377   115807718.305    22037488.522    90239767.899                  
  22130439.177   116296239.448    22130440.160    90620445.230                  
  21132231.829   111050622.273    21132233.169    86532953.043                  
  20298685.669   106670315.020    20298686.526    83119728.286                  
  20300130.379   106677860.277    20300133.578    83125594.192                  
  23806693.178   125104958.754    23806697.448    97484368.726                  
                 119494735.110                   119494735.110    22947708.587  
                 130964972.062                   130964972.062    25150446.707  
                 115500870.434                   115500870.434    22180722.822  
                 133335249.107                   133335249.107    25605636.801  
  25967564.534   136460439.178                                                  
  23499812.722   123492337.460                                                  
  23712310.446   124609011.327                                                  
  25764354.788   135392552.163                                                  
  27001673.394   141894701.079                                                  
  26382210.887   138639373.827                                                  
 21  8 31 20 49 19.0000000  0 16G10G15G18G23G24G32C19C21C22C34E 3E 5
                                E 9E15E31E36
  22037014.153   115805242.024    22037017.298    90237838.324                  
  22130965.956   116299007.610    22130966.939    90622602.203                  
  21132679.215   111052973.359    21132680.556    86534785.039                  
  20298552.294   106669614.345    20298553.188    83119182.325                  
  20300105.041   106677727.126    20300108.239    83125490.436                  
  23806176.745   125102244.818    23806180.998    97482253.979                  
                 119496436.575                   119496436.575    22948035.340  
                 130962625.165                   130962625.165    25149995.996  
                 115500259.081                   115500259.081    22180605.423  
                 133334688.942                   133334688.942    25605529.212  
  25967216.588   136458610.612                                                  
  23499818.636   123492368.542                                                  
  23712663.967   124610869.155                                                  
  25764050.229   135390951.735                                                  
  27001525.581   141893924.207                                                  
  26382802.781   138642484.261                                                  
 21  8 31 20 49 20.0000000  0 16G10G15G18G23G24G32C19C21C22C34E 3E 5
                                E 9E15E31E36
  22036542.965   115802765.898    22036546.092    90235908.878                  
  22131492.753   116301775.989    22131493.735    90624759.384                  
  21133126.727   111055324.997    21133128.067    86536617.484                  
  20298419.045   106668914.021    20298419.903    83118636.618                  
  20300079.846   106677594.683    20300083.044    83125387.238                  
  23805660.312   125099531.040    23805664.583    97480139.347                  
                 119498138.206                   119498138.206    22948362.129  
                 130960278.311                   130960278.311    25149545.322  
                 115499647.940                   115499647.940    22180488.041  
                 133334129.309                   133334129.309    25605421.765  
  25966868.660   136456782.239                                                  
  23499824.587   123492399.805                                                  
  23713017.505   124612727.019                                                  
  25763745.758   135389351.716                                                  
  27001377.840   141893147.878                                                  
  26383394.728   138645594.867                                                  
 21  8 31 20 49 21.0000000  0 16G10G15G18G23G24G32C19C21C22C34E 3E 5
                                E 9E15E31E36
  22036071.795   115800289.958    22036074.940    90233979.573                  
  22132019.603   116304544.535    22132020.586    90626916.693                  
  21133574.328   111057677.163    21133575.669    86538450.341                  
  20298285.867   106668214.102    20298286.725    83118091.227                  
  20300054.775   106677462.976    20300057.974    83125284.610                  
  23805143.933   125096817.441    23805148.204    97478024.859                  
                 119499840.009                   119499840.009    22948688.935  
                 130957931.504                   130957931.504    25149094.647  
                 115499037.009                   115499037.009    22180370.713  
                 133333570.215                   133333570.215    25605314.373  
  25966520.733   136454953.981                                                  
  23499830.555   123492431.239                                                  
  23713371.062   124614584.962                                                  
  25763441.359   135387752.101                                                  
  27001230.206   141892371.992                                                  
  26383986.657   138648705.608                                                  
 21  8 31 20 49 22.0000000  0 16G10G15G18G23G24G32C19C21C22C34E 3E 5
                                E 9E15E31E36
  22035600.678   115797814.175    22035603.823    90232050.395                  
  22132546.453   116307313.243    22132547.454    90629074.125                  
  21134022.037   111060029.868    21134023.377    86540283.613                  
  20298152.743   106667514.574    20298153.601    83117546.140                  
  20300029.848   106677331.967    20300033.047    83125182.523                  
  23804627.572   125094104.012    23804631.843    97475910.497                  
                 119501541.974                   119501541.974    22949015.778  
                 130955584.738                   130955584.738    25148643.955  
                 115498426.289                   115498426.289    22180253.439  
                 133333011.652                   133333011.652    25605207.123  
  25966172.859   136453125.864                                                  
  23499836.577   123492462.858                                                  
  23713724.618   124616442.946                                                  
  25763137.032   135386152.912                                                  
  27001082.644   141891596.538                                                  
  26384578.658   138651816.487                                                  
 21  8 31 20 49 23.0000000  0 16G10G15G18G23G24G32C19C21C22C34E 3E 5
                                E 9E15E31E36
  22035129.597   115795338.566    22035132.724    90230121.348                  
  22133073.357   116310082.110    22133074.358    90631231.683                  
  21134469.835   111062383.085    21134471.175    86542117.289                  
  20298019.708   106666815.432    20298020.566    83117001.355                  
  20300005.046   106677201.684    20300008.244    83125081.003                  
  23804111.265   125091390.739    23804115.517    97473796.263                  
                 119503244.102                   119503244.102    22949342.656  
                 130953238.015                   130953238.015    25148193.298  
                 115497815.777                   115497815.777    22180136.200  
                 133332453.625                   133332453.625    25605099.962  
  25965825.002   136451297.861                                                  
  23499842.616   123492494.650                                                  
  23714078.192   124618300.980                                                  
  25762832.794   135384554.130                                                  
  27000935.153   141890821.535                                                  
  26385170.659   138654927.487                                                  
 21  8 31 20 49 24.0000000  0 16G10G15G18G23G24G32C19C21C22C34E 3E 5
                                E 9E15E31E36
  22034658.516   115792863.118    22034661.661    90228192.426                  
  22133600.297   116312851.140    22133601.279    90633389.372                  
  21134917.739   111064736.835    21134919.080    86543951.380                  
  20297886.727   106666116.699    20297887.602    83116456.887                  
  20299980.404   106677072.113    20299983.603    83124980.039                  
  23803594.975   125088677.648    23803599.246    97471682.163                  
                 119504946.399                   119504946.399    22949669.552  
                 130950891.341                   130950891.341    25147742.641  
                 115497205.476                   115497205.476    22180018.997  
                 133331896.132                   133331896.132    25604992.909  
  25965477.182   136449469.999                                                  
  23499848.728   123492526.621                                                  
  23714431.785   124620159.073                                                  
  25762528.646   135382955.754                                                  
  27000787.751   141890046.973                                                  
  26385762.677   138658038.607                                                  
 21  8 31 20 49 25.0000000  0 16G10G15G18G23G24G32C19C21C22C34E 3E 5
                                E 9E15E31E36
  22034187.506   115790387.843    22034190.633    90226263.640                  
  22134127.254   116315620.329    22134128.237    90635547.177                  
  21135365.734   111067091.114    21135367.074    86545785.878                  
  20297753.835   106665418.362    20297754.693    83115912.726                  
  20299955.852   106676943.247    20299959.069    83124879.626                  
  23803078.721   125085964.730    23803082.974    97469568.208                  
                 119506648.864                   119506648.864    22949996.501  
                 130948544.708                   130948544.708    25147292.002  
                 115496595.391                   115496595.391    22179901.848  
                 133331339.172                   133331339.172    25604885.945  
  25965129.361   136447642.257                                                  
  23499854.821   123492558.785                                                  
  23714785.359   124622017.210                                                  
  25762224.568   135381357.794                                                  
  27000640.439   141889272.845                                                  
  26386354.732   138661149.870                                                  
 21  8 31 20 49 26.0000000  0 16G10G15G18G23G24G32C19C21C22C34E 3E 5
                                E 9E15E31E36
  22033716.497   115787912.730    22033719.642    90224334.985                  
  22134654.247   116318389.680    22134655.248    90637705.114                  
  21135813.835   111069445.915    21135815.175    86547620.790                  
  20297621.014   106664720.418    20297621.908    83115368.876                  
  20299931.479   106676815.091    20299934.678    83124779.762                  
  23802562.503   125083251.973    23802566.756    97467454.372                  
                 119508351.492                   119508351.492    22950323.486  
                 130946198.122                   130946198.122    25146841.363  
                 115495985.512                   115495985.512    22179784.716  
                 133330782.749                   133330782.749    25604779.088  
  25964781.576   136445814.647                                                  
  23499860.986   123492591.114                                                  
  23715138.951   124623875.414                                                  
  25761920.563   135379760.242                                                  
  27000493.216   141888499.157                                                  
  26386946.822   138664261.245                                                  
 21  8 31 20 49 27.0000000  0 16G10G15G18G23G24G32C19C21C22C34E 3E 5
                                E 9E15E31E36
  22033245.541   115785437.784    22033248.686    90222406.458                  
  22135181.258   116321159.189    22135182.259    90639863.169                  
  21136262.062   111071801.241    21136263.402    86549456.109                  
  20297488.283   106664022.868    20297489.159    83114825.328                  
  20299907.213   106676687.645    20299910.411    83124680.453                  
  23802046.320   125080539.395    23802050.573    97465340.675                  
                 119510054.286                   119510054.286    22950650.472  
                 130943851.577                   130943851.577    25146390.724  
                 115495375.845                   115495375.845    22179667.638  
                 133330226.859                   133330226.859    25604672.321  
  25964433.827   136443987.164                                                  
  23499867.168   123492623.636                                                  
  23715492.579   124625733.677                                                  
  25761616.628   135378163.124                                                  
  27000346.065   141887725.906                                                  
  26387538.912   138667372.764                                                  
 21  8 31 20 49 28.0000000  0 16G10G15G18G23G24G32C19C21C22C34E 3E 5
                                E 9E15E31E36
  22032774.603   115782962.996    22032777.748    90220478.047                  
  22135708.323   116323928.868    22135709.306    90642021.360                  
  21136710.360   111074157.090    21136711.700    86551291.835                  
  20297355.624   106663325.719    20297356.499    83114282.097                  
  20299883.125   106676560.926    20299886.324    83124581.714                  
  23801530.156   125077826.964    23801534.426    97463227.097                  
                 119511757.246                   119511757.246    22950977.528  
                 130941505.078                   130941505.078    25145940.103  
                 115494766.382                   115494766.382    22179550.596  
                 133329671.504                   133329671.504    25604565.678  
  25964086.078   136442159.804                                                  
  23499873.387   123492656.329                                                  
  23715846.207   124627591.993                                                  
  25761312.784   135376566.394                                                  
  27000199.003   141886953.114                                                  
  26388131.038   138670484.404                                                  
 21  8 31 20 49 29.0000000  0 16G10G15G18G23G24G32C19C21C22C34E 3E 5
                                E 9E15E31E36
  22032303.700   115780488.388    22032306.845    90218549.781                  
  22136235.406   116326698.708    22136236.388    90644179.671                  
  21137158.765   111076513.463    21137160.105    86553127.973                  
  20297223.036   106662628.961    20297223.893    83113739.171                  
  20299859.145   106676434.918    20299862.344    83124483.523                  
  23801014.045   125075114.730    23801018.298    97461113.667                  
                 119513460.372                   119513460.372    22951304.585  
                 130939158.622                   130939158.622    25145489.500  
                 115494157.137                   115494157.137    22179433.608  
                 133329116.683                   133329116.683    25604459.143  
  25963738.383   136440332.575                                                  
  23499879.641   123492689.215                                                  
  23716199.835   124629450.364                                                  
  25761009.028   135374970.101                                                  
  27000052.048   141886180.755                                                  
  26388723.181   138673596.175                                                  
 21  8 31 20 49 30.0000000  0 16G10G15G18G23G24G32C19C21C22C34E 3E 5
                                E 9E15E31E36
  22031832.816   115778013.949    22031835.961    90216621.649                  
  22136762.524   116329468.699    22136763.507    90646338.109                  
  21137607.260   111078870.380    21137608.600    86554964.523                  
  20297090.519   106661932.604    20297091.394    83113196.556                  
  20299835.308   106676309.632    20299838.507    83124385.898                  
  23800497.934   125072402.657    23800502.204    97459000.364                  
                 119515163.663                   119515163.663    22951631.678  
                 130936812.211                   130936812.211    25145038.879  
                 115493548.101                   115493548.101    22179316.637  
                 133328562.398                   133328562.398    25604352.680  
  25963390.687   136438505.467                                                  
  23499885.949   123492722.269                                                  
  23716553.481   124631308.786                                                  
  25760705.326   135373374.199                                                  
  26999905.147   141885408.828                                                  
  26389315.361   138676708.078                                                  
 21  8 31 20 49 31.0000000  0 16G10G15G18G23G24G32C19C21C22C34E 3E 5
                                E 9E15E31E36
  22031361.985   115775539.681    22031365.112    90214693.648                  
  22137289.660   116332238.856    22137290.643    90648496.671                  
  21138055.862   111081227.796    21138057.220    86556801.477                  
  20296958.074   106661236.644    20296958.967    83112654.247                  
  20299811.578   106676185.050    20299814.776    83124288.821                  
  23799981.876   125069690.751    23799986.147    97456887.190                  
                 119516867.125                   119516867.125    22951958.824  
                 130934465.848                   130934465.848    25144588.294  
                 115492939.272                   115492939.272    22179199.720  
                 133328008.648                   133328008.648    25604246.341  
  25963043.028   136436678.486                                                  
  23499892.257   123492755.493                                                  
  23716907.145   124633167.263                                                  
  25760401.714   135371778.721                                                  
  26999758.335   141884637.347                                                  
  26389907.558   138679820.090                                                  
 21  8 31 20 49 32.0000000  0 16G10G15G18G23G24G32C19C21C22C34E 3E 5
                                E 9E15E31E36
  22030891.172   115773065.571    22030894.317    90212765.770                  
  22137816.814   116335009.163    22137817.815    90650655.354                  
  21138504.588   111083585.754    21138505.929    86558638.844                  
  20296825.718   106660541.077    20296826.593    83112112.246                  
  20299788.027   106676061.184    20299791.225    83124192.304                  
  23799465.855   125066979.007    23799470.125    97454774.147                  
                 119518570.751                   119518570.751    22952285.988  
                 130932119.524                   130932119.524    25144137.709  
                 115492330.661                   115492330.661    22179082.839  
                 133327455.433                   133327455.433    25604140.092  
  25962695.386   136434851.624                                                  
  23499898.618   123492788.899                                                  
  23717260.826   124635025.793                                                  
  25760098.172   135370183.640                                                  
  26999611.595   141883866.300                                                  
  26390499.773   138682932.237                                                  
 21  8 31 20 49 33.0000000  0 16G10G15G18G23G24G32C19C21C22C34E 3E 5
                                E 9E15E31E36
  22030420.395   115770591.626    22030423.539    90210838.023                  
  22138344.040   116337779.640    22138345.023    90652814.163                  
  21138953.387   111085944.235    21138954.727    86560476.617                  
  20296693.433   106659845.903    20296694.291    83111570.550                  
  20299764.582   106675938.040    20299767.781    83124096.343                  
  23798949.869   125064267.439    23798954.122    97452661.239                  
                 119520274.540                   119520274.540    22952613.187  
                 130929773.246                   130929773.246    25143687.123  
                 115491722.253                   115491722.253    22178965.993  
                 133326902.750                   133326902.750    25604033.968  
  25962347.762   136433024.895                                                  
  23499904.997   123492822.504                                                  
  23717614.472   124636884.367                                                  
  25759794.721   135368588.988                                                  
  26999464.961   141883095.699                                                  
  26391092.042   138686044.504                                                  
 21  8 31 20 49 34.0000000  0 16G10G15G18G23G24G32C19C21C22C34E 3E 5
                                E 9E15E31E36
  22029949.653   115768117.851    22029952.798    90208910.406                  
  22138871.265   116340550.276    22138872.266    90654973.103                  
  21139402.275   111088303.229    21139403.615    86562314.797                  
  20296561.221   106659151.129    20296562.096    83111029.172                  
  20299741.281   106675815.597    20299744.480    83124000.938                  
  23798433.901   125061556.052    23798438.154    97450548.469                  
                 119521978.497                   119521978.497    22952940.405  
                 130927427.014                   130927427.014    25143236.556  
                 115491114.058                   115491114.058    22178849.201  
                 133326350.605                   133326350.605    25603927.933  
  25962000.174   136431198.286                                                  
  23499911.448   123492856.271                                                  
  23717968.172   124638743.011                                                  
  25759491.358   135366994.743                                                  
  26999318.400   141882325.532                                                  
  26391684.293   138689156.915                                                  
 21  8 31 20 49 35.0000000  0 16G10G15G18G23G24G32C19C21C22C34E 3E 5
                                E 9E15E31E36
  22029478.947   115765644.240    22029482.074    90206982.915                  
  22139398.544   116343321.070    22139399.527    90657132.161                  
  21139851.287   111090662.757    21139852.628    86564153.390                  
  20296429.097   106658456.750    20296429.955    83110488.098                  
  20299718.123   106675693.864    20299721.321    83123906.079                  
  23797917.969   125058844.821    23797922.221    97448435.823                  
                 119523682.616                   119523682.616    22953267.658  
                 130925080.823                   130925080.823    25142786.006  
                 115490506.075                   115490506.075    22178732.445  
                 133325798.992                   133325798.992    25603822.005  
  25961652.603   136429371.809                                                  
  23499917.899   123492890.219                                                  
  23718321.889   124640601.703                                                  
  25759188.067   135365400.909                                                  
  26999171.945   141881555.809                                                  
  26392276.597   138692269.452                                                  
 21  8 31 20 49 36.0000000  0 16G10G15G18G23G24G32C19C21C22C34E 3E 5
                                E 9E15E31E36
  22029008.259   115763170.802    22029011.404    90205055.558                  
  22139925.824   116346092.032    22139926.824    90659291.351                  
  21140300.372   111093022.805    21140301.712    86565992.386                  
  20296297.027   106657762.771    20296297.903    83109947.332                  
  20299695.072   106675572.839    20299698.288    83123811.778                  
  23797402.054   125056133.761    23797406.325    97446323.313                  
                 119525386.905                   119525386.905    22953594.965  
                 130922734.685                   130922734.685    25142335.439  
                 115489898.304                   115489898.304    22178615.743  
                 133325247.914                   133325247.914    25603716.185  
  25961305.069   136427545.446                                                  
  23499924.385   123492924.335                                                  
  23718675.588   124642460.453                                                  
  25758884.848   135363807.489                                                  
  26999025.544   141880786.532                                                  
  26392868.920   138695382.110                                                  
 21  8 31 20 49 37.0000000  0 16G10G15G18G23G24G32C19C21C22C34E 3E 5
                                E 9E15E31E36
  22028537.625   115760697.531    22028540.752    90203128.339                  
  22140453.156   116348863.149    22140454.139    90661450.661                  
  21140749.599   111095383.387    21140750.939    86567831.801                  
  20296165.046   106657069.184    20296165.922    83109406.876                  
  20299672.200   106675452.562    20299675.398    83123718.055                  
  23796886.193   125053422.879    23796890.464    97444210.940                  
                 119527091.359                   119527091.359    22953922.272  
                 130920388.581                   130920388.581    25141884.907  
                 115489290.743                   115489290.743    22178499.058  
                 133324697.371                   133324697.371    25603610.436  
  25960957.534   136425719.228                                                  
  23499930.925   123492958.654                                                  
  23719029.306   124644319.264                                                  
  25758581.700   135362214.479                                                  
  26998879.233   141880017.700                                                  
  26393461.260   138698494.890                                                  
 21  8 31 20 49 38.0000000  0 16G10G15G18G23G24G32C19C21C22C34E 3E 5
                                E 9E15E31E36
  22028067.008   115758224.422    22028070.136    90201201.241                  
  22140980.525   116351634.422    22140981.508    90663610.094                  
  21141198.898   111097744.488    21141200.238    86569671.617                  
  20296033.137   106656375.997    20296033.995    83108866.730                  
  20299649.434   106675332.965    20299652.633    83123624.859                  
  23796370.386   125050712.156    23796374.621    97442098.689                  
                 119528795.979                   119528795.979    22954249.632  
                 130918042.527                   130918042.527    25141434.358  
                 115488683.391                   115488683.391    22178382.427  
                 133324147.363                   133324147.363    25603504.812  
  25960610.035   136423893.126                                                  
  23499937.483   123492993.136                                                  
  23719383.041   124646178.126                                                  
  25758278.641   135360621.902                                                  
  26998733.028   141879249.289                                                  
  26394053.636   138701607.800                                                  
 21  8 31 20 49 39.0000000  0 16G10G15G18G23G24G32C19C21C22C34E 3E 5
                                E 9E15E31E36
  22027596.428   115755751.483    22027599.555    90199274.278                  
  22141507.893   116354405.856    22141508.894    90665769.653                  
  21141648.304   111100106.112    21141649.644    86571511.844                  
  20295901.300   106655683.200    20295902.157    83108326.886                  
  20299626.812   106675214.094    20299630.029    83123532.234                  
  23795854.561   125048001.612    23795858.814    97439986.578                  
                 119530500.768                   119530500.768    22954577.029  
                 130915696.517                   130915696.517    25140983.844  
                 115488076.251                   115488076.251    22178265.814  
                 133323597.887                   133323597.887    25603399.296  
  25960262.572   136422067.145                                                  
  23499944.077   123493027.810                                                  
  23719736.776   124648037.035                                                  
  25757975.654   135359029.723                                                  
  26998586.878   141878481.329                                                  
  26394646.012   138704720.848                                                  
 21  8 31 20 49 40.0000000  0 16G10G15G18G23G24G32C19C21C22C34E 3E 5
                                E 9E15E31E36
  22027125.865   115753278.703    22027128.992    90197347.434                  
  22142035.315   116357177.445    22142036.298    90667929.331                  
  21142097.799   111102468.258    21142099.139    86573352.477                  
  20295769.533   106654990.800    20295770.391    83107787.355                  
  20299604.333   106675095.941    20299607.532    83123440.165                  
  23795338.807   125045291.238    23795343.060    97437874.601                  
                 119532205.720                   119532205.720    22954904.443  
                 130913350.550                   130913350.550    25140533.312  
                 115487469.317                   115487469.317    22178149.254  
                 133323048.949                   133323048.949    25603293.886  
  25959915.127   136420241.293                                                  
  23499950.706   123493062.653                                                  
  23720090.511   124649896.011                                                  
  25757672.756   135357437.943                                                  
  26998440.816   141877713.809                                                  
  26395238.442   138707834.013                                                  
 21  8 31 20 49 41.0000000  0 16G10G15G18G23G24G32C19C21C22C34E 3E 5
                                E 9E15E31E36
  22026655.338   115750806.099    22026658.483    90195420.731                  
  22142562.755   116359949.190    22142563.756    90670089.132                  
  21142547.401   111104830.929    21142548.741    86575193.519                  
  20295637.857   106654298.798    20295638.714    83107248.133                  
  20299581.979   106674978.493    20299585.177    83123348.649                  
  23794823.054   125042581.031    23794827.324    97435762.754                  
                 119533910.840                   119533910.840    22955231.875  
                 130911004.630                   130911004.630    25140082.798  
                 115486862.596                   115486862.596    22178032.766  
                 133322500.543                   133322500.543    25603188.566  
  25959567.699   136418415.570                                                  
  23499957.371   123493097.676                                                  
  23720444.282   124651755.028                                                  
  25757369.912   135355846.583                                                  
  26998294.862   141876946.727                                                  
  26395830.871   138710947.296                                                  
 21  8 31 20 49 42.0000000  0 16G10G15G18G23G24G32C19C21C22C34E 3E 5
                                E 9E15E31E36
  22026184.846   115748333.667    22026187.973    90193494.164                  
  22143090.249   116362721.108    22143091.232    90672249.071                  
  21142997.093   111107194.125    21142998.433    86577034.969                  
  20295506.233   106653607.193    20295507.127    83106709.220                  
  20299559.786   106674861.766    20299562.984    83123257.691                  
  23794307.354   125039871.001    23794311.624    97433651.042                  
                 119535616.120                   119535616.120    22955559.360  
                 130908658.753                   130908658.753    25139632.302  
                 115486256.090                   115486256.090    22177916.278  
                 133321952.676                   133321952.676    25603083.354  
  25959220.308   136416589.977                                                  
  23499964.072   123493132.886                                                  
  23720798.053   124653614.112                                                  
  25757067.175   135354255.663                                                  
  26998148.961   141876180.093                                                  
  26396423.354   138714060.728                                                  
 21  8 31 20 49 43.0000000  0 16G10G15G18G23G24G32C19C21C22C34E 3E 5
                                E 9E15E31E36
  22025714.409   115745861.397    22025717.518    90191567.720                  
  22143617.742   116365493.176    22143618.743    90674409.121                  
  21143446.892   111109557.844    21143448.232    86578876.827                  
  20295374.717   106652915.980    20295375.575    83106170.613                  
  20299537.699   106674745.753    20299540.898    83123167.293                  
  23793791.672   125037161.126    23793795.942    97431539.453                  
                 119537321.575                   119537321.575    22955886.882  
                 130906312.917                   130906312.917    25139181.807  
                 115485649.794                   115485649.794    22177799.843  
                 133321405.340                   133321405.340    25602978.248  
  25958872.916   136414764.500                                                  
  23499970.809   123493168.261                                                  
  23721151.842   124655473.250                                                  
  25756764.492   135352665.106                                                  
  26998003.168   141875413.894                                                  
  26397015.838   138717174.266                                                  
 21  8 31 20 49 44.0000000  0 16G10G15G18G23G24G32C19C21C22C34E 3E 5
                                E 9E15E31E36
  22025243.953   115743389.298    22025247.098    90189641.406                  
  22144145.272   116368265.417    22144146.272    90676569.304                  
  21143896.798   111111922.091    21143898.139    86580719.098                  
  20295243.255   106652225.176    20295244.113    83105632.323                  
  20299515.756   106674630.450    20299518.955    83123077.446                  
  23793276.043   125034451.427    23793280.296    97429427.999                  
                 119539027.192                   119539027.192    22956214.421  
                 130903967.133                   130903967.133    25138731.328  
                 115485043.704                   115485043.704    22177683.462  
                 133320858.539                   133320858.539    25602873.232  
  25958525.560   136412939.159                                                  
  23499977.581   123493203.836                                                  
  23721505.648   124657332.437                                                  
  25756461.916   135351074.993                                                  
  26997857.446   141874648.144                                                  
  26397608.356   138720287.938                                                  
 21  8 31 20 49 45.0000000  0 16G10G15G18G23G24G32C19C21C22C34E 3E 5
                                E 9E15E31E36
  22024773.587   115740917.368    22024776.696    90187715.227                  
  22144672.855   116371037.813    22144673.855    90678729.613                  
  21144346.794   111114286.860    21144348.152    86582561.773                  
  20295111.882   106651534.753    20295112.740    83105094.336                  
  20299493.938   106674515.848    20299497.137    83122988.144                  
  23792760.432   125031741.904    23792764.703    97427316.687                  
                 119540732.972                   119540732.972    22956541.996  
                 130901621.387                   130901621.387    25138280.833  
                 115484437.829                   115484437.829    22177567.099  
                 133320312.274                   133320312.274    25602768.341  
  25958178.240   136411113.941                                                  
  23499984.371   123493239.583                                                  
  23721859.437   124659191.689                                                  
  25756159.429   135349485.294                                                  
  26997711.814   141873882.831                                                  
  26398200.893   138723401.737                                                  
 21  8 31 20 49 46.0000000  0 16G10G15G18G23G24G32C19C21C22C34E 3E 5
                                E 9E15E31E36
  22024303.220   115738445.600    22024306.347    90185789.179                  
  22145200.455   116373810.374    22145201.456    90680890.050                  
  21144796.897   111116652.152    21144798.255    86584404.860                  
  20294980.580   106650844.735    20294981.438    83104556.655                  
  20299472.281   106674401.968    20299475.479    83122899.411                  
  23792244.858   125029032.542    23792249.128    97425205.501                  
                 119542438.921                   119542438.921    22956869.624  
                 130899275.688                   130899275.688    25137830.372  
                 115483832.163                   115483832.163    22177450.807  
                 133319766.543                   133319766.543    25602663.539  
  25957830.937   136409288.849                                                  
  23499991.215   123493275.495                                                  
  23722213.262   124661050.993                                                  
  25755856.978   135347896.020                                                  
  26997566.253   141873117.964                                                  
  26398793.466   138726515.671                                                  
 21  8 31 20 49 47.0000000  0 16G10G15G18G23G24G32C19C21C22C34E 3E 5
                                E 9E15E31E36
  22023832.872   115735974.008    22023836.017    90183863.258                  
  22145728.092   116376583.087    22145729.075    90683050.602                  
  21145247.107   111119017.978    21145248.465    86586248.355                  
  20294849.332   106650155.110    20294850.208    83104019.285                  
  20299450.749   106674288.801    20299453.947    83122811.226                  
  23791729.318   125026323.357    23791733.571    97423094.445                  
                 119544145.036                   119544145.036    22957197.253  
                 130896930.035                   130896930.035    25137379.912  
                 115483226.707                   115483226.707    22177334.516  
                 133319221.348                   133319221.348    25602558.844  
  25957483.653   136407463.883                                                  
  23499998.077   123493311.597                                                  
  23722567.086   124662910.351                                                  
  25755554.616   135346307.149                                                  
  26997420.799   141872353.534                                                  
  26399386.038   138729629.726                                                  
 21  8 31 20 49 48.0000000  0 16G10G15G18G23G24G32C19C21C22C34E 3E 5
                                E 9E15E31E36
  22023362.577   115733502.575    22023365.722    90181937.468                  
  22146255.764   116379355.965    22146256.747    90685211.290                  
  21145697.406   111121384.317    21145698.764    86588092.258                  
  20294718.174   106649465.891    20294719.067    83103482.231                  
  20299429.342   106674176.355    20299432.540    83122723.609                  
  23791213.815   125023614.333    23791218.068    97420983.520                  
                 119545851.316                   119545851.316    22957524.935  
                 130894584.426                   130894584.426    25136929.488  
                 115482621.466                   115482621.466    22177218.278  
                 133318676.684                   133318676.684    25602454.239  
  25957136.404   136405639.044                                                  
  23500004.974   123493347.879                                                  
  23722920.929   124664769.770                                                  
  25755252.361   135344718.685                                                  
  26997275.416   141871589.554                                                  
  26399978.664   138732743.897                                                  
 21  8 31 20 49 49.0000000  0 16G10G15G18G23G24G32C19C21C22C34E 3E 5
                                E 9E15E31E36
  22022892.318   115731031.317    22022895.463    90180011.813                  
  22146783.436   116382129.004    22146784.437    90687372.098                  
  21146147.795   111123751.175    21146149.153    86589936.562                  
  20294587.104   106648777.055    20294587.980    83102945.476                  
  20299408.078   106674064.620    20299411.276    83122636.538                  
  23790698.347   125020905.482    23790702.582    97418872.727                  
                 119547557.762                   119547557.762    22957852.635  
                 130892238.860                   130892238.860    25136479.027  
                 115482016.429                   115482016.429    22177102.093  
                 133318132.559                   133318132.559    25602349.741  
  25956789.173   136403814.336                                                  
  23500011.925   123493384.345                                                  
  23723274.753   124666629.233                                                  
  25754950.161   135343130.643                                                  
  26997130.123   141870826.001                                                  
  26400571.273   138735858.207                                                  
 21  8 31 20 49 50.0000000  0 16G10G15G18G23G24G32C19C21C22C34E 3E 5
                                E 9E15E31E36
  22022422.077   115728560.227    22022425.222    90178086.288                  
  22147311.162   116384902.196    22147312.163    90689533.024                  
  21146598.309   111126118.562    21146599.667    86591781.276                  
  20294456.107   106648088.625    20294456.964    83102409.035                  
  20299386.956   106673953.590    20299390.155    83122550.023                  
  23790182.879   125018196.798    23790187.132    97416762.066                  
                 119549264.374                   119549264.374    22958180.389  
                 130889893.341                   130889893.341    25136028.603  
                 115481411.609                   115481411.609    22176985.945  
                 133317588.965                   133317588.965    25602245.332  
  25956441.960   136401989.743                                                  
  23500018.894   123493420.973                                                  
  23723628.613   124668488.755                                                  
  25754648.031   135341543.004                                                  
  26996984.902   141870062.892                                                  
  26401163.935   138738972.640                                                  
 21  8 31 20 49 51.0000000  0 16G10G15G18G23G24G32C19C21C22C34E 3E 5
                                E 9E15E31E36
  22021951.871   115726089.301    22021955.016    90176160.894                  
