     2.11           OBSERVATION DATA    M (MIXED)           RINEX VERSION / TYPE
CONVBIN 2.4.3                           20210901 190855 UTC PGM / RUN BY / DATE 
log: logs/21_09_01_09_42_27_mami_SW.rtcm                    COMMENT             
format: RTCM 3, station ID: 1753                            COMMENT             
1753                                                        MARKER NAME         
                                                            MARKER NUMBER       
                                                            OBSERVER / AGENCY   
                    SWFT                                    REC # / TYPE / VERS 
                    NULL                                    ANT # / TYPE        
  1556688.1357 -4533459.6534  4193678.3792                  APPROX POSITION XYZ 
        0.0000        0.0000        0.0000                  ANTENNA: DELTA H/E/N
     1     1                                                WAVELENGTH FACT L1/2
     5    C1    L1    P2    L2    C2                        # / TYPES OF OBSERV 
  2021     9     1     9    42   32.0000000     GPS         TIME OF FIRST OBS   
  2021     9     1    10    12   30.0000000     GPS         TIME OF LAST OBS    
                                                            END OF HEADER       
 21  9  1  9 42 32.0000000  0 14G 1G 3G 7G 8G14G17G19G21G30C23C25C28
                                C34E27
  20175583.575   106023371.984    20175586.148    82615604.769                  
  23801831.249   125079436.327    23801833.911    97464487.441                  
  23215151.323   121996449.393    23215151.180    95062169.550                  
  24590248.084   129222574.933    24590251.068   100692902.899                  
  20537573.402   107925692.734    20537573.295    84097948.520                  
  21438661.074   112660941.211    21438660.288    87787750.004                  
  23245231.786   122154537.672    23245229.589    95185359.548                  
  22372711.465   117569400.911    22372710.142    91612522.952                  
  21823223.319   114681774.082    21823225.356    89362411.732                  
                 116163638.860                   116163638.860    22307996.082  
                 129798480.281                   129798480.281    24926431.396  
                 119876822.477                   119876822.477    23021081.958  
                 129375282.558                   129375282.558    24845162.866  
  23730190.297   124702980.359                                                  
 21  9  1  9 42 33.0000000  0 14G 1G 3G 7G 8G14G17G19G21G30C23C25C28
                                C34E27
  20175765.142   106024326.108    20175767.697    82616348.245                  
  23801279.918   125076539.061    23801282.598    97462229.829                  
  23215827.219   122000001.332    23215827.094    95064937.294                  
  24590806.759   129225510.807    24590809.743   100695190.593                  
  20537319.198   107924356.888    20537319.108    84096907.597                  
  21438400.633   112659572.534    21438399.847    87786683.505                  
  23244700.040   122151743.312    23244697.842    95183182.124                  
  22373205.204   117571995.491    22373203.881    91614544.703                  
  21823657.269   114684054.530    21823659.324    89364188.704                  
                 116164795.190                   116164795.190    22308218.140  
                 129801748.355                   129801748.355    24927058.992  
                 119874936.944                   119874936.944    23020719.860  
                 129377957.173                   129377957.173    24845676.493  
  23730416.162   124704167.246                                                  
 21  9  1  9 42 34.0000000  0 14G 1G 3G 7G 8G14G17G19G21G30C23C25C28
                                C34E27
  20175946.834   106025280.913    20175949.407    82617092.247                  
  23800728.623   125073641.995    23800731.303    97459972.379                  
  23216503.169   122003553.426    23216503.043    95067705.157                  
  24591365.416   129228446.685    24591368.418   100697478.285                  
  20537065.082   107923021.444    20537064.957    84095866.991                  
  21438140.246   112658204.110    21438139.424    87785617.200                  
  23244168.312   122148949.124    23244166.114    95181004.840                  
  22373698.996   117574590.380    22373697.674    91616566.695                  
  21824091.325   114686335.465    21824093.362    89365966.054                  
                 116165952.039                   116165952.039    22308440.306  
                 129805016.597                   129805016.597    24927686.642  
                 119873051.699                   119873051.699    23020357.816  
                 129380631.840                   129380631.840    24846190.138  
  23730642.080   124705354.480                                                  
 21  9  1  9 42 35.0000000  0 14G 1G 3G 7G 8G14G17G19G21G30C23C25C28
                                C34E27
  20176128.652   106026236.411    20176131.225    82617836.788                  
  23800177.381   125070745.181    23800180.062    97457715.116                  
  23217179.136   122007105.696    23217178.993    95070473.160                  
  24591924.109   129231382.562    24591927.093   100699765.984                  
  20536811.021   107921686.414    20536810.913    84094826.710                  
  21437879.876   112656835.935    21437879.072    87784551.085                  
  23243636.637   122146155.118    23243634.439    95178827.692                  
  22374192.842   117577185.574    22374191.520    91618588.921                  
  21824525.453   114688616.896    21824527.508    89367743.792                  
                 116167109.401                   116167109.401    22308662.561  
                 129808285.005                   129808285.005    24928314.291  
                 119871166.742                   119871166.742    23019995.825  
                 129383306.562                   129383306.562    24846703.801  
  23730868.087   124706542.063                                                  
 21  9  1  9 42 36.0000000  0 14G 1G 3G 7G 8G14G17G19G21G30C23C25C28
                                C34E27
  20176310.612   106027192.589    20176313.185    82618581.864                  
  23799626.158   125067848.575    23799628.856    97455458.023                  
  23217855.139   122010658.133    23217855.014    95073241.293                  
  24592482.784   129234318.425    24592485.768   100702053.667                  
  20536557.066   107920351.794    20536556.959    84093786.747                  
  21437619.578   112655467.989    21437618.756    87783485.160                  
  23243104.980   122143361.274    23243102.782    95176650.668                  
  22374686.742   117579781.061    22374685.420    91620611.379                  
  21824959.688   114690898.805    21824961.743    89369521.903                  
                 116168267.276                   116168267.276    22308884.923  
                 129811553.579                   129811553.579    24928941.994  
                 119869282.070                   119869282.070    23019633.906  
                 129385981.340                   129385981.340    24847217.464  
  23731094.113   124707729.995                                                  
 21  9  1  9 42 37.0000000  0 14G 1G 3G 7G 8G14G17G19G21G30C23C25C28
                                C34E27
  20176492.697   106028149.454    20176495.253    82619327.473                  
  23799075.006   125064952.186    23799077.686    97453201.097                  
  23218531.178   122014210.729    23218531.052    95076009.552                  
  24593041.459   129237254.300    24593044.443   100704341.364                  
  20536303.165   107919017.589    20536303.058    84092747.106                  
  21437359.298   112654100.298    21437358.494    87782419.425                  
  23242573.358   122140567.606    23242571.160    95174473.786                  
  22375180.696   117582376.860    22375179.391    91622634.081                  
  21825394.013   114693181.207    21825396.068    89371300.398                  
                 116169425.668                   116169425.668    22309107.374  
                 129814822.316                   129814822.316    24929569.715  
                 119867397.683                   119867397.683    23019272.023  
                 129388656.173                   129388656.173    24847731.145  
  23731320.245   124708918.271                                                  
 21  9  1  9 42 38.0000000  0 14G 1G 3G 7G 8G14G17G19G21G30C23C25C28
                                C34E27
  20176674.926   106029106.997    20176677.481    82620073.610                  
  23798523.871   125062056.035    23798526.552    97450944.356                  
  23219207.252   122017763.516    23219207.127    95078777.952                  
  24593600.134   129240190.156    24593603.118   100706629.042                  
  20536049.353   107917683.794    20536049.246    84091707.781                  
  21437099.107   112652732.863    21437098.285    87781353.891                  
  23242041.773   122137774.114    23242039.575    95172297.039                  
  22375674.738   117584972.957    22375673.416    91624657.015                  
  21825828.444   114695464.103    21825830.481    89373079.278                  
                 116170584.575                   116170584.575    22309329.933  
                 129818091.224                   129818091.224    24930197.472  
                 119865513.586                   119865513.586    23018910.193  
                 129391331.058                   129391331.058    24848244.825  
  23731546.431   124710106.875                                                  
 21  9  1  9 42 39.0000000  0 14G 1G 3G 7G 8G14G17G19G21G30C23C25C28
                                C34E27
  20176857.261   106030065.229    20176859.816    82620820.285                  
  23797972.809   125059160.104    23797975.489    97448687.789                  
  23219883.362   122021316.461    23219883.219    95081546.485                  
  24594158.826   129243126.005    24594161.793   100708916.719                  
  20535795.613   107916350.401    20535795.524    84090668.778                  
  21436838.916   112651365.677    21436838.112    87780288.551                  
  23241510.223   122134980.789    23241508.043    95170120.427                  
  22376168.799   117587569.348    22376167.477    91626680.177                  
  21826262.965   114697747.491    21826265.002    89374858.539                  
                 116171743.991                   116171743.991    22309552.599  
                 129821360.289                   129821360.289    24930825.282  
                 119863629.778                   119863629.778    23018548.435  
                 129394005.999                   129394005.999    24848758.524  
  23731772.689   124711295.837                                                  
 21  9  1  9 42 40.0000000  0 14G 1G 3G 7G 8G14G17G19G21G30C23C25C28
                                C34E27
  20177039.740   106031024.145    20177042.295    82621567.488                  
  23797421.764   125056264.391    23797424.462    97446431.386                  
  23220559.508   122024869.558    23220559.365    95084315.128                  
  24594717.484   129246061.847    24594720.468   100711204.386                  
  20535541.962   107915017.425    20535541.855    84089630.093                  
  21436578.797   112649998.735    21436577.993    87779223.401                  
  23240978.709   122132187.646    23240976.529    95167943.945                  
  22376662.949   117590166.048    22376661.627    91628703.579                  
  21826697.558   114700031.363    21826699.595    89376638.180                  
                 116172903.924                   116172903.924    22309775.336  
                 129824629.528                   129824629.528    24931453.092  
                 119861746.251                   119861746.251    23018186.712  
                 129396680.991                   129396680.991    24849272.223  
  23731999.000   124712485.140                                                  
 21  9  1  9 42 41.0000000  0 14G 1G 3G 7G 8G14G17G19G21G30C23C25C28
                                C34E27
  20177222.343   106031983.745    20177224.898    82622315.235                  
  23796870.772   125053368.915    23796873.453    97444175.171                  
  23221235.654   122028422.832    23221235.511    95087083.913                  
  24595276.159   129248997.680    24595279.143   100713492.046                  
  20535288.383   107913684.860    20535288.276    84088591.731                  
  21436318.731   112648632.053    21436317.927    87778158.457                  
  23240447.213   122129394.679    23240445.015    95165767.609                  
  22377157.135   117592763.046    22377155.812    91630727.212                  
  21827132.258   114702315.726    21827134.295    89378418.203                  
                 116174064.375                   116174064.375    22309998.199  
                 129827898.925                   129827898.925    24932080.938  
                 119859863.012                   119859863.012    23017825.061  
                 129399356.043                   129399356.043    24849785.939  
  23732225.383   124713674.792                                                  
 21  9  1  9 42 42.0000000  0 14G 1G 3G 7G 8G14G17G19G21G30C23C25C28
                                C34E27
  20177405.072   106032944.035    20177407.645    82623063.508                  
  23796319.817   125050473.656    23796322.515    97441919.130                  
  23221911.854   122031976.288    23221911.729    95089852.840                  
  24595834.816   129251933.508    24595837.800   100715779.704                  
  20535034.875   107912352.708    20535034.786    84087553.688                  
  21436058.701   112647265.592    21436057.897    87777093.682                  
  23239915.788   122126601.888    23239913.572    95163591.411                  
  22377651.374   117595360.344    22377650.052    91632751.078                  
  21827567.064   114704600.575    21827569.102    89380198.605                  
                 116175225.335                   116175225.335    22310221.133  
                 129831168.493                   129831168.493    24932708.838  
                 119857980.062                   119857980.062    23017463.463  
                 129402031.146                   129402031.146    24850299.656  
  23732451.837   124714864.795                                                  
 21  9  1  9 42 43.0000000  0 14G 1G 3G 7G 8G14G17G19G21G30C23C25C28
                                C34E27
  20177587.943   106033904.993    20177590.499    82623812.309                  
  23795768.915   125047578.638    23795771.595    97439663.269                  
  23222588.071   122035529.890    23222587.964    95092621.878                  
  24596393.509   129254869.333    24596396.475   100718067.359                  
  20534781.457   107911020.961    20534781.368    84086515.966                  
  21435798.725   112645899.378    21435797.921    87776029.097                  
  23239384.363   122123809.273    23239382.165    95161415.348                  
  22378145.703   117597957.944    22378144.380    91634775.184                  
  21828001.943   114706885.909    21828003.980    89381979.382                  
                 116176386.813                   116176386.813    22310444.192  
                 129834438.221                   129834438.221    24933336.755  
                 119856097.399                   119856097.399    23017101.919  
                 129404706.302                   129404706.302    24850813.408  
  23732678.362   124716055.134                                                  
 21  9  1  9 42 44.0000000  0 15G 1G 3G 7G 8G14G17G19G21G22G30C23C25
                                C28C34E27
  20177770.940   106034866.635    20177773.495    82624561.641                  
  23795218.066   125044683.831    23795220.747    97437407.578                  
  23223264.342   122039083.663    23223264.217    95095391.051                  
  24596952.166   129257805.140    24596955.132   100720355.003                  
  20534528.128   107909689.626    20534528.003    84085478.564                  
  21435538.802   112644533.439    21435537.980    87774964.729                  
  23238852.974   122121016.814    23238850.776    95159239.405                  
  22378640.067   117600555.844    22378638.745    91636799.519                  
  23087183.316   121323991.164    23087180.814    94538181.582                  
  21828436.928   114709171.736    21828438.966    89383760.546                  
                 116177548.802                   116177548.802    22310667.340  
                 129837708.118                   129837708.118    24933964.709  
                 119854215.021                   119854215.021    23016740.411  
                 129407381.513                   129407381.513    24851327.142  
  23732904.941   124717245.822                                                  
 21  9  1  9 42 45.0000000  0 15G 1G 3G 7G 8G14G17G19G21G22G30C23C25
                                C28C34E27
  20177954.062   106035828.961    20177956.617    82625311.505                  
  23794667.236   125041789.241    23794669.916    97435152.056                  
  23223940.631   122042637.608    23223940.524    95098160.360                  
  24597510.823   129260740.956    24597513.825   100722642.652                  
  20534274.834   107908358.704    20534274.745    84084441.477                  
  21435278.897   112643167.735    21435278.093    87773900.542                  
  23238321.621   122118224.536    23238319.423    95157063.605                  
  22379134.485   117603154.043    22379133.163    91638824.090                  
  23086882.062   121322408.011    23086879.561    94536947.957                  
  21828871.986   114711458.047    21828874.041    89385542.087                  
                 116178711.305                   116178711.305    22310890.596  
                 129840978.181                   129840978.181    24934592.680  
                 119852332.931                   119852332.931    23016378.974  
                 129410056.779                   129410056.779    24851840.895  
  23733131.574   124718436.855                                                  
 21  9  1  9 42 46.0000000  0 15G 1G 3G 7G 8G14G17G19G21G22G30C23C25
                                C28C34E27
  20178137.326   106036791.968    20178139.882    82626061.902                  
  23794116.459   125038894.898    23794119.139    97432896.719                  
  23224616.956   122046191.727    23224616.849    95100929.801                  
  24598069.498   129263676.798    24598072.482   100724930.317                  
  20534021.666   107907028.192    20534021.559    84083404.715                  
  21435019.064   112641802.263    21435018.259    87772836.542                  
  23237790.303   122115432.456    23237788.105    95154887.957                  
  22379628.957   117605752.526    22379627.634    91640848.882                  
  23086580.898   121320825.343    23086578.396    94535714.711                  
  21829307.168   114713744.851    21829309.205    89387324.012                  
                 116179874.324                   116179874.324    22311113.940  
                 129844248.406                   129844248.406    24935220.704  
                 119850451.126                   119850451.126    23016017.591  
                 129412732.094                   129412732.094    24852354.665  
  23733358.279   124719628.230                                                  
 21  9  1  9 42 47.0000000  0 15G 1G 3G 7G 8G14G17G19G21G22G30C23C25
                                C28C34E27
  20178320.698   106037755.667    20178323.254    82626812.832                  
  23793565.718   125036000.780    23793568.416    97430641.567                  
  23225293.316   122049746.010    23225293.191    95103699.374                  
  24598628.155   129266612.593    24598631.139   100727217.950                  
  20533768.533   107905698.086    20533768.444    84082368.273                  
  21434759.284   112640437.063    21434758.480    87771772.751                  
  23237259.021   122112640.536    23237256.824    95152712.438                  
  22380123.482   117608351.323    22380122.159    91642873.921                  
  23086279.822   121319243.162    23086277.321    94534481.840                  
  21829742.404   114716032.153    21829744.459    89389106.323                  
                 116181037.854                   116181037.854    22311337.375  
                 129847518.797                   129847518.797    24935848.747  
                 119848569.605                   119848569.605    23015656.280  
                 129415407.468                   129415407.468    24852868.435  
  23733585.054   124720819.956                                                  
 21  9  1  9 42 48.0000000  0 15G 1G 3G 7G 8G14G17G19G21G22G30C23C25
                                C28C34E27
  20178504.213   106038720.047    20178506.786    82627564.297                  
  23793015.048   125033106.883    23793017.728    97428386.577                  
  23225969.712   122053300.458    23225969.587    95106469.071                  
  24599186.848   129269548.406    24599189.814   100729505.594                  
  20533515.526   107904368.394    20533515.419    84081332.149                  
  21434499.540   112639072.105    21434498.718    87770709.149                  
  23236727.758   122109848.773    23236725.560    95150537.035                  
  22380618.078   117610950.414    22380616.756    91644899.187                  
  23085978.819   121317661.441    23085976.317    94533249.335                  
  21830177.764   114718319.929    21830179.802    89390889.008                  
                 116182201.902                   116182201.902    22311560.916  
                 129850789.351                   129850789.351    24936476.825  
                 119846688.376                   119846688.376    23015295.022  
                 129418082.894                   129418082.894    24853382.223  
  23733811.902   124722012.023                                                  
 21  9  1  9 42 49.0000000  0 15G 1G 3G 7G 8G14G17G19G21G22G30C23C25
                                C28C34E27
  20178687.853   106039685.114    20178690.426    82628316.297                  
  23792464.378   125030213.212    23792467.077    97426131.769                  
  23226646.144   122056855.067    23226646.001    95109238.894                  
  24599745.505   129272484.207    24599748.471   100731793.231                  
  20533262.554   107903039.118    20533262.465    84080296.347                  
  21434239.831   112637707.398    21434239.045    87769645.739                  
  23236196.547   122107057.188    23236194.331    95148361.777                  
  22381112.729   117613549.813    22381111.406    91646924.692                  
  23085677.922   121316080.211    23085675.421    94532017.208                  
  21830613.197   114720608.191    21830615.234    89392672.069                  
                 116183366.462                   116183366.462    22311784.565  
                 129854060.071                   129854060.071    24937104.921  
                 119844807.429                   119844807.429    23014933.799  
                 129420758.376                   129420758.376    24853896.011  
  23734038.820   124723204.436                                                  
 21  9  1  9 42 50.0000000  0 15G 1G 3G 7G 8G14G17G19G21G22G30C23C25
                                C28C34E27
  20178871.636   106040650.847    20178874.191    82629068.816                  
  23791913.780   125027319.757    23791916.461    97423877.133                  
  23227322.576   122060409.837    23227322.469    95112008.847                  
  24600304.162   129275419.988    24600307.146   100734080.852                  
  20533009.672   107901710.247    20533009.582    84079260.864                  
  21433980.194   112636342.933    21433979.372    87768582.519                  
  23235665.355   122104265.773    23235663.157    95146186.653                  
  22381607.433   117616149.512    22381606.128    91648950.429                  
  23085377.115   121314499.458    23085374.614    94530785.448                  
  21831048.736   114722896.952    21831050.773    89394455.520                  
                 116184531.536                   116184531.536    22312008.303  
                 129857330.956                   129857330.956    24937733.053  
                 119842926.772                   119842926.772    23014572.648  
                 129423433.909                   129423433.909    24854409.835  
  23734265.793   124724397.196                                                  
 21  9  1  9 42 51.0000000  0 15G 1G 3G 7G 8G14G17G19G21G22G30C23C25
                                C28C34E27
  20179055.544   106041617.281    20179058.099    82629821.882                  
  23791363.218   125024426.535    23791365.898    97421622.677                  
  23227999.061   122063964.769    23227998.936    95114778.922                  
  24600862.819   129278355.778    24600865.803   100736368.481                  
  20532756.879   107900381.781    20532756.771    84078225.695                  
  21433720.593   112634978.725    21433719.771    87767519.505                  
  23235134.198   122101474.529    23235132.000    95144011.653                  
  22382102.208   117618749.524    22382100.886    91650976.415                  
  23085076.397   121312919.188    23085073.896    94529554.075                  
  21831484.365   114725186.195    21831486.420    89396239.345                  
                 116185697.125                   116185697.125    22312232.148  
                 129860602.007                   129860602.007    24938361.239  
                 119841046.404                   119841046.404    23014211.533  
                 129426109.501                   129426109.501    24854923.659  
  23734492.836   124725590.298                                                  
 21  9  1  9 42 52.0000000  0 15G 1G 3G 7G 8G14G17G19G21G22G30C23C25
                                C28C34E27
  20179239.577   106042584.381    20179242.132    82630575.469                  
  23790812.709   125021533.542    23790815.371    97419368.394                  
  23228675.583   122067519.871    23228675.458    95117549.133                  
  24601421.476   129281291.549    24601424.461   100738656.093                  
  20532504.157   107899053.735    20532504.068    84077190.857                  
  21433461.046   112633614.770    21433460.241    87766456.680                  
  23234603.077   122098683.455    23234600.879    95141836.790                  
  22382597.019   117621349.818    22382595.697    91653002.618                  
  23084775.787   121311339.386    23084773.285    94528323.059                  
  21831920.084   114727475.927    21831922.138    89398023.550                  
                 116186863.246                   116186863.246    22312456.083  
                 129863873.221                   129863873.221    24938989.442  
                 119839166.337                   119839166.337    23013850.472  
                 129428785.111                   129428785.111    24855437.482  
  23734719.934   124726783.741                                                  
 21  9  1  9 42 53.0000000  0 15G 1G 3G 7G 8G14G17G19G21G22G30C23C25
                                C28C34E27
  20179423.735   106043552.180    20179426.308    82631329.593                  
  23790262.218   125018640.768    23790264.916    97417114.289                  
  23229352.122   122071075.140    23229351.997    95120319.473                  
  24601980.134   129284227.289    24601983.118   100740943.684                  
  20532251.525   107897726.094    20532251.418    84076156.333                  
  21433201.534   112632251.067    21433200.712    87765394.055                  
  23234071.974   122095892.559    23234069.776    95139662.066                  
  22383091.902   117623950.423    22383090.579    91655029.063                  
  23084475.248   121309760.075    23084472.746    94527092.427                  
  21832355.891   114729766.141    21832357.946    89399808.130                  
                 116188029.864                   116188029.864    22312680.125  
                 129867144.598                   129867144.598    24939617.681  
                 119837286.539                   119837286.539    23013489.482  
                 129431460.804                   129431460.804    24855951.324  
  23734947.103   124727977.534                                                  
 21  9  1  9 42 54.0000000  0 15G 1G 3G 7G 8G14G17G19G21G22G30C23C25
                                C28C34E27
  20179608.036   106044520.654    20179610.592    82632084.250                  
  23789711.798   125015748.227    23789714.479    97414860.359                  
  23230028.697   122074630.582    23230028.572    95123089.945                  
  24602538.773   129287163.040    24602541.775   100743231.278                  
  20531998.964   107896398.875    20531998.857    84075122.132                  
  21432942.076   112630887.617    21432941.271    87764331.626                  
  23233540.925   122093101.837    23233538.727    95137487.480                  
  22383586.838   117626551.327    22383585.516    91657055.742                  
  23084174.798   121308181.245    23084172.296    94525862.167                  
  21832791.806   114732056.848    21832793.861    89401593.098                  
                 116189196.992                   116189196.992    22312904.256  
                 129870416.141                   129870416.141    24940245.938  
                 119835407.028                   119835407.028    23013128.545  
                 129434136.556                   129434136.556    24856465.166  
  23735174.343   124729171.669                                                  
 21  9  1  9 42 55.0000000  0 15G 1G 3G 7G 8G14G17G19G21G22G30C23C25
                                C28C34E27
  20179792.463   106045489.805    20179795.018    82632839.433                  
  23789161.397   125012855.911    23789164.077    97412606.606                  
  23230705.325   122078186.189    23230705.182    95125860.548                  
  24603097.448   129290098.777    24603100.414   100745518.867                  
  20531746.475   107895072.067    20531746.385    84074088.258                  
  21432682.653   112629524.413    21432681.867    87763269.392                  
  23233009.893   122090311.294    23233007.695    95135313.026                  
  22384081.828   117629152.531    22384080.505    91659082.652                  
  23083874.438   121306602.899    23083871.936    94524632.289                  
  21833227.828   114734348.047    21833229.865    89403378.446                  
                 116190364.636                   116190364.636    22313128.494  
                 129873687.852                   129873687.852    24940874.249  
                 119833527.805                   119833527.805    23012767.663  
                 129436812.354                   129436812.354    24856979.025  
  23735401.637   124730366.160                                                  
 21  9  1  9 42 56.0000000  0 15G 1G 3G 7G 8G14G17G19G21G22G30C23C25
                                C28C34E27
  20179977.014   106046459.640    20179979.587    82633595.149                  
  23788611.067   125009963.833    23788613.747    97410353.034                  
  23231381.953   122081741.965    23231381.828    95128631.278                  
  24603656.105   129293034.508    24603659.071   100747806.450                  
  20531494.075   107893745.673    20531493.986    84073054.704                  
  21432423.302   112628161.462    21432422.498    87762207.347                  
  23232478.897   122087520.918    23232476.717    95133138.710                  
  22384576.871   117631754.034    22384575.567    91661109.797                  
  23083574.184   121305025.017    23083571.683    94523402.768                  
  21833663.904   114736639.725    21833665.959    89405164.172                  
                 116191532.793                   116191532.793    22313352.822  
                 129876959.723                   129876959.723    24941502.559  
                 119831648.867                   119831648.867    23012406.833  
                 129439488.214                   129439488.214    24857492.902  
  23735629.020   124731560.985                                                  
 21  9  1  9 42 57.0000000  0 15G 1G 3G 7G 8G14G17G19G21G22G30C23C25
                                C28C34E27
  20180161.708   106047430.154    20180164.263    82634351.395                  
  23788060.754   125007071.961    23788063.435    97408099.629                  
  23232058.618   122085297.886    23232058.493    95131402.130                  
  24604214.744   129295970.253    24604217.746   100750094.044                  
  20531241.746   107892419.675    20531241.639    84072021.461                  
  21432164.005   112626798.754    21432163.183    87761145.496                  
  23231947.955   122084730.710    23231945.757    95130964.528                  
  22385071.986   117634355.824    22385070.664    91663137.169                  
  23083274.021   121303447.607    23083271.519    94522173.620                  
  21834100.086   114738931.888    21834102.141    89406950.270                  
                 116192701.464                   116192701.464    22313577.257  
                 129880231.757                   129880231.757    24942130.923  
                 119829770.219                   119829770.219    23012046.058  
                 129442164.125                   129442164.125    24858006.780  
  23735856.439   124732756.148                                                  
 21  9  1  9 42 58.0000000  0 15G 1G 3G 7G 8G14G17G19G21G22G30C23C25
                                C28C34E27
  20180346.527   106048401.362    20180349.083    82635108.183                  
  23787510.496   125004180.332    23787513.176    97405846.414                  
  23232735.335   122088853.986    23232735.192    95134173.114                  
  24604773.401   129298905.960    24604776.385   100752381.605                  
  20530989.507   107891094.102    20530989.400    84070988.543                  
  21431904.725   112625436.304    21431903.921    87760083.847                  
  23231417.012   122081940.686    23231414.815    95128790.482                  
  22385567.137   117636957.926    22385565.814    91665164.778                  
  23082973.946   121301870.684    23082971.444    94520944.852                  
  21834536.359   114741224.540    21834538.414    89408736.754                  
                 116193870.647                   116193870.647    22313801.781  
                 129883503.957                   129883503.957    24942759.323  
                 119827891.854                   119827891.854    23011685.336  
                 129444840.087                   129444840.087    24858520.657  
  23736083.948   124733951.669                                                  
 21  9  1  9 42 59.0000000  0 15G 1G 3G 7G 8G14G17G19G21G22G30C23C25
                                C28C34E27
  20180531.454   106049373.231    20180534.027    82635865.481                  
  23786960.273   125001288.923    23786962.953    97403593.366                  
  23233412.053   122092410.246    23233411.946    95136944.222                  
  24605332.041   129301841.703    24605335.043   100754669.195                  
  20530737.340   107889768.938    20530737.215    84069955.950                  
  21431645.499   112624074.101    21431644.695    87759022.390                  
  23230886.142   122079150.827    23230883.944    95126616.567                  
  22386062.359   117639560.324    22386061.036    91667192.620                  
  23082673.961   121300294.240    23082671.441    94519716.449                  
  21834972.738   114743517.679    21834974.775    89410523.614                  
                 116195040.348                   116195040.348    22314026.412  
                 129886776.319                   129886776.319    24943387.741  
                 119826013.783                   119826013.783    23011324.685  
                 129447516.106                   129447516.106    24859034.552  
  23736311.528   124735147.530                                                  
 21  9  1  9 43  0.0000000  0 15G 1G 3G 7G 8G14G17G19G21G22G30C23C25
                                C28C34E27
  20180716.523   106050345.804    20180719.096    82636623.333                  
  23786410.103   124998397.746    23786412.784    97401340.503                  
  23234088.825   122095966.651    23234088.699    95139715.449                  
  24605890.698   129304777.434    24605893.682   100756956.782                  
  20530485.243   107888444.181    20530485.136    84068923.672                  
  21431386.345   112622712.144    21431385.523    87757961.130                  
  23230355.289   122076361.141    23230353.073    95124442.781                  
  22386557.634   117642163.015    22386556.312    91669220.692                  
  23082374.065   121298718.274    23082371.563    94518488.430                  
  21835409.207   114745811.309    21835411.244    89412310.860                  
                 116196210.557                   116196210.557    22314251.133  
                 129890048.848                   129890048.848    24944016.195  
                 119824135.993                   119824135.993    23010964.053  
                 129450192.175                   129450192.175    24859548.483  
  23736539.143   124736343.734                                                  
 21  9  1  9 43  1.0000000  0 15G 1G 3G 7G 8G14G17G19G21G22G30C23C25
                                C28C34E27
  20180901.736   106051319.058    20180904.309    82637381.710                  
  23785859.988   124995506.789    23785862.668    97399087.810                  
  23234765.614   122099523.214    23234765.507    95142486.797                  
  24606449.337   129307713.144    24606452.339   100759244.344                  
  20530233.219   107887119.841    20530233.112    84067891.714                  
  21431127.226   112621350.437    21431126.404    87756900.055                  
  23229824.436   122073571.633    23229822.238    95122269.142                  
  22387052.982   117644766.015    22387051.659    91671249.003                  
  23082074.241   121297142.789    23082071.739    94517260.777                  
  21835845.765   114748105.425    21835847.802    89414098.481                  
                 116197381.284                   116197381.284    22314475.961  
                 129893321.539                   129893321.539    24944644.684  
                 119822258.489                   119822258.489    23010603.492  
                 129452868.296                   129452868.296    24860062.396  
  23736766.848   124737540.288                                                  
 21  9  1  9 43  2.0000000  0 15G 1G 3G 7G 8G14G17G19G21G22G30C23C25
                                C28C34E27
  20181087.055   106052292.981    20181089.629    82638140.608                  
  23785309.872   124992616.067    23785312.552    97396835.301                  
  23235442.439   122103079.957    23235442.314    95145258.282                  
  24607007.994   129310648.842    24607010.978   100761531.903                  
  20529981.283   107885795.912    20529981.176    84066860.085                  
  21430868.143   112619988.985    21430867.321    87755839.183                  
  23229293.654   122070782.296    23229291.456    95120095.632                  
  22387548.365   117647369.308    22387547.042    91673277.543                  
  23081774.541   121295567.776    23081772.040    94516033.495                  
  21836282.395   114750400.035    21836284.467    89415886.488                  
                 116198552.523                   116198552.523    22314700.897  
                 129896594.396                   129896594.396    24945273.191  
                 119820381.275                   119820381.275    23010243.002  
                 129455544.478                   129455544.478    24860576.345  
  23736994.607   124738737.188                                                  
 21  9  1  9 43  3.0000000  0 15G 1G 3G 7G 8G14G17G19G21G22G30C23C25
                                C28C34E27
  20181272.518   106053267.602    20181275.073    82638900.054                  
  23784759.845   124989725.573    23784762.526    97394582.969                  
  23236119.299   122106636.860    23236119.174    95148029.895                  
  24607566.633   129313584.556    24607569.618   100763819.472                  
  20529729.437   107884472.387    20529729.312    84065828.765                  
  21430609.096   112618627.773    21430608.292    87754778.501                  
  23228762.909   122067993.130    23228760.693    95117922.258                  
  22388043.819   117649972.915    22388042.497    91675306.325                  
  23081474.914   121293993.251    23081472.394    94514806.595                  
  21836719.131   114752695.120    21836721.204    89417674.866                  
                 116199724.276                   116199724.276    22314925.921  
                 129899867.415                   129899867.415    24945901.734  
                 119818504.343                   119818504.343    23009882.566  
                 129458220.707                   129458220.707    24861090.276  
  23737222.437   124739934.431                                                  
 21  9  1  9 43  4.0000000  0 15G 1G 3G 7G 8G14G17G19G21G22G30C23C25
                                C28C34E27
  20181458.123   106054242.895    20181460.679    82639660.022                  
  23784209.837   124986835.306    23784212.517    97392330.812                  
  23236796.196   122110193.934    23236796.053    95150801.641                  
  24608125.273   129316520.251    24608128.275   100766107.025                  
  20529477.663   107883149.286    20529477.538    84064797.781                  
  21430350.120   112617266.817    21430349.316    87753718.016                  
  23228232.163   122065204.136    23228229.965    95115749.016                  
  22388539.327   117652576.812    22388538.005    91677335.341                  
  23081175.375   121292419.207    23081172.874    94513580.067                  
  21837155.975   114754990.704    21837158.012    89419463.633                  
                 116200896.542                   116200896.542    22315151.035  
                 129903140.598                   129903140.598    24946530.348  
                 119816627.702                   119816627.702    23009522.184  
                 129460896.993                   129460896.993    24861604.243  
  23737450.321   124741132.023                                                  
 21  9  1  9 43  5.0000000  0 15G 1G 3G 7G 8G14G17G19G21G22G30C23C25
                                C28C34E27
  20181643.836   106055218.875    20181646.392    82640420.526                  
  23783659.882   124983945.264    23783662.562    97390078.832                  
  23237473.128   122113751.181    23237472.985    95153573.520                  
  24608683.912   129319455.926    24608686.914   100768394.564                  
  20529225.960   107881826.595    20529225.835    84063767.109                  
  21430091.198   112615906.113    21430090.376    87752657.727                  
  23227701.489   122062415.321    23227699.273    95113575.909                  
  22389034.889   117655181.009    22389033.566    91679364.583                  
  23080875.944   121290845.641    23080873.442    94512353.909                  
  21837592.909   114757286.774    21837594.964    89421252.777                  
                 116202069.324                   116202069.324    22315376.256  
                 129906413.946                   129906413.946    24947158.945  
                 119814751.346                   119814751.346    23009161.837  
                 129463573.327                   129463573.327    24862118.192  
  23737678.276   124742329.956                                                  
 21  9  1  9 43  6.0000000  0 15G 1G 3G 7G 8G14G17G19G21G22G30C23C25
                                C28C34E27
  20181829.692   106056195.530    20181832.265    82641181.558                  
  23783109.981   124981055.449    23783112.661    97387827.032                  
  23238150.060   122117308.587    23238149.935    95156345.524                  
  24609242.551   129322391.616    24609245.553   100770682.114                  
  20528974.328   107880504.306    20528974.221    84062736.754                  
  21429832.294   112614545.636    21429831.507    87751597.617                  
  23227170.814   122059626.683    23227168.617    95111402.949                  
  22389530.504   117657785.493    22389529.181    91681394.051                  
  23080576.602   121289272.554    23080574.101    94511128.129                  
  21838029.913   114759583.329    21838031.986    89423042.300                  
                 116203242.616                   116203242.616    22315601.585  
                 129909687.454                   129909687.454    24947787.577  
                 119812875.278                   119812875.278    23008801.562  
                 129466249.718                   129466249.718    24862632.159  
  23737906.302   124743528.226                                                  
 21  9  1  9 43  7.0000000  0 15G 1G 3G 7G 8G14G17G19G21G22G30C23C25
                                C28C34E27
  20182015.673   106057172.874    20182018.246    82641943.125                  
  23782560.097   124978165.862    23782562.778    97385575.406                  
  23238827.046   122120866.145    23238826.921    95159117.649                  
  24609801.226   129325327.329    24609804.192   100772969.680                  
  20528722.786   107879182.422    20528722.679    84061706.719                  
  21429573.461   112613185.410    21429572.657    87750537.699                  
  23226640.176   122056838.226    23226637.978    95109230.125                  
  22390026.173   117660390.280    22390024.868    91683423.753                  
  23080277.332   121287699.948    23080274.848    94509902.722                  
  21838467.043   114761880.383    21838469.098    89424832.210                  
                 116204416.422                   116204416.422    22315827.002  
                 129912961.128                   129912961.128    24948416.263  
                 119810999.495                   119810999.495    23008441.340  
                 129468926.159                   129468926.159    24863146.143  
  23738134.400   124744726.855                                                  
 21  9  1  9 43  8.0000000  0 15G 1G 3G 7G 8G14G17G19G21G22G30C23C25
                                C28C34E27
  20182201.779   106058150.906    20182204.352    82642705.228                  
  23782010.285   124975276.519    23782012.966    97383323.966                  
  23239504.068   122124423.887    23239503.943    95161889.914                  
  24610359.865   129328263.016    24610362.832   100775257.226                  
  20528471.315   107877860.984    20528471.226    84060677.022                  
  21429314.682   112611825.484    21429313.860    87749478.016                  
  23226109.573   122054049.898    23226107.375    95107057.402                  
  22390521.895   117662995.390    22390520.608    91685453.710                  
  23079978.169   121286127.817    23079975.667    94508677.683                  
  21838904.245   114764177.886    21838906.300    89426622.477                  
                 116205590.743                   116205590.743    22316052.492  
                 129916234.965                   129916234.965    24949044.967  
                 119809124.003                   119809124.003    23008081.154  
                 129471602.661                   129471602.661    24863660.146  
  23738362.552   124745925.820                                                  
 21  9  1  9 43  9.0000000  0 15G 1G 3G 7G 8G14G17G19G21G22G30C23C25
                                C28C34E27
  20182388.027   106059129.597    20182390.601    82643467.844                  
  23781460.491   124972387.388    23781463.172    97381072.696                  
  23240181.107   122127981.789    23240180.982    95164662.305                  
  24610918.505   129331198.688    24610921.489   100777544.765                  
  20528219.934   107876539.942    20528219.844    84059647.642                  
  21429055.920   112610465.766    21429055.116    87748418.496                  
  23225579.024   122051261.776    23225576.826    95104884.840                  
  22391017.707   117665600.769    22391016.385    91687483.874                  
  23079679.095   121284556.171    23079676.593    94507453.028                  
  21839341.536   114766475.903    21839343.608    89428413.137                  
                 116206765.579                   116206765.579    22316278.124  
                 129919508.965                   129919508.965    24949673.706  
                 119807248.792                   119807248.792    23007721.057  
                 129474279.207                   129474279.207    24864174.148  
  23738590.775   124747125.130                                                  
 21  9  1  9 43 10.0000000  0 15G 1G 3G 7G 8G14G17G19G21G22G30C23C25
                                C28C34E27
  20182574.401   106060108.984    20182576.957    82644231.001                  
  23780910.769   124969498.482    23780913.449    97378821.599                  
  23240858.182   122131539.849    23240858.057    95167434.817                  
  24611477.144   129334134.331    24611480.128   100779832.277                  
  20527968.624   107875219.306    20527968.517    84058618.574                  
  21428797.213   112609106.292    21428796.426    87747359.167                  
  23225048.493   122048473.827    23225046.295    95102712.414                  
  22391513.536   117668206.453    22391512.214    91689514.277                  
  23079380.092   121282985.000    23079377.609    94506228.738                  
  21839778.916   114768774.392    21839780.988    89430204.165                  
                 116207940.927                   116207940.927    22316503.845  
                 129922783.130                   129922783.130    24950302.481  
                 119805373.876                   119805373.876    23007360.997  
                 129476955.813                   129476955.813    24864688.168  
  23738819.052   124748324.794                                                  
 21  9  1  9 43 11.0000000  0 15G 1G 3G 7G 8G14G17G19G21G22G30C23C25
                                C28C34E27
  20182760.900   106061089.045    20182763.456    82644994.687                  
  23780361.064   124966609.820    23780363.744    97376570.695                  
  23241535.293   122135098.087    23241535.168    95170207.468                  
  24612035.783   129337069.976    24612038.767   100782119.793                  
  20527717.403   107873899.083    20527717.296    84057589.829                  
  21428538.576   112607747.082    21428537.772    87746300.043                  
  23224517.997   122045686.051    23224515.799    95100540.121                  
  22392009.438   117670812.437    22392008.115    91691544.914                  
  23079081.215   121281414.321    23079078.713    94505004.831                  
  21840216.421   114771073.371    21840218.458    89431995.579                  
                 116209116.786                   116209116.786    22316729.638  
                 129926057.453                   129926057.453    24950931.274  
                 119803499.241                   119803499.241    23007000.972  
                 129479632.470                   129479632.470    24865202.189  
  23739047.418   124749524.789                                                  
 21  9  1  9 43 12.0000000  0 15G 1G 3G 7G 8G14G17G19G21G22G30C23C25
                                C28C34E27
  20182947.524   106062069.785    20182950.080    82645758.898                  
  23779811.395   124963721.372    23779814.075    97374319.957                  
  23242212.440   122138656.461    23242212.297    95172980.231                  
  24612594.405   129340005.622    24612597.407   100784407.309                  
  20527466.236   107872579.273    20527466.147    84056561.406                  
  21428279.976   112606388.124    21428279.154    87745241.112                  
  23223987.519   122042898.437    23223985.339    95098367.956                  
  22392505.392   117673418.712    22392504.088    91693575.773                  
  23078782.427   121279844.124    23078779.926    94503781.301                  
  21840653.979   114773372.837    21840656.034    89433787.366                  
                 116210293.160                   116210293.160    22316955.556  
                 129929331.947                   129929331.947    24951560.103  
                 119801624.895                   119801624.895    23006641.036  
                 129482309.175                   129482309.175    24865716.227  
  23739275.838   124750725.143                                                  
 21  9  1  9 43 13.0000000  0 15G 1G 3G 7G 8G14G17G19G21G22G30C23C25
                                C28C34E27
  20183134.274   106063051.208    20183136.847    82646523.641                  
  23779261.797   124960833.155    23779264.478    97372069.403                  
  23242889.604   122142215.017    23242889.479    95175753.130                  
  24613153.044   129342941.247    24613156.028   100786694.809                  
  20527215.176   107871259.875    20527215.051    84055533.306                  
  21428021.411   112605029.410    21428020.625    87744182.374                  
  23223457.095   122040111.013    23223454.897    95096195.938                  
  22393001.419   117676025.285    22393000.096    91695606.872                  
  23078483.729   121278274.403    23078481.191    94502558.144                  
  21841091.663   114775672.781    21841093.700    89435579.535                  
                 116211470.048                   116211470.048    22317181.564  
                 129932606.598                   129932606.598    24952188.968  
                 119799750.833                   119799750.833    23006281.136  
                 129484985.939                   129484985.939    24866230.265  
  23739504.311   124751925.826                                                  
 21  9  1  9 43 14.0000000  0 15G 1G 3G 7G 8G14G17G19G21G22G30C23C25
                                C28C34E27
  20183321.184   106064033.316    20183323.739    82647288.921                  
  23778712.235   124957945.180    23778714.916    97369819.030                  
  23243566.804   122145773.725    23243566.679    95178526.149                  
  24613711.665   129345876.852    24613714.667   100788982.293                  
  20526964.188   107869940.899    20526964.081    84054505.528                  
  21427762.918   112603670.945    21427762.096    87743123.832                  
  23222926.707   122037323.754    23222924.491    95094024.047                  
  22393497.498   117678632.167    22393496.176    91697638.208                  
  23078185.101   121276705.157    23078182.600    94501335.357                  
  21841529.419   114777973.221    21841531.456    89437372.082                  
                 116212647.449                   116212647.449    22317407.678  
                 129935881.414                   129935881.414    24952817.868  
                 119797877.059                   119797877.059    23005921.307  
                 129487662.755                   129487662.755    24866744.321  
  23739732.874   124753126.872                                                  
 21  9  1  9 43 15.0000000  0 15G 1G 3G 7G 8G14G17G19G21G22G30C23C25
                                C28C34E27
  20183508.201   106065016.112    20183510.756    82648054.739                  
  23778162.727   124955057.421    23778165.408    97367568.829                  
  23244244.040   122149332.607    23244243.915    95181299.301                  
  24614270.305   129348812.453    24614273.289   100791269.773                  
  20526713.254   107868622.328    20526713.164    84053478.070                  
  21427504.460   112602312.733    21427503.638    87742065.487                  
  23222396.337   122034536.667    23222394.139    95091852.292                  
  22393993.614   117681239.331    22393992.292    91699669.766                  
  23077886.564   121275136.398    23077884.062    94500112.945                  
  21841967.263   114780274.140    21841969.318    89439165.007                  
                 116213825.364                   116213825.364    22317633.882  
                 129939156.391                   129939156.391    24953446.786  
                 119796003.573                   119796003.573    23005561.515  
                 129490339.620                   129490339.620    24867258.377  
  23739961.472   124754328.261                                                  
 21  9  1  9 43 16.0000000  0 15G 1G 3G 7G 8G14G17G19G21G22G30C23C25
                                C28C34E27
  20183695.343   106065999.575    20183697.898    82648821.074                  
  23777613.237   124952169.892    23777615.917    97365318.804                  
  23244921.294   122152891.655    23244921.187    95184072.586                  
  24614828.926   129351748.058    24614831.892   100793557.257                  
  20526462.426   107867304.168    20526462.319    84052450.934                  
  21427246.039   112600954.767    21427245.234    87741007.327                  
  23221866.002   122031749.757    23221863.804    95089680.671                  
  22394489.801   117683846.796    22394488.479    91701701.558                  
  23077588.133   121273568.129    23077585.631    94498890.917                  
  21842405.197   114782575.543    21842407.252    89440958.308                  
                 116215003.790                   116215003.790    22317860.176  
                 129942431.536                   129942431.536    24954075.740  
                 119794130.375                   119794130.375    23005201.793  
                 129493016.538                   129493016.538    24867772.469  
  23740190.160   124755529.980                                                  
