% program   : rnx2rtkp ver.2.4.3 b31
% inp file  : ngs/21_08_31_06_47_44_al50.obs
% inp file  : ngs/21_08_31_06_47_44_al50_SNAL.obs
% inp file  : ngs/21_08_31_06_47_44_brdc.nav
% obs start : 2021/08/31 06:00:00.0 GPST (week2173 194400.0s)
% obs end   : 2021/08/31 06:59:59.0 GPST (week2173 197999.0s)
% ref pos   :   232974.8899  -5339225.5416   3469567.0549
%
% (x/y/z-ecef=WGS84,Q=1:fix,2:float,3:sbas,4:dgps,5:single,6:ppp,ns=# of satellites)
%  GPST              x-ecef(m)      y-ecef(m)      z-ecef(m)   Q  ns   sdx(m)   sdy(m)   sdz(m)  sdxy(m)  sdyz(m)  sdzx(m) age(s)  ratio
2173 197241.000    232978.4351  -5339308.4336   3469621.4248   2   7   0.5062   1.0900   0.6262  -0.3154  -0.6938   0.2023 -30.00    1.1
2173 197242.000    232978.4339  -5339308.4449   3469621.4275   2   7   0.3601   0.7751   0.4453  -0.2245  -0.4932   0.1435 -29.00    1.1
2173 197243.000    232978.4341  -5339308.4527   3469621.4311   2   7   0.2948   0.6346   0.3645  -0.1838  -0.4038   0.1174 -28.00    1.1
2173 197244.000    232978.4377  -5339308.4508   3469621.4278   2   7   0.2558   0.5506   0.3162  -0.1595  -0.3503   0.1019 -27.00    1.1
2173 197245.000    232978.4400  -5339308.4568   3469621.4271   2   7   0.2291   0.4931   0.2832  -0.1429  -0.3138   0.0913 -26.00    1.2
2173 197246.000    232978.4435  -5339308.4627   3469621.4293   2   7   0.2094   0.4506   0.2588  -0.1307  -0.2867   0.0835 -25.00    1.2
2173 197247.000    232978.4423  -5339308.4661   3469621.4263   2   7   0.1940   0.4175   0.2398  -0.1211  -0.2657   0.0774 -24.00    1.2
2173 197248.000    232978.4457  -5339308.4717   3469621.4278   2   7   0.1816   0.3908   0.2244  -0.1134  -0.2487   0.0724 -23.00    1.2
2173 197249.000    232978.4482  -5339308.4743   3469621.4275   2   7   0.1713   0.3686   0.2117  -0.1070  -0.2345   0.0683 -22.00    1.2
2173 197250.000    232978.4501  -5339308.4834   3469621.4298   2   7   0.1625   0.3498   0.2008  -0.1015  -0.2226   0.0648 -21.00    1.2
2173 197251.000    232978.4549  -5339308.4840   3469621.4295   2   7   0.1550   0.3336   0.1915  -0.0969  -0.2122   0.0618 -20.00    1.1
2173 197252.000    232978.4556  -5339308.4875   3469621.4305   2   7   0.1484   0.3194   0.1834  -0.0928  -0.2032   0.0592 -19.00    1.1
2173 197253.000    232978.4569  -5339308.4889   3469621.4286   2   7   0.1426   0.3068   0.1761  -0.0891  -0.1952   0.0569 -18.00    1.1
2173 197254.000    232978.4600  -5339308.4854   3469621.4259   2   7   0.1374   0.2956   0.1697  -0.0859  -0.1880   0.0548 -17.00    1.0
2173 197255.000    232978.4618  -5339308.4839   3469621.4257   2   7   0.1327   0.2855   0.1639  -0.0830  -0.1816   0.0529 -16.00    1.0
2173 197256.000    232978.4637  -5339308.4783   3469621.4227   2   7   0.1285   0.2763   0.1586  -0.0803  -0.1757   0.0512 -15.00    1.1
2173 197257.000    232978.4641  -5339308.4816   3469621.4233   2   7   0.1246   0.2680   0.1538  -0.0779  -0.1704   0.0496 -14.00    1.1
2173 197258.000    232978.4670  -5339308.4733   3469621.4190   2   7   0.1210   0.2603   0.1494  -0.0757  -0.1655   0.0482 -13.00    1.1
2173 197259.000    232978.4669  -5339308.4698   3469621.4156   2   7   0.1178   0.2532   0.1453  -0.0737  -0.1610   0.0468 -12.00    1.1
2173 197260.000    232978.4677  -5339308.4634   3469621.4099   2   7   0.1148   0.2466   0.1415  -0.0718  -0.1568   0.0456 -11.00    1.1
2173 197261.000    232978.4677  -5339308.4530   3469621.4038   2   7   0.1119   0.2405   0.1380  -0.0700  -0.1529   0.0444 -10.00    1.1
2173 197262.000    232978.4667  -5339308.4428   3469621.3952   2   7   0.1093   0.2348   0.1347  -0.0683  -0.1492   0.0433  -9.00    1.1
2173 197263.000    232978.4680  -5339308.4372   3469621.3926   2   7   0.1069   0.2294   0.1317  -0.0668  -0.1458   0.0423  -8.00    1.1
2173 197264.000    232978.4707  -5339308.4327   3469621.3871   2   7   0.1046   0.2244   0.1288  -0.0653  -0.1426   0.0414  -7.00    1.1
2173 197265.000    232978.4703  -5339308.4261   3469621.3826   2   7   0.1024   0.2197   0.1261  -0.0640  -0.1395   0.0405  -6.00    1.1
2173 197266.000    232978.4714  -5339308.4188   3469621.3777   2   7   0.1004   0.2152   0.1235  -0.0627  -0.1367   0.0396  -5.00    1.1
2173 197267.000    232978.4686  -5339308.4070   3469621.3691   2   7   0.0985   0.2110   0.1211  -0.0614  -0.1339   0.0388  -4.00    1.2
2173 197268.000    232978.4697  -5339308.4044   3469621.3646   2   7   0.0967   0.2070   0.1188  -0.0603  -0.1314   0.0381  -3.00    1.2
2173 197269.000    232978.4682  -5339308.3925   3469621.3560   2   7   0.0950   0.2032   0.1167  -0.0592  -0.1289   0.0373  -2.00    1.2
2173 197270.000    232978.4693  -5339308.3803   3469621.3482   2   7   0.0934   0.1996   0.1146  -0.0581  -0.1266   0.0366  -1.00    1.2
2173 197271.000    232978.4670  -5339308.3739   3469621.3417   2   7   0.0919   0.1962   0.1126  -0.0571  -0.1244   0.0359   0.00    1.3
2173 197272.000    232978.4669  -5339308.3667   3469621.3358   2   7   0.0904   0.1930   0.1108  -0.0561  -0.1224   0.0354   0.00    1.3
2173 197273.000    232978.4663  -5339308.3614   3469621.3310   2   7   0.0890   0.1899   0.1090  -0.0552  -0.1204   0.0347   0.00    1.4
2173 197274.000    232978.4652  -5339308.3568   3469621.3267   2   7   0.0877   0.1869   0.1074  -0.0543  -0.1185   0.0342   0.00    1.4
2173 197275.000    232978.4657  -5339308.3531   3469621.3237   2   7   0.0865   0.1841   0.1057  -0.0535  -0.1166   0.0336   0.00    1.4
2173 197276.000    232978.4654  -5339308.3493   3469621.3203   2   7   0.0852   0.1814   0.1042  -0.0527  -0.1149   0.0331   0.00    1.5
2173 197277.000    232978.4653  -5339308.3467   3469621.3171   2   7   0.0841   0.1787   0.1027  -0.0519  -0.1132   0.0326   0.00    1.5
2173 197278.000    232978.4661  -5339308.3446   3469621.3147   2   7   0.0830   0.1762   0.1012  -0.0512  -0.1115   0.0321   0.00    1.5
2173 197279.000    232978.4660  -5339308.3434   3469621.3122   2   7   0.0819   0.1737   0.0998  -0.0505  -0.1099   0.0316   0.00    1.6
2173 197280.000    232978.4663  -5339308.3419   3469621.3109   2   7   0.0809   0.1713   0.0985  -0.0497  -0.1084   0.0312   0.00    1.6
2173 197281.000    232978.4667  -5339308.3416   3469621.3097   2   7   0.0799   0.1690   0.0972  -0.0490  -0.1069   0.0307   0.00    1.6
2173 197282.000    232978.4672  -5339308.3403   3469621.3079   2   7   0.0789   0.1668   0.0959  -0.0484  -0.1054   0.0303   0.00    1.6
2173 197283.000    232978.4678  -5339308.3395   3469621.3055   2   7   0.0780   0.1646   0.0947  -0.0477  -0.1040   0.0298   0.00    1.7
2173 197284.000    232978.4678  -5339308.3362   3469621.3031   2   7   0.0771   0.1625   0.0935  -0.0470  -0.1026   0.0294   0.00    1.7
2173 197285.000    232978.4678  -5339308.3348   3469621.3006   2   7   0.0762   0.1605   0.0923  -0.0464  -0.1013   0.0290   0.00    1.7
2173 197286.000    232978.4679  -5339308.3336   3469621.2990   2   7   0.0754   0.1585   0.0912  -0.0458  -0.1000   0.0285   0.00    1.7
2173 197287.000    232978.4681  -5339308.3337   3469621.2977   2   7   0.0746   0.1565   0.0901  -0.0452  -0.0987   0.0282   0.00    1.8
2173 197288.000    232978.4682  -5339308.3327   3469621.2960   2   7   0.0738   0.1546   0.0891  -0.0446  -0.0975   0.0278   0.00    1.8
2173 197289.000    232978.4682  -5339308.3332   3469621.2952   2   7   0.0730   0.1527   0.0880  -0.0440  -0.0963   0.0274   0.00    1.8
2173 197290.000    232978.4686  -5339308.3328   3469621.2943   2   7   0.0723   0.1509   0.0870  -0.0435  -0.0951   0.0269   0.00    1.8
2173 197291.000    232978.4690  -5339308.3334   3469621.2932   2   7   0.0716   0.1491   0.0860  -0.0429  -0.0939   0.0266   0.00    1.8
2173 197292.000    232978.4691  -5339308.3341   3469621.2927   2   7   0.0708   0.1474   0.0850  -0.0424  -0.0927   0.0262   0.00    1.9
2173 197293.000    232978.4691  -5339308.3339   3469621.2920   2   7   0.0702   0.1457   0.0841  -0.0418  -0.0916   0.0259   0.00    1.9
2173 197294.000    232978.4694  -5339308.3329   3469621.2908   2   7   0.0695   0.1440   0.0832  -0.0413  -0.0905   0.0255   0.00    1.9
2173 197295.000    232978.4694  -5339308.3335   3469621.2906   2   7   0.0689   0.1424   0.0822  -0.0408  -0.0894   0.0252   0.00    1.9
2173 197296.000    232978.4705  -5339308.3347   3469621.2906   2   7   0.0682   0.1408   0.0814  -0.0402  -0.0884   0.0248   0.00    1.9
2173 197297.000    232978.4707  -5339308.3354   3469621.2901   2   7   0.0676   0.1392   0.0805  -0.0397  -0.0873   0.0245   0.00    1.9
2173 197298.000    232978.4712  -5339308.3356   3469621.2892   2   7   0.0670   0.1376   0.0796  -0.0392  -0.0863   0.0241   0.00    1.9
2173 197299.000    232978.4720  -5339308.3383   3469621.2901   2   7   0.0665   0.1361   0.0788  -0.0387  -0.0853   0.0237   0.00    1.9
2173 197300.000    232978.4721  -5339308.3383   3469621.2894   2   7   0.0659   0.1346   0.0780  -0.0382  -0.0843   0.0234   0.00    1.9
2173 197301.000    232978.4719  -5339308.3395   3469621.2897   2   7   0.0653   0.1331   0.0772  -0.0377  -0.0833   0.0231   0.00    1.9
2173 197302.000    232978.4728  -5339308.3416   3469621.2899   2   7   0.0648   0.1317   0.0764  -0.0372  -0.0823   0.0228   0.00    1.9
2173 197303.000    232978.4725  -5339308.3425   3469621.2901   2   7   0.0643   0.1303   0.0756  -0.0368  -0.0814   0.0224   0.00    1.9
2173 197304.000    232978.4730  -5339308.3442   3469621.2906   2   7   0.0638   0.1289   0.0748  -0.0363  -0.0804   0.0221   0.00    1.9
2173 197305.000    232978.4735  -5339308.3451   3469621.2908   2   7   0.0632   0.1275   0.0741  -0.0358  -0.0795   0.0218   0.00    1.9
2173 197306.000    232978.4738  -5339308.3458   3469621.2906   2   7   0.0628   0.1261   0.0734  -0.0354  -0.0786   0.0215   0.00    1.9
2173 197307.000    232978.4744  -5339308.3458   3469621.2898   2   7   0.0623   0.1248   0.0726  -0.0349  -0.0777   0.0211   0.00    1.9
2173 197308.000    232978.4746  -5339308.3468   3469621.2896   2   7   0.0618   0.1235   0.0719  -0.0345  -0.0768   0.0208   0.00    1.9
2173 197309.000    232978.4750  -5339308.3460   3469621.2889   2   7   0.0613   0.1222   0.0712  -0.0340  -0.0759   0.0206   0.00    1.9
2173 197310.000    232978.4753  -5339308.3468   3469621.2890   2   7   0.0608   0.1209   0.0705  -0.0336  -0.0751   0.0202   0.00    1.9
2173 197311.000    232978.4751  -5339308.3457   3469621.2875   2   7   0.0604   0.1197   0.0699  -0.0332  -0.0742   0.0199   0.00    1.9
2173 197312.000    232978.4749  -5339308.3461   3469621.2873   2   7   0.0600   0.1184   0.0692  -0.0327  -0.0734   0.0196   0.00    1.9
2173 197313.000    232978.4753  -5339308.3472   3469621.2875   2   7   0.0596   0.1172   0.0685  -0.0323  -0.0726   0.0194   0.00    2.0
2173 197314.000    232978.4754  -5339308.3472   3469621.2870   2   7   0.0591   0.1160   0.0679  -0.0319  -0.0717   0.0189   0.00    2.0
2173 197315.000    232978.4759  -5339308.3466   3469621.2862   2   7   0.0587   0.1148   0.0673  -0.0314  -0.0709   0.0187   0.00    2.0
2173 197316.000    232978.4761  -5339308.3466   3469621.2862   2   7   0.0584   0.1136   0.0666  -0.0310  -0.0701   0.0184   0.00    2.0
2173 197317.000    232978.4762  -5339308.3488   3469621.2868   2   7   0.0579   0.1125   0.0660  -0.0306  -0.0694   0.0181   0.00    2.0
2173 197318.000    232978.4759  -5339308.3481   3469621.2860   2   7   0.0575   0.1113   0.0654  -0.0302  -0.0686   0.0178   0.00    2.0
2173 197319.000    232978.4759  -5339308.3490   3469621.2859   2   7   0.0572   0.1102   0.0648  -0.0298  -0.0678   0.0175   0.00    2.0
2173 197320.000    232978.4760  -5339308.3490   3469621.2859   2   7   0.0568   0.1091   0.0642  -0.0294  -0.0671   0.0172   0.00    2.0
2173 197321.000    232978.4757  -5339308.3478   3469621.2847   2   7   0.0565   0.1080   0.0637  -0.0290  -0.0663   0.0169   0.00    2.0
2173 197322.000    232978.4757  -5339308.3467   3469621.2833   2   7   0.0561   0.1069   0.0631  -0.0286  -0.0656   0.0168   0.00    2.0
2173 197323.000    232978.4759  -5339308.3470   3469621.2829   2   7   0.0557   0.1059   0.0625  -0.0282  -0.0649   0.0163   0.00    2.0
2173 197324.000    232978.4760  -5339308.3466   3469621.2825   2   7   0.0554   0.1048   0.0620  -0.0278  -0.0641   0.0162   0.00    2.0
2173 197325.000    232978.4758  -5339308.3459   3469621.2819   2   7   0.0550   0.1038   0.0614  -0.0274  -0.0634   0.0158   0.00    2.0
2173 197326.000    232978.4758  -5339308.3457   3469621.2811   2   7   0.0547   0.1028   0.0609  -0.0271  -0.0627   0.0155   0.00    2.0
2173 197327.000    232978.4758  -5339308.3473   3469621.2815   2   7   0.0544   0.1017   0.0603  -0.0267  -0.0620   0.0153   0.00    2.1
2173 197328.000    232978.4763  -5339308.3501   3469621.2827   2   7   0.0540   0.1007   0.0598  -0.0263  -0.0613   0.0150   0.00    2.1
2173 197329.000    232978.4767  -5339308.3502   3469621.2824   2   7   0.0537   0.0998   0.0593  -0.0260  -0.0607   0.0147   0.00    2.1
2173 197330.000    232978.4764  -5339308.3513   3469621.2826   2   7   0.0534   0.0988   0.0588  -0.0256  -0.0600   0.0145   0.00    2.1
2173 197331.000    232978.4763  -5339308.3531   3469621.2838   2   7   0.0531   0.0978   0.0582  -0.0252  -0.0593   0.0141   0.00    2.1
2173 197332.000    232978.4767  -5339308.3548   3469621.2850   2   7   0.0528   0.0969   0.0578  -0.0248  -0.0587   0.0140   0.00    2.1
2173 197333.000    232978.4771  -5339308.3576   3469621.2862   2   7   0.0525   0.0960   0.0573  -0.0245  -0.0580   0.0138   0.00    2.1
2173 197334.000    232978.4772  -5339308.3594   3469621.2868   2   7   0.0522   0.0950   0.0568  -0.0241  -0.0574   0.0135   0.00    2.1
2173 197335.000    232978.4770  -5339308.3604   3469621.2874   2   7   0.0519   0.0941   0.0564  -0.0238  -0.0568   0.0132   0.00    2.1
2173 197336.000    232978.4775  -5339308.3624   3469621.2881   2   7   0.0517   0.0932   0.0558  -0.0234  -0.0561   0.0128   0.00    2.1
2173 197337.000    232978.4776  -5339308.3632   3469621.2881   2   7   0.0514   0.0923   0.0555  -0.0230  -0.0555   0.0126   0.00    2.1
2173 197338.000    232978.4781  -5339308.3645   3469621.2886   2   7   0.0511   0.0915   0.0550  -0.0227  -0.0549   0.0124   0.00    2.1
2173 197339.000    232978.4785  -5339308.3667   3469621.2894   2   7   0.0508   0.0906   0.0545  -0.0224  -0.0543   0.0122   0.00    2.1
2173 197340.000    232978.4789  -5339308.3679   3469621.2895   2   7   0.0506   0.0898   0.0540  -0.0221  -0.0537   0.0118   0.00    2.2
2173 197341.000    232978.4795  -5339308.3696   3469621.2897   2   7   0.0502   0.0889   0.0536  -0.0217  -0.0532   0.0115   0.00    2.2
2173 197342.000    232978.4799  -5339308.3720   3469621.2903   2   7   0.0500   0.0881   0.0531  -0.0214  -0.0526   0.0112   0.00    2.2
2173 197343.000    232978.4798  -5339308.3742   3469621.2906   2   7   0.0498   0.0873   0.0528  -0.0210  -0.0520   0.0110   0.00    2.2
2173 197344.000    232978.4799  -5339308.3748   3469621.2905   2   7   0.0495   0.0865   0.0523  -0.0207  -0.0515   0.0107   0.00    2.2
2173 197345.000    232978.4804  -5339308.3769   3469621.2911   2   7   0.0493   0.0857   0.0519  -0.0204  -0.0509   0.0106   0.00    2.2
2173 197346.000    232978.4813  -5339308.3750   3469621.2908   2   7   0.0490   0.0849   0.0515  -0.0201  -0.0503   0.0103   0.00    2.2
2173 197347.000    232978.4822  -5339308.3714   3469621.2887   2   7   0.0487   0.0841   0.0511  -0.0198  -0.0498   0.0100   0.00    2.2
2173 197348.000    232978.4822  -5339308.3667   3469621.2859   2   7   0.0485   0.0833   0.0507  -0.0194  -0.0493   0.0098   0.00    2.2
2173 197349.000    232978.4818  -5339308.3672   3469621.2849   2   7   0.0483   0.0826   0.0503  -0.0191  -0.0487   0.0095   0.00    2.2
2173 197350.000    232978.4812  -5339308.3694   3469621.2848   2   7   0.0481   0.0818   0.0499  -0.0188  -0.0482   0.0092   0.00    2.2
2173 197351.000    232978.4815  -5339308.3725   3469621.2856   2   7   0.0479   0.0811   0.0495  -0.0184  -0.0477   0.0092   0.00    2.2
2173 197352.000    232978.4812  -5339308.3746   3469621.2863   2   7   0.0477   0.0804   0.0492  -0.0181  -0.0472   0.0088   0.00    2.2
2173 197353.000    232978.4814  -5339308.3774   3469621.2875   2   7   0.0474   0.0796   0.0487  -0.0179  -0.0467   0.0085   0.00    2.2
2173 197354.000    232978.4816  -5339308.3792   3469621.2879   2   7   0.0472   0.0789   0.0484  -0.0175  -0.0462   0.0082   0.00    2.3
2173 197355.000    232978.4817  -5339308.3812   3469621.2892   2   7   0.0470   0.0782   0.0480  -0.0172  -0.0457   0.0079   0.00    2.3
2173 197356.000    232978.4822  -5339308.3827   3469621.2900   2   7   0.0468   0.0775   0.0477  -0.0169  -0.0452   0.0078   0.00    2.3
2173 197357.000    232978.4829  -5339308.3844   3469621.2906   2   7   0.0465   0.0769   0.0474  -0.0166  -0.0447   0.0076   0.00    2.3
2173 197358.000    232978.4831  -5339308.3867   3469621.2917   2   7   0.0464   0.0762   0.0470  -0.0163  -0.0443   0.0073   0.00    2.3
2173 197359.000    232978.4835  -5339308.3881   3469621.2924   2   7   0.0462   0.0755   0.0466  -0.0160  -0.0438   0.0069   0.00    2.3
2173 197360.000    232978.4839  -5339308.3902   3469621.2927   2   7   0.0460   0.0749   0.0463  -0.0157  -0.0434   0.0069   0.00    2.3
2173 197361.000    232978.4844  -5339308.3932   3469621.2941   2   7   0.0457   0.0742   0.0460  -0.0154  -0.0429   0.0066   0.00    2.3
2173 197362.000    232978.4850  -5339308.3946   3469621.2947   2   7   0.0455   0.0736   0.0457  -0.0151  -0.0424   0.0063   0.00    2.3
2173 197363.000    232978.4850  -5339308.3966   3469621.2953   2   7   0.0453   0.0729   0.0453  -0.0148  -0.0420   0.0056   0.00    2.3
2173 197364.000    232978.4850  -5339308.3984   3469621.2957   2   7   0.0451   0.0723   0.0450  -0.0145  -0.0416   0.0056   0.00    2.3
2173 197365.000    232978.4851  -5339308.4003   3469621.2961   2   7   0.0449   0.0717   0.0447  -0.0142  -0.0411   0.0052   0.00    2.3
2173 197366.000    232978.4853  -5339308.4014   3469621.2963   2   7   0.0447   0.0711   0.0444  -0.0139  -0.0407   0.0047   0.00    2.4
2173 197367.000    232978.4858  -5339308.4021   3469621.2966   2   7   0.0446   0.0705   0.0441  -0.0137  -0.0403   0.0046   0.00    2.4
2173 197368.000    232978.4859  -5339308.4023   3469621.2968   2   7   0.0444   0.0699   0.0437  -0.0134  -0.0399   0.0041   0.00    2.4
2173 197369.000    232978.4861  -5339308.4047   3469621.2982   2   7   0.0442   0.0693   0.0434  -0.0131  -0.0395   0.0037   0.00    2.4
2173 197370.000    232978.4861  -5339308.4057   3469621.2983   2   7   0.0440   0.0688   0.0431  -0.0128  -0.0390   0.0036   0.00    2.4
2173 197371.000    232978.4863  -5339308.4064   3469621.2983   2   7   0.0438   0.0682   0.0428  -0.0125  -0.0386   0.0029   0.00    2.4
2173 197372.000    232978.4869  -5339308.4071   3469621.2987   2   7   0.0437   0.0676   0.0425  -0.0122  -0.0382   0.0024   0.00    2.4
2173 197373.000    232978.4876  -5339308.4089   3469621.2990   2   7   0.0435   0.0671   0.0423  -0.0119  -0.0379   0.0026   0.00    2.4
2173 197374.000    232978.4885  -5339308.4109   3469621.2995   2   7   0.0433   0.0665   0.0420  -0.0116  -0.0375   0.0017   0.00    2.4
2173 197375.000    232978.4883  -5339308.4112   3469621.2992   2   7   0.0432   0.0660   0.0418  -0.0113  -0.0371   0.0011   0.00    2.4
2173 197376.000    232978.4886  -5339308.4128   3469621.2998   2   7   0.0429   0.0654   0.0414  -0.0111  -0.0367  -0.0017   0.00    2.4
2173 197377.000    232978.4889  -5339308.4144   3469621.3002   2   7   0.0428   0.0649   0.0411  -0.0108  -0.0363  -0.0026   0.00    2.4
2173 197378.000    232978.4889  -5339308.4156   3469621.3003   2   7   0.0426   0.0644   0.0410  -0.0104  -0.0359  -0.0021   0.00    2.4
2173 197379.000    232978.4889  -5339308.4160   3469621.2998   2   7   0.0425   0.0639   0.0406  -0.0101  -0.0356  -0.0027   0.00    2.4
2173 197380.000    232978.4895  -5339308.4175   3469621.3004   2   7   0.0423   0.0634   0.0403  -0.0098  -0.0352  -0.0029   0.00    2.4
2173 197381.000    232978.4902  -5339308.4202   3469621.3012   2   7   0.0422   0.0629   0.0401  -0.0097  -0.0349  -0.0036   0.00    2.4
2173 197382.000    232978.4905  -5339308.4234   3469621.3020   2   7   0.0420   0.0624   0.0399  -0.0092  -0.0345  -0.0035   0.00    2.4
2173 197383.000    232978.4910  -5339308.4237   3469621.3018   2   7   0.0419   0.0619   0.0396  -0.0090  -0.0342  -0.0042   0.00    2.4
2173 197384.000    232978.4911  -5339308.4255   3469621.3019   2   7   0.0417   0.0614   0.0394  -0.0088  -0.0338  -0.0045   0.00    2.4
2173 197385.000    232978.4915  -5339308.4278   3469621.3032   2   7   0.0415   0.0609   0.0391  -0.0085  -0.0335  -0.0046   0.00    2.4
2173 197386.000    232978.4921  -5339308.4293   3469621.3038   2   7   0.0414   0.0605   0.0388  -0.0081  -0.0332  -0.0047   0.00    2.4
2173 197387.000    232978.4929  -5339308.4317   3469621.3046   2   7   0.0412   0.0600   0.0386  -0.0078  -0.0329  -0.0048   0.00    2.4
2173 197388.000    232978.4936  -5339308.4323   3469621.3049   2   7   0.0411   0.0595   0.0383  -0.0075  -0.0325  -0.0051   0.00    2.4
2173 197389.000    232978.4936  -5339308.4328   3469621.3045   2   7   0.0409   0.0591   0.0381  -0.0071  -0.0322  -0.0052   0.00    2.4
2173 197390.000    232978.4938  -5339308.4348   3469621.3047   2   7   0.0408   0.0587   0.0380  -0.0068  -0.0319  -0.0054   0.00    2.4
2173 197391.000    232978.4939  -5339308.4354   3469621.3044   2   7   0.0406   0.0582   0.0377  -0.0065  -0.0316  -0.0055   0.00    2.4
2173 197392.000    232978.4942  -5339308.4369   3469621.3050   2   7   0.0406   0.0578   0.0374  -0.0061  -0.0313  -0.0055   0.00    2.4
2173 197393.000    232978.4945  -5339308.4382   3469621.3050   2   7   0.0404   0.0574   0.0372  -0.0057  -0.0309  -0.0058   0.00    2.4
2173 197394.000    232978.4947  -5339308.4392   3469621.3049   2   7   0.0402   0.0569   0.0370  -0.0054  -0.0307  -0.0059   0.00    2.4
2173 197395.000    232978.4948  -5339308.4392   3469621.3050   2   7   0.0401   0.0565   0.0367  -0.0050  -0.0304  -0.0060   0.00    2.4
2173 197396.000    232978.4948  -5339308.4402   3469621.3051   2   7   0.0400   0.0561   0.0366  -0.0045  -0.0301  -0.0061   0.00    2.4
2173 197397.000    232978.4950  -5339308.4416   3469621.3056   2   7   0.0398   0.0557   0.0363  -0.0042  -0.0298  -0.0061   0.00    2.4
2173 197398.000    232978.4954  -5339308.4425   3469621.3063   2   7   0.0397   0.0553   0.0362  -0.0037  -0.0295  -0.0065   0.00    2.4
2173 197399.000    232978.4955  -5339308.4444   3469621.3070   2   7   0.0396   0.0549   0.0360  -0.0032  -0.0292  -0.0064   0.00    2.4
2173 197400.000    232978.4954  -5339308.4453   3469621.3072   2   7   0.0394   0.0545   0.0357  -0.0026  -0.0289  -0.0066   0.00    2.4
2173 197401.000    232978.4959  -5339308.4478   3469621.3083   2   7   0.0393   0.0541   0.0355  -0.0019  -0.0287  -0.0066   0.00    2.4
2173 197402.000    232978.4964  -5339308.4483   3469621.3082   2   7   0.0392   0.0537   0.0353   0.0009  -0.0284  -0.0067   0.00    2.4
2173 197403.000    232978.4967  -5339308.4492   3469621.3085   2   7   0.0390   0.0533   0.0351   0.0020  -0.0281  -0.0066   0.00    2.4
2173 197404.000    232978.4972  -5339308.4513   3469621.3092   2   7   0.0389   0.0530   0.0349   0.0028  -0.0278  -0.0067   0.00    2.4
2173 197405.000    232978.4975  -5339308.4524   3469621.3098   2   7   0.0388   0.0526   0.0347   0.0032  -0.0276  -0.0069   0.00    2.4
2173 197406.000    232978.4979  -5339308.4527   3469621.3097   2   7   0.0387   0.0522   0.0346   0.0038  -0.0273  -0.0069   0.00    2.4
2173 197407.000    232978.4983  -5339308.4532   3469621.3096   2   7   0.0386   0.0519   0.0343   0.0041  -0.0270  -0.0071   0.00    2.4
2173 197408.000    232978.4986  -5339308.4540   3469621.3093   2   7   0.0385   0.0515   0.0342   0.0045  -0.0268  -0.0070   0.00    2.4
2173 197409.000    232978.4987  -5339308.4544   3469621.3090   2   7   0.0383   0.0511   0.0339   0.0047  -0.0266  -0.0072   0.00    2.4
2173 197410.000    232978.4987  -5339308.4543   3469621.3080   2   7   0.0382   0.0508   0.0338   0.0051  -0.0263  -0.0073   0.00    2.4
2173 197411.000    232978.4993  -5339308.4543   3469621.3079   2   7   0.0381   0.0504   0.0335   0.0053  -0.0261  -0.0073   0.00    2.5
2173 197412.000    232978.4994  -5339308.4550   3469621.3080   2   7   0.0379   0.0501   0.0334   0.0056  -0.0258  -0.0073   0.00    2.5
2173 197413.000    232978.4992  -5339308.4555   3469621.3078   2   7   0.0379   0.0498   0.0331   0.0058  -0.0256  -0.0074   0.00    2.5
2173 197414.000    232978.4998  -5339308.4559   3469621.3076   2   7   0.0377   0.0494   0.0332   0.0060  -0.0253  -0.0074   0.00    2.5
2173 197415.000    232978.5003  -5339308.4564   3469621.3078   2   7   0.0376   0.0491   0.0328   0.0062  -0.0251  -0.0075   0.00    2.5
2173 197416.000    232978.5006  -5339308.4585   3469621.3083   2   7   0.0375   0.0488   0.0326   0.0065  -0.0249  -0.0075   0.00    2.5
2173 197417.000    232978.5009  -5339308.4602   3469621.3085   2   7   0.0374   0.0485   0.0325   0.0066  -0.0247  -0.0076   0.00    2.5
2173 197418.000    232978.5012  -5339308.4614   3469621.3084   2   7   0.0373   0.0482   0.0323   0.0068  -0.0244  -0.0074   0.00    2.5
2173 197419.000    232978.5019  -5339308.4619   3469621.3080   2   7   0.0372   0.0478   0.0322   0.0070  -0.0242  -0.0077   0.00    2.5
2173 197420.000    232978.5022  -5339308.4623   3469621.3077   2   7   0.0371   0.0475   0.0321   0.0071  -0.0240  -0.0076   0.00    2.5
2173 197421.000    232978.5023  -5339308.4634   3469621.3078   2   7   0.0370   0.0472   0.0318   0.0073  -0.0238  -0.0075   0.00    2.5
2173 197422.000    232978.5026  -5339308.4635   3469621.3077   2   7   0.0369   0.0469   0.0317   0.0074  -0.0236  -0.0078   0.00    2.5
2173 197423.000    232978.5026  -5339308.4644   3469621.3078   2   7   0.0367   0.0466   0.0315   0.0076  -0.0234  -0.0077   0.00    2.5
2173 197424.000    232978.5033  -5339308.4660   3469621.3080   2   7   0.0366   0.0463   0.0314   0.0077  -0.0231  -0.0077   0.00    2.5
2173 197425.000    232978.5030  -5339308.4664   3469621.3079   2   7   0.0366   0.0460   0.0313   0.0078  -0.0229  -0.0079   0.00    2.5
2173 197426.000    232978.5032  -5339308.4676   3469621.3081   2   7   0.0364   0.0457   0.0311   0.0080  -0.0228  -0.0079   0.00    2.5
2173 197427.000    232978.5032  -5339308.4673   3469621.3080   2   7   0.0363   0.0455   0.0309   0.0081  -0.0225  -0.0078   0.00    2.5
2173 197428.000    232978.5034  -5339308.4683   3469621.3086   2   7   0.0362   0.0452   0.0307   0.0082  -0.0223  -0.0079   0.00    2.6
2173 197429.000    232978.5035  -5339308.4687   3469621.3087   2   7   0.0362   0.0449   0.0305   0.0082  -0.0222  -0.0080   0.00    2.6
2173 197430.000    232978.5036  -5339308.4702   3469621.3091   2   7   0.0360   0.0446   0.0304   0.0083  -0.0219  -0.0078   0.00    2.6
2173 197431.000    232978.5040  -5339308.4709   3469621.3090   2   7   0.0359   0.0444   0.0302   0.0085  -0.0218  -0.0078   0.00    2.6
2173 197432.000    232978.5041  -5339308.4711   3469621.3091   2   7   0.0358   0.0441   0.0301   0.0085  -0.0216  -0.0080   0.00    2.6
2173 197433.000    232978.5047  -5339308.4723   3469621.3097   2   7   0.0357   0.0438   0.0300   0.0087  -0.0214  -0.0078   0.00    2.6
2173 197434.000    232978.5050  -5339308.4726   3469621.3100   2   7   0.0357   0.0436   0.0298   0.0088  -0.0212  -0.0079   0.00    2.6
2173 197435.000    232978.5051  -5339308.4726   3469621.3100   2   7   0.0355   0.0433   0.0296   0.0088  -0.0210  -0.0080   0.00    2.6
2173 197436.000    232978.5050  -5339308.4734   3469621.3100   2   7   0.0354   0.0430   0.0295   0.0089  -0.0208  -0.0080   0.00    2.6
2173 197437.000    232978.5051  -5339308.4726   3469621.3094   2   7   0.0353   0.0428   0.0294   0.0090  -0.0206  -0.0080   0.00    2.6
2173 197438.000    232978.5049  -5339308.4737   3469621.3098   2   7   0.0353   0.0425   0.0292   0.0091  -0.0205  -0.0079   0.00    2.7
2173 197439.000    232978.5044  -5339308.4736   3469621.3097   2   7   0.0352   0.0423   0.0291   0.0092  -0.0203  -0.0080   0.00    2.7
2173 197440.000    232978.5043  -5339308.4735   3469621.3102   2   7   0.0351   0.0420   0.0291   0.0092  -0.0201  -0.0083   0.00    2.7
2173 197441.000    232978.5041  -5339308.4734   3469621.3104   2   7   0.0350   0.0418   0.0288   0.0093  -0.0199  -0.0081   0.00    2.7
2173 197442.000    232978.5047  -5339308.4743   3469621.3110   2   7   0.0349   0.0416   0.0289   0.0094  -0.0198  -0.0081   0.00    2.7
2173 197443.000    232978.5052  -5339308.4753   3469621.3114   2   7   0.0348   0.0413   0.0286   0.0095  -0.0196  -0.0082   0.00    2.7
2173 197444.000    232978.5050  -5339308.4760   3469621.3114   2   7   0.0347   0.0411   0.0284   0.0095  -0.0194  -0.0083   0.00    2.7
2173 197445.000    232978.5051  -5339308.4761   3469621.3118   2   7   0.0347   0.0409   0.0283   0.0095  -0.0193  -0.0081   0.00    2.7
2173 197446.000    232978.5050  -5339308.4758   3469621.3119   2   7   0.0345   0.0406   0.0282   0.0096  -0.0192  -0.0082   0.00    2.7
2173 197447.000    232978.5050  -5339308.4761   3469621.3120   2   7   0.0344   0.0404   0.0281   0.0097  -0.0190  -0.0082   0.00    2.7
2173 197448.000    232978.5052  -5339308.4764   3469621.3126   2   7   0.0343   0.0402   0.0279   0.0097  -0.0188  -0.0080   0.00    2.7
2173 197449.000    232978.5046  -5339308.4771   3469621.3128   2   7   0.0343   0.0399   0.0278   0.0098  -0.0187  -0.0080   0.00    2.7
2173 197450.000    232978.5049  -5339308.4782   3469621.3133   2   7   0.0342   0.0397   0.0276   0.0098  -0.0185  -0.0083   0.00    2.7
2173 197451.000    232978.5051  -5339308.4795   3469621.3138   2   7   0.0341   0.0395   0.0276   0.0099  -0.0183  -0.0082   0.00    2.7
2173 197452.000    232978.5055  -5339308.4796   3469621.3141   2   7   0.0340   0.0393   0.0274   0.0100  -0.0182  -0.0082   0.00    2.7
2173 197453.000    232978.5051  -5339308.4790   3469621.3144   2   7   0.0339   0.0391   0.0274   0.0100  -0.0180  -0.0084   0.00    2.7
2173 197454.000    232978.5053  -5339308.4799   3469621.3150   2   7   0.0339   0.0389   0.0273   0.0100  -0.0179  -0.0084   0.00    2.7
2173 197455.000    232978.5050  -5339308.4807   3469621.3156   2   7   0.0338   0.0387   0.0270   0.0101  -0.0178  -0.0081   0.00    2.7
2173 197456.000    232978.5053  -5339308.4819   3469621.3165   2   7   0.0337   0.0385   0.0269   0.0101  -0.0176  -0.0082   0.00    2.6
2173 197457.000    232978.5056  -5339308.4820   3469621.3167   2   7   0.0336   0.0382   0.0268   0.0101  -0.0175  -0.0082   0.00    2.6
2173 197458.000    232978.5057  -5339308.4833   3469621.3172   2   7   0.0335   0.0381   0.0268   0.0102  -0.0173  -0.0082   0.00    2.6
2173 197459.000    232978.5055  -5339308.4833   3469621.3173   2   7   0.0334   0.0379   0.0267   0.0102  -0.0172  -0.0082   0.00    2.6
2173 197460.000    232978.5053  -5339308.4835   3469621.3175   2   7   0.0333   0.0376   0.0266   0.0102  -0.0171  -0.0082   0.00    2.6
2173 197461.000    232978.5051  -5339308.4840   3469621.3178   2   7   0.0333   0.0375   0.0264   0.0103  -0.0170  -0.0082   0.00    2.6
2173 197462.000    232978.5044  -5339308.4836   3469621.3174   2   7   0.0332   0.0373   0.0263   0.0103  -0.0168  -0.0082   0.00    2.6
2173 197463.000    232978.5045  -5339308.4836   3469621.3178   2   7   0.0332   0.0371   0.0262   0.0103  -0.0167  -0.0083   0.00    2.6
2173 197464.000    232978.5043  -5339308.4829   3469621.3174   2   7   0.0330   0.0369   0.0261   0.0105  -0.0165  -0.0082   0.00    2.6
2173 197465.000    232978.5047  -5339308.4833   3469621.3178   2   7   0.0330   0.0367   0.0259   0.0105  -0.0164  -0.0081   0.00    2.6
2173 197466.000    232978.5042  -5339308.4846   3469621.3178   2   7   0.0329   0.0365   0.0260   0.0105  -0.0162  -0.0083   0.00    2.6
2173 197467.000    232978.5043  -5339308.4848   3469621.3175   2   7   0.0329   0.0363   0.0258   0.0105  -0.0162  -0.0083   0.00    2.6
2173 197468.000    232978.5046  -5339308.4857   3469621.3176   2   7   0.0327   0.0361   0.0257   0.0106  -0.0160  -0.0083   0.00    2.6
2173 197469.000    232978.5047  -5339308.4869   3469621.3180   2   7   0.0327   0.0360   0.0255   0.0106  -0.0159  -0.0084   0.00    2.6
2173 197470.000    232978.5049  -5339308.4877   3469621.3180   2   7   0.0326   0.0358   0.0254   0.0107  -0.0158  -0.0082   0.00    2.6
2173 197471.000    232978.5047  -5339308.4881   3469621.3185   2   7   0.0325   0.0356   0.0253   0.0106  -0.0157  -0.0083   0.00    2.6
2173 197472.000    232978.5050  -5339308.4886   3469621.3189   2   7   0.0325   0.0354   0.0252   0.0107  -0.0156  -0.0084   0.00    2.6
2173 197473.000    232978.5051  -5339308.4895   3469621.3193   2   7   0.0324   0.0353   0.0251   0.0107  -0.0154  -0.0082   0.00    2.6
2173 197474.000    232978.5053  -5339308.4898   3469621.3193   2   7   0.0323   0.0351   0.0251   0.0107  -0.0153  -0.0082   0.00    2.6
2173 197475.000    232978.5053  -5339308.4899   3469621.3191   2   7   0.0323   0.0349   0.0248   0.0108  -0.0152  -0.0081   0.00    2.6
2173 197476.000    232978.5053  -5339308.4899   3469621.3187   2   7   0.0322   0.0348   0.0248   0.0108  -0.0151  -0.0081   0.00    2.6
2173 197477.000    232978.5058  -5339308.4900   3469621.3191   2   7   0.0320   0.0346   0.0247   0.0108  -0.0150  -0.0081   0.00    2.6
2173 197478.000    232978.5052  -5339308.4908   3469621.3198   2   7   0.0320   0.0344   0.0246   0.0108  -0.0148  -0.0080   0.00    2.6
2173 197479.000    232978.5053  -5339308.4916   3469621.3206   2   7   0.0319   0.0343   0.0244   0.0108  -0.0148  -0.0079   0.00    2.6
2173 197480.000    232978.5052  -5339308.4913   3469621.3208   2   7   0.0319   0.0341   0.0246   0.0108  -0.0147  -0.0081   0.00    2.6
2173 197481.000    232978.5051  -5339308.4915   3469621.3210   2   7   0.0318   0.0339   0.0243   0.0109  -0.0145  -0.0081   0.00    2.6
2173 197482.000    232978.5050  -5339308.4917   3469621.3210   2   7   0.0317   0.0338   0.0242   0.0109  -0.0144  -0.0080   0.00    2.6
2173 197483.000    232978.5054  -5339308.4917   3469621.3212   2   7   0.0317   0.0336   0.0242   0.0109  -0.0143  -0.0080   0.00    2.6
2173 197484.000    232978.5052  -5339308.4917   3469621.3213   2   7   0.0316   0.0335   0.0240   0.0109  -0.0143  -0.0081   0.00    2.6
2173 197485.000    232978.5053  -5339308.4915   3469621.3209   2   7   0.0316   0.0333   0.0239   0.0109  -0.0142  -0.0080   0.00    2.6
2173 197486.000    232978.5059  -5339308.4930   3469621.3214   2   7   0.0315   0.0332   0.0238   0.0109  -0.0140  -0.0081   0.00    2.6
2173 197487.000    232978.5062  -5339308.4927   3469621.3212   2   7   0.0314   0.0330   0.0237   0.0110  -0.0139  -0.0081   0.00    2.6
2173 197488.000    232978.5062  -5339308.4926   3469621.3216   2   7   0.0313   0.0329   0.0238   0.0110  -0.0138  -0.0081   0.00    2.6
2173 197489.000    232978.5057  -5339308.4923   3469621.3216   2   7   0.0313   0.0327   0.0235   0.0111  -0.0137  -0.0081   0.00    2.6
2173 197490.000    232978.5057  -5339308.4933   3469621.3216   2   7   0.0312   0.0326   0.0234   0.0110  -0.0136  -0.0079   0.00    2.6
2173 197491.000    232978.5061  -5339308.4937   3469621.3225   2   7   0.0311   0.0324   0.0234   0.0110  -0.0136  -0.0080   0.00    2.6
2173 197492.000    232978.5060  -5339308.4936   3469621.3226   2   7   0.0311   0.0323   0.0233   0.0111  -0.0135  -0.0081   0.00    2.6
2173 197493.000    232978.5053  -5339308.4930   3469621.3226   2   7   0.0311   0.0322   0.0233   0.0110  -0.0133  -0.0081   0.00    2.6
2173 197494.000    232978.5052  -5339308.4930   3469621.3226   2   7   0.0309   0.0320   0.0232   0.0111  -0.0132  -0.0079   0.00    2.6
2173 197495.000    232978.5054  -5339308.4930   3469621.3228   2   7   0.0308   0.0319   0.0231   0.0111  -0.0131  -0.0080   0.00    2.6
2173 197496.000    232978.5051  -5339308.4934   3469621.3234   2   7   0.0308   0.0317   0.0230   0.0111  -0.0131  -0.0080   0.00    2.6
2173 197497.000    232978.5051  -5339308.4935   3469621.3231   2   7   0.0307   0.0316   0.0229   0.0111  -0.0130  -0.0080   0.00    2.5
2173 197498.000    232978.5053  -5339308.4940   3469621.3233   2   7   0.0307   0.0315   0.0229   0.0111  -0.0128  -0.0079   0.00    2.5
2173 197499.000    232978.5049  -5339308.4948   3469621.3237   2   7   0.0307   0.0313   0.0229   0.0112  -0.0127  -0.0081   0.00    2.5
2173 197500.000    232978.5050  -5339308.4956   3469621.3237   2   7   0.0306   0.0312   0.0227   0.0112  -0.0127  -0.0079   0.00    2.5
2173 197501.000    232978.5053  -5339308.4965   3469621.3244   2   7   0.0305   0.0311   0.0225   0.0111  -0.0126  -0.0081   0.00    2.5
2173 197502.000    232978.5055  -5339308.4962   3469621.3236   2   7   0.0305   0.0309   0.0225   0.0112  -0.0125  -0.0079   0.00    2.5
2173 197503.000    232978.5060  -5339308.4969   3469621.3237   2   7   0.0304   0.0308   0.0223   0.0112  -0.0125  -0.0079   0.00    2.5
2173 197504.000    232978.5066  -5339308.4970   3469621.3243   2   7   0.0304   0.0307   0.0223   0.0112  -0.0124  -0.0079   0.00    2.5
2173 197505.000    232978.5069  -5339308.4974   3469621.3242   2   7   0.0303   0.0305   0.0222   0.0112  -0.0123  -0.0079   0.00    2.5
2173 197506.000    232978.5073  -5339308.4974   3469621.3247   2   7   0.0302   0.0304   0.0221   0.0112  -0.0123  -0.0079   0.00    2.5
2173 197507.000    232978.5074  -5339308.4985   3469621.3247   2   7   0.0301   0.0303   0.0222   0.0112  -0.0121  -0.0080   0.00    2.5
2173 197508.000    232978.5071  -5339308.4994   3469621.3248   2   7   0.0301   0.0302   0.0220   0.0112  -0.0121  -0.0079   0.00    2.5
2173 197509.000    232978.5075  -5339308.4989   3469621.3248   2   7   0.0301   0.0301   0.0219   0.0112  -0.0120  -0.0079   0.00    2.5
2173 197510.000    232978.5071  -5339308.4995   3469621.3255   2   7   0.0299   0.0300   0.0220   0.0113  -0.0118  -0.0077   0.00    2.5
2173 197511.000    232978.5068  -5339308.5003   3469621.3256   2   7   0.0299   0.0298   0.0218   0.0112  -0.0118  -0.0078   0.00    2.5
2173 197512.000    232978.5069  -5339308.4997   3469621.3253   2   7   0.0299   0.0297   0.0218   0.0112  -0.0117  -0.0080   0.00    2.5
2173 197513.000    232978.5070  -5339308.4998   3469621.3258   2   7   0.0298   0.0296   0.0216   0.0112  -0.0117  -0.0079   0.00    2.5
2173 197514.000    232978.5066  -5339308.4990   3469621.3255   2   7   0.0298   0.0295   0.0215   0.0112  -0.0116  -0.0079   0.00    2.5
2173 197515.000    232978.5072  -5339308.4987   3469621.3257   2   7   0.0297   0.0293   0.0215   0.0112  -0.0115  -0.0078   0.00    2.5
2173 197516.000    232978.5071  -5339308.4989   3469621.3260   2   7   0.0296   0.0292   0.0214   0.0112  -0.0115  -0.0078   0.00    2.5
2173 197517.000    232978.5073  -5339308.4986   3469621.3259   2   7   0.0296   0.0292   0.0213   0.0113  -0.0114  -0.0077   0.00    2.5
2173 197518.000    232978.5072  -5339308.4983   3469621.3263   2   7   0.0296   0.0290   0.0213   0.0113  -0.0114  -0.0079   0.00    2.5
2173 197519.000    232978.5071  -5339308.4989   3469621.3262   2   7   0.0295   0.0289   0.0212   0.0112  -0.0112  -0.0077   0.00    2.5
2173 197520.000    232978.5074  -5339308.4988   3469621.3259   2   7   0.0294   0.0288   0.0212   0.0112  -0.0112  -0.0077   0.00    2.5
2173 197521.000    232978.5077  -5339308.4985   3469621.3261   2   7   0.0293   0.0287   0.0211   0.0112  -0.0111  -0.0079   0.00    2.5
2173 197522.000    232978.5077  -5339308.4981   3469621.3264   2   7   0.0293   0.0286   0.0210   0.0113  -0.0111  -0.0077   0.00    2.5
2173 197523.000    232978.5083  -5339308.4993   3469621.3266   2   7   0.0293   0.0285   0.0209   0.0113  -0.0110  -0.0077   0.00    2.5
2173 197524.000    232978.5083  -5339308.5003   3469621.3276   2   7   0.0292   0.0284   0.0208   0.0113  -0.0109  -0.0076   0.00    2.5
2173 197525.000    232978.5081  -5339308.5003   3469621.3272   2   7   0.0291   0.0283   0.0207   0.0113  -0.0108  -0.0075   0.00    2.5
2173 197526.000    232978.5083  -5339308.5004   3469621.3269   2   7   0.0290   0.0282   0.0207   0.0112  -0.0108  -0.0078   0.00    2.5
2173 197527.000    232978.5078  -5339308.4999   3469621.3265   2   7   0.0290   0.0281   0.0205   0.0112  -0.0107  -0.0077   0.00    2.5
2173 197528.000    232978.5077  -5339308.5002   3469621.3262   2   7   0.0290   0.0279   0.0206   0.0113  -0.0107  -0.0076   0.00    2.5
2173 197529.000    232978.5076  -5339308.4996   3469621.3265   2   7   0.0289   0.0279   0.0205   0.0113  -0.0106  -0.0076   0.00    2.5
2173 197530.000    232978.5076  -5339308.5007   3469621.3274   2   7   0.0289   0.0277   0.0204   0.0113  -0.0106  -0.0075   0.00    2.5
2173 197531.000    232978.5076  -5339308.5001   3469621.3275   2   7   0.0289   0.0277   0.0204   0.0113  -0.0105  -0.0077   0.00    2.5
2173 197532.000    232978.5074  -5339308.5001   3469621.3273   2   7   0.0288   0.0276   0.0203   0.0113  -0.0105  -0.0077   0.00    2.5
2173 197533.000    232978.5078  -5339308.5000   3469621.3276   2   7   0.0287   0.0275   0.0202   0.0113  -0.0104  -0.0075   0.00    2.5
2173 197534.000    232978.5081  -5339308.4996   3469621.3277   2   7   0.0287   0.0274   0.0201   0.0113  -0.0103  -0.0076   0.00    2.5
2173 197535.000    232978.5075  -5339308.4993   3469621.3275   2   7   0.0286   0.0273   0.0201   0.0113  -0.0102  -0.0075   0.00    2.5
2173 197536.000    232978.5079  -5339308.4997   3469621.3276   2   7   0.0286   0.0272   0.0202   0.0113  -0.0102  -0.0076   0.00    2.5
2173 197537.000    232978.5081  -5339308.4995   3469621.3273   2   7   0.0285   0.0271   0.0200   0.0112  -0.0102  -0.0076   0.00    2.5
2173 197538.000    232978.5079  -5339308.4998   3469621.3280   2   7   0.0285   0.0270   0.0200   0.0112  -0.0101  -0.0075   0.00    2.5
2173 197539.000    232978.5083  -5339308.5009   3469621.3282   2   7   0.0284   0.0269   0.0199   0.0112  -0.0100  -0.0075   0.00    2.6
2173 197540.000    232978.5078  -5339308.5001   3469621.3282   2   7   0.0284   0.0268   0.0198   0.0113  -0.0100  -0.0074   0.00    2.6
2173 197541.000    232978.5081  -5339308.5000   3469621.3286   2   7   0.0283   0.0267   0.0196   0.0113  -0.0100  -0.0073   0.00    2.6
2173 197542.000    232978.5081  -5339308.5006   3469621.3289   2   7   0.0283   0.0266   0.0198   0.0113  -0.0099  -0.0075   0.00    2.6
2173 197543.000    232978.5080  -5339308.5013   3469621.3292   2   7   0.0282   0.0265   0.0196   0.0113  -0.0098  -0.0074   0.00    2.6
2173 197544.000    232978.5075  -5339308.5011   3469621.3291   2   7   0.0282   0.0264   0.0196   0.0113  -0.0097  -0.0075   0.00    2.6
2173 197545.000    232978.5077  -5339308.5012   3469621.3291   2   7   0.0281   0.0263   0.0194   0.0113  -0.0098  -0.0074   0.00    2.6
2173 197546.000    232978.5076  -5339308.5016   3469621.3295   2   7   0.0281   0.0263   0.0195   0.0112  -0.0097  -0.0074   0.00    2.6
2173 197547.000    232978.5081  -5339308.5017   3469621.3293   2   7   0.0280   0.0262   0.0193   0.0112  -0.0097  -0.0072   0.00    2.6
2173 197548.000    232978.5080  -5339308.5007   3469621.3291   2   7   0.0280   0.0261   0.0195   0.0112  -0.0096  -0.0076   0.00    2.6
2173 197549.000    232978.5077  -5339308.5008   3469621.3291   2   7   0.0280   0.0260   0.0193   0.0112  -0.0095  -0.0074   0.00    2.6
2173 197550.000    232978.5078  -5339308.5001   3469621.3290   2   7   0.0279   0.0259   0.0191   0.0113  -0.0095  -0.0073   0.00    2.6
2173 197551.000    232978.5077  -5339308.5000   3469621.3291   2   7   0.0279   0.0258   0.0191   0.0113  -0.0095  -0.0073   0.00    2.6
2173 197552.000    232978.5077  -5339308.4995   3469621.3292   2   7   0.0278   0.0257   0.0189   0.0112  -0.0094  -0.0074   0.00    2.6
2173 197553.000    232978.5077  -5339308.5001   3469621.3299   2   7   0.0277   0.0257   0.0190   0.0112  -0.0094  -0.0074   0.00    2.6
2173 197554.000    232978.5082  -5339308.5001   3469621.3303   2   7   0.0277   0.0256   0.0189   0.0112  -0.0094  -0.0073   0.00    2.6
2173 197555.000    232978.5084  -5339308.5008   3469621.3310   2   7   0.0276   0.0255   0.0191   0.0112  -0.0092  -0.0073   0.00    2.6
2173 197556.000    232978.5081  -5339308.5018   3469621.3316   2   7   0.0276   0.0254   0.0188   0.0112  -0.0092  -0.0073   0.00    2.6
2173 197557.000    232978.5082  -5339308.5029   3469621.3318   2   7   0.0276   0.0253   0.0187   0.0112  -0.0092  -0.0074   0.00    2.6
2173 197558.000    232978.5084  -5339308.5023   3469621.3319   2   7   0.0275   0.0253   0.0188   0.0112  -0.0091  -0.0073   0.00    2.6
2173 197559.000    232978.5087  -5339308.5023   3469621.3318   2   7   0.0275   0.0252   0.0186   0.0112  -0.0092  -0.0072   0.00    2.6
2173 197560.000    232978.5088  -5339308.5025   3469621.3321   2   7   0.0275   0.0251   0.0187   0.0112  -0.0090  -0.0072   0.00    2.6
2173 197561.000    232978.5088  -5339308.5038   3469621.3324   2   7   0.0274   0.0250   0.0186   0.0112  -0.0090  -0.0072   0.00    2.6
2173 197562.000    232978.5090  -5339308.5031   3469621.3318   2   7   0.0273   0.0249   0.0183   0.0112  -0.0091  -0.0071   0.00    2.6
2173 197563.000    232978.5094  -5339308.5028   3469621.3320   2   7   0.0273   0.0249   0.0184   0.0112  -0.0089  -0.0072   0.00    2.6
2173 197564.000    232978.5094  -5339308.5036   3469621.3324   2   7   0.0272   0.0248   0.0183   0.0112  -0.0089  -0.0071   0.00    2.6
2173 197565.000    232978.5093  -5339308.5034   3469621.3323   2   7   0.0272   0.0247   0.0184   0.0112  -0.0088  -0.0072   0.00    2.6
2173 197566.000    232978.5094  -5339308.5039   3469621.3325   2   7   0.0272   0.0247   0.0186   0.0112  -0.0087  -0.0071   0.00    2.6
2173 197567.000    232978.5094  -5339308.5040   3469621.3322   2   7   0.0271   0.0246   0.0183   0.0112  -0.0088  -0.0072   0.00    2.6
2173 197568.000    232978.5095  -5339308.5038   3469621.3320   2   7   0.0271   0.0245   0.0183   0.0112  -0.0087  -0.0072   0.00    2.6
2173 197569.000    232978.5095  -5339308.5040   3469621.3320   2   7   0.0271   0.0244   0.0181   0.0112  -0.0087  -0.0071   0.00    2.6
2173 197570.000    232978.5094  -5339308.5054   3469621.3324   2   7   0.0270   0.0244   0.0181   0.0112  -0.0087  -0.0071   0.00    2.6
2173 197571.000    232978.5091  -5339308.5057   3469621.3325   2   7   0.0270   0.0243   0.0180   0.0112  -0.0086  -0.0072   0.00    2.6
2173 197572.000    232978.5091  -5339308.5065   3469621.3322   2   7   0.0269   0.0242   0.0180   0.0112  -0.0085  -0.0070   0.00    2.6
2173 197573.000    232978.5093  -5339308.5074   3469621.3322   2   7   0.0269   0.0242   0.0180   0.0111  -0.0084  -0.0070   0.00    2.6
2173 197574.000    232978.5093  -5339308.5078   3469621.3325   2   7   0.0268   0.0241   0.0180   0.0111  -0.0084  -0.0070   0.00    2.6
2173 197575.000    232978.5095  -5339308.5081   3469621.3326   2   7   0.0267   0.0240   0.0178   0.0111  -0.0085  -0.0070   0.00    2.6
2173 197576.000    232978.5095  -5339308.5075   3469621.3320   2   7   0.0268   0.0239   0.0177   0.0112  -0.0085  -0.0069   0.00    2.6
2173 197577.000    232978.5095  -5339308.5087   3469621.3321   2   7   0.0267   0.0239   0.0176   0.0111  -0.0085  -0.0068   0.00    2.6
2173 197578.000    232978.5094  -5339308.5083   3469621.3320   2   7   0.0266   0.0238   0.0177   0.0111  -0.0083  -0.0069   0.00    2.6
2173 197579.000    232978.5094  -5339308.5083   3469621.3316   2   7   0.0266   0.0237   0.0176   0.0111  -0.0083  -0.0069   0.00    2.6
2173 197580.000    232978.5097  -5339308.5087   3469621.3317   2   7   0.0266   0.0237   0.0177   0.0111  -0.0083  -0.0069   0.00    2.6
2173 197581.000    232978.5098  -5339308.5081   3469621.3314   2   7   0.0266   0.0236   0.0175   0.0111  -0.0083  -0.0071   0.00    2.6
2173 197582.000    232978.5095  -5339308.5081   3469621.3313   2   7   0.0265   0.0236   0.0174   0.0111  -0.0082  -0.0070   0.00    2.6
2173 197583.000    232978.5100  -5339308.5081   3469621.3315   2   7   0.0265   0.0235   0.0174   0.0111  -0.0081  -0.0070   0.00    2.6
2173 197584.000    232978.5099  -5339308.5087   3469621.3317   2   7   0.0265   0.0234   0.0172   0.0111  -0.0082  -0.0069   0.00    2.6
2173 197585.000    232978.5101  -5339308.5088   3469621.3317   2   7   0.0264   0.0233   0.0173   0.0111  -0.0082  -0.0070   0.00    2.6
2173 197586.000    232978.5104  -5339308.5098   3469621.3321   2   7   0.0263   0.0233   0.0172   0.0111  -0.0081  -0.0068   0.00    2.6
2173 197587.000    232978.5103  -5339308.5107   3469621.3321   2   7   0.0263   0.0232   0.0173   0.0110  -0.0081  -0.0068   0.00    2.6
2173 197588.000    232978.5103  -5339308.5114   3469621.3323   2   7   0.0262   0.0232   0.0173   0.0110  -0.0080  -0.0069   0.00    2.6
2173 197589.000    232978.5101  -5339308.5108   3469621.3316   2   7   0.0263   0.0231   0.0172   0.0110  -0.0080  -0.0070   0.00    2.6
2173 197590.000    232978.5100  -5339308.5099   3469621.3309   2   7   0.0261   0.0231   0.0172   0.0110  -0.0080  -0.0068   0.00    2.6
2173 197591.000    232978.5100  -5339308.5104   3469621.3311   2   7   0.0262   0.0230   0.0170   0.0110  -0.0081  -0.0068   0.00    2.7
2173 197592.000    232978.5104  -5339308.5116   3469621.3321   2   7   0.0261   0.0229   0.0169   0.0110  -0.0080  -0.0066   0.00    2.7
2173 197593.000    232978.5104  -5339308.5116   3469621.3319   2   7   0.0261   0.0229   0.0169   0.0110  -0.0079  -0.0067   0.00    2.7
2173 197594.000    232978.5102  -5339308.5118   3469621.3321   2   7   0.0261   0.0228   0.0168   0.0110  -0.0079  -0.0070   0.00    2.7
2173 197595.000    232978.5097  -5339308.5108   3469621.3320   2   7   0.0260   0.0227   0.0171   0.0110  -0.0078  -0.0068   0.00    2.7
2173 197596.000    232978.5100  -5339308.5114   3469621.3323   2   7   0.0259   0.0227   0.0168   0.0110  -0.0078  -0.0067   0.00    2.7
2173 197597.000    232978.5101  -5339308.5116   3469621.3326   2   7   0.0259   0.0226   0.0169   0.0110  -0.0077  -0.0067   0.00    2.7
2173 197598.000    232978.5098  -5339308.5120   3469621.3332   2   7   0.0259   0.0226   0.0166   0.0109  -0.0078  -0.0066   0.00    2.7
2173 197599.000    232978.5095  -5339308.5111   3469621.3326   2   7   0.0258   0.0225   0.0167   0.0110  -0.0078  -0.0067   0.00    2.7
2173 197600.000    232978.5095  -5339308.5112   3469621.3324   2   7   0.0258   0.0225   0.0167   0.0109  -0.0077  -0.0068   0.00    2.7
2173 197601.000    232978.5097  -5339308.5116   3469621.3325   2   7   0.0258   0.0224   0.0168   0.0109  -0.0076  -0.0068   0.00    2.7
2173 197602.000    232978.5100  -5339308.5125   3469621.3333   2   7   0.0257   0.0223   0.0165   0.0109  -0.0076  -0.0067   0.00    2.7
2173 197603.000    232978.5102  -5339308.5131   3469621.3337   2   7   0.0257   0.0223   0.0165   0.0109  -0.0077  -0.0065   0.00    2.7
2173 197604.000    232978.5100  -5339308.5117   3469621.3327   2   7   0.0256   0.0222   0.0166   0.0109  -0.0077  -0.0066   0.00    2.7
2173 197605.000    232978.5104  -5339308.5133   3469621.3331   2   7   0.0256   0.0222   0.0165   0.0109  -0.0075  -0.0065   0.00    2.7
2173 197606.000    232978.5105  -5339308.5137   3469621.3335   2   7   0.0256   0.0221   0.0166   0.0109  -0.0075  -0.0066   0.00    2.7
2173 197607.000    232978.5109  -5339308.5138   3469621.3336   2   7   0.0255   0.0220   0.0163   0.0109  -0.0076  -0.0066   0.00    2.7
2173 197608.000    232978.5107  -5339308.5142   3469621.3334   2   7   0.0255   0.0220   0.0163   0.0109  -0.0075  -0.0066   0.00    2.7
2173 197609.000    232978.5104  -5339308.5133   3469621.3328   2   7   0.0254   0.0220   0.0163   0.0109  -0.0075  -0.0067   0.00    2.7
2173 197610.000    232978.5104  -5339308.5130   3469621.3330   2   7   0.0255   0.0219   0.0162   0.0109  -0.0075  -0.0066   0.00    2.7
2173 197611.000    232978.5106  -5339308.5132   3469621.3327   2   7   0.0254   0.0218   0.0161   0.0109  -0.0076  -0.0066   0.00    2.7
2173 197612.000    232978.5103  -5339308.5138   3469621.3329   2   7   0.0253   0.0218   0.0162   0.0108  -0.0075  -0.0065   0.00    2.7
2173 197613.000    232978.5104  -5339308.5130   3469621.3322   2   7   0.0253   0.0217   0.0160   0.0108  -0.0075  -0.0063   0.00    2.7
2173 197614.000    232978.5103  -5339308.5131   3469621.3323   2   7   0.0253   0.0217   0.0161   0.0109  -0.0073  -0.0065   0.00    2.7
2173 197615.000    232978.5101  -5339308.5129   3469621.3321   2   7   0.0253   0.0217   0.0161   0.0108  -0.0074  -0.0064   0.00    2.7
2173 197616.000    232978.5099  -5339308.5125   3469621.3321   2   7   0.0252   0.0216   0.0159   0.0109  -0.0074  -0.0065   0.00    2.7
2173 197617.000    232978.5100  -5339308.5122   3469621.3321   2   7   0.0251   0.0215   0.0159   0.0108  -0.0075  -0.0065   0.00    2.8
2173 197618.000    232978.5100  -5339308.5121   3469621.3321   2   7   0.0251   0.0215   0.0161   0.0108  -0.0073  -0.0065   0.00    2.8
2173 197619.000    232978.5103  -5339308.5115   3469621.3318   2   7   0.0251   0.0215   0.0160   0.0108  -0.0073  -0.0063   0.00    2.8
2173 197620.000    232978.5101  -5339308.5123   3469621.3319   2   7   0.0250   0.0214   0.0157   0.0108  -0.0074  -0.0063   0.00    2.8
2173 197621.000    232978.5102  -5339308.5132   3469621.3323   2   7   0.0251   0.0213   0.0158   0.0109  -0.0073  -0.0064   0.00    2.8
2173 197622.000    232978.5102  -5339308.5135   3469621.3324   2   7   0.0251   0.0213   0.0159   0.0108  -0.0072  -0.0065   0.00    2.8
2173 197623.000    232978.5101  -5339308.5123   3469621.3319   2   7   0.0250   0.0213   0.0157   0.0108  -0.0073  -0.0063   0.00    2.8
2173 197624.000    232978.5105  -5339308.5122   3469621.3313   2   7   0.0250   0.0212   0.0158   0.0108  -0.0072  -0.0064   0.00    2.8
2173 197625.000    232978.5107  -5339308.5127   3469621.3315   2   7   0.0249   0.0211   0.0158   0.0108  -0.0071  -0.0064   0.00    2.8
2173 197626.000    232978.5107  -5339308.5121   3469621.3309   2   7   0.0249   0.0211   0.0157   0.0107  -0.0072  -0.0063   0.00    2.8
2173 197627.000    232978.5107  -5339308.5107   3469621.3302   2   7   0.0248   0.0211   0.0155   0.0107  -0.0072  -0.0061   0.00    2.8
2173 197628.000    232978.5105  -5339308.5108   3469621.3296   2   7   0.0248   0.0210   0.0156   0.0107  -0.0071  -0.0064   0.00    2.8
2173 197629.000    232978.5109  -5339308.5119   3469621.3306   2   7   0.0248   0.0210   0.0156   0.0107  -0.0072  -0.0063   0.00    2.8
2173 197630.000    232978.5109  -5339308.5119   3469621.3306   2   7   0.0247   0.0209   0.0154   0.0107  -0.0071  -0.0062   0.00    2.8
2173 197631.000    232978.5113  -5339308.5124   3469621.3311   2   7   0.0247   0.0209   0.0156   0.0107  -0.0070  -0.0064   0.00    2.8
2173 197632.000    232978.5113  -5339308.5125   3469621.3305   2   7   0.0247   0.0208   0.0155   0.0107  -0.0071  -0.0062   0.00    2.8
2173 197633.000    232978.5119  -5339308.5129   3469621.3310   2   7   0.0246   0.0208   0.0154   0.0106  -0.0071  -0.0064   0.00    2.8
2173 197634.000    232978.5118  -5339308.5123   3469621.3305   2   7   0.0246   0.0207   0.0154   0.0107  -0.0071  -0.0062   0.00    2.9
2173 197635.000    232978.5122  -5339308.5131   3469621.3312   2   7   0.0246   0.0207   0.0153   0.0107  -0.0071  -0.0063   0.00    2.9
2173 197636.000    232978.5122  -5339308.5127   3469621.3312   2   7   0.0245   0.0207   0.0153   0.0106  -0.0070  -0.0060   0.00    2.9
2173 197637.000    232978.5119  -5339308.5127   3469621.3315   2   7   0.0245   0.0206   0.0154   0.0106  -0.0070  -0.0062   0.00    2.9
2173 197638.000    232978.5121  -5339308.5125   3469621.3310   2   7   0.0245   0.0206   0.0154   0.0106  -0.0070  -0.0063   0.00    2.9
2173 197639.000    232978.5121  -5339308.5126   3469621.3314   2   7   0.0245   0.0205   0.0152   0.0106  -0.0070  -0.0061   0.00    2.9
2173 197640.000    232978.5118  -5339308.5131   3469621.3314   2   7   0.0244   0.0205   0.0151   0.0106  -0.0070  -0.0062   0.00    2.9
2173 197641.000    232978.5117  -5339308.5129   3469621.3307   2   7   0.0244   0.0204   0.0150   0.0106  -0.0070  -0.0062   0.00    2.9
2173 197642.000    232978.5121  -5339308.5132   3469621.3307   2   7   0.0243   0.0204   0.0151   0.0106  -0.0069  -0.0062   0.00    2.9
2173 197643.000    232978.5121  -5339308.5126   3469621.3306   2   7   0.0243   0.0204   0.0151   0.0106  -0.0069  -0.0060   0.00    2.9
2173 197644.000    232978.5117  -5339308.5114   3469621.3303   2   7   0.0243   0.0203   0.0150   0.0106  -0.0069  -0.0060   0.00    2.9
2173 197645.000    232978.5116  -5339308.5113   3469621.3304   2   7   0.0243   0.0203   0.0150   0.0106  -0.0069  -0.0061   0.00    2.9
2173 197646.000    232978.5119  -5339308.5125   3469621.3310   2   7   0.0242   0.0202   0.0150   0.0105  -0.0069  -0.0061   0.00    2.9
2173 197647.000    232978.5117  -5339308.5125   3469621.3312   2   7   0.0242   0.0202   0.0149   0.0105  -0.0069  -0.0060   0.00    2.9
2173 197648.000    232978.5121  -5339308.5131   3469621.3312   2   7   0.0242   0.0201   0.0148   0.0105  -0.0069  -0.0061   0.00    2.9
2173 197649.000    232978.5119  -5339308.5136   3469621.3316   2   7   0.0242   0.0201   0.0146   0.0105  -0.0069  -0.0060   0.00    2.9
2173 197650.000    232978.5120  -5339308.5131   3469621.3311   2   7   0.0241   0.0201   0.0148   0.0106  -0.0069  -0.0060   0.00    2.9
2173 197651.000    232978.5125  -5339308.5152   3469621.3320   2   7   0.0241   0.0200   0.0148   0.0105  -0.0068  -0.0060   0.00    2.9
2173 197652.000    232978.5127  -5339308.5147   3469621.3319   2   7   0.0241   0.0200   0.0147   0.0105  -0.0068  -0.0060   0.00    2.9
2173 197653.000    232978.5122  -5339308.5138   3469621.3311   2   7   0.0240   0.0199   0.0148   0.0105  -0.0068  -0.0061   0.00    2.9
2173 197654.000    232978.5126  -5339308.5148   3469621.3312   2   7   0.0240   0.0199   0.0147   0.0105  -0.0068  -0.0061   0.00    2.9
2173 197655.000    232978.5128  -5339308.5148   3469621.3310   2   7   0.0239   0.0199   0.0146   0.0105  -0.0068  -0.0061   0.00    2.9
2173 197656.000    232978.5127  -5339308.5149   3469621.3315   2   7   0.0239   0.0198   0.0147   0.0105  -0.0067  -0.0059   0.00    2.9
2173 197657.000    232978.5128  -5339308.5141   3469621.3316   2   7   0.0239   0.0198   0.0147   0.0105  -0.0068  -0.0059   0.00    2.9
2173 197658.000    232978.5125  -5339308.5142   3469621.3317   2   7   0.0239   0.0198   0.0145   0.0105  -0.0068  -0.0060   0.00    2.9
2173 197659.000    232978.5130  -5339308.5134   3469621.3315   2   7   0.0238   0.0197   0.0145   0.0105  -0.0068  -0.0059   0.00    2.9
2173 197660.000    232978.5131  -5339308.5136   3469621.3318   2   7   0.0238   0.0197   0.0147   0.0105  -0.0067  -0.0060   0.00    2.9
2173 197661.000    232978.5132  -5339308.5144   3469621.3324   2   7   0.0238   0.0196   0.0144   0.0104  -0.0066  -0.0060   0.00    2.9
2173 197662.000    232978.5136  -5339308.5141   3469621.3324   2   7   0.0237   0.0196   0.0143   0.0104  -0.0067  -0.0059   0.00    2.9
2173 197663.000    232978.5142  -5339308.5147   3469621.3325   2   7   0.0237   0.0196   0.0142   0.0104  -0.0067  -0.0059   0.00    2.9
2173 197664.000    232978.5144  -5339308.5159   3469621.3328   2   7   0.0237   0.0195   0.0143   0.0104  -0.0067  -0.0059   0.00    2.9
2173 197665.000    232978.5145  -5339308.5154   3469621.3325   2   7   0.0237   0.0195   0.0146   0.0104  -0.0067  -0.0059   0.00    2.9
2173 197666.000    232978.5144  -5339308.5158   3469621.3329   2   7   0.0236   0.0195   0.0142   0.0104  -0.0067  -0.0058   0.00    2.9
2173 197667.000    232978.5145  -5339308.5156   3469621.3328   2   7   0.0236   0.0194   0.0143   0.0104  -0.0067  -0.0056   0.00    2.9
2173 197668.000    232978.5144  -5339308.5158   3469621.3330   2   7   0.0236   0.0194   0.0142   0.0104  -0.0067  -0.0058   0.00    2.9
2173 197669.000    232978.5147  -5339308.5165   3469621.3331   2   7   0.0235   0.0194   0.0142   0.0104  -0.0067  -0.0057   0.00    2.9
2173 197670.000    232978.5149  -5339308.5159   3469621.3331   2   7   0.0235   0.0193   0.0141   0.0104  -0.0065  -0.0057   0.00    3.0
2173 197671.000    232978.5149  -5339308.5161   3469621.3331   2   7   0.0235   0.0193   0.0142   0.0103  -0.0066  -0.0057   0.00    3.0
2173 197672.000    232978.5150  -5339308.5161   3469621.3334   2   7   0.0234   0.0193   0.0142   0.0103  -0.0066  -0.0059   0.00    3.0
2173 197673.000    232978.5145  -5339308.5158   3469621.3334   2   7   0.0235   0.0192   0.0143   0.0103  -0.0064  -0.0059   0.00    3.0
