% program   : rnx2rtkp ver.2.4.3 b31
% inp file  : ngs/21_08_31_18_18_22_okdt.obs
% inp file  : ngs/21_08_31_18_18_22_okdt_SNOK.obs
% inp file  : ngs/21_08_31_18_18_22_brdc.nav
% obs start : 2021/08/31 18:00:00.0 GPST (week2173 237600.0s)
% obs end   : 2021/08/31 18:59:59.0 GPST (week2173 241199.0s)
% ref pos   :  -679303.2208  -5154477.6564   3682276.0515
%
% (x/y/z-ecef=WGS84,Q=1:fix,2:float,3:sbas,4:dgps,5:single,6:ppp,ns=# of satellites)
%  GPST              x-ecef(m)      y-ecef(m)      z-ecef(m)   Q  ns   sdx(m)   sdy(m)   sdz(m)  sdxy(m)  sdyz(m)  sdzx(m) age(s)  ratio
2173 238699.000   -679342.1469  -5154774.5650   3682489.3621   2   6   0.4447   1.5202   1.5937   0.4200  -1.4522  -0.4904 -30.00    1.8
2173 238700.000   -679342.1425  -5154774.5637   3682489.3603   2   6   0.3161   1.0803   1.1322   0.2984  -1.0318  -0.3484 -29.00    1.9
2173 238701.000   -679342.1400  -5154774.5516   3682489.3434   2   6   0.2587   0.8843   0.9266   0.2440  -0.8445  -0.2850 -28.00    1.9
2173 238702.000   -679342.1400  -5154774.5582   3682489.3524   2   6   0.2245   0.7671   0.8038   0.2115  -0.7325  -0.2471 -27.00    1.9
2173 238703.000   -679342.1387  -5154774.5538   3682489.3470   2   6   0.2010   0.6870   0.7198   0.1892  -0.6560  -0.2211 -26.00    2.0
2173 238704.000   -679342.1356  -5154774.5433   3682489.3365   2   6   0.1837   0.6278   0.6576   0.1727  -0.5993  -0.2019 -25.00    2.0
2173 238705.000   -679342.1356  -5154774.5480   3682489.3417   2   6   0.1702   0.5816   0.6091   0.1598  -0.5552  -0.1869 -24.00    1.9
2173 238706.000   -679342.1346  -5154774.5506   3682489.3472   2   6   0.1593   0.5443   0.5700   0.1494  -0.5195  -0.1748 -23.00    1.9
2173 238707.000   -679342.1336  -5154774.5471   3682489.3462   2   6   0.1502   0.5133   0.5374   0.1408  -0.4899  -0.1648 -22.00    1.8
2173 238708.000   -679342.1342  -5154774.5569   3682489.3571   2   6   0.1426   0.4870   0.5098   0.1334  -0.4647  -0.1562 -21.00    1.7
2173 238709.000   -679342.1324  -5154774.5564   3682489.3556   2   6   0.1359   0.4643   0.4859   0.1271  -0.4430  -0.1489 -20.00    1.6
2173 238710.000   -679342.1314  -5154774.5568   3682489.3597   2   6   0.1301   0.4445   0.4651   0.1216  -0.4240  -0.1424 -19.00    1.6
2173 238711.000   -679342.1303  -5154774.5556   3682489.3601   2   6   0.1250   0.4269   0.4465   0.1167  -0.4071  -0.1367 -18.00    1.5
2173 238712.000   -679342.1314  -5154774.5655   3682489.3697   2   6   0.1204   0.4112   0.4300   0.1123  -0.3921  -0.1316 -17.00    1.4
2173 238713.000   -679342.1285  -5154774.5589   3682489.3675   2   6   0.1163   0.3970   0.4151   0.1083  -0.3785  -0.1269 -16.00    1.4
2173 238714.000   -679342.1297  -5154774.5579   3682489.3698   2   6   0.1125   0.3842   0.4015   0.1048  -0.3662  -0.1227 -15.00    1.3
2173 238715.000   -679342.1299  -5154774.5629   3682489.3770   2   6   0.1091   0.3724   0.3891   0.1015  -0.3549  -0.1189 -14.00    1.2
2173 238716.000   -679342.1305  -5154774.5630   3682489.3760   2   6   0.1060   0.3616   0.3777   0.0985  -0.3446  -0.1154 -13.00    1.1
2173 238717.000   -679342.1320  -5154774.5694   3682489.3826   2   6   0.1031   0.3517   0.3672   0.0957  -0.3350  -0.1121 -12.00    1.0
2173 238718.000   -679342.1330  -5154774.5708   3682489.3847   2   6   0.1004   0.3425   0.3574   0.0931  -0.3261  -0.1091 -11.00    1.1
2173 238719.000   -679342.1333  -5154774.5726   3682489.3856   2   6   0.0979   0.3339   0.3483   0.0907  -0.3179  -0.1063 -10.00    1.3
2173 238720.000   -679342.1370  -5154774.5835   3682489.4008   2   6   0.0956   0.3259   0.3398   0.0885  -0.3102  -0.1036  -9.00    1.5
2173 238721.000   -679342.1389  -5154774.5880   3682489.4086   2   6   0.0934   0.3184   0.3318   0.0864  -0.3029  -0.1012  -8.00    1.8
2173 238722.000   -679342.1388  -5154774.5906   3682489.4125   2   6   0.0914   0.3114   0.3243   0.0844  -0.2962  -0.0988  -7.00    2.0
2173 238723.000   -679342.1386  -5154774.5842   3682489.4043   2   6   0.0895   0.3047   0.3172   0.0825  -0.2898  -0.0966  -6.00    2.2
2173 238724.000   -679342.1393  -5154774.5850   3682489.4072   2   6   0.0877   0.2985   0.3105   0.0807  -0.2837  -0.0946  -5.00    2.4
2173 238725.000   -679342.1399  -5154774.5837   3682489.4023   2   6   0.0860   0.2926   0.3042   0.0790  -0.2780  -0.0926  -4.00    2.7
2173 238726.000   -679342.3734  -5154774.7244   3682489.7006   1   6   0.0051   0.0180   0.0189   0.0045  -0.0172  -0.0056  -3.00    3.2
2173 238727.000   -679342.3739  -5154774.7218   3682489.6966   1   6   0.0048   0.0165   0.0173   0.0042  -0.0158  -0.0052  -2.00    3.8
2173 238728.000   -679342.3721  -5154774.7134   3682489.6878   1   6   0.0046   0.0156   0.0162   0.0042  -0.0149  -0.0050  -1.00    4.5
2173 238729.000   -679342.3712  -5154774.7105   3682489.6854   1   6   0.0044   0.0152   0.0159   0.0042  -0.0145  -0.0048   0.00    5.5
2173 238730.000   -679342.3723  -5154774.7112   3682489.6898   1   6   0.0046   0.0152   0.0159   0.0040  -0.0145  -0.0049   0.00    6.6
2173 238731.000   -679342.3712  -5154774.7116   3682489.6894   1   6   0.0041   0.0153   0.0158   0.0043  -0.0145  -0.0048   0.00    7.7
2173 238732.000   -679342.3724  -5154774.7141   3682489.6915   1   6   0.0045   0.0153   0.0159   0.0041  -0.0145  -0.0048   0.00    8.9
2173 238733.000   -679342.3713  -5154774.7130   3682489.6930   1   6   0.0048   0.0152   0.0158   0.0041  -0.0145  -0.0048   0.00   10.0
2173 238734.000   -679342.3696  -5154774.7115   3682489.6889   1   6   0.0045   0.0152   0.0158   0.0042  -0.0145  -0.0048   0.00   11.2
2173 238735.000   -679342.3699  -5154774.7127   3682489.6900   1   6   0.0043   0.0152   0.0158   0.0041  -0.0145  -0.0047   0.00   12.2
2173 238736.000   -679342.3714  -5154774.7175   3682489.6933   1   6   0.0043   0.0152   0.0158   0.0042  -0.0145  -0.0048   0.00   12.8
2173 238737.000   -679342.3702  -5154774.7101   3682489.6853   1   6   0.0044   0.0152   0.0158   0.0041  -0.0145  -0.0048   0.00   13.4
2173 238738.000   -679342.3700  -5154774.7168   3682489.6910   1   6   0.0047   0.0153   0.0158   0.0039  -0.0145  -0.0049   0.00   14.2
2173 238739.000   -679342.3719  -5154774.7178   3682489.6942   1   6   0.0044   0.0152   0.0158   0.0042  -0.0144  -0.0047   0.00   14.9
2173 238740.000   -679342.3721  -5154774.7173   3682489.6927   1   6   0.0042   0.0152   0.0158   0.0043  -0.0145  -0.0047   0.00   15.4
2173 238741.000   -679342.3714  -5154774.7195   3682489.6947   1   6   0.0043   0.0152   0.0158   0.0041  -0.0144  -0.0048   0.00   16.0
2173 238742.000   -679342.3728  -5154774.7174   3682489.6925   1   6   0.0046   0.0152   0.0158   0.0041  -0.0145  -0.0048   0.00   16.7
2173 238743.000   -679342.3718  -5154774.7231   3682489.6948   1   6   0.0039   0.0152   0.0158   0.0040  -0.0144  -0.0048   0.00   17.3
2173 238744.000   -679342.3723  -5154774.7220   3682489.6984   1   6   0.0044   0.0153   0.0158   0.0040  -0.0144  -0.0049   0.00   17.9
2173 238745.000   -679342.3708  -5154774.7162   3682489.6931   1   6   0.0047   0.0151   0.0158   0.0041  -0.0145  -0.0048   0.00   18.7
2173 238746.000   -679342.3738  -5154774.7165   3682489.6926   1   6   0.0041   0.0151   0.0158   0.0044  -0.0144  -0.0048   0.00   19.2
2173 238747.000   -679342.3717  -5154774.7178   3682489.6930   1   6   0.0048   0.0152   0.0158   0.0039  -0.0144  -0.0048   0.00   19.9
2173 238748.000   -679342.3708  -5154774.7167   3682489.6932   1   6   0.0040   0.0152   0.0158   0.0041  -0.0144  -0.0048   0.00   20.2
2173 238749.000   -679342.3725  -5154774.7193   3682489.6962   1   6   0.0042   0.0152   0.0157   0.0041  -0.0144  -0.0048   0.00   20.5
2173 238750.000   -679342.3706  -5154774.7160   3682489.6926   1   6   0.0044   0.0152   0.0158   0.0040  -0.0144  -0.0049   0.00   20.8
2173 238751.000   -679342.3689  -5154774.7152   3682489.6891   1   6   0.0040   0.0151   0.0157   0.0039  -0.0144  -0.0048   0.00   21.3
2173 238752.000   -679342.3704  -5154774.7156   3682489.6927   1   6   0.0046   0.0152   0.0158   0.0040  -0.0144  -0.0048   0.00   21.9
2173 238753.000   -679342.3707  -5154774.7184   3682489.6946   1   6   0.0045   0.0151   0.0157   0.0042  -0.0144  -0.0049   0.00   22.2
2173 238754.000   -679342.3701  -5154774.7164   3682489.6956   1   6   0.0043   0.0152   0.0157   0.0043  -0.0144  -0.0046   0.00   22.5
2173 238755.000   -679342.3717  -5154774.7126   3682489.6921   1   6   0.0043   0.0151   0.0157   0.0041  -0.0144  -0.0047   0.00   22.7
2173 238756.000   -679342.3701  -5154774.7140   3682489.6962   1   6   0.0047   0.0152   0.0157   0.0039  -0.0144  -0.0048   0.00   23.0
2173 238757.000   -679342.3702  -5154774.7160   3682489.6956   1   6   0.0042   0.0152   0.0157   0.0042  -0.0143  -0.0046   0.00   23.3
2173 238758.000   -679342.3706  -5154774.7106   3682489.6934   1   6   0.0047   0.0152   0.0157   0.0040  -0.0144  -0.0049   0.00   23.6
2173 238759.000   -679342.3714  -5154774.7187   3682489.6976   1   6   0.0048   0.0152   0.0157   0.0041  -0.0144  -0.0046   0.00   23.8
2173 238760.000   -679342.3724  -5154774.7143   3682489.6947   1   6   0.0045   0.0152   0.0157   0.0042  -0.0143  -0.0048   0.00   23.8
2173 238761.000   -679342.3710  -5154774.7145   3682489.6953   1   6   0.0044   0.0152   0.0157   0.0040  -0.0143  -0.0047   0.00   24.0
2173 238762.000   -679342.3720  -5154774.7182   3682489.6995   1   6   0.0047   0.0152   0.0156   0.0037  -0.0144  -0.0048   0.00   24.1
2173 238763.000   -679342.3725  -5154774.7175   3682489.6972   1   6   0.0043   0.0151   0.0157   0.0040  -0.0144  -0.0048   0.00   24.1
2173 238764.000   -679342.1591  -5154774.5747   3682489.4293   2   7   0.0540   0.1752   0.1710   0.0429  -0.1596  -0.0505   0.00    2.1
2173 238765.000   -679342.3717  -5154774.7090   3682489.6920   1   7   0.0045   0.0111   0.0113   0.0041  -0.0097  -0.0048   0.00    3.2
2173 238766.000   -679342.3710  -5154774.7138   3682489.6936   1   7   0.0048   0.0111   0.0112   0.0039  -0.0097  -0.0046   0.00    4.2
2173 238767.000   -679342.3729  -5154774.7159   3682489.6971   1   7   0.0045   0.0111   0.0112   0.0041  -0.0096  -0.0047   0.00    5.1
2173 238768.000   -679342.3716  -5154774.7150   3682489.6955   1   7   0.0047   0.0111   0.0112   0.0037  -0.0096  -0.0045   0.00    6.0
2173 238769.000   -679342.3708  -5154774.7109   3682489.6953   1   7   0.0043   0.0111   0.0113   0.0041  -0.0096  -0.0047   0.00    6.9
2173 238770.000   -679342.3721  -5154774.7163   3682489.6989   1   7   0.0038   0.0110   0.0112   0.0041  -0.0097  -0.0048   0.00    7.7
2173 238771.000   -679342.3735  -5154774.7141   3682489.6995   1   7   0.0044   0.0111   0.0112   0.0039  -0.0096  -0.0048   0.00    8.5
2173 238772.000   -679342.3717  -5154774.7137   3682489.6964   1   7   0.0047   0.0111   0.0112   0.0037  -0.0096  -0.0047   0.00    9.2
2173 238773.000   -679342.3739  -5154774.7128   3682489.6988   1   7   0.0042   0.0111   0.0112   0.0036  -0.0096  -0.0046   0.00    9.9
2173 238774.000   -679342.3750  -5154774.7180   3682489.7026   1   7   0.0048   0.0111   0.0112   0.0037  -0.0097  -0.0046   0.00   10.5
2173 238775.000   -679342.3734  -5154774.7162   3682489.6997   1   7   0.0043   0.0110   0.0113   0.0048  -0.0096  -0.0050   0.00   11.1
2173 238776.000   -679342.3733  -5154774.7148   3682489.7019   1   7   0.0050   0.0111   0.0112   0.0034  -0.0096  -0.0045   0.00   11.6
2173 238777.000   -679342.3720  -5154774.7120   3682489.6994   1   7   0.0044   0.0111   0.0112   0.0038  -0.0096  -0.0047   0.00   12.1
2173 238778.000   -679342.3751  -5154774.7126   3682489.7010   1   7   0.0047   0.0109   0.0112   0.0043  -0.0096  -0.0048   0.00   12.7
2173 238779.000   -679342.3747  -5154774.7156   3682489.7024   1   7   0.0045   0.0110   0.0112   0.0039  -0.0096  -0.0047   0.00   13.1
2173 238780.000   -679342.3753  -5154774.7155   3682489.6994   1   7   0.0041   0.0111   0.0112   0.0037  -0.0097  -0.0048   0.00   13.6
2173 238781.000   -679342.3755  -5154774.7154   3682489.6996   1   7   0.0048   0.0111   0.0112   0.0034  -0.0096  -0.0045   0.00   13.9
2173 238782.000   -679342.3743  -5154774.7169   3682489.7016   1   7   0.0047   0.0111   0.0112   0.0035  -0.0097  -0.0045   0.00   14.2
2173 238783.000   -679342.3760  -5154774.7159   3682489.6995   1   7   0.0044   0.0111   0.0112   0.0041  -0.0095  -0.0048   0.00   14.5
2173 238784.000   -679342.3752  -5154774.7141   3682489.7033   1   7   0.0047   0.0110   0.0113   0.0040  -0.0097  -0.0047   0.00   14.9
2173 238785.000   -679342.3769  -5154774.7154   3682489.7024   1   7   0.0046   0.0111   0.0112   0.0042  -0.0096  -0.0047   0.00   15.2
2173 238786.000   -679342.3743  -5154774.7146   3682489.7005   1   7   0.0044   0.0111   0.0112   0.0040  -0.0096  -0.0048   0.00   15.4
2173 238787.000   -679342.3763  -5154774.7134   3682489.7017   1   7   0.0041   0.0110   0.0112   0.0037  -0.0097  -0.0048   0.00   15.6
2173 238788.000   -679342.3760  -5154774.7175   3682489.7055   1   7   0.0043   0.0111   0.0112   0.0043  -0.0096  -0.0048   0.00   16.0
2173 238789.000   -679342.3758  -5154774.7193   3682489.7025   1   7   0.0042   0.0110   0.0111   0.0038  -0.0097  -0.0048   0.00   16.3
2173 238790.000   -679342.3765  -5154774.7191   3682489.7006   1   7   0.0048   0.0112   0.0111   0.0036  -0.0096  -0.0046   0.00   16.5
2173 238791.000   -679342.3753  -5154774.7179   3682489.7030   1   7   0.0041   0.0110   0.0112   0.0043  -0.0096  -0.0049   0.00   16.8
2173 238792.000   -679342.3756  -5154774.7148   3682489.7001   1   7   0.0046   0.0112   0.0112   0.0038  -0.0095  -0.0047   0.00   17.0
2173 238793.000   -679342.3760  -5154774.7184   3682489.7047   1   7   0.0045   0.0111   0.0111   0.0041  -0.0095  -0.0046   0.00   17.3
2173 238794.000   -679342.3771  -5154774.7159   3682489.7045   1   7   0.0045   0.0111   0.0112   0.0040  -0.0096  -0.0045   0.00   17.5
2173 238795.000   -679342.3772  -5154774.7173   3682489.7052   1   7   0.0046   0.0111   0.0111   0.0035  -0.0096  -0.0046   0.00   17.7
2173 238796.000   -679342.3772  -5154774.7180   3682489.7034   1   7   0.0042   0.0110   0.0111   0.0042  -0.0096  -0.0048   0.00   17.8
2173 238797.000   -679342.3773  -5154774.7186   3682489.7039   1   7   0.0048   0.0112   0.0112   0.0041  -0.0095  -0.0044   0.00   17.9
2173 238798.000   -679342.3773  -5154774.7238   3682489.7118   1   7   0.0049   0.0111   0.0112   0.0036  -0.0096  -0.0046   0.00   18.1
2173 238799.000   -679342.3778  -5154774.7191   3682489.7096   1   7   0.0041   0.0110   0.0111   0.0038  -0.0096  -0.0048   0.00   18.2
2173 238800.000   -679342.3787  -5154774.7252   3682489.7131   1   7   0.0045   0.0110   0.0111   0.0038  -0.0096  -0.0047   0.00   18.4
2173 238801.000   -679342.3785  -5154774.7225   3682489.7132   1   7   0.0045   0.0110   0.0111   0.0041  -0.0095  -0.0047   0.00   18.6
2173 238802.000   -679342.3792  -5154774.7208   3682489.7112   1   7   0.0041   0.0110   0.0111   0.0041  -0.0096  -0.0045   0.00   18.7
2173 238803.000   -679342.3772  -5154774.7204   3682489.7091   1   7   0.0045   0.0110   0.0111   0.0041  -0.0096  -0.0047   0.00   18.6
2173 238804.000   -679342.3782  -5154774.7208   3682489.7102   1   7   0.0045   0.0110   0.0112   0.0041  -0.0095  -0.0047   0.00   18.5
2173 238805.000   -679342.3770  -5154774.7174   3682489.7092   1   7   0.0047   0.0111   0.0111   0.0037  -0.0096  -0.0048   0.00   18.5
2173 238806.000   -679342.3763  -5154774.7178   3682489.7098   1   7   0.0045   0.0110   0.0111   0.0038  -0.0096  -0.0049   0.00   18.4
2173 238807.000   -679342.3769  -5154774.7199   3682489.7117   1   7   0.0048   0.0111   0.0111   0.0036  -0.0095  -0.0047   0.00   18.4
2173 238808.000   -679342.3763  -5154774.7167   3682489.7077   1   7   0.0046   0.0111   0.0112   0.0038  -0.0096  -0.0045   0.00   18.3
2173 238809.000   -679342.3767  -5154774.7197   3682489.7099   1   7   0.0047   0.0110   0.0111   0.0041  -0.0095  -0.0046   0.00   18.2
2173 238810.000   -679342.3771  -5154774.7177   3682489.7063   1   7   0.0043   0.0110   0.0111   0.0042  -0.0096  -0.0047   0.00   18.2
2173 238811.000   -679342.3758  -5154774.7152   3682489.7071   1   7   0.0043   0.0111   0.0111   0.0038  -0.0096  -0.0046   0.00   18.2
2173 238812.000   -679342.3762  -5154774.7180   3682489.7078   1   7   0.0038   0.0111   0.0111   0.0044  -0.0094  -0.0048   0.00   18.2
2173 238813.000   -679342.3768  -5154774.7193   3682489.7097   1   7   0.0043   0.0110   0.0111   0.0037  -0.0096  -0.0045   0.00   18.1
2173 238814.000   -679342.3774  -5154774.7191   3682489.7106   1   7   0.0041   0.0111   0.0111   0.0039  -0.0096  -0.0045   0.00   18.1
2173 238815.000   -679342.3772  -5154774.7216   3682489.7108   1   7   0.0046   0.0110   0.0111   0.0040  -0.0095  -0.0046   0.00   18.0
2173 238816.000   -679342.3775  -5154774.7203   3682489.7099   1   7   0.0044   0.0110   0.0111   0.0041  -0.0095  -0.0047   0.00   17.9
2173 238817.000   -679342.3751  -5154774.7206   3682489.7079   1   7   0.0044   0.0110   0.0111   0.0041  -0.0095  -0.0045   0.00   17.8
2173 238818.000   -679342.3785  -5154774.7234   3682489.7132   1   7   0.0044   0.0110   0.0111   0.0044  -0.0096  -0.0047   0.00   17.6
2173 238819.000   -679342.3772  -5154774.7204   3682489.7116   1   7   0.0050   0.0111   0.0111   0.0040  -0.0095  -0.0045   0.00   17.5
2173 238820.000   -679342.3767  -5154774.7205   3682489.7088   1   7   0.0046   0.0111   0.0111   0.0038  -0.0095  -0.0047   0.00   17.4
2173 238821.000   -679342.3782  -5154774.7277   3682489.7149   1   7   0.0049   0.0110   0.0111   0.0034  -0.0096  -0.0047   0.00   17.2
2173 238822.000   -679342.3757  -5154774.7209   3682489.7095   1   7   0.0040   0.0110   0.0111   0.0042  -0.0095  -0.0047   0.00   17.1
2173 238823.000   -679342.3765  -5154774.7200   3682489.7099   1   7   0.0045   0.0111   0.0111   0.0043  -0.0095  -0.0046   0.00   16.9
2173 238824.000   -679342.3761  -5154774.7209   3682489.7099   1   7   0.0047   0.0111   0.0111   0.0040  -0.0094  -0.0044   0.00   16.8
2173 238825.000   -679342.3757  -5154774.7230   3682489.7122   1   7   0.0050   0.0111   0.0111   0.0037  -0.0095  -0.0045   0.00   16.7
2173 238826.000   -679342.3770  -5154774.7229   3682489.7142   1   7   0.0046   0.0110   0.0111   0.0039  -0.0095  -0.0048   0.00   16.6
2173 238827.000   -679342.3756  -5154774.7207   3682489.7083   1   7   0.0045   0.0109   0.0111   0.0041  -0.0096  -0.0046   0.00   16.5
2173 238828.000   -679342.3767  -5154774.7206   3682489.7097   1   7   0.0041   0.0109   0.0111   0.0043  -0.0096  -0.0047   0.00   16.4
2173 238829.000   -679342.3749  -5154774.7214   3682489.7115   1   7   0.0047   0.0110   0.0110   0.0038  -0.0095  -0.0045   0.00   16.3
2173 238830.000   -679342.3769  -5154774.7196   3682489.7082   1   7   0.0043   0.0111   0.0110   0.0041  -0.0095  -0.0044   0.00   16.2
2173 238831.000   -679342.3767  -5154774.7185   3682489.7108   1   7   0.0047   0.0110   0.0111   0.0040  -0.0095  -0.0045   0.00   16.1
2173 238832.000   -679342.3756  -5154774.7211   3682489.7103   1   7   0.0044   0.0110   0.0110   0.0040  -0.0094  -0.0046   0.00   15.9
2173 238833.000   -679342.3745  -5154774.7200   3682489.7101   1   7   0.0046   0.0110   0.0110   0.0035  -0.0095  -0.0046   0.00   15.9
2173 238834.000   -679342.3739  -5154774.7200   3682489.7114   1   7   0.0042   0.0110   0.0110   0.0040  -0.0095  -0.0046   0.00   15.7
2173 238835.000   -679342.3760  -5154774.7208   3682489.7089   1   7   0.0042   0.0111   0.0110   0.0042  -0.0094  -0.0047   0.00   15.6
2173 238836.000   -679342.3761  -5154774.7210   3682489.7099   1   7   0.0044   0.0110   0.0110   0.0042  -0.0095  -0.0046   0.00   15.5
2173 238837.000   -679342.3766  -5154774.7222   3682489.7101   1   7   0.0046   0.0110   0.0111   0.0038  -0.0095  -0.0046   0.00   15.3
2173 238838.000   -679342.3773  -5154774.7213   3682489.7117   1   7   0.0047   0.0111   0.0110   0.0036  -0.0095  -0.0043   0.00   15.2
2173 238839.000   -679342.3775  -5154774.7256   3682489.7109   1   7   0.0042   0.0110   0.0111   0.0041  -0.0094  -0.0045   0.00   15.0
2173 238840.000   -679342.3786  -5154774.7209   3682489.7109   1   7   0.0042   0.0109   0.0110   0.0044  -0.0095  -0.0047   0.00   14.8
2173 238841.000   -679342.3789  -5154774.7231   3682489.7095   1   7   0.0045   0.0110   0.0110   0.0035  -0.0095  -0.0046   0.00   14.7
2173 238842.000   -679342.3779  -5154774.7240   3682489.7114   1   7   0.0044   0.0110   0.0110   0.0040  -0.0095  -0.0047   0.00   14.6
2173 238843.000   -679342.3778  -5154774.7228   3682489.7086   1   7   0.0044   0.0109   0.0110   0.0037  -0.0096  -0.0045   0.00   14.4
2173 238844.000   -679342.3782  -5154774.7245   3682489.7124   1   7   0.0036   0.0109   0.0110   0.0042  -0.0094  -0.0049   0.00   14.3
2173 238845.000   -679342.3782  -5154774.7215   3682489.7076   1   7   0.0041   0.0109   0.0110   0.0042  -0.0095  -0.0046   0.00   14.2
2173 238846.000   -679342.3773  -5154774.7190   3682489.7092   1   7   0.0045   0.0110   0.0109   0.0037  -0.0094  -0.0045   0.00   14.0
2173 238847.000   -679342.3809  -5154774.7214   3682489.7128   1   7   0.0042   0.0109   0.0110   0.0039  -0.0095  -0.0048   0.00   13.9
2173 238848.000   -679342.3800  -5154774.7232   3682489.7156   1   7   0.0042   0.0111   0.0110   0.0042  -0.0093  -0.0045   0.00   13.7
2173 238849.000   -679342.3809  -5154774.7257   3682489.7159   1   7   0.0037   0.0108   0.0110   0.0042  -0.0095  -0.0048   0.00   13.6
2173 238850.000   -679342.3815  -5154774.7237   3682489.7150   1   7   0.0045   0.0110   0.0110   0.0039  -0.0095  -0.0044   0.00   13.5
2173 238851.000   -679342.3800  -5154774.7239   3682489.7162   1   7   0.0048   0.0111   0.0109   0.0038  -0.0094  -0.0044   0.00   13.3
2173 238852.000   -679342.3794  -5154774.7272   3682489.7181   1   7   0.0034   0.0110   0.0110   0.0042  -0.0094  -0.0048   0.00   13.2
2173 238853.000   -679342.3794  -5154774.7216   3682489.7122   1   7   0.0046   0.0110   0.0110   0.0045  -0.0093  -0.0046   0.00   13.1
2173 238854.000   -679342.3777  -5154774.7219   3682489.7137   1   7   0.0043   0.0110   0.0109   0.0036  -0.0094  -0.0045   0.00   12.9
2173 238855.000   -679342.3771  -5154774.7178   3682489.7068   1   7   0.0045   0.0110   0.0110   0.0038  -0.0094  -0.0045   0.00   12.8
2173 238856.000   -679342.3811  -5154774.7241   3682489.7156   1   7   0.0044   0.0110   0.0110   0.0041  -0.0094  -0.0046   0.00   12.7
2173 238857.000   -679342.3791  -5154774.7244   3682489.7128   1   7   0.0040   0.0110   0.0110   0.0040  -0.0094  -0.0048   0.00   12.6
2173 238858.000   -679342.3809  -5154774.7277   3682489.7153   1   7   0.0045   0.0109   0.0110   0.0040  -0.0094  -0.0046   0.00   12.6
2173 238859.000   -679342.3807  -5154774.7269   3682489.7153   1   7   0.0046   0.0110   0.0109   0.0037  -0.0094  -0.0047   0.00   12.5
2173 238860.000   -679342.3780  -5154774.7208   3682489.7116   1   7   0.0045   0.0111   0.0109   0.0038  -0.0093  -0.0047   0.00   12.4
2173 238861.000   -679342.3789  -5154774.7206   3682489.7094   1   7   0.0041   0.0110   0.0109   0.0041  -0.0094  -0.0047   0.00   12.3
2173 238862.000   -679342.3777  -5154774.7200   3682489.7106   1   7   0.0044   0.0109   0.0110   0.0039  -0.0095  -0.0046   0.00   12.2
2173 238863.000   -679342.3799  -5154774.7198   3682489.7084   1   7   0.0044   0.0110   0.0110   0.0040  -0.0095  -0.0045   0.00   12.1
2173 238864.000   -679342.3794  -5154774.7191   3682489.7069   1   7   0.0042   0.0110   0.0109   0.0037  -0.0094  -0.0044   0.00   12.0
2173 238865.000   -679342.3805  -5154774.7198   3682489.7069   1   7   0.0044   0.0109   0.0110   0.0038  -0.0094  -0.0045   0.00   11.9
2173 238866.000   -679342.3817  -5154774.7211   3682489.7107   1   7   0.0043   0.0110   0.0109   0.0037  -0.0094  -0.0048   0.00   11.8
2173 238867.000   -679342.3799  -5154774.7192   3682489.7065   1   7   0.0047   0.0110   0.0109   0.0037  -0.0094  -0.0046   0.00   11.7
2173 238868.000   -679342.3801  -5154774.7202   3682489.7079   1   7   0.0045   0.0111   0.0110   0.0039  -0.0093  -0.0046   0.00   11.6
2173 238869.000   -679342.3814  -5154774.7182   3682489.7077   1   7   0.0040   0.0109   0.0109   0.0040  -0.0094  -0.0046   0.00   11.5
2173 238870.000   -679342.3793  -5154774.7221   3682489.7099   1   7   0.0047   0.0111   0.0109   0.0034  -0.0094  -0.0041   0.00   11.4
2173 238871.000   -679342.3824  -5154774.7222   3682489.7154   1   7   0.0042   0.0110   0.0109   0.0039  -0.0093  -0.0047   0.00   11.3
2173 238872.000   -679342.3820  -5154774.7192   3682489.7059   1   7   0.0042   0.0110   0.0110   0.0039  -0.0094  -0.0044   0.00   11.2
2173 238873.000   -679342.3834  -5154774.7203   3682489.7100   1   7   0.0046   0.0109   0.0109   0.0041  -0.0094  -0.0045   0.00   11.1
2173 238874.000   -679342.3828  -5154774.7173   3682489.7069   1   7   0.0046   0.0110   0.0109   0.0037  -0.0094  -0.0045   0.00   11.1
2173 238875.000   -679342.3834  -5154774.7209   3682489.7127   1   7   0.0044   0.0110   0.0110   0.0040  -0.0094  -0.0046   0.00   11.0
2173 238876.000   -679342.3833  -5154774.7204   3682489.7123   1   7   0.0045   0.0110   0.0109   0.0041  -0.0093  -0.0047   0.00   10.9
2173 238877.000   -679342.3838  -5154774.7214   3682489.7123   1   7   0.0044   0.0109   0.0109   0.0043  -0.0094  -0.0046   0.00   10.8
2173 238878.000   -679342.3838  -5154774.7227   3682489.7143   1   7   0.0041   0.0109   0.0109   0.0041  -0.0094  -0.0048   0.00   10.8
2173 238879.000   -679342.3827  -5154774.7256   3682489.7158   1   7   0.0043   0.0110   0.0110   0.0041  -0.0094  -0.0042   0.00   10.7
2173 238880.000   -679342.3825  -5154774.7240   3682489.7142   1   7   0.0043   0.0110   0.0109   0.0038  -0.0094  -0.0047   0.00   10.6
2173 238881.000   -679342.3837  -5154774.7225   3682489.7152   1   7   0.0043   0.0110   0.0109   0.0038  -0.0094  -0.0047   0.00   10.5
2173 238882.000   -679342.3848  -5154774.7268   3682489.7204   1   7   0.0043   0.0110   0.0109   0.0039  -0.0094  -0.0046   0.00   10.4
2173 238883.000   -679342.3825  -5154774.7199   3682489.7124   1   7   0.0045   0.0110   0.0109   0.0035  -0.0093  -0.0046   0.00   10.4
2173 238884.000   -679342.3856  -5154774.7221   3682489.7178   1   7   0.0046   0.0110   0.0109   0.0037  -0.0094  -0.0043   0.00   10.3
2173 238885.000   -679342.3838  -5154774.7227   3682489.7150   1   7   0.0043   0.0110   0.0109   0.0040  -0.0093  -0.0045   0.00   10.2
2173 238886.000   -679342.3851  -5154774.7292   3682489.7191   1   7   0.0045   0.0110   0.0109   0.0036  -0.0094  -0.0046   0.00   10.2
2173 238887.000   -679342.3854  -5154774.7286   3682489.7198   1   7   0.0039   0.0109   0.0109   0.0043  -0.0093  -0.0048   0.00   10.1
2173 238888.000   -679342.3838  -5154774.7274   3682489.7154   1   7   0.0049   0.0111   0.0109   0.0033  -0.0094  -0.0041   0.00   10.0
2173 238889.000   -679342.3854  -5154774.7266   3682489.7166   1   7   0.0044   0.0110   0.0108   0.0039  -0.0093  -0.0046   0.00    9.9
2173 238890.000   -679342.3826  -5154774.7274   3682489.7178   1   7   0.0040   0.0108   0.0109   0.0036  -0.0094  -0.0047   0.00    9.8
2173 238891.000   -679342.3849  -5154774.7275   3682489.7201   1   7   0.0043   0.0110   0.0109   0.0034  -0.0093  -0.0042   0.00    9.8
2173 238892.000   -679342.3856  -5154774.7264   3682489.7229   1   7   0.0047   0.0110   0.0109   0.0032  -0.0095  -0.0044   0.00    9.7
2173 238893.000   -679342.3867  -5154774.7277   3682489.7221   1   7   0.0045   0.0110   0.0108   0.0038  -0.0094  -0.0044   0.00    9.6
2173 238894.000   -679342.3852  -5154774.7270   3682489.7202   1   7   0.0048   0.0111   0.0109   0.0034  -0.0093  -0.0044   0.00    9.5
2173 238895.000   -679342.3853  -5154774.7279   3682489.7218   1   7   0.0045   0.0109   0.0108   0.0040  -0.0094  -0.0045   0.00    9.5
2173 238896.000   -679342.3836  -5154774.7260   3682489.7179   1   7   0.0042   0.0109   0.0108   0.0041  -0.0094  -0.0045   0.00    9.4
2173 238897.000   -679342.3861  -5154774.7249   3682489.7190   1   7   0.0044   0.0110   0.0108   0.0036  -0.0094  -0.0044   0.00    9.3
2173 238898.000   -679342.3842  -5154774.7243   3682489.7167   1   7   0.0041   0.0110   0.0108   0.0037  -0.0093  -0.0047   0.00    9.3
2173 238899.000   -679342.3862  -5154774.7288   3682489.7212   1   7   0.0043   0.0110   0.0108   0.0040  -0.0093  -0.0045   0.00    9.2
2173 238900.000   -679342.3853  -5154774.7252   3682489.7188   1   7   0.0045   0.0109   0.0108   0.0036  -0.0093  -0.0046   0.00    9.1
2173 238901.000   -679342.3864  -5154774.7263   3682489.7231   1   7   0.0044   0.0109   0.0109   0.0039  -0.0094  -0.0047   0.00    9.0
2173 238902.000   -679342.3867  -5154774.7282   3682489.7220   1   7   0.0046   0.0111   0.0108   0.0040  -0.0092  -0.0043   0.00    9.0
2173 238903.000   -679342.3865  -5154774.7286   3682489.7238   1   7   0.0041   0.0109   0.0108   0.0042  -0.0093  -0.0048   0.00    8.9
2173 238904.000   -679342.3867  -5154774.7253   3682489.7183   1   7   0.0043   0.0109   0.0108   0.0041  -0.0093  -0.0047   0.00    8.9
2173 238905.000   -679342.3858  -5154774.7261   3682489.7174   1   7   0.0042   0.0109   0.0109   0.0037  -0.0093  -0.0047   0.00    8.8
2173 238906.000   -679342.3842  -5154774.7233   3682489.7158   1   7   0.0046   0.0110   0.0109   0.0039  -0.0093  -0.0044   0.00    8.8
2173 238907.000   -679342.3851  -5154774.7229   3682489.7167   1   7   0.0042   0.0109   0.0108   0.0039  -0.0093  -0.0045   0.00    8.7
2173 238908.000   -679342.3878  -5154774.7269   3682489.7237   1   7   0.0049   0.0110   0.0108   0.0036  -0.0093  -0.0046   0.00    8.7
2173 238909.000   -679342.3859  -5154774.7232   3682489.7158   1   7   0.0045   0.0110   0.0109   0.0039  -0.0094  -0.0046   0.00    8.6
2173 238910.000   -679342.3853  -5154774.7233   3682489.7184   1   7   0.0045   0.0110   0.0108   0.0035  -0.0093  -0.0045   0.00    8.6
2173 238911.000   -679342.3850  -5154774.7179   3682489.7145   1   7   0.0046   0.0109   0.0109   0.0041  -0.0094  -0.0046   0.00    8.5
2173 238912.000   -679342.3870  -5154774.7195   3682489.7170   1   7   0.0044   0.0110   0.0108   0.0039  -0.0093  -0.0045   0.00    8.5
2173 238913.000   -679342.3866  -5154774.7222   3682489.7223   1   7   0.0046   0.0110   0.0108   0.0033  -0.0093  -0.0046   0.00    8.5
2173 238914.000   -679342.3857  -5154774.7216   3682489.7168   1   7   0.0043   0.0109   0.0108   0.0039  -0.0093  -0.0046   0.00    8.4
2173 238915.000   -679342.3855  -5154774.7199   3682489.7146   1   7   0.0046   0.0110   0.0108   0.0039  -0.0093  -0.0044   0.00    8.4
2173 238916.000   -679342.3859  -5154774.7233   3682489.7213   1   7   0.0046   0.0110   0.0108   0.0039  -0.0093  -0.0041   0.00    8.3
2173 238917.000   -679342.3852  -5154774.7213   3682489.7176   1   7   0.0037   0.0109   0.0108   0.0040  -0.0093  -0.0047   0.00    8.3
2173 238918.000   -679342.3870  -5154774.7212   3682489.7186   1   7   0.0046   0.0109   0.0108   0.0036  -0.0093  -0.0043   0.00    8.2
2173 238919.000   -679342.3875  -5154774.7203   3682489.7185   1   7   0.0043   0.0110   0.0109   0.0039  -0.0093  -0.0047   0.00    8.2
2173 238920.000   -679342.3868  -5154774.7171   3682489.7181   1   7   0.0040   0.0109   0.0107   0.0041  -0.0092  -0.0047   0.00    8.2
2173 238921.000   -679342.3889  -5154774.7218   3682489.7205   1   7   0.0043   0.0110   0.0108   0.0037  -0.0093  -0.0044   0.00    8.2
2173 238922.000   -679342.3872  -5154774.7220   3682489.7197   1   7   0.0048   0.0110   0.0108   0.0038  -0.0094  -0.0043   0.00    8.1
2173 238923.000   -679342.3861  -5154774.7177   3682489.7158   1   7   0.0044   0.0110   0.0108   0.0034  -0.0093  -0.0042   0.00    8.1
2173 238924.000   -679342.3899  -5154774.7216   3682489.7240   1   7   0.0044   0.0109   0.0108   0.0035  -0.0093  -0.0046   0.00    8.1
2173 238925.000   -679342.3880  -5154774.7196   3682489.7174   1   7   0.0045   0.0109   0.0107   0.0037  -0.0092  -0.0044   0.00    8.0
2173 238926.000   -679342.3876  -5154774.7216   3682489.7223   1   7   0.0046   0.0109   0.0108   0.0039  -0.0093  -0.0046   0.00    8.0
2173 238927.000   -679342.3866  -5154774.7212   3682489.7191   1   7   0.0039   0.0109   0.0108   0.0041  -0.0092  -0.0046   0.00    8.0
2173 238928.000   -679342.3888  -5154774.7183   3682489.7206   1   7   0.0045   0.0108   0.0108   0.0038  -0.0094  -0.0045   0.00    7.9
2173 238929.000   -679342.3884  -5154774.7165   3682489.7188   1   7   0.0049   0.0109   0.0108   0.0037  -0.0093  -0.0046   0.00    7.9
2173 238930.000   -679342.3884  -5154774.7094   3682489.7111   1   7   0.0048   0.0110   0.0108   0.0038  -0.0093  -0.0043   0.00    7.9
2173 238931.000   -679342.3871  -5154774.7154   3682489.7166   1   7   0.0045   0.0109   0.0107   0.0036  -0.0093  -0.0043   0.00    7.8
2173 238932.000   -679342.3869  -5154774.7140   3682489.7147   1   7   0.0046   0.0109   0.0107   0.0036  -0.0093  -0.0046   0.00    7.8
2173 238933.000   -679342.3874  -5154774.7176   3682489.7164   1   7   0.0047   0.0110   0.0108   0.0033  -0.0093  -0.0045   0.00    7.8
2173 238934.000   -679342.3892  -5154774.7174   3682489.7190   1   7   0.0047   0.0110   0.0108   0.0038  -0.0092  -0.0045   0.00    7.7
2173 238935.000   -679342.3879  -5154774.7150   3682489.7166   1   7   0.0048   0.0110   0.0107   0.0035  -0.0092  -0.0045   0.00    7.7
2173 238936.000   -679342.3856  -5154774.7137   3682489.7127   1   7   0.0046   0.0109   0.0108   0.0037  -0.0093  -0.0045   0.00    7.7
2173 238937.000   -679342.3857  -5154774.7147   3682489.7162   1   7   0.0043   0.0110   0.0107   0.0034  -0.0092  -0.0042   0.00    7.7
2173 238938.000   -679342.3876  -5154774.7163   3682489.7207   1   7   0.0041   0.0108   0.0107   0.0038  -0.0093  -0.0047   0.00    7.6
2173 238939.000   -679342.3873  -5154774.7138   3682489.7140   1   7   0.0048   0.0110   0.0106   0.0037  -0.0091  -0.0042   0.00    7.6
2173 238940.000   -679342.3908  -5154774.7162   3682489.7217   1   7   0.0044   0.0109   0.0107   0.0035  -0.0093  -0.0043   0.00    7.6
2173 238941.000   -679342.3889  -5154774.7132   3682489.7152   1   7   0.0044   0.0109   0.0107   0.0035  -0.0093  -0.0044   0.00    7.5
2173 238942.000   -679342.3889  -5154774.7141   3682489.7177   1   7   0.0045   0.0110   0.0107   0.0033  -0.0093  -0.0045   0.00    7.5
2173 238943.000   -679342.3872  -5154774.7124   3682489.7128   1   7   0.0040   0.0109   0.0107   0.0042  -0.0092  -0.0048   0.00    7.5
2173 238944.000   -679342.3897  -5154774.7155   3682489.7181   1   7   0.0040   0.0109   0.0107   0.0035  -0.0093  -0.0044   0.00    7.4
2173 238945.000   -679342.3881  -5154774.7150   3682489.7151   1   7   0.0045   0.0109   0.0107   0.0038  -0.0092  -0.0044   0.00    7.4
2173 238946.000   -679342.3885  -5154774.7141   3682489.7153   1   7   0.0047   0.0109   0.0108   0.0038  -0.0093  -0.0043   0.00    7.4
2173 238947.000   -679342.3893  -5154774.7147   3682489.7136   1   7   0.0042   0.0109   0.0107   0.0037  -0.0092  -0.0044   0.00    7.4
2173 238948.000   -679342.3906  -5154774.7124   3682489.7132   1   7   0.0046   0.0108   0.0107   0.0036  -0.0093  -0.0046   0.00    7.3
2173 238949.000   -679342.3909  -5154774.7150   3682489.7164   1   7   0.0043   0.0109   0.0107   0.0039  -0.0092  -0.0045   0.00    7.3
2173 238950.000   -679342.3880  -5154774.7171   3682489.7151   1   7   0.0043   0.0108   0.0107   0.0039  -0.0092  -0.0045   0.00    7.3
2173 238951.000   -679342.3903  -5154774.7205   3682489.7209   1   7   0.0045   0.0109   0.0107   0.0039  -0.0092  -0.0042   0.00    7.2
2173 238952.000   -679342.3882  -5154774.7182   3682489.7187   1   7   0.0045   0.0109   0.0107   0.0036  -0.0092  -0.0046   0.00    7.2
2173 238953.000   -679342.3870  -5154774.7139   3682489.7129   1   7   0.0047   0.0109   0.0106   0.0039  -0.0092  -0.0044   0.00    7.2
2173 238954.000   -679342.3883  -5154774.7154   3682489.7140   1   7   0.0043   0.0109   0.0106   0.0034  -0.0092  -0.0044   0.00    7.1
2173 238955.000   -679342.3898  -5154774.7172   3682489.7178   1   7   0.0046   0.0109   0.0107   0.0036  -0.0092  -0.0044   0.00    7.1
2173 238956.000   -679342.3882  -5154774.7144   3682489.7132   1   7   0.0048   0.0109   0.0107   0.0037  -0.0093  -0.0046   0.00    7.1
2173 238957.000   -679342.3885  -5154774.7129   3682489.7130   1   7   0.0045   0.0109   0.0107   0.0039  -0.0092  -0.0045   0.00    7.1
2173 238958.000   -679342.3860  -5154774.7133   3682489.7145   1   7   0.0046   0.0109   0.0107   0.0036  -0.0092  -0.0043   0.00    7.0
2173 238959.000   -679342.3890  -5154774.7151   3682489.7184   1   7   0.0047   0.0108   0.0107   0.0036  -0.0093  -0.0044   0.00    7.0
2173 238960.000   -679342.3881  -5154774.7160   3682489.7143   1   7   0.0048   0.0109   0.0107   0.0034  -0.0092  -0.0044   0.00    7.0
2173 238961.000   -679342.3871  -5154774.7178   3682489.7151   1   7   0.0047   0.0109   0.0106   0.0038  -0.0092  -0.0043   0.00    7.0
2173 238962.000   -679342.3887  -5154774.7188   3682489.7184   1   7   0.0047   0.0109   0.0107   0.0037  -0.0092  -0.0046   0.00    6.9
2173 238963.000   -679342.3886  -5154774.7211   3682489.7213   1   7   0.0046   0.0109   0.0107   0.0036  -0.0093  -0.0042   0.00    6.9
2173 238964.000   -679342.3885  -5154774.7188   3682489.7146   1   7   0.0044   0.0109   0.0107   0.0038  -0.0092  -0.0045   0.00    6.9
2173 238965.000   -679342.3888  -5154774.7148   3682489.7136   1   7   0.0047   0.0109   0.0107   0.0035  -0.0092  -0.0044   0.00    6.9
2173 238966.000   -679342.3865  -5154774.7184   3682489.7145   1   7   0.0039   0.0108   0.0107   0.0040  -0.0092  -0.0047   0.00    6.8
2173 238967.000   -679342.3882  -5154774.7172   3682489.7151   1   7   0.0046   0.0109   0.0106   0.0036  -0.0092  -0.0045   0.00    6.8
2173 238968.000   -679342.3874  -5154774.7185   3682489.7144   1   7   0.0046   0.0109   0.0107   0.0032  -0.0092  -0.0041   0.00    6.8
2173 238969.000   -679342.3882  -5154774.7169   3682489.7117   1   7   0.0045   0.0109   0.0106   0.0040  -0.0091  -0.0042   0.00    6.7
2173 238970.000   -679342.3883  -5154774.7201   3682489.7183   1   7   0.0044   0.0109   0.0107   0.0038  -0.0092  -0.0046   0.00    6.7
2173 238971.000   -679342.3873  -5154774.7165   3682489.7150   1   7   0.0040   0.0109   0.0106   0.0036  -0.0092  -0.0044   0.00    6.7
2173 238972.000   -679342.3877  -5154774.7167   3682489.7134   1   7   0.0041   0.0108   0.0106   0.0039  -0.0092  -0.0045   0.00    6.7
2173 238973.000   -679342.3863  -5154774.7136   3682489.7146   1   7   0.0036   0.0109   0.0106   0.0041  -0.0092  -0.0047   0.00    6.6
2173 238974.000   -679342.3858  -5154774.7136   3682489.7122   1   7   0.0041   0.0109   0.0106   0.0041  -0.0091  -0.0046   0.00    6.6
2173 238975.000   -679342.3850  -5154774.7105   3682489.7119   1   7   0.0048   0.0109   0.0106   0.0038  -0.0092  -0.0044   0.00    6.6
2173 238976.000   -679342.3872  -5154774.7144   3682489.7142   1   7   0.0046   0.0108   0.0106   0.0036  -0.0093  -0.0046   0.00    6.6
2173 238977.000   -679342.3877  -5154774.7150   3682489.7152   1   7   0.0049   0.0110   0.0106   0.0037  -0.0091  -0.0042   0.00    6.5
2173 238978.000   -679342.3864  -5154774.7128   3682489.7106   1   7   0.0042   0.0107   0.0106   0.0036  -0.0093  -0.0046   0.00    6.5
2173 238979.000   -679342.3863  -5154774.7152   3682489.7139   1   7   0.0042   0.0109   0.0106   0.0039  -0.0092  -0.0044   0.00    6.5
2173 238980.000   -679342.3879  -5154774.7143   3682489.7140   1   7   0.0049   0.0110   0.0106   0.0036  -0.0092  -0.0043   0.00    6.5
2173 238981.000   -679342.3863  -5154774.7158   3682489.7173   1   7   0.0045   0.0109   0.0106   0.0035  -0.0092  -0.0041   0.00    6.4
2173 238982.000   -679342.3856  -5154774.7121   3682489.7136   1   7   0.0043   0.0108   0.0106   0.0035  -0.0092  -0.0047   0.00    6.4
2173 238983.000   -679342.3871  -5154774.7153   3682489.7155   1   7   0.0041   0.0108   0.0106   0.0034  -0.0091  -0.0046   0.00    6.4
2173 238984.000   -679342.3862  -5154774.7155   3682489.7147   1   7   0.0045   0.0109   0.0106   0.0032  -0.0091  -0.0043   0.00    6.4
2173 238985.000   -679342.3864  -5154774.7096   3682489.7126   1   7   0.0047   0.0109   0.0106   0.0035  -0.0092  -0.0042   0.00    6.3
2173 238986.000   -679342.3882  -5154774.7128   3682489.7148   1   7   0.0044   0.0109   0.0106   0.0034  -0.0091  -0.0043   0.00    6.3
2173 238987.000   -679342.3885  -5154774.7156   3682489.7150   1   7   0.0042   0.0108   0.0106   0.0037  -0.0092  -0.0044   0.00    6.3
2173 238988.000   -679342.3871  -5154774.7140   3682489.7136   1   7   0.0045   0.0109   0.0106   0.0039  -0.0091  -0.0045   0.00    6.2
2173 238989.000   -679342.3880  -5154774.7135   3682489.7137   1   7   0.0040   0.0109   0.0106   0.0038  -0.0091  -0.0045   0.00    6.2
2173 238990.000   -679342.3889  -5154774.7125   3682489.7140   1   7   0.0045   0.0109   0.0106   0.0031  -0.0092  -0.0042   0.00    6.2
2173 238991.000   -679342.3856  -5154774.7149   3682489.7114   1   7   0.0038   0.0108   0.0106   0.0039  -0.0092  -0.0045   0.00    6.1
2173 238992.000   -679342.3879  -5154774.7152   3682489.7141   1   7   0.0046   0.0109   0.0106   0.0035  -0.0091  -0.0043   0.00    6.1
2173 238993.000   -679342.3867  -5154774.7152   3682489.7145   1   7   0.0043   0.0109   0.0106   0.0037  -0.0091  -0.0044   0.00    6.1
2173 238994.000   -679342.3865  -5154774.7139   3682489.7158   1   7   0.0046   0.0109   0.0106   0.0036  -0.0091  -0.0044   0.00    6.1
2173 238995.000   -679342.3866  -5154774.7166   3682489.7156   1   7   0.0040   0.0108   0.0106   0.0039  -0.0091  -0.0046   0.00    6.0
2173 238996.000   -679342.3861  -5154774.7160   3682489.7161   1   7   0.0048   0.0108   0.0105   0.0036  -0.0091  -0.0042   0.00    6.0
2173 238997.000   -679342.3841  -5154774.7159   3682489.7166   1   7   0.0044   0.0108   0.0106   0.0038  -0.0092  -0.0044   0.00    6.0
2173 238998.000   -679342.3873  -5154774.7212   3682489.7184   1   7   0.0039   0.0108   0.0105   0.0044  -0.0091  -0.0047   0.00    6.0
2173 238999.000   -679342.3853  -5154774.7188   3682489.7177   1   7   0.0045   0.0109   0.0106   0.0036  -0.0092  -0.0042   0.00    5.9
2173 239000.000   -679342.3860  -5154774.7161   3682489.7169   1   7   0.0041   0.0109   0.0106   0.0039  -0.0091  -0.0045   0.00    5.9
2173 239001.000   -679342.3856  -5154774.7181   3682489.7198   1   7   0.0042   0.0108   0.0105   0.0033  -0.0091  -0.0043   0.00    5.9
2173 239002.000   -679342.3856  -5154774.7178   3682489.7157   1   7   0.0042   0.0108   0.0106   0.0038  -0.0092  -0.0045   0.00    5.9
2173 239003.000   -679342.3843  -5154774.7181   3682489.7163   1   7   0.0046   0.0109   0.0106   0.0033  -0.0091  -0.0044   0.00    5.9
2173 239004.000   -679342.3863  -5154774.7194   3682489.7178   1   7   0.0040   0.0108   0.0106   0.0037  -0.0091  -0.0044   0.00    5.9
2173 239005.000   -679342.3882  -5154774.7221   3682489.7215   1   7   0.0046   0.0108   0.0106   0.0037  -0.0092  -0.0046   0.00    5.8
2173 239006.000   -679342.3858  -5154774.7203   3682489.7205   1   7   0.0045   0.0108   0.0106   0.0028  -0.0092  -0.0042   0.00    5.8
2173 239007.000   -679342.3873  -5154774.7192   3682489.7188   1   7   0.0044   0.0110   0.0105   0.0036  -0.0090  -0.0042   0.00    5.8
2173 239008.000   -679342.3857  -5154774.7203   3682489.7196   1   7   0.0045   0.0109   0.0106   0.0033  -0.0092  -0.0042   0.00    5.8
2173 239009.000   -679342.3862  -5154774.7200   3682489.7191   1   7   0.0041   0.0108   0.0105   0.0033  -0.0092  -0.0042   0.00    5.8
2173 239010.000   -679342.3872  -5154774.7210   3682489.7184   1   7   0.0044   0.0107   0.0106   0.0040  -0.0092  -0.0046   0.00    5.7
2173 239011.000   -679342.3865  -5154774.7235   3682489.7186   1   7   0.0046   0.0108   0.0105   0.0037  -0.0091  -0.0045   0.00    5.7
2173 239012.000   -679342.3860  -5154774.7227   3682489.7186   1   7   0.0045   0.0108   0.0106   0.0034  -0.0091  -0.0045   0.00    5.7
2173 239013.000   -679342.3860  -5154774.7239   3682489.7167   1   7   0.0042   0.0108   0.0106   0.0041  -0.0091  -0.0045   0.00    5.7
2173 239014.000   -679342.3847  -5154774.7196   3682489.7165   1   7   0.0045   0.0108   0.0105   0.0040  -0.0091  -0.0045   0.00    5.7
2173 239015.000   -679342.3861  -5154774.7176   3682489.7163   1   7   0.0045   0.0109   0.0105   0.0031  -0.0091  -0.0044   0.00    5.7
2173 239016.000   -679342.3862  -5154774.7170   3682489.7118   1   7   0.0046   0.0108   0.0106   0.0029  -0.0092  -0.0042   0.00    5.7
2173 239017.000   -679342.3864  -5154774.7159   3682489.7123   1   7   0.0046   0.0108   0.0105   0.0036  -0.0091  -0.0041   0.00    5.6
2173 239018.000   -679342.3877  -5154774.7174   3682489.7184   1   7   0.0048   0.0109   0.0105   0.0035  -0.0091  -0.0040   0.00    5.6
2173 239019.000   -679342.3873  -5154774.7219   3682489.7199   1   7   0.0041   0.0108   0.0105   0.0038  -0.0091  -0.0043   0.00    5.6
2173 239020.000   -679342.3877  -5154774.7166   3682489.7168   1   7   0.0045   0.0109   0.0105   0.0030  -0.0091  -0.0042   0.00    5.6
2173 239021.000   -679342.3879  -5154774.7160   3682489.7137   1   7   0.0045   0.0109   0.0105   0.0030  -0.0091  -0.0043   0.00    5.6
2173 239022.000   -679342.3898  -5154774.7229   3682489.7206   1   7   0.0044   0.0108   0.0105   0.0035  -0.0091  -0.0043   0.00    5.6
2173 239023.000   -679342.3870  -5154774.7160   3682489.7131   1   7   0.0046   0.0108   0.0104   0.0033  -0.0091  -0.0044   0.00    5.5
2173 239024.000   -679342.3868  -5154774.7154   3682489.7132   1   7   0.0043   0.0109   0.0105   0.0039  -0.0090  -0.0044   0.00    5.5
2173 239025.000   -679342.3851  -5154774.7115   3682489.7107   1   7   0.0045   0.0108   0.0105   0.0035  -0.0090  -0.0042   0.00    5.5
2173 239026.000   -679342.3874  -5154774.7214   3682489.7188   1   7   0.0048   0.0108   0.0105   0.0035  -0.0090  -0.0042   0.00    5.5
2173 239027.000   -679342.3885  -5154774.7206   3682489.7183   1   7   0.0044   0.0109   0.0105   0.0036  -0.0090  -0.0041   0.00    5.5
2173 239028.000   -679342.3867  -5154774.7159   3682489.7134   1   7   0.0044   0.0109   0.0104   0.0037  -0.0090  -0.0045   0.00    5.5
2173 239029.000   -679342.3868  -5154774.7203   3682489.7174   1   7   0.0047   0.0109   0.0105   0.0040  -0.0090  -0.0042   0.00    5.5
2173 239030.000   -679342.3872  -5154774.7196   3682489.7202   1   7   0.0043   0.0109   0.0105   0.0038  -0.0090  -0.0043   0.00    5.5
2173 239031.000   -679342.3866  -5154774.7178   3682489.7180   1   7   0.0043   0.0108   0.0105   0.0035  -0.0091  -0.0042   0.00    5.4
2173 239032.000   -679342.3865  -5154774.7126   3682489.7157   1   7   0.0046   0.0108   0.0105   0.0035  -0.0091  -0.0044   0.00    5.4
2173 239033.000   -679342.3865  -5154774.7130   3682489.7137   1   7   0.0042   0.0108   0.0105   0.0039  -0.0091  -0.0047   0.00    5.4
2173 239034.000   -679342.3865  -5154774.7119   3682489.7141   1   7   0.0047   0.0108   0.0105   0.0037  -0.0090  -0.0043   0.00    5.4
2173 239035.000   -679342.3862  -5154774.7150   3682489.7145   1   7   0.0046   0.0108   0.0104   0.0038  -0.0090  -0.0042   0.00    5.4
2173 239036.000   -679342.3859  -5154774.7164   3682489.7158   1   7   0.0047   0.0108   0.0104   0.0036  -0.0091  -0.0044   0.00    5.4
2173 239037.000   -679342.3855  -5154774.7098   3682489.7106   1   7   0.0048   0.0109   0.0105   0.0036  -0.0090  -0.0040   0.00    5.4
2173 239038.000   -679342.3873  -5154774.7152   3682489.7169   1   7   0.0037   0.0108   0.0105   0.0040  -0.0090  -0.0046   0.00    5.4
2173 239039.000   -679342.3855  -5154774.7107   3682489.7126   1   7   0.0040   0.0108   0.0104   0.0037  -0.0090  -0.0045   0.00    5.4
2173 239040.000   -679342.3857  -5154774.7151   3682489.7163   1   7   0.0049   0.0109   0.0104   0.0033  -0.0090  -0.0043   0.00    5.3
2173 239041.000   -679342.3858  -5154774.7154   3682489.7161   1   7   0.0045   0.0108   0.0104   0.0036  -0.0090  -0.0041   0.00    5.3
2173 239042.000   -679342.3863  -5154774.7157   3682489.7166   1   7   0.0041   0.0108   0.0104   0.0038  -0.0090  -0.0044   0.00    5.3
2173 239043.000   -679342.3857  -5154774.7122   3682489.7139   1   7   0.0045   0.0108   0.0105   0.0032  -0.0091  -0.0043   0.00    5.3
2173 239044.000   -679342.3867  -5154774.7131   3682489.7139   1   7   0.0044   0.0109   0.0104   0.0038  -0.0090  -0.0046   0.00    5.3
2173 239045.000   -679342.3857  -5154774.7139   3682489.7132   1   7   0.0040   0.0108   0.0104   0.0040  -0.0090  -0.0044   0.00    5.3
2173 239046.000   -679342.3879  -5154774.7165   3682489.7159   1   7   0.0042   0.0109   0.0105   0.0036  -0.0090  -0.0043   0.00    5.3
2173 239047.000   -679342.3846  -5154774.7070   3682489.7092   1   7   0.0039   0.0107   0.0104   0.0040  -0.0091  -0.0046   0.00    5.3
2173 239048.000   -679342.3847  -5154774.7096   3682489.7130   1   7   0.0042   0.0108   0.0105   0.0037  -0.0090  -0.0045   0.00    5.3
2173 239049.000   -679342.3856  -5154774.7102   3682489.7106   1   7   0.0041   0.0108   0.0104   0.0041  -0.0089  -0.0043   0.00    5.3
2173 239050.000   -679342.3852  -5154774.7105   3682489.7090   1   7   0.0045   0.0108   0.0104   0.0034  -0.0090  -0.0042   0.00    5.3
2173 239051.000   -679342.3834  -5154774.7109   3682489.7121   1   7   0.0041   0.0109   0.0104   0.0039  -0.0090  -0.0046   0.00    5.3
2173 239052.000   -679342.3843  -5154774.7155   3682489.7174   1   7   0.0044   0.0108   0.0104   0.0034  -0.0091  -0.0044   0.00    5.3
2173 239053.000   -679342.3864  -5154774.7126   3682489.7129   1   7   0.0041   0.0109   0.0104   0.0039  -0.0090  -0.0045   0.00    5.3
2173 239054.000   -679342.3849  -5154774.7150   3682489.7152   1   7   0.0042   0.0108   0.0104   0.0037  -0.0090  -0.0045   0.00    5.3
2173 239055.000   -679342.3857  -5154774.7122   3682489.7141   1   7   0.0040   0.0108   0.0104   0.0037  -0.0090  -0.0047   0.00    5.3
2173 239056.000   -679342.3858  -5154774.7159   3682489.7159   1   7   0.0043   0.0108   0.0104   0.0036  -0.0091  -0.0045   0.00    5.3
2173 239057.000   -679342.3852  -5154774.7080   3682489.7098   1   7   0.0045   0.0108   0.0104   0.0035  -0.0090  -0.0045   0.00    5.3
2173 239058.000   -679342.3844  -5154774.7079   3682489.7108   1   7   0.0046   0.0108   0.0104   0.0034  -0.0090  -0.0043   0.00    5.3
2173 239059.000   -679342.3851  -5154774.7115   3682489.7119   1   7   0.0046   0.0109   0.0103   0.0034  -0.0090  -0.0044   0.00    5.2
2173 239060.000   -679342.3872  -5154774.7129   3682489.7186   1   7   0.0043   0.0108   0.0104   0.0035  -0.0089  -0.0043   0.00    5.2
2173 239061.000   -679342.3844  -5154774.7107   3682489.7123   1   7   0.0047   0.0108   0.0104   0.0035  -0.0090  -0.0042   0.00    5.2
2173 239062.000   -679342.3863  -5154774.7099   3682489.7122   1   7   0.0041   0.0108   0.0104   0.0034  -0.0090  -0.0041   0.00    5.2
2173 239063.000   -679342.3869  -5154774.7045   3682489.7058   1   7   0.0043   0.0108   0.0104   0.0036  -0.0091  -0.0046   0.00    5.2
2173 239064.000   -679342.3844  -5154774.7092   3682489.7120   1   7   0.0043   0.0108   0.0104   0.0037  -0.0090  -0.0042   0.00    5.2
2173 239065.000   -679342.3851  -5154774.7041   3682489.7107   1   7   0.0036   0.0107   0.0104   0.0038  -0.0090  -0.0045   0.00    5.2
2173 239066.000   -679342.3849  -5154774.7041   3682489.7091   1   7   0.0041   0.0107   0.0103   0.0037  -0.0090  -0.0043   0.00    5.2
2173 239067.000   -679342.3854  -5154774.7053   3682489.7125   1   7   0.0044   0.0108   0.0104   0.0032  -0.0090  -0.0041   0.00    5.2
2173 239068.000   -679342.3852  -5154774.7025   3682489.7077   1   7   0.0041   0.0108   0.0104   0.0034  -0.0090  -0.0043   0.00    5.2
2173 239069.000   -679342.3868  -5154774.7058   3682489.7096   1   7   0.0043   0.0109   0.0103   0.0038  -0.0089  -0.0040   0.00    5.2
2173 239070.000   -679342.3852  -5154774.7035   3682489.7066   1   7   0.0046   0.0110   0.0104   0.0034  -0.0089  -0.0043   0.00    5.2
2173 239071.000   -679342.3846  -5154774.7068   3682489.7132   1   7   0.0040   0.0107   0.0104   0.0036  -0.0090  -0.0044   0.00    5.2
2173 239072.000   -679342.3851  -5154774.7041   3682489.7090   1   7   0.0044   0.0109   0.0103   0.0039  -0.0088  -0.0042   0.00    5.2
2173 239073.000   -679342.3833  -5154774.6977   3682489.7026   1   7   0.0043   0.0109   0.0103   0.0040  -0.0089  -0.0042   0.00    5.2
2173 239074.000   -679342.3838  -5154774.7013   3682489.7048   1   7   0.0040   0.0108   0.0103   0.0034  -0.0090  -0.0045   0.00    5.2
2173 239075.000   -679342.3831  -5154774.6984   3682489.7047   1   7   0.0045   0.0108   0.0104   0.0029  -0.0090  -0.0044   0.00    5.2
2173 239076.000   -679342.3860  -5154774.7003   3682489.7050   1   7   0.0043   0.0107   0.0103   0.0034  -0.0090  -0.0042   0.00    5.2
2173 239077.000   -679342.3831  -5154774.6993   3682489.7010   1   7   0.0044   0.0108   0.0103   0.0038  -0.0090  -0.0041   0.00    5.2
2173 239078.000   -679342.3846  -5154774.7032   3682489.7051   1   7   0.0047   0.0109   0.0104   0.0038  -0.0090  -0.0045   0.00    5.2
2173 239079.000   -679342.3835  -5154774.7036   3682489.7060   1   7   0.0041   0.0108   0.0104   0.0039  -0.0090  -0.0043   0.00    5.2
2173 239080.000   -679342.3849  -5154774.7046   3682489.7075   1   7   0.0042   0.0109   0.0104   0.0034  -0.0090  -0.0041   0.00    5.2
2173 239081.000   -679342.3847  -5154774.7035   3682489.7073   1   7   0.0044   0.0107   0.0103   0.0040  -0.0090  -0.0046   0.00    5.2
2173 239082.000   -679342.3844  -5154774.7030   3682489.7085   1   7   0.0044   0.0108   0.0104   0.0034  -0.0089  -0.0040   0.00    5.2
2173 239083.000   -679342.3853  -5154774.7044   3682489.7108   1   7   0.0040   0.0109   0.0103   0.0036  -0.0089  -0.0042   0.00    5.2
2173 239084.000   -679342.3866  -5154774.7012   3682489.7062   1   7   0.0045   0.0108   0.0103   0.0034  -0.0089  -0.0042   0.00    5.2
2173 239085.000   -679342.3872  -5154774.7026   3682489.7057   1   7   0.0040   0.0107   0.0104   0.0041  -0.0089  -0.0044   0.00    5.2
2173 239086.000   -679342.3857  -5154774.7056   3682489.7090   1   7   0.0042   0.0108   0.0103   0.0036  -0.0090  -0.0046   0.00    5.2
2173 239087.000   -679342.3865  -5154774.7044   3682489.7060   1   7   0.0044   0.0108   0.0103   0.0040  -0.0089  -0.0042   0.00    5.2
2173 239088.000   -679342.3845  -5154774.7003   3682489.7031   1   7   0.0045   0.0107   0.0103   0.0037  -0.0090  -0.0044   0.00    5.2
2173 239089.000   -679342.3866  -5154774.7067   3682489.7107   1   7   0.0045   0.0107   0.0103   0.0034  -0.0090  -0.0040   0.00    5.2
2173 239090.000   -679342.3863  -5154774.7047   3682489.7105   1   7   0.0044   0.0107   0.0103   0.0035  -0.0089  -0.0043   0.00    5.2
2173 239091.000   -679342.3844  -5154774.7084   3682489.7104   1   7   0.0047   0.0108   0.0103   0.0034  -0.0089  -0.0043   0.00    5.2
2173 239092.000   -679342.3861  -5154774.7107   3682489.7111   1   7   0.0039   0.0108   0.0102   0.0040  -0.0089  -0.0046   0.00    5.2
2173 239093.000   -679342.3864  -5154774.7088   3682489.7087   1   7   0.0043   0.0108   0.0103   0.0036  -0.0088  -0.0042   0.00    5.2
2173 239094.000   -679342.3839  -5154774.7058   3682489.7065   1   7   0.0041   0.0108   0.0103   0.0036  -0.0089  -0.0045   0.00    5.2
2173 239095.000   -679342.3854  -5154774.7054   3682489.7060   1   7   0.0037   0.0108   0.0103   0.0036  -0.0089  -0.0042   0.00    5.2
2173 239096.000   -679342.3853  -5154774.7061   3682489.7075   1   7   0.0045   0.0108   0.0103   0.0027  -0.0090  -0.0038   0.00    5.2
2173 239097.000   -679342.3858  -5154774.7071   3682489.7100   1   7   0.0044   0.0108   0.0103   0.0032  -0.0090  -0.0041   0.00    5.2
2173 239098.000   -679342.3842  -5154774.7141   3682489.7130   1   7   0.0041   0.0107   0.0103   0.0038  -0.0089  -0.0043   0.00    5.2
2173 239099.000   -679342.3841  -5154774.7067   3682489.7070   1   7   0.0040   0.0108   0.0103   0.0038  -0.0089  -0.0040   0.00    5.2
2173 239100.000   -679342.3848  -5154774.7035   3682489.7062   1   7   0.0043   0.0108   0.0102   0.0036  -0.0089  -0.0043   0.00    5.2
2173 239101.000   -679342.3840  -5154774.7047   3682489.7084   1   7   0.0049   0.0108   0.0103   0.0034  -0.0089  -0.0044   0.00    5.2
2173 239102.000   -679342.3847  -5154774.7077   3682489.7086   1   7   0.0042   0.0108   0.0102   0.0038  -0.0088  -0.0044   0.00    5.2
2173 239103.000   -679342.3848  -5154774.7128   3682489.7129   1   7   0.0044   0.0108   0.0102   0.0033  -0.0089  -0.0043   0.00    5.2
2173 239104.000   -679342.3851  -5154774.7085   3682489.7088   1   7   0.0045   0.0108   0.0102   0.0034  -0.0089  -0.0041   0.00    5.2
2173 239105.000   -679342.3838  -5154774.7060   3682489.7060   1   7   0.0044   0.0108   0.0103   0.0033  -0.0089  -0.0044   0.00    5.2
2173 239106.000   -679342.3847  -5154774.7109   3682489.7090   1   7   0.0039   0.0108   0.0103   0.0038  -0.0089  -0.0043   0.00    5.3
2173 239107.000   -679342.3830  -5154774.7101   3682489.7090   1   7   0.0045   0.0108   0.0102   0.0028  -0.0090  -0.0041   0.00    5.3
2173 239108.000   -679342.3859  -5154774.7148   3682489.7137   1   7   0.0047   0.0108   0.0103   0.0035  -0.0089  -0.0041   0.00    5.3
2173 239109.000   -679342.3845  -5154774.7155   3682489.7147   1   7   0.0045   0.0108   0.0103   0.0030  -0.0089  -0.0043   0.00    5.3
2173 239110.000   -679342.3851  -5154774.7094   3682489.7107   1   7   0.0040   0.0107   0.0102   0.0040  -0.0089  -0.0043   0.00    5.3
2173 239111.000   -679342.3845  -5154774.7146   3682489.7139   1   7   0.0046   0.0108   0.0103   0.0032  -0.0089  -0.0041   0.00    5.3
2173 239112.000   -679342.3847  -5154774.7162   3682489.7156   1   7   0.0047   0.0108   0.0103   0.0031  -0.0090  -0.0040   0.00    5.3
2173 239113.000   -679342.3854  -5154774.7158   3682489.7145   1   7   0.0043   0.0108   0.0103   0.0038  -0.0088  -0.0042   0.00    5.3
2173 239114.000   -679342.3842  -5154774.7135   3682489.7122   1   7   0.0046   0.0108   0.0103   0.0033  -0.0089  -0.0040   0.00    5.3
2173 239115.000   -679342.3860  -5154774.7139   3682489.7149   1   7   0.0049   0.0109   0.0102   0.0030  -0.0089  -0.0040   0.00    5.3
2173 239116.000   -679342.3836  -5154774.7188   3682489.7156   1   7   0.0049   0.0107   0.0102   0.0029  -0.0089  -0.0039   0.00    5.3
2173 239117.000   -679342.3858  -5154774.7163   3682489.7138   1   7   0.0046   0.0109   0.0102   0.0030  -0.0088  -0.0040   0.00    5.3
2173 239118.000   -679342.3862  -5154774.7176   3682489.7148   1   7   0.0044   0.0107   0.0102   0.0033  -0.0089  -0.0043   0.00    5.3
2173 239119.000   -679342.3859  -5154774.7188   3682489.7173   1   7   0.0047   0.0108   0.0103   0.0027  -0.0089  -0.0039   0.00    5.3
2173 239120.000   -679342.3848  -5154774.7204   3682489.7190   1   7   0.0044   0.0108   0.0102   0.0038  -0.0088  -0.0043   0.00    5.3
2173 239121.000   -679342.3859  -5154774.7175   3682489.7173   1   7   0.0040   0.0107   0.0102   0.0037  -0.0088  -0.0042   0.00    5.4
2173 239122.000   -679342.3844  -5154774.7164   3682489.7136   1   7   0.0044   0.0107   0.0102   0.0038  -0.0089  -0.0042   0.00    5.4
2173 239123.000   -679342.3865  -5154774.7178   3682489.7165   1   7   0.0048   0.0108   0.0103   0.0028  -0.0089  -0.0039   0.00    5.4
2173 239124.000   -679342.3869  -5154774.7193   3682489.7176   1   7   0.0048   0.0108   0.0102   0.0032  -0.0089  -0.0042   0.00    5.4
2173 239125.000   -679342.3854  -5154774.7195   3682489.7175   1   7   0.0046   0.0108   0.0102   0.0028  -0.0089  -0.0040   0.00    5.4
2173 239126.000   -679342.3853  -5154774.7183   3682489.7184   1   7   0.0040   0.0108   0.0102   0.0033  -0.0088  -0.0040   0.00    5.4
2173 239127.000   -679342.3861  -5154774.7193   3682489.7193   1   7   0.0045   0.0108   0.0102   0.0031  -0.0088  -0.0038   0.00    5.4
2173 239128.000   -679342.3856  -5154774.7188   3682489.7196   1   7   0.0047   0.0108   0.0102   0.0029  -0.0089  -0.0040   0.00    5.4
2173 239129.000   -679342.3861  -5154774.7217   3682489.7201   1   7   0.0043   0.0109   0.0103   0.0035  -0.0088  -0.0041   0.00    5.4
2173 239130.000   -679342.3861  -5154774.7173   3682489.7197   1   7   0.0038   0.0107   0.0102   0.0039  -0.0089  -0.0045   0.00    5.4
2173 239131.000   -679342.3866  -5154774.7181   3682489.7160   1   7   0.0043   0.0108   0.0102   0.0037  -0.0088  -0.0041   0.00    5.4
