     2.11           OBSERVATION DATA    M (MIXED)           RINEX VERSION / TYPE
CONVBIN 2.4.3                           20210901 005056 UTC PGM / RUN BY / DATE 
log: logs/21_08_31_21_19_43_mego_SNME.rtcm                  COMMENT             
format: RTCM 3, station ID: 3554                            COMMENT             
3554                                                        MARKER NAME         
                                                            MARKER NUMBER       
                                                            OBSERVER / AGENCY   
                    TRIMBLE NETR5                           REC # / TYPE / VERS 
                    GPPNULLANTENNA                          ANT # / TYPE        
  1545914.5119 -4353699.7972  4382537.4995                  APPROX POSITION XYZ 
        0.0000        0.0000        0.0000                  ANTENNA: DELTA H/E/N
     1     1                                                WAVELENGTH FACT L1/2
     6    C1    L1    P2    L2    P1    C2                  # / TYPES OF OBSERV 
  2021     8    31    21    19   49.0000000     GPS         TIME OF FIRST OBS   
  2021     8    31    21    53   57.0000000     GPS         TIME OF LAST OBS    
                                                            END OF HEADER       
 21  8 31 21 19 49.0000000  0 14G10G15G18G23G24G32R 4R 5R14R15R16R20
                                R21R22
  21136120.575   111071063.356    21136121.736    86548884.091                  
                
  23001698.893   120874741.671    23001698.679    94188110.206                  
                
  22371752.595   117564353.507    22371752.381    91608585.639                  
                
  20172828.440   106008929.486    20172827.260    82604355.400                  
                
  20417296.401   107293617.806    20417298.188    83605422.312                  
                
  22990769.573   120817308.482    22990771.682    94143365.141                  
                
  22978617.530   123049453.006    22978615.975    95705123.827                  
                
  19911528.752   106438529.607    19911526.250    82785514.463                  
                
  22034341.805   117455441.363    22034340.036    91354221.945                  
                
  20469729.743   109384025.647    20469727.706    85076457.903                  
                
  22777547.296   121673574.181    22777546.635    94634994.837                  
                
  22687622.188   121320912.167    22687623.457    94360713.532                  
                
  21376714.818   114391121.972    21376712.853    88970861.508                  
                
  23066559.390   123130862.359    23066556.602    95768435.139                  
                
 21  8 31 21 19 50.0000000  0 14G10G15G18G23G24G32R 4R 5R14R15R16R20
                                R21R22
  21135741.323   111069069.290    21135742.216    86547330.271                  
                
  23002280.994   120877800.652    23002280.762    94190493.829                  
                
  22372380.745   117567653.118    22372380.191    91611156.765                  
                
  20172878.938   106009196.142    20172878.044    82604563.189                  
                
  20417466.729   107294514.007    20417468.712    83606120.653                  
                
  22990283.482   120814753.851    22990285.501    94141374.524                  
                
  22979155.226   123052329.773    22979153.189    95707361.308                  
                
  19911691.825   106439399.894    19911689.037    82786191.348                  
                
  22034782.545   117457788.516    22034780.793    91356047.511                  
                
  20469444.983   109382504.840    20469443.053    85075275.051                  
                
  22776716.815   121669139.462    22776716.547    94631545.612                  
                
  22688396.203   121325046.895    22688396.882    94363929.439                  
                
  21376883.180   114392022.756    21376881.143    88971562.119                  
                
  23066103.891   123128434.188    23066101.872    95766546.558                  
                
 21  8 31 21 19 51.0000000  0 14G10G15G18G23G24G32R 4R 5R14R15R16R20
                                R21R22
  21135361.928   111067075.388    21135362.714    86545776.576                  
                
  23002863.256   120880859.591    23002862.917    94192877.421                  
                
  22373008.323   117570952.888    22373008.269    91613728.002                  
                
  20172929.971   106009463.136    20172928.881    82604771.229                  
                
  20417637.771   107295410.721    20417639.361    83606819.387                  
                
  22989796.944   120812199.247    22989799.285    94139383.921                  
                
  22979693.066   123055206.508    22979690.225    95709598.759                  
                
  19911854.611   106440270.348    19911852.003    82786868.366                  
                
  22035223.713   117460136.227    22035221.819    91357873.506                  
                
  20469160.418   109380984.675    20469158.381    85074092.698                  
                
  22775887.049   121664704.752    22775886.334    94628096.402                  
                
  22689169.181   121329181.683    22689170.378    94367145.378                  
                
  21377051.703   114392924.277    21377049.559    88972263.303                  
                
  23065649.750   123126006.610    23065647.123    95764658.437                  
                
 21  8 31 21 19 52.0000000  0 14G10G15G18G23G24G32R 4R 5R14R15R16R20
                                R21R22
  21134982.747   111065081.970    21134983.355    86544223.259                  
                
  23003445.268   120883918.795    23003444.911    94195261.213                  
                
  22373636.151   117574253.118    22373636.312    91616299.613                  
                
  20172980.952   106009730.790    20172979.701    82604979.790                  
                
  20417808.742   107296308.275    20417810.100    83607518.777                  
                
  22989310.978   120809645.000    22989313.158    94137393.603                  
                
  22980230.370   123058083.553    22980227.439    95711836.456                  
                
  19912017.613   106441141.307    19912014.968    82787545.783                  
                
  22035663.541   117462484.824    22035663.041    91359700.191                  
                
  20468875.765   109379465.491    20468874.121    85072911.113                  
                
  22775056.068   121660270.368    22775056.211    94624647.443                  
                
  22689941.838   121333316.864    22689943.749    94370361.619                  
                
  21377220.476   114393826.901    21377218.206    88972965.341                  
                
  23065194.697   123123579.947    23065192.553    95762771.031                  
                
 21  8 31 21 19 53.0000000  0 14G10G15G18G23G24G32R 4R 5R14R15R16R20
                                R21R22
  21134603.191   111063088.887    21134604.120    86542670.214                  
                
  23004027.513   120886978.107    23004027.137    94197645.095                  
                
  22374264.390   117577553.686    22374264.318    91618871.481                  
                
  20173031.861   106009998.937    20173030.699    82605188.734                  
                
  20417979.212   107297206.483    20417981.214    83608218.680                  
                
  22988825.048   120807090.938    22988827.282    94135403.421                  
                
  22980766.262   123060960.745    22980764.761    95714074.274                  
                
  19912180.149   106442012.598    19912177.862    82788223.451                  
                
  22036105.317   117464834.175    22036104.245    91361527.463                  
                
  20468591.898   109377947.131    20468590.003    85071730.169                  
                
  22774227.821   121655836.117    22774226.141    94621198.584                  
                
  22690716.209   121337452.327    22690717.031    94373578.078                  
                
  21377389.159   114394730.407    21377386.997    88973668.068                  
                
  23064739.913   123121153.934    23064738.036    95760884.134                  
                
 21  8 31 21 19 54.0000000  0 14G10G15G18G23G24G32R 4R 5R14R15R16R20
                                R21R22
  21134224.118   111061095.549    21134224.957    86541116.961                  
                
  23004609.274   120890036.955    23004609.256    94200028.611                  
                
  22374892.450   117580854.007    22374892.343    91621443.163                  
                
  20173083.270   106010267.022    20173081.930    82605397.634                  
                
  20418150.165   107298104.788    20418152.131    83608918.662                  
                
  22988339.833   120804536.492    22988341.244    94133412.950                  
                
  22981303.941   123063837.464    22981301.868    95716311.732                  
                
  19912343.293   106442883.631    19912340.774    82788900.919                  
                
  22036545.217   117467183.695    22036545.467    91363354.866                  
                
  20468308.173   109376429.076    20468306.047    85070549.459                  
                
  22773397.394   121651401.425    22773396.036    94617749.386                  
                
  22691489.241   121341587.455    22691490.099    94376794.279                  
                
  21377558.147   114395634.181    21377555.824    88974371.008                  
                
  23064286.468   123118728.090    23064283.681    95758997.357                  
                
 21  8 31 21 19 55.0000000  0 14G10G15G18G23G24G32R 4R 5R14R15R16R20
                                R21R22
  21133845.008   111059103.316    21133845.955    86539564.572                  
                
  23005191.251   120893096.702    23005191.447    94202412.834                  
                
  22375520.761   117584155.420    22375520.546    91624015.683                  
                
  20173134.125   106010536.366    20173133.017    82605607.517                  
                
  20418321.744   107299004.558    20418323.370    83609619.774                  
                
  22987853.081   120801983.000    22987855.332    94131423.220                  
                
  22981841.066   123066715.077    22981839.279    95718549.883                  
                
  19912506.992   106443755.760    19912504.025    82789579.235                  
                
  22036986.867   117469534.689    22036986.849    91365183.419                  
                
  20468024.056   109374912.703    20468022.340    85069370.067                  
                
  22772566.502   121646967.706    22772565.948    94614300.940                  
                
  22692261.969   121345723.574    22692263.524    94380011.273                  
                
  21377727.313   114396539.632    21377725.026    88975075.241                  
                
  23063832.881   123116303.773    23063829.468    95757111.791                  
                
 21  8 31 21 19 56.0000000  0 14G10G15G18G23G24G32R 4R 5R14R15R16R20
                                R21R22
  21133465.721   111057111.427    21133466.864    86538012.451                  
                
  23005773.620   120896156.574    23005773.745    94204797.141                  
                
  22376149.018   117587457.156    22376148.768    91626588.453                  
                
  20173185.105   106010806.236    20173184.408    82605817.800                  
                
  20418493.304   107299905.014    20418494.698    83610321.433                  
                
  22987367.222   120799429.727    22987369.491    94129433.653                  
                
  22982377.815   123069592.822    22982376.833    95720788.122                  
                
  19912669.939   106444628.259    19912667.187    82790257.855                  
                
  22037426.713   117471886.418    22037428.214    91367012.536                  
                
  20467740.028   109373397.235    20467738.705    85068191.365                  
                
  22771737.576   121642534.153    22771736.004    94610852.624                  
                
  22693035.734   121349859.953    22693037.056    94383228.463                  
                
  21377896.175   114397446.021    21377894.334    88975780.208                  
                
  23063377.900   123113880.192    23063375.380    95755226.784                  
                
 21  8 31 21 19 57.0000000  0 14G10G15G18G23G24G32R 4R 5R14R15R16R20
                                R21R22
  21133086.719   111055119.365    21133087.630    86536460.195                  
                
  23006355.757   120899216.060    23006355.882    94207181.155                  
                
  22376777.954   117590758.707    22376777.114    91629161.092                  
                
  20173236.675   106011076.102    20173235.693    82606028.083                  
                
  20418664.614   107300805.634    20418666.062    83611023.220                  
                
  22986881.524   120796876.156    22986883.579    94127443.854                  
                
  22982914.779   123072470.164    22982914.118    95723026.061                  
                
  19912833.119   106445500.567    19912830.421    82790936.319                  
                
  22037867.757   117474238.406    22037869.543    91368841.860                  
                
  20467456.250   109371882.073    20467454.999    85067012.911                  
                
  22770908.436   121638100.269    22770906.005    94607404.052                  
                
  22693809.516   121353996.073    22693810.963    94386445.438                  
                
  21378065.627   114398352.810    21378063.894    88976485.486                  
                
  23062922.812   123111456.868    23062921.471    95753341.969                  
                
 21  8 31 21 19 58.0000000  0 14G10G15G18G23G24G32R 4R 5R14R15R16R20
                                R21R22
  21132707.752   111053128.008    21132708.771    86534908.490                  
                
  23006938.591   120902276.014    23006938.055    94209565.527                  
                
  22377406.157   117594060.953    22377405.496    91631734.273                  
                
  20173288.442   106011346.844    20173287.370    82606239.057                  
                
  20418835.853   107301707.305    20418837.658    83611725.818                  
                
  22986395.433   120794323.121    22986397.666    94125454.472                  
                
  22983453.638   123075348.052    22983451.708    95725264.412                  
                
  19912996.478   106446373.601    19912993.637    82791615.345                  
                
  22038309.747   117476591.528    22038310.908    91370672.055                  
                
  20467172.990   109370368.124    20467171.793    85065835.387                  
                
  22770077.026   121633666.962    22770076.043    94603955.931                  
                
  22694583.942   121358132.834    22694584.406    94389662.910                  
                
  21378235.758   114399260.921    21378233.471    88977191.797                  
                
  23062469.385   123109034.601    23062467.723    95751457.979                  
                
 21  8 31 21 19 59.0000000  0 14G10G15G18G23G24G32R 4R 5R14R15R16R20
                                R21R22
  21132328.858   111051136.439    21132329.858    86533356.616                  
                
  23007521.103   120905335.526    23007520.370    94211949.557                  
                
  22378034.557   117597362.976    22378033.753    91634307.278                  
                
  20173339.744   106011617.546    20173338.761    82606449.990                  
                
  20419007.932   107302609.090    20419009.290    83612428.503                  
                
  22985909.324   120791769.749    22985911.754    94123464.836                  
                
  22983989.762   123078225.519    22983988.922    95727502.446                  
                
  19913159.622   106447246.407    19913156.995    82792294.187                  
                
  22038752.130   117478944.837    22038752.077    91372502.402                  
                
  20466890.088   109368854.449    20466888.569    85064658.089                  
                
  22769246.706   121629233.212    22769246.116    94600507.466                  
                
  22695357.599   121362269.291    22695357.938    94392880.142                  
                
  21378405.103   114400169.318    21378403.155    88977898.323                  
                
  23062015.959   123106612.490    23062014.100    95749574.113                  
                
 21  8 31 21 20  0.0000000  0 14G10G15G18G23G24G32R 4R 5R14R15R16R20
                                R21R22
  21131949.945   111049145.715    21131951.035    86531805.409                  
                
  23008102.865   120908395.716    23008102.650    94214334.127                  
                
  22378662.778   117600665.856    22378662.332    91636880.949                  
                
  20173391.868   106011889.270    20173390.563    82606661.725                  
                
  20419179.546   107303512.097    20419181.208    83613132.149                  
                
  22985423.108   120789217.072    22985426.003    94121475.746                  
                
  22984527.173   123081103.689    22984526.405    95729741.018                  
                
  19913322.712   106448120.115    19913320.497    82792973.738                  
                
  22039193.352   117481299.430    22039193.352    91374333.754                  
                
  20466607.078   109367342.173    20466605.595    85063481.879                  
                
  22768418.548   121624800.176    22768416.082    94597059.551                  
                
  22696130.988   121366406.518    22696131.542    94396097.979                  
                
  21378574.769   114401079.155    21378573.250    88978605.972                  
                
  23061561.764   123104191.717    23061560.692    95747691.301                  
                
 21  8 31 21 20  1.0000000  0 14G10G15G18G23G24G32R 4R 5R14R15R16R20
                                R21R22
  21131571.390   111047155.108    21131572.265    86530254.287                  
                
  23008685.341   120911455.791    23008685.073    94216718.606                  
                
  22379291.035   117603968.836    22379290.892    91639454.702                  
                
  20173443.420   106012161.282    20173442.276    82606873.680                  
                
  20419351.518   107304415.546    20419353.090    83613836.140                  
                
  22984937.749   120786664.398    22984940.323    94119486.650                  
                
  22985064.459   123083981.694    22985063.851    95731979.462                  
                
  19913486.178   106448993.931    19913483.945    82793653.372                  
                
  22039633.949   117483654.501    22039634.717    91376165.474                  
                
  20466324.747   109365830.554    20466322.675    85062306.178                  
                
  22767588.121   121620367.047    22767586.048    94593611.566                  
                
  22696904.556   121370543.730    22696905.056    94399315.808                  
                
  21378746.294   114401989.671    21378743.524    88979314.151                  
                
  23061108.838   123101771.400    23061107.265    95745808.839                  
                
 21  8 31 21 20  2.0000000  0 14G10G15G18G23G24G32R 4R 5R14R15R16R20
                                R21R22
  21131192.352   111045165.218    21131193.549    86528703.723                  
                
  23009267.657   120914516.338    23009267.425    94219103.441                  
                
  22379920.150   117607272.515    22379919.632    91642028.992                  
                
  20173495.097   106012434.168    20173494.168    82607086.312                  
                
  20419523.382   107305320.051    20419525.079    83614540.947                  
                
  22984452.391   120784112.279    22984454.678    94117497.986                  
                
  22985601.816   123086860.207    22985601.494    95734218.305                  
                
  19913649.948   106449868.466    19913647.571    82794333.568                  
                
  22040076.636   117486010.674    22040076.278    91377998.041                  
                
  20466042.274   109364320.170    20466040.148    85061131.433                  
                
  22766757.837   121615934.485    22766756.229    94590164.023                  
                
  22697678.481   121374681.618    22697678.642    94402534.174                  
                
  21378915.799   114402901.490    21378913.959    88980023.343                  
                
  23060656.966   123099352.264    23060654.035    95743927.279                  
                
 21  8 31 21 20  3.0000000  0 14G10G15G18G23G24G32R 4R 5R14R15R16R20
                                R21R22
  21130813.707   111043175.374    21130814.726    86527153.191                  
                
  23009849.866   120917576.727    23009849.973    94221488.162                  
                
  22380549.086   117610576.237    22380548.246    91644603.326                  
                
  20173547.060   106012707.280    20173546.060    82607299.140                  
                
  20419695.639   107306224.953    20419697.247    83615246.068                  
                
  22983966.300   120781560.078    22983969.070    94115509.260                  
                
  22986138.977   123089738.598    22986139.191    95736457.061                  
                
  19913813.396   106450743.069    19913811.019    82795013.813                  
                
  22040518.841   117488367.300    22040517.893    91379830.977                  
                
  20465759.532   109362810.356    20465757.477    85059957.135                  
                
  22765928.482   121611501.854    22765926.427    94586716.421                  
                
  22698452.478   121378819.412    22698452.424    94405752.447                  
                
  21379086.448   114403813.957    21379084.322    88980733.037                  
                
  23060202.878   123096933.559    23060201.091    95742046.065                  
                
 21  8 31 21 20  4.0000000  0 14G10G15G18G23G24G32R 4R 5R14R15R16R20
                                R21R22
  21130435.420   111041185.718    21130436.224    86525602.810                  
                
  23010431.681   120920637.072    23010432.289    94223872.845                  
                
  22381177.558   117613880.112    22381176.968    91647177.765                  
                
  20173599.077   106012980.733    20173598.255    82607512.211                  
                
  20419868.165   107307130.360    20419869.523    83615951.577                  
                
  22983481.120   120779007.912    22983483.372    94113520.552                  
                
  22986677.031   123092616.923    22986676.745    95738695.742                  
                
  19913976.915   106451617.855    19913974.771    82795694.204                  
                
  22040961.349   117490724.532    22040959.580    91381664.378                  
                
  20465477.166   109361301.241    20465475.218    85058783.383                  
                
  22765099.109   121607069.187    22765096.607    94583268.789                  
                
  22699225.742   121382957.380    22699226.153    94408970.864                  
                
  21379257.276   114404727.147    21379255.043    88981443.289                  
                
  23059749.648   123094515.422    23059748.147    95740165.303                  
                
 21  8 31 21 20  5.0000000  0 14G10G15G18G23G24G32R 4R 5R14R15R16R20
                                R21R22
  21130056.972   111039196.717    21130057.562    86524052.941                  
                
  23011014.283   120923697.887    23011014.712    94226257.890                  
                
  22381806.494   117617184.665    22381805.886    91649752.738                  
                
  20173651.433   106013255.036    20173650.325    82607725.954                  
                
  20420040.243   107308036.781    20420042.030    83616657.880                  
                
  22982995.136   120776456.268    22982997.692    94111532.263                  
                
  22987215.317   123095495.748    22987214.460    95740934.832                  
                
  19914140.846   106452493.333    19914138.558    82796375.137                  
                
  22041403.053   117493082.869    22041401.749    91383498.645                  
                
  20465194.907   109359793.357    20465192.959    85057610.581                  
                
  22764268.825   121602637.081    22764266.859    94579821.598                  
                
  22700000.936   121387095.885    22700000.043    94412189.702                  
                
  21379428.158   114405641.562    21379425.853    88982154.515                  
                
  23059296.222   123092098.395    23059295.346    95738285.412                  
                
 21  8 31 21 20  6.0000000  0 14G10G15G18G23G24G32R 4R 5R14R15R16R20
                                R21R22
  21129678.560   111037207.598    21129679.114    86522502.978                  
                
  23011596.563   120926758.361    23011597.170    94228642.668                  
                
  22382435.001   117620489.059    22382434.786    91652327.598                  
                
  20173703.557   106013529.384    20173702.539    82607939.733                  
                
  20420213.215   107308943.438    20420214.448    83617364.365                  
                
  22982509.635   120773904.372    22982512.030    94109543.774                  
                
  22987752.067   123098374.288    22987751.906    95743173.690                  
                
  19914304.776   106453368.707    19914302.292    82797055.973                  
                
  22041845.633   117495441.486    22041844.007    91385333.131                  
                
  20464912.398   109358285.850    20464910.825    85056438.077                  
                
  22763439.309   121598204.642    22763437.111    94576374.156                  
                
  22700774.414   121391234.217    22700773.896    94415408.404                  
                
  21379598.521   114406556.393    21379596.716    88982866.048                  
                
  23058843.206   123089681.575    23058842.563    95736405.651                  
                
 21  8 31 21 20  7.0000000  0 14G10G15G18G23G24G32R 4R 5R14R15R16R20
                                R21R22
  21129299.665   111035218.978    21129300.666    86520953.404                  
                
  23012179.700   120929819.097    23012179.557    94231027.657                  
                
  22383063.794   117623793.967    22383063.579    91654902.837                  
                
  20173755.610   106013804.394    20173754.734    82608154.025                  
                
  20420385.848   107309850.919    20420387.349    83618071.486                  
                
  22982024.688   120771352.834    22982026.528    94107555.570                  
                
  22988290.067   123101253.095    22988289.656    95745412.745                  
                
  19914468.313   106454244.546    19914466.133    82797737.180                  
                
  22042289.428   117497800.975    22042286.820    91387168.301                  
                
  20464630.371   109356779.351    20464628.852    85055266.356                  
                
  22762608.399   121593772.571    22762607.363    94572926.993                  
                
  22701548.661   121395372.928    22701547.982    94418627.390                  
                
  21379769.939   114407472.287    21379767.991    88983578.405                  
                
  23058392.550   123087265.628    23058390.012    95734526.579                  
                
 21  8 31 21 20  8.0000000  0 14G10G15G18G23G24G32R 4R 5R14R15R16R20
                                R21R22
  21128921.771   111033230.663    21128922.432    86519404.070                  
                
  23012762.248   120932879.917    23012762.105    94233412.714                  
                
  22383692.801   117627099.168    22383692.622    91657478.316                  
                
  20173808.002   106014079.880    20173807.180    82608368.692                  
                
  20420558.588   107310759.046    20420560.071    83618779.125                  
                
  22981539.204   120768801.454    22981541.152    94105567.484                  
                
  22988827.746   123104131.958    22988827.175    95747651.861                  
                
  19914632.548   106455120.678    19914629.885    82798418.618                  
                
  22042731.437   117500161.164    22042729.775    91389004.012                  
                
  20464348.934   109355273.682    20464347.075    85054095.287                  
                
  22761779.277   121589340.657    22761777.722    94569479.967                  
                
  22702323.355   121399511.837    22702321.908    94421846.539                  
                
  21379941.195   114408389.054    21379939.301    88984291.451                  
                
  23057940.446   123084850.414    23057937.497    95732648.082                  
                
 21  8 31 21 20  9.0000000  0 14G10G15G18G23G24G32R 4R 5R14R15R16R20
                                R21R22
  21128543.198   111031242.677    21128544.163    86517854.990                  
                
  23013344.546   120935940.872    23013344.528    94235797.870                  
                
  22384322.077   117630404.681    22384321.612    91660054.038                  
                
  20173860.840   106014355.880    20173859.804    82608583.747                  
                
  20420731.238   107311667.874    20420733.061    83619487.304                  
                
  22981053.131   120766250.274    22981055.704    94103579.561                  
                
  22989366.587   123107010.944    22989364.836    95749891.073                  
                
  19914796.335   106455997.177    19914794.084    82799100.342                  
                
  22043175.053   117502522.102    22043173.069    91390840.296                  
                
  20464067.479   109353768.905    20464065.460    85052924.898                  
                
  22760949.386   121584908.897    22760948.135    94566033.040                  
                
  22703097.191   121403651.029    22703096.083    94425065.908                  
                
  21380112.577   114409306.738    21380110.737    88985005.208                  
                
  23057488.609   123082435.946    23057485.089    95730770.183                  
                
 21  8 31 21 20 10.0000000  0 14G10G15G18G23G24G32R 4R 5R14R15R16R20
                                R21R22
  21128165.107   111029255.081    21128165.858    86516306.212                  
                
  23013926.951   120939001.966    23013927.130    94238183.137                  
                
  22384950.870   117633710.569    22384950.566    91662630.052                  
                
  20173913.643   106014632.440    20173912.410    82608799.251                  
                
  20420904.496   107312577.418    20420906.140    83620196.036                  
                
  22980568.327   120763699.341    22980570.328    94101591.816                  
                
  22989902.175   123109890.148    22989902.336    95752130.449                  
                
  19914960.373   106456874.070    19914958.032    82799782.367                  
                
  22043617.293   117504883.827    22043616.847    91392677.197                  
                
  20463786.292   109352265.032    20463784.058    85051755.212                  
                
  22760121.031   121580477.349    22760118.583    94562586.283                  
                
  22703871.759   121407790.555    22703870.205    94428285.535                  
                
  21380285.156   114410225.400    21380282.404    88985719.713                  
                
  23057036.059   123080022.267    23057032.878    95728892.870                  
                
 21  8 31 21 20 11.0000000  0 14G10G15G18G23G24G32R 4R 5R14R15R16R20
                                R21R22
  21127786.909   111027267.841    21127787.660    86514757.713                  
                
  23014509.338   120942063.218    23014509.624    94240568.531                  
                
  22385580.235   117637016.800    22385579.788    91665206.334                  
                
  20173966.089   106014909.513    20173965.213    82609015.155                  
                
  20421077.504   107313487.654    20421079.345    83620905.311                  
                
  22980083.040   120761148.615    22980084.862    94099604.237                  
                
  22990441.230   123112769.517    22990440.033    95754369.956                  
                
  19915124.768   106457751.333    19915122.177    82800464.681                  
                
  22044060.570   117507246.328    22044060.552    91394514.691                  
                
  20463504.480   109350762.007    20463502.728    85050586.195                  
                
  22759290.622   121576046.016    22759288.943    94559139.688                  
                
  22704644.202   121411930.309    22704644.398    94431505.339                  
                
  21380456.520   114411144.972    21380454.358    88986434.941                  
                
  23056584.097   123077609.375    23056580.899    95727016.181                  
                
 21  8 31 21 20 12.0000000  0 14G10G15G18G23G24G32R 4R 5R14R15R16R20
                                R21R22
  21127408.622   111025280.984    21127409.658    86513209.513                  
                
  23015091.869   120945124.631    23015092.119    94242954.052                  
                
  22386209.653   117640323.404    22386209.135    91667782.909                  
                
  20174019.106   106015187.130    20174017.945    82609231.477                  
                
  20421251.102   107314398.601    20421252.549    83621615.144                  
                
  22979597.306   120758598.125    22979599.665    94097616.849                  
                
  22990978.587   123115649.101    22990977.694    95756609.625                  
                
  19915288.662   106458628.961    19915286.357    82801147.282                  
                
  22044503.704   117509609.609    22044504.347    91396352.799                  
                
  20463224.043   109349259.925    20463221.667    85049417.911                  
                
  22758461.214   121571614.891    22758459.516    94555693.265                  
                
  22705419.556   121416070.340    22705418.591    94434725.365                  
                
  21380628.724   114412065.507    21380626.383    88987150.906                  
                
  23056131.993   123075197.298    23056128.955    95725140.118                  
                
 21  8 31 21 20 13.0000000  0 14G10G15G18G23G24G32R 4R 5R14R15R16R20
                                R21R22
  21127030.531   111023294.395    21127031.693    86511661.519                  
                
  23015674.756   120948186.097    23015674.506    94245339.603                  
                
  22386838.535   117643630.266    22386838.446    91670359.682                  
                
  20174071.891   106015465.201    20174071.016    82609448.158                  
                
  20421424.932   107315310.161    20421425.986    83622325.446                  
                
  22979111.269   120756047.790    22979114.181    94095629.575                  
                
  22991515.551   123118528.688    22991515.390    95758849.304                  
                
  19915453.236   106459506.857    19915450.591    82801830.092                  
                
  22044946.874   117511973.572    22044948.339    91398191.425                  
                
  20462942.338   109347758.645    20462940.801    85048250.249                  
                
  22757630.661   121567183.856    22757630.054    94552246.904                  
                
  22706193.678   121420210.556    22706192.785    94437945.536                  
                
  21380799.820   114412986.867    21380798.730    88987867.526                  
                
  23055680.014   123072785.866    23055677.101    95723264.544                  
                
 21  8 31 21 20 14.0000000  0 14G10G15G18G23G24G32R 4R 5R14R15R16R20
                                R21R22
  21126652.780   111021308.120    21126653.799    86510113.774                  
                
  23016256.536   120951247.654    23016257.251    94247725.232                  
                
  22387468.061   117646937.422    22387467.722    91672936.689                  
                
  20174125.195   106015743.756    20174123.926    82609665.216                  
                
  20421598.136   107316222.375    20421599.691    83623036.265                  
                
  22978626.589   120753497.622    22978628.787    94093642.429                  
                
  22992053.677   123121408.377    22992053.266    95761089.057                  
                
  19915617.077   106460385.057    19915614.808    82802513.140                  
                
  22045391.187   117514338.243    22045392.098    91400030.598                  
                
  20462661.937   109346258.189    20462660.007    85047083.234                  
                
  22756802.379   121562753.015    22756800.627    94548800.706                  
                
  22706968.336   121424350.984    22706967.049    94441165.876                  
                
  21380973.256   114413909.111    21380971.023    88988584.817                  
                
  23055228.178   123070375.163    23055225.533    95721389.569                  
                
 21  8 31 21 20 15.0000000  0 14G10G15G18G23G24G32R 4R 5R14R15R16R20
                                R21R22
  21126274.886   111019321.941    21126275.923    86508566.109                  
                
  23016839.888   120954309.096    23016839.816    94250110.769                  
                
  22388097.051   117650244.680    22388096.908    91675513.764                  
                
  20174178.087   106016022.573    20174177.033    82609882.472                  
                
  20421772.055   107317135.047    20421773.396    83623747.438                  
                
  22978141.481   120750947.404    22978143.518    94091655.251                  
                
  22992592.714   123124287.931    22992591.070    95763328.713                  
                
  19915781.847   106461263.371    19915779.185    82803196.268                  
                
  22045834.625   117516703.403    22045835.786    91401870.164                  
                
  20462381.519   109344758.356    20462379.428    85045916.698                  
                
  22755973.256   121558322.058    22755971.219    94545354.415                  
                
  22707742.529   121428491.454    22707741.368    94444386.249                  
                
  21381145.157   114414832.004    21381143.530    88989302.630                  
                
  23054776.574   123067964.948    23054774.144    95719514.950                  
                
 21  8 31 21 20 16.0000000  0 14G10G15G18G23G24G32R 4R 5R14R15R16R20
                                R21R22
  21125896.992   111017336.514    21125898.082    86507019.019                  
                
  23017422.150   120957371.064    23017422.400    94252496.714                  
                
  22388727.255   117653552.648    22388726.451    91678091.400                  
                
  20174231.426   106016302.314    20174230.229    82610100.452                  
                
  20421945.742   107318048.785    20421947.154    83624459.432                  
                
  22977656.194   120748397.797    22977658.356    94089668.542                  
                
  22993129.732   123127168.080    22993128.838    95765568.831                  
                
  19915946.242   106462142.446    19915943.634    82803879.991                  
                
  22046279.009   117519069.729    22046279.671    91403710.637                  
                
  20462100.796   109343259.777    20462098.992    85044751.131                  
                
  22755143.150   121553891.676    22755141.935    94541908.563                  
                
  22708516.169   121432632.557    22708515.954    94447607.113                  
                
  21381318.147   114415756.244    21381316.127    88990021.476                  
                
  23054324.291   123065555.880    23054322.880    95717641.234                  
                
 21  8 31 21 20 17.0000000  0 14G10G15G18G23G24G32R 4R 5R14R15R16R20
                                R21R22
  21125518.991   111015351.251    21125520.134    86505472.058                  
                
  23018005.020   120960432.970    23018005.181    94254882.615                  
                
  22389356.692   117656860.778    22389356.066    91680669.161                  
                
  20174284.640   106016582.381    20174283.532    82610318.685                  
                
  20422119.804   107318963.024    20422121.341    83625171.833                  
                
  22977170.764   120745848.213    22977173.373    94087681.851                  
                
  22993666.910   123130048.202    22993666.874    95767808.924                  
                
  19916111.048   106463021.718    19916108.100    82804563.869                  
                
  22046722.233   117521436.633    22046723.519    91405551.551                  
                
  20461820.271   109341761.893    20461818.644    85043586.120                  
                
  22754313.188   121549461.288    22754312.598    94538462.722                  
                
  22709289.022   121436773.756    22709290.380    94450828.043                  
                
  21381490.833   114416681.169    21381489.028    88990740.867                  
                
  23053874.224   123063147.424    23053871.633    95715767.992                  
                
 21  8 31 21 20 18.0000000  0 14G10G15G18G23G24G32R 4R 5R14R15R16R20
                                R21R22
  21125141.329   111013366.041    21125142.365    86503925.146                  
                
  23018587.997   120963494.730    23018587.764    94257268.399                  
                
  22389986.182   117660168.964    22389985.574    91683246.970                  
                
  20174337.943   106016862.697    20174336.782    82610537.107                  
                
  20422294.027   107319877.680    20422295.296    83625884.547                  
                
  22976685.710   120743298.539    22976688.193    94085695.094                  
                
  22994204.643   123132928.190    22994204.750    95770048.912                  
                
  19916274.818   106463901.041    19916272.531    82805247.787                  
                
  22047167.296   117523804.013    22047167.332    91407392.842                  
                
  20461540.317   109340264.603    20461538.476    85042421.554                  
                
  22753483.279   121545030.826    22753482.993    94535016.809                  
                
  22710063.465   121440914.952    22710064.966    94454048.964                  
                
  21381664.627   114417606.742    21381661.893    88991460.750                  
                
  23053422.763   123060739.311    23053420.369    95713895.029                  
                
 21  8 31 21 20 19.0000000  0 14G10G15G18G23G24G32R 4R 5R14R15R16R20
                                R21R22
  21124763.685   111011381.374    21124764.614    86502378.647                  
                
  23019170.402   120966556.800    23019170.420    94259654.428                  
                
  22390615.743   117663477.675    22390615.207    91685825.186                  
                
  20174391.443   106017143.697    20174390.317    82610756.072                  
                
  20422468.358   107320793.210    20422469.501    83626597.956                  
                
  22976200.369   120740749.281    22976203.121    94083708.661                  
                
  22994743.590   123135808.483    22994742.679    95772289.137                  
                
  19916439.713   106464780.910    19916437.087    82805932.134                  
                
  22047611.681   117526172.330    22047611.234    91409234.862                  
                
  20461260.452   109338768.375    20461258.361    85041257.823                  
                
  22752655.103   121540600.770    22752653.656    94531571.224                  
                
  22710839.267   121445056.574    22710839.535    94457270.215                  
                
  21381837.349   114418533.436    21381835.276    88992181.514                  
                
  23052971.017   123058332.211    23052969.462    95712022.840                  
                
 21  8 31 21 20 20.0000000  0 14G10G15G18G23G24G32R 4R 5R14R15R16R20
                                R21R22
  21124386.291   111009397.264    21124387.006    86500832.592                  
                
  23019752.896   120969619.220    23019753.236    94262040.722                  
                
  22391245.197   117666786.920    22391244.840    91688403.833                  
                
  20174445.193   106017425.439    20174443.889    82610975.609                  
                
  20422642.259   107321709.641    20422643.849    83627312.056                  
                
  22975715.386   120738200.439    22975718.066    94081722.542                  
                
  22995280.608   123138689.125    22995280.483    95774529.625                  
                
  19916604.644   106465661.332    19916601.911    82806616.906                  
                
  22048055.548   117528541.595    22048055.298    91411077.630                  
                
  20460980.105   109337273.221    20460978.693    85040094.921                  
                
  22751826.785   121536171.131    22751824.426    94528125.942                  
                
  22711614.389   121449198.669    22711613.996    94460491.837                  
                
  21382010.625   114419461.274    21382008.570    88992903.154                  
                
  23052521.039   123055926.095    23052518.698    95710151.416                  
                
 21  8 31 21 20 21.0000000  0 14G10G15G18G23G24G32R 4R 5R14R15R16R20
                                R21R22
  21124008.647   111007413.175    21124009.577    86499286.547                  
                
  23020335.676   120972681.431    23020335.998    94264426.861                  
                
  22391874.973   117670096.188    22391874.669    91690982.472                  
                
  20174498.729   106017707.369    20174497.442    82611195.297                  
                
  20422816.929   107322626.436    20422818.340    83628026.437                  
                
  22975230.581   120735651.469    22975232.976    94079736.336                  
                
  22995818.948   123141569.555    22995818.323    95776769.967                  
                
  19916769.236   106466541.774    19916766.627    82807301.692                  
                
  22048500.254   117530911.264    22048499.468    91412920.706                  
                
  20460700.383   109335778.598    20460698.900    85038932.442                  
                
  22750997.358   121531741.378    22750995.250    94524680.584                  
                
  22712388.082   121453340.689    22712388.636    94463713.384                  
                
  21382184.061   114420389.652    21382181.917    88993625.224                  
                
  23052069.721   123053520.348    23052068.006    95708280.285                  
                
 21  8 31 21 20 22.0000000  0 14G10G15G18G23G24G32R 4R 5R14R15R16R20
                                R21R22
  21123630.914   111005429.992    21123632.147    86497741.214                  
                
  23020918.510   120975744.332    23020918.796    94266813.525                  
                
  22392504.874   117673406.343    22392504.552    91693561.802                  
                
  20174552.229   106017990.379    20174551.317    82611415.825                  
                
  20422991.277   107323544.481    20422993.153    83628741.804                  
                
  22974744.973   120733103.267    22974747.957    94077750.731                  
                
  22996356.341   123144450.724    22996356.323    95779010.876                  
                
  19916933.828   106467423.132    19916931.433    82807987.193                  
                
  22048945.604   117533282.239    22048943.727    91414764.803                  
                
  20460420.912   109334285.417    20460419.536    85037771.085                  
                
  22750168.200   121527312.336    22750166.074    94521235.775                  
                
  22713162.686   121457483.536    22713163.223    94466935.601                  
                
  21382358.713   114421319.504    21382355.658    88994348.447                  
                
  23051620.297   123051115.946    23051617.456    95706410.199                  
                
 21  8 31 21 20 23.0000000  0 14G10G15G18G23G24G32R 4R 5R14R15R16R20
                                R21R22
  21123253.931   111003446.423    21123254.771    86496195.569                  
                
  23021501.559   120978806.635    23021501.577    94269199.742                  
                
  22393134.561   117676716.093    22393134.346    91696140.834                  
                
  20174606.157   106018273.166    20174605.139    82611636.183                  
                
  20423166.000   107324462.459    20423167.805    83629457.114                  
                
  22974260.508   120730554.543    22974262.992    94075764.712                  
                
  22996894.824   123147331.316    22996894.270    95781251.329                  
                
  19917098.383   106468304.127    19917096.186    82808672.409                  
                
  22049389.685   117535653.227    22049388.309    91416608.914                  
                
  20460141.994   109332792.382    20460140.028    85036609.831                  
                
  22749338.077   121522882.706    22749336.558    94517790.501                  
                
  22713938.166   121461625.890    22713937.934    94470157.434                  
                
  21382531.543   114422249.536    21382529.345    88995071.807                  
                
  23051168.443   123048711.540    23051166.942    95704540.096                  
                
 21  8 31 21 20 24.0000000  0 14G10G15G18G23G24G32R 4R 5R14R15R16R20
                                R21R22
  21122876.287   111001463.449    21122877.342    86494650.399                  
                
  23022084.839   120981869.295    23022084.339    94271586.221                  
                
  22393764.765   117680026.418    22393764.265    91698720.301                  
                
  20174660.193   106018556.719    20174659.228    82611857.131                  
                
  20423340.688   107325381.382    20423342.635    83630173.150                  
                
  22973775.578   120728006.265    22973778.062    94073779.046                  
                
  22997433.003   123150212.332    22997432.163    95783492.122                  
                
  19917263.851   106469185.721    19917261.224    82809358.094                  
                
  22049835.606   117538025.215    22049833.105    91418453.805                  
                
  20459862.451   109331300.472    20459860.879    85035449.454                  
                
  22748508.597   121518453.485    22748507.274    94514345.546                  
                
  22714713.682   121465768.725    22714712.735    94473379.637                  
                
  21382705.176   114423180.715    21382703.335    88995796.055                  
                
  23050718.465   123046308.181    23050716.696    95702670.824                  
                
 21  8 31 21 20 25.0000000  0 14G10G15G18G23G24G32R 4R 5R14R15R16R20
                                R21R22
  21122499.072   110999480.460    21122500.109    86493105.213                  
                
  23022667.691   120984931.718    23022667.209    94273972.527                  
                
  22394394.523   117683336.728    22394394.094    91701299.757                  
                
  20174714.587   106018840.427    20174713.175    82612078.197                  
                
  20423516.161   107326300.633    20423517.609    83630889.450                  
                
  22973290.685   120725457.835    22973293.079    94071793.249                  
                
  22997970.789   123153093.082    22997970.039    95785732.706                  
                
  19917429.639   106470067.295    19917426.173    82810043.760                  
                
  22050279.830   117540397.614    22050278.007    91420299.008                  
                
  20459583.569   109329809.057    20459581.782    85034289.467                  
                
  22747679.117   121514024.090    22747677.973    94510900.466                  
                
  22715487.786   121469911.476    22715487.411    94476601.775                  
                
  21382879.881   114424112.458    21382877.433    88996520.740                  
                
  23050269.578   123043905.147    23050266.594    95700801.795                  
                
 21  8 31 21 20 26.0000000  0 14G10G15G18G23G24G32R 4R 5R14R15R16R20
                                R21R22
  21122121.750   110997497.882    21122122.983    86491560.342                  
                
  23023250.471   120987994.352    23023250.025    94276358.995                  
                
  22395024.853   117686647.419    22395024.138    91703879.517                  
                
  20174768.426   106019124.728    20174767.300    82612299.733                  
                
  20423691.742   107327220.647    20423692.618    83631606.346                  
                
  22972805.952   120722909.680    22972808.114    94069807.680                  
                
  22998508.969   123155974.024    22998508.057    95787973.431                  
                
  19917594.302   106470949.310    19917591.086    82810729.769                  
                
  22050724.894   117542770.828    22050723.429    91422144.851                  
                
  20459304.652   109328318.609    20459302.883    85033130.230                  
                
  22746850.191   121509594.985    22746848.761    94507455.602                  
                
  22716261.050   121474054.562    22716262.104    94479824.179                  
                
  21383053.550   114425045.212    21383051.728    88997246.215                  
                
  23049819.421   123041502.995    23049816.687    95698933.450                  
                
 21  8 31 21 20 27.0000000  0 14G10G15G18G23G24G32R 4R 5R14R15R16R20
                                R21R22
  21121744.535   110995515.964    21121745.661    86490015.986                  
                
  23023833.395   120991057.420    23023833.037    94278745.804                  
                
  22395654.718   117689958.774    22395654.415    91706459.798                  
                
  20174823.016   106019409.827    20174821.443    82612521.888                  
                
  20423866.680   107328141.653    20423867.931    83632324.011                  
                
  22972320.700   120720362.033    22972323.345    94067822.503                  
                
  22999046.933   123158855.423    22999046.076    95790214.514                  
                
  19917759.108   106471831.946    19917756.214    82811416.264                  
                
  22051169.261   117545145.090    22051169.028    91423991.499                  
                
  20459026.181   109326829.316    20459024.215    85031971.900                  
                
  22746021.568   121505166.391    22746019.763    94504011.144                  
                
  22717034.779   121478198.171    22717037.155    94483046.979                  
                
  21383227.469   114425979.143    21383226.272    88997972.612                  
                
  23049369.265   123039101.866    23049366.835    95697065.903                  
                
 21  8 31 21 20 28.0000000  0 14G10G15G18G23G24G32R 4R 5R14R15R16R20
                                R21R22
  21121367.624   110993534.410    21121368.606    86488471.921                  
                
  23024416.014   120994120.623    23024415.782    94281132.715                  
                
  22396284.923   117693270.452    22396284.512    91709040.328                  
                
  20174876.873   106019695.470    20174875.729    82612744.469                  
                
  20424041.957   107329063.334    20424043.387    83633042.208                  
                
  22971836.289   120717814.612    22971838.523    94065837.502                  
                
  22999584.666   123161736.987    22999584.166    95792455.733                  
                
  19917924.468   106472714.944    19917921.306    82812103.044                  
                
  22051616.022   117547520.096    22051614.914    91425838.730                  
