     2.11           OBSERVATION DATA    M (MIXED)           RINEX VERSION / TYPE
CONVBIN 2.4.3                           20210831 165308 UTC PGM / RUN BY / DATE 
log: logs/21_08_31_07_48_02_txan_SW.rtcm                    COMMENT             
format: RTCM 3, station ID: 2488                            COMMENT             
2488                                                        MARKER NAME         
                                                            MARKER NUMBER       
                                                            OBSERVER / AGENCY   
                    SWFT                                    REC # / TYPE / VERS 
                    NULL                                    ANT # / TYPE        
  -835825.0232 -5541920.6960  3034372.4658                  APPROX POSITION XYZ 
        0.0000        0.0000        0.0000                  ANTENNA: DELTA H/E/N
     1     1                                                WAVELENGTH FACT L1/2
     5    C1    L1    P2    L2    C2                        # / TYPES OF OBSERV 
  2021     8    31     7    48    7.0000000     GPS         TIME OF FIRST OBS   
  2021     8    31     8    18    5.0000000     GPS         TIME OF LAST OBS    
                                                            END OF HEADER       
 21  8 31  7 48  7.0000000  0 14G 1G 7G 8G13G14G17G21E 1E 4E 9E24E26
                                E31E33
  22594244.589   118733506.738    22594248.038    92519602.293                  
  20323135.746   106798810.417    20323135.281    83219854.804                  
  22967744.086   120696265.566    22967746.641    94049027.222                  
  24319054.103   127797499.114    24319053.764    99582468.413                  
  22011044.656   115668826.052    22011045.138    90131556.262                  
  22026978.320   115752553.058    22026978.445    90196794.216                  
  22610707.606   118820068.083    22610706.927    92587066.062                  
  25329902.713   133109505.171                                                  
  25582576.237   134437351.597                                                  
  23756231.182   124839826.204                                                  
  27738376.007   145766180.360                                                  
  25349591.839   133212972.997                                                  
  24622182.422   129390420.755                                                  
  25336996.698   133146836.038                                                  
 21  8 31  7 48  8.0000000  0 14G 1G 7G 8G13G14G17G21E 1E 4E 9E24E26
                                E31E33
  22593787.642   118731105.534    22593791.109    92517731.225                  
  20323093.896   106798590.574    20323093.432    83219683.496                  
  22968357.405   120699488.609    22968359.978    94051538.679                  
  24318509.920   127794639.380    24318509.563    99580240.051                  
  22010802.834   115667555.245    22010803.299    90130566.027                  
  22026457.099   115749814.105    22026457.242    90194659.965                  
  22610663.523   118819836.429    22610662.844    92586885.554                  
  25330074.703   133110408.907                                                  
  25583024.160   134439705.427                                                  
  23756263.775   124839997.532                                                  
  27738103.237   145764747.055                                                  
  25349600.023   133213016.031                                                  
  24622079.121   129389877.923                                                  
  25336587.962   133144688.133                                                  
 21  8 31  7 48  9.0000000  0 14G 1G 7G 8G13G14G17G21E 1E 4E 9E24E26
                                E31E33
  22593330.767   118728704.671    22593334.234    92515860.425                  
  20323052.154   106798371.174    20323051.708    83219512.540                  
  22968970.759   120702711.869    22968973.332    94054050.308                  
  24317965.808   127791779.980    24317965.433    99578011.950                  
  22010561.048   115666284.603    22010561.495    90129575.909                  
  22025935.985   115747075.578    22025936.092    90192526.047                  
  22610619.511   118819605.312    22610618.868    92586705.461                  
  25330246.656   133111312.618                                                  
  25583472.119   134442059.485                                                  
  23756296.457   124840169.217                                                  
  27737830.484   145763313.706                                                  
  25349608.297   133213059.546                                                  
  24621975.820   129389335.091                                                  
  25336179.279   133142540.460                                                  
 21  8 31  7 48 10.0000000  0 14G 1G 7G 8G13G14G17G21E 1E 4E 9E24E26
                                E31E33
  22592873.963   118726304.146    22592877.412    92513989.884                  
  20323010.484   106798152.226    20323010.019    83219341.926                  
  22969584.167   120705935.316    22969586.740    94056562.089                  
  24317421.732   127788920.956    24317421.375    99575784.136                  
  22010319.280   115665014.113    22010319.745    90128585.922                  
  22025414.942   115744337.442    22025415.067    90190392.434                  
  22610575.661   118819374.746    22610574.982    92586525.802                  
  25330418.646   133112216.343                                                  
  25583920.113   134444413.723                                                  
  23756329.211   124840341.393                                                  
  27737557.731   145761880.366                                                  
  25349616.659   133213103.504                                                  
  24621872.520   129388792.297                                                  
  25335770.632   133140393.063                                                  
 21  8 31  7 48 11.0000000  0 19G 1G 7G 8G13G14G17G21G30C20C23C27C28
                                E 1E 4E 9E24E26E31E33
  22592417.213   118723903.946    22592420.680    92512119.600                  
  20322968.920   106797933.733    20322968.438    83219171.672                  
  22970197.628   120709159.019    22970200.201    94059074.063                  
  24316877.764   127786062.298    24316877.406    99573556.609                  
  22010077.548   115663743.781    22010077.995    90127596.055                  
  22024893.952   115741599.698    22024894.078    90188259.132                  
  22610531.882   118819144.703    22610531.220    92586346.547                  
  21159248.094   111192560.202    21159250.220    86643543.684                  
                 134078175.604                   134078175.604    25748299.918  
                 122125472.389                   122125472.389    23452904.320  
                 123739560.352                   123739560.352    23762882.533  
                 114578194.257                   114578194.257    22003536.896  
  25330590.599   133113120.047                                                  
  25584368.161   134446768.163                                                  
  23756362.055   124840513.980                                                  
  27737284.978   145760447.020                                                  
  25349625.111   133213147.929                                                  
  24621769.237   129388249.492                                                  
  25335362.057   133138245.942                                                  
 21  8 31  7 48 12.0000000  0 19G 1G 7G 8G13G14G17G21G30C20C23C27C28
                                E 1E 4E 9E24E26E31E33
  22591960.535   118721504.101    22591964.001    92510249.589                  
  20322927.428   106797715.686    20322926.964    83219001.765                  
  22970811.107   120712382.916    22970813.681    94061586.191                  
  24316333.848   127783203.999    24316333.473    99571329.362                  
  22009835.834   115662473.614    22009836.299    90126606.312                  
  22024373.053   115738862.362    22024373.178    90186126.141                  
  22610488.192   118818915.200    22610487.549    92586167.716                  
  21158878.312   111190616.946    21158880.421    86642029.454                  
                 134079785.102                   134079785.102    25748609.016  
                 122126548.297                   122126548.297    23453110.940  
                 123736501.143                   123736501.143    23762295.035  
                 114577593.717                   114577593.717    22003421.587  
  25330762.589   133114023.766                                                  
  25584816.227   134449122.788                                                  
  23756395.005   124840687.042                                                  
  27737012.226   145759013.683                                                  
  25349633.653   133213192.829                                                  
  24621665.936   129387706.710                                                  
  25334953.518   133136099.091                                                  
 21  8 31  7 48 13.0000000  0 19G 1G 7G 8G13G14G17G21G30C20C23C27C28
                                E 1E 4E 9E24E26E31E33
  22591503.927   118719104.579    22591507.394    92508379.837                  
  20322886.026   106797498.091    20322885.543    83218832.210                  
  22971424.622   120715607.012    22971427.196    94064098.473                  
  24315790.005   127780346.066    24315789.647    99569102.406                  
  22009594.155   115661203.608    22009594.620    90125616.700                  
  22023852.242   115736125.414    22023852.367    90183993.454                  
  22610444.645   118818686.231    22610443.966    92585989.296                  
  21158508.584   111188673.960    21158510.693    86640515.441                  
                 134081394.845                   134081394.845    25748918.132  
                 122127624.405                   122127624.405    23453317.595  
                 123733442.147                   123733442.147    23761707.609  
                 114576993.722                   114576993.722    22003306.368  
  25330934.542   133114927.477                                                  
  25585264.346   134451477.624                                                  
  23756428.027   124840860.547                                                  
  27736739.455   145757580.352                                                  
  25349642.301   133213238.186                                                  
  24621562.653   129387163.937                                                  
  25334545.032   133133952.507                                                  
 21  8 31  7 48 14.0000000  0 19G 1G 7G 8G13G14G17G21G30C20C23C27C28
                                E 1E 4E 9E24E26E31E33
  22591047.374   118716705.395    22591050.840    92506510.340                  
  20322844.677   106797280.942    20322844.212    83218663.003                  
  22972038.191   120718831.328    22972040.782    94066610.925                  
  24315246.215   127777488.503    24315245.857    99566875.734                  
  22009352.513   115659933.761    22009352.977    90124627.208                  
  22023331.485   115733388.862    22023331.628    90181861.078                  
  22610401.152   118818457.805    22610400.509    92585811.302                  
  21158138.892   111186731.267    21158141.001    86639001.652                  
                 134083004.831                   134083004.831    25749227.320  
                 122128700.711                   122128700.711    23453524.304  
                 123730383.363                   123730383.363    23761120.182  
                 114576394.276                   114576394.276    22003191.238  
  25331106.514   133115831.199                                                  
  25585712.483   134453832.657                                                  
  23756461.120   124841034.484                                                  
  27736466.720   145756147.032                                                  
  25349651.021   133213284.017                                                  
  24621459.388   129386621.187                                                  
  25334136.600   133131806.195                                                  
 21  8 31  7 48 15.0000000  0 19G 1G 7G 8G13G14G17G21G30C20C23C27C28
                                E 1E 4E 9E24E26E31E33
  22590590.892   118714306.551    22590594.358    92504641.108                  
  20322803.453   106797064.250    20322803.006    83218494.153                  
  22972651.795   120722055.867    22972654.386    94069123.555                  
  24314702.514   127774631.313    24314702.156    99564649.347                  
  22009110.906   115658664.075    22009111.352    90123637.840                  
  22022810.817   115730652.715    22022810.943    90179729.015                  
  22610357.802   118818229.921    22610357.140    92585633.735                  
  21157769.254   111184788.841    21157771.380    86637488.073                  
                 134084615.071                   134084615.071    25749536.561  
                 122129777.214                   122129777.214    23453731.013  
                 123727324.792                   123727324.792    23760532.828  
                 114575795.374                   114575795.374    22003076.215  
  25331278.503   133116734.921                                                  
  25586160.674   134456187.886                                                  
  23756494.303   124841208.895                                                  
  27736193.967   145754713.706                                                  
  25349659.813   133213330.314                                                  
  24621356.105   129386078.449                                                  
  25333728.239   133129660.169                                                  
 21  8 31  7 48 16.0000000  0 19G 1G 7G 8G13G14G17G21G30C20C23C27C28
                                E 1E 4E 9E24E26E31E33
  22590134.481   118711907.962    22590137.948    92502772.035                  
  20322762.301   106796848.023    20322761.836    83218325.675                  
  22973265.453   120725280.632    22973268.044    94071636.359                  
  24314158.884   127771774.401    24314158.527    99562423.144                  
  22008869.316   115657394.527    22008869.781    90122648.575                  
  22022290.221   115727916.975    22022290.346    90177597.277                  
  22610314.541   118818002.531    22610313.862    92585456.527                  
  21157399.686   111182846.726    21157401.795    86635974.751                  
                 134086225.552                   134086225.552    25749845.838  
                 122130853.919                   122130853.919    23453937.793  
                 123724266.438                   123724266.438    23759945.508  
                 114575197.019                   114575197.019    22002961.317  
  25331450.457   133117638.713                                                  
  25586608.901   134458543.312                                                  
  23756527.575   124841383.750                                                  
  27735921.197   145753280.340                                                  
  25349668.712   133213376.992                                                  
  24621252.822   129385535.652                                                  
  25333319.896   133127514.429                                                  
 21  8 31  7 48 17.0000000  0 19G 1G 7G 8G13G14G17G21G30C20C23C27C28
                                E 1E 4E 9E24E26E31E33
  22589678.124   118709509.793    22589681.573    92500903.331                  
  20322721.238   106796632.238    20322720.773    83218157.531                  
  22973879.165   120728505.632    22973881.738    94074149.349                  
  24313615.327   127768917.959    24313614.951    99560197.345                  
  22008627.763   115656125.155    22008628.245    90121659.454                  
  22021769.697   115725181.618    22021769.822    90175465.832                  
  22610271.387   118817775.730    22610270.708    92585279.801                  
  21157030.155   111180904.864    21157032.281    86634461.614                  
                 134087836.277                   134087836.277    25750155.151  
                 122131930.821                   122131930.821    23454144.592  
                 123721208.297                   123721208.297    23759358.225  
                 114574599.210                   114574599.210    22002846.526  
  25331622.446   133118542.438                                                  
  25587057.163   134460898.940                                                  
  23756560.937   124841559.057                                                  
  27735648.462   145751847.026                                                  
  25349677.700   133213424.207                                                  
  24621149.539   129384992.946                                                  
  25332911.642   133125368.931                                                  
 21  8 31  7 48 18.0000000  0 19G 1G 7G 8G13G14G17G21G30C20C23C27C28
                                E 1E 4E 9E24E26E31E33
  22589221.821   118707111.958    22589225.287    92499034.891                  
  20322680.264   106796416.893    20322679.800    83217989.735                  
  22974492.877   120731730.837    22974495.468    94076662.493                  
  24313071.822   127766061.878    24313071.465    99557971.829                  
  22008386.245   115654855.956    22008386.692    90120670.468                  
  22021249.244   115722446.656    22021249.387    90173334.691                  
  22610228.323   118817549.461    22610227.661    92585103.487                  
  21156660.695   111178963.280    21156662.804    86632948.691                  
                 134089447.255                   134089447.255    25750464.518  
                 122133007.923                   122133007.923    23454351.443  
                 123718150.368                   123718150.368    23758770.978  
                 114574001.948                   114574001.948    22002731.825  
  25331794.400   133119446.163                                                  
  25587505.443   134463254.768                                                  
  23756594.388   124841734.793                                                  
  27735375.691   145750413.710                                                  
  25349686.777   133213471.915                                                  
  24621046.274   129384450.253                                                  
  25332503.425   133123223.720                                                  
 21  8 31  7 48 19.0000000  0 19G 1G 7G 8G13G14G17G21G30C20C23C27C28
                                E 1E 4E 9E24E26E31E33
  22588765.607   118704714.464    22588769.056    92497166.718                  
  20322639.362   106796202.001    20322638.897    83217822.286                  
  22975106.660   120734956.251    22975109.233    94079175.805                  
  24312528.408   127763206.155    24312528.032    99555746.593                  
  22008144.763   115653586.907    22008145.228    90119681.601                  
  22020728.880   115719712.087    22020729.005    90171203.863                  
  22610185.365   118817323.734    22610184.704    92584927.601                  
  21156291.289   111177021.969    21156293.379    86631435.988                  
                 134091058.472                   134091058.472    25750773.938  
                 122134085.218                   122134085.218    23454558.349  
                 123715092.651                   123715092.651    23758183.766  
                 114573405.235                   114573405.235    22002617.213  
  25331966.389   133120349.891                                                  
  25587953.777   134465610.790                                                  
  23756627.892   124841910.980                                                  
  27735102.956   145748980.399                                                  
  25349695.944   133213520.058                                                  
  24620943.009   129383907.570                                                  
  25332095.242   133121078.782                                                  
 21  8 31  7 48 20.0000000  0 20G 1G 7G 8G 9G13G14G17G21G30C20C23C27
                                C28E 1E 4E 9E24E26E31E33
  22588309.429   118702317.298    22588312.895    92495298.797                  
  20322598.567   106795987.543    20322598.102    83217655.180                  
  22975720.479   120738181.864    22975723.052    94081689.274                  
  22938057.957   120540266.227    22938060.548    93927469.601                  
  24311985.046   127760350.808    24311984.671    99553521.649                  
  22007903.281   115652318.013    22007903.764    90118692.855                  
  22020208.587   115716977.918    22020208.695    90169073.343                  
  22610142.498   118817098.536    22610141.837    92584752.124                  
  21155921.900   111175080.929    21155924.027    86629923.489                  
                 134092669.941                   134092669.941    25751083.411  
                 122135162.719                   122135162.719    23454765.254  
                 123712035.153                   123712035.153    23757596.608  
                 114572809.066                   114572809.066    22002502.744  
  25332138.342   133121253.611                                                  
  25588402.164   134467967.000                                                  
  23756661.504   124842087.590                                                  
  27734830.204   145747547.085                                                  
  25349705.200   133213568.673                                                  
  24620839.744   129383364.900                                                  
  25331687.114   133118934.114                                                  
 21  8 31  7 48 21.0000000  0 20G 1G 7G 8G 9G13G14G17G21G30C20C23C27
                                C28E 1E 4E 9E24E26E31E33
  22587853.322   118699920.473    22587856.806    92493431.143                  
  20322557.843   106795773.536    20322557.379    83217488.417                  
  22976334.333   120741407.689    22976336.924    94084202.902                  
  22938686.875   120543571.214    22938689.466    93930044.918                  
  24311441.757   127757495.833    24311441.399    99551296.993                  
  22007661.853   115651049.284    22007662.318    90117704.235                  
  22019688.367   115714244.145    22019688.474    90166943.133                  
  22610099.755   118816873.877    22610099.076    92584577.066                  
  21155552.601   111173140.175    21155554.692    86628411.212                  
                 134094281.652                   134094281.652    25751392.921  
                 122136240.414                   122136240.414    23454972.213  
                 123708977.864                   123708977.864    23757009.485  
                 114572213.441                   114572213.441    22002388.365  
  25332310.314   133122157.336                                                  
  25588850.552   134470323.415                                                  
  23756695.205   124842264.663                                                  
  27734557.469   145746113.774                                                  
  25349714.546   133213617.760                                                  
  24620736.461   129382822.247                                                  
  25331279.057   133116789.716                                                  
 21  8 31  7 48 22.0000000  0 20G 1G 7G 8G 9G13G14G17G21G30C20C23C27
                                C28E 1E 4E 9E24E26E31E33
  22587397.304   118697523.980    22587400.753    92491563.746                  
  20322517.191   106795559.973    20322516.745    83217322.009                  
  22976948.223   120744633.721    22976950.796    94086716.691                  
  22939315.829   120546876.380    22939318.402    93932620.368                  
  24310898.538   127754641.225    24310898.181    99549072.621                  
  22007420.460   115649780.716    22007420.925    90116715.742                  
  22019168.217   115711510.765    22019168.342    90164813.231                  
  22610057.102   118816649.762    22610056.440    92584402.430                  
  21155183.338   111171199.695    21155185.446    86626899.149                  
                 134095893.610                   134095893.610    25751702.484  
                 122137318.308                   122137318.308    23455179.226  
                 123705920.792                   123705920.792    23756422.398  
                 114571618.366                   114571618.366    22002274.074  
  25332482.303   133123061.066                                                  
  25589299.028   134472680.020                                                  
  23756728.977   124842442.200                                                  
  27734284.698   145744680.469                                                  
  25349723.963   133213667.320                                                  
  24620633.196   129382279.609                                                  
  25330871.036   133114645.597                                                  
 21  8 31  7 48 23.0000000  0 20G 1G 7G 8G 9G13G14G17G21G30C20C23C27
                                C28E 1E 4E 9E24E26E31E33
  22586941.323   118695127.829    22586944.771    92489696.618                  
  20322476.647   106795346.864    20322476.182    83217155.950                  
  22977562.167   120747859.971    22977564.740    94089230.652                  
  22939944.800   120550181.707    22939947.391    93935195.950                  
  24310355.391   127751786.972    24310355.034    99546848.528                  
  22007179.086   115648512.309    22007179.568    90115727.371                  
  22018648.139   115708777.793    22018648.264    90162683.638                  
  22610014.556   118816426.180    22610013.894    92584228.211                  
  21154814.128   111169259.494    21154816.237    86625387.304                  
                 134097505.816                   134097505.816    25752012.100  
                 122138396.405                   122138396.405    23455386.256  
                 123702863.934                   123702863.934    23755835.365  
                 114571023.837                   114571023.837    22002159.891  
  25332654.257   133123964.783                                                  
  25589747.505   134475036.825                                                  
  23756762.839   124842620.157                                                  
  27734011.963   145743247.156                                                  
  25349733.487   133213717.332                                                  
  24620529.948   129381736.976                                                  
  25330463.086   133112501.747                                                  
 21  8 31  7 48 24.0000000  0 20G 1G 7G 8G 9G13G14G17G21G30C20C23C27
                                C28E 1E 4E 9E24E26E31E33
  22586485.394   118692732.011    22586488.879    92487829.746                  
  20322436.173   106795134.202    20322435.709    83216990.239                  
  22978176.147   120751086.439    22978178.720    94091744.782                  
  22940573.826   120553487.220    22940576.417    93937771.671                  
  24309812.316   127748933.101    24309811.959    99544624.734                  
  22006937.747   115647244.067    22006938.211    90114739.133                  
  22018128.169   115706045.211    22018128.276    90160554.355                  
  22609972.117   118816203.145    22609971.455    92584054.419                  
  21154444.954   111167319.580    21154447.081    86623875.685                  
                 134099118.265                   134099118.265    25752321.735  
                 122139474.700                   122139474.700    23455593.323  
                 123699807.290                   123699807.290    23755248.386  
                 114570429.852                   114570429.852    22002045.833  
  25332826.246   133124868.517                                                  
  25590196.018   134477393.827                                                  
  23756796.808   124842798.586                                                  
  27733739.193   145741813.874                                                  
  25349743.083   133213767.813                                                  
  24620426.701   129381194.365                                                  
  25330055.172   133110358.180                                                  
 21  8 31  7 48 25.0000000  0 20G 1G 7G 8G 9G13G14G17G21G30C20C23C27
                                C28E 1E 4E 9E24E26E31E33
  22586029.556   118690336.538    22586033.022    92485963.144                  
  20322395.771   106794921.989    20322395.325    83216824.876                  
  22978790.162   120754313.108    22978792.735    94094259.075                  
  22941202.887   120556792.879    22941205.460    93940347.507                  
  24309269.312   127746079.596    24309268.955    99542401.222                  
  22006696.443   115645975.969    22006696.908    90113751.004                  
  22017608.234   115703313.019    22017608.359    90158425.375                  
  22609929.785   118815980.640    22609929.124    92583881.039                  
  21154075.852   111165379.930    21154077.978    86622364.269                  
                 134100730.962                   134100730.962    25752631.440  
                 122140553.192                   122140553.192    23455800.442  
                 123696750.858                   123696750.858    23754661.424  
                 114569836.417                   114569836.417    22001931.865  
  25332998.218   133125772.230                                                  
  25590644.584   134479751.011                                                  
  23756830.813   124842977.414                                                  
  27733466.458   145740380.555                                                  
  25349752.785   133213818.750                                                  
  24620323.436   129380651.750                                                  
  25329647.311   133108214.867                                                  
 21  8 31  7 48 26.0000000  0 20G 1G 7G 8G 9G13G14G17G21G30C20C23C27
                                C28E 1E 4E 9E24E26E31E33
  22585573.788   118687941.392    22585577.237    92484096.794                  
  20322355.495   106794710.236    20322355.048    83216659.872                  
  22979404.195   120757540.001    22979406.786    94096773.532                  
  22941831.966   120560098.711    22941834.539    93942923.481                  
  24308726.380   127743226.456    24308726.022    99540177.996                  
  22006455.158   115644708.038    22006455.622    90112763.008                  
  22017088.388   115700581.227    22017088.513    90156296.703                  
  22609887.542   118815758.676    22609886.881    92583708.077                  
  21153706.821   111163440.567    21153708.911    86620853.078                  
                 134102343.903                   134102343.903    25752941.200  
                 122141631.882                   122141631.882    23456007.598  
                 123693694.639                   123693694.639    23754074.498  
                 114569243.528                   114569243.528    22001818.021  
  25333170.171   133126675.964                                                  
  25591093.186   134482108.415                                                  
  23756864.960   124843156.741                                                  
  27733193.705   145738947.273                                                  
  25349762.560   133213870.164                                                  
  24620220.189   129380109.156                                                  
  25329239.522   133106071.840                                                  
 21  8 31  7 48 27.0000000  0 20G 1G 7G 8G 9G13G14G17G21G30C20C23C27
                                C28E 1E 4E 9E24E26E31E33
  22585118.057   118685546.582    22585121.541    92482230.711                  
  20322315.271   106794498.923    20322314.825    83216495.215                  
  22980018.300   120760767.105    22980020.873    94099288.156                  
  22942461.063   120563404.708    22942463.636    93945499.582                  
  24308183.519   127740373.691    24308183.162    99537955.062                  
  22006213.908   115643440.274    22006214.373    90111775.136                  
  22016568.614   115697849.833    22016568.739    90154168.347                  
  22609845.407   118815537.257    22609844.746    92583535.543                  
  21153337.825   111161501.490    21153339.934    86619342.106                  
                 134103957.085                   134103957.085    25753250.995  
                 122142710.773                   122142710.773    23456214.771  
                 123690638.641                   123690638.641    23753487.626  
                 114568651.183                   114568651.183    22001704.267  
  25333342.161   133127579.683                                                  
  25591541.805   134484465.992                                                  
  23756899.162   124843336.491                                                  
  27732920.952   145737513.980                                                  
  25349772.441   133213922.030                                                  
  24620116.942   129379566.585                                                  
  25328831.751   133103929.085                                                  
 21  8 31  7 48 28.0000000  0 20G 1G 7G 8G 9G13G14G17G21G30C20C23C27
                                C28E 1E 4E 9E24E26E31E33
  22584662.415   118683152.116    22584665.881    92480364.894                  
  20322275.156   106794288.063    20322274.709    83216330.905                  
  22980632.441   120763994.423    22980635.014    94101802.954                  
  22943090.195   120566710.880    22943092.804    93948075.820                  
  24307640.712   127737521.292    24307640.372    99535732.414                  
  22005972.694   115642172.660    22005973.159    90110787.387                  
  22016048.947   115695118.836    22016049.054    90152040.297                  
  22609803.379   118815316.372    22609802.700    92583363.425                  
  21152968.884   111159562.688    21152970.992    86617831.351                  
                 134105570.520                   134105570.520    25753560.844  
                 122143789.865                   122143789.865    23456422.016  
                 123687582.852                   123687582.852    23752900.807  
                 114568059.381                   114568059.381    22001590.602  
  25333514.132   133128483.402                                                  
  25591990.479   134486823.774                                                  
  23756933.434   124843516.684                                                  
  27732648.217   145736080.687                                                  
  25349782.394   133213974.366                                                  
  24620013.677   129379024.014                                                  
  25328424.052   133101786.597                                                  
 21  8 31  7 48 29.0000000  0 20G 1G 7G 8G 9G13G14G17G21G30C20C23C27
                                C28E 1E 4E 9E24E26E31E33
  22584206.826   118680757.988    22584210.275    92478499.339                  
  20322235.129   106794077.651    20322234.664    83216166.953                  
  22981246.617   120767221.961    22981249.208    94104317.919                  
  22943719.381   120570017.211    22943721.954    93950652.184                  
  24307097.994   127734669.261    24307097.654    99533510.051                  
  22005731.498   115640905.210    22005731.963    90109799.766                  
  22015529.316   115692388.241    22015529.441    90149912.563                  
  22609761.441   118815096.030    22609760.780    92583191.735                  
  21152599.995   111157624.156    21152602.104    86616320.809                  
                 134107184.194                   134107184.194    25753870.729  
                 122144869.148                   122144869.148    23456629.279  
                 123684527.281                   123684527.281    23752314.006  
                 114567468.133                   114567468.133    22001477.062  
  25333686.104   133129387.124                                                  
  25592439.188   134489181.750                                                  
  23756967.814   124843697.325                                                  
  27732375.464   145734647.391                                                  
  25349792.437   133214027.172                                                  
  24619910.447   129378481.470                                                  
  25328016.406   133099644.391                                                  
 21  8 31  7 48 30.0000000  0 20G 1G 7G 8G 9G13G14G17G21G30C20C23C27
                                C28E 1E 4E 9E24E26E31E33
  22583751.309   118678364.200    22583754.758    92476634.050                  
  20322195.156   106793867.700    20322194.691    83216003.352                  
  22981860.847   120770449.710    22981863.420    94106833.046                  
  22944348.585   120573323.710    22944351.176    93953228.677                  
  24306555.347   127731817.587    24306555.008    99531287.966                  
  22005490.338   115639637.918    22005490.820    90108812.266                  
  22015009.774   115689658.039    22015009.899    90147785.133                  
  22609719.627   118814876.214    22609718.948    92583020.449                  
  21152231.161   111155685.903    21152233.252    86614810.480                  
                 134108798.118                   134108798.118    25754180.667  
                 122145948.638                   122145948.638    23456836.578  
                 123681471.923                   123681471.923    23751727.259  
                 114566877.430                   114566877.430    22001363.612  
  25333858.075   133130290.861                                                  
  25592887.932   134491539.928                                                  
  23757002.284   124843878.413                                                  
  27732102.712   145733214.106                                                  
  25349802.586   133214080.441                                                  
  24619807.200   129377938.926                                                  
  25327608.813   133097502.458                                                  
 21  8 31  7 48 31.0000000  0 20G 1G 7G 8G 9G13G14G17G21G30C20C23C27
                                C28E 1E 4E 9E24E26E31E33
  22583295.845   118675970.749    22583299.294    92474769.028                  
  20322155.308   106793658.195    20322154.843    83215840.102                  
  22982475.094   120773677.657    22982477.685    94109348.329                  
  22944977.825   120576630.352    22944980.398    93955805.281                  
  24306012.754   127728966.298    24306012.415    99529066.180                  
  22005249.213   115638370.788    22005249.678    90107824.890                  
  22014490.303   115686928.233    22014490.446    90145658.011                  
  22609677.885   118814656.946    22609677.224    92582849.591                  
  21151862.362   111153747.929    21151864.489    86613300.370                  
                 134110412.286                   134110412.286    25754490.641  
                 122147028.326                   122147028.326    23457043.912  
                 123678416.783                   123678416.783    23751140.547  
                 114566287.272                   114566287.272    22001250.305  
  25334030.064   133131194.589                                                  
  25593336.713   134493898.292                                                  
  23757036.825   124844059.944                                                  
  27731829.977   145731780.819                                                  
  25349812.808   133214134.170                                                  
  24619703.953   129377396.405                                                  
  25327201.257   133095360.792                                                  
 21  8 31  7 48 32.0000000  0 20G 1G 7G 8G 9G13G14G17G21G30C20C23C27
                                C28E 1E 4E 9E24E26E31E33
  22582840.453   118673577.636    22582843.920    92472904.267                  
  20322115.514   106793449.142    20322115.067    83215677.203                  
  22983089.396   120776905.826    22983091.987    94111863.781                  
  22945607.101   120579937.188    22945609.674    93958382.036                  
  24305470.269   127726115.370    24305469.893    99526844.680                  
  22005008.124   115637103.825    22005008.589    90106837.644                  
  22013970.922   115684198.841    22013971.048    90143531.210                  
  22609636.268   118814438.200    22609635.607    92582679.140                  
  21151493.635   111151810.242    21151495.761    86611790.489                  
                 134112026.695                   134112026.695    25754800.686  
                 122148108.211                   122148108.211    23457251.300  
                 123675361.852                   123675361.852    23750553.872  
                 114565697.660                   114565697.660    22001137.069  
  25334202.018   133132098.314                                                  
  25593785.547   134496256.864                                                  
  23757071.455   124844241.938                                                  
  27731557.242   145730347.540                                                  
  25349823.118   133214188.364                                                  
  24619600.723   129376853.890                                                  
  25326793.771   133093219.399                                                  
 21  8 31  7 48 33.0000000  0 20G 1G 7G 8G 9G13G14G17G21G30C20C23C27
                                C28E 1E 4E 9E24E26E31E33
  22582385.115   118671184.855    22582388.581    92471039.757                  
  20322075.827   106793240.526    20322075.362    83215514.648                  
  22983703.733   120780134.191    22983706.324    94114379.395                  
  22946236.376   120583244.176    22946238.985    93960958.905                  
  24304927.819   127723264.820    24304927.461    99524623.468                  
  22004767.053   115635837.003    22004767.518    90105850.516                  
  22013451.595   115681469.833    22013451.738    90141404.710                  
  22609594.741   118814220.012    22609594.080    92582509.121                  
  21151124.961   111149872.837    21151127.088    86610280.820                  
                 134113641.352                   134113641.352    25755110.767  
                 122149188.294                   122149188.294    23457458.723  
                 123672307.142                   123672307.142    23749967.267  
                 114565108.598                   114565108.598    22001023.940  
  25334374.007   133133002.039                                                  
  25594234.399   134498615.620                                                  
  23757106.174   124844424.358                                                  
  27731284.471   145728914.253                                                  
  25349833.518   133214243.033                                                  
  24619497.494   129376311.395                                                  
  25326386.340   133091078.281                                                  
 21  8 31  7 48 34.0000000  0 20G 1G 7G 8G 9G13G14G17G21G30C20C23C27
                                C28E 1E 4E 9E24E26E31E33
  22581929.866   118668792.422    22581933.314    92469175.526                  
  20322036.193   106793032.371    20322035.746    83215352.444                  
  22984318.123   120783362.789    22984320.696    94116895.183                  
  22946865.723   120586551.335    22946868.296    93963535.914                  
  24304385.440   127720414.629    24304385.083    99522402.544                  
  22004526.018   115634570.349    22004526.483    90104863.513                  
  22012932.375   115678741.219    22012932.500    90139278.524                  
  22609553.320   118814002.358    22609552.659    92582339.523                  
  21150756.341   111147935.702    21150758.467    86608771.362                  
                 134115256.255                   134115256.255    25755420.884  
                 122150268.578                   122150268.578    23457666.183  
                 123669252.641                   123669252.641    23749380.663  
                 114564520.077                   114564520.077    22000910.918  
  25334545.979   133133905.767                                                  
  25594683.305   134500974.573                                                  
  23757140.983   124844607.207                                                  
  27731011.736   145727480.972                                                  
  25349844.007   133214298.153                                                  
  24619394.265   129375768.907                                                  
  25325978.944   133088937.431                                                  
 21  8 31  7 48 35.0000000  0 20G 1G 7G 8G 9G13G14G17G21G30C20C23C27
                                C28E 1E 4E 9E24E26E31E33
  22581474.652   118666400.339    22581478.119    92467311.565                  
  20321996.685   106792824.668    20321996.220    83215190.602                  
  22984932.532   120786591.598    22984935.123    94119411.138                  
  22947495.088   120589858.660    22947497.679    93966113.051                  
  24303843.133   127717564.810    24303842.776    99520181.903                  
  22004285.019   115633303.853    22004285.483    90103876.628                  
  22012413.208   115676013.003    22012413.333    90137152.640                  
  22609512.007   118813785.247    22609511.346    92582170.343                  
  21150387.757   111145998.843    21150389.883    86607262.126                  
                 134116871.397                   134116871.397    25755731.055  
                 122151349.062                   122151349.062    23457873.678  
                 123666198.358                   123666198.358    23748794.112  
                 114563932.111                   114563932.111    22000798.004  
  25334717.933   133134809.498                                                  
  25595132.228   134503333.735                                                  
  23757175.864   124844790.542                                                  
  27730739.001   145726047.696                                                  
  25349854.585   133214353.749                                                  
  24619291.035   129375226.442                                                  
  25325571.602   133086796.868                                                  
 21  8 31  7 48 36.0000000  0 20G 1G 7G 8G 9G13G14G17G21G30C20C23C27
                                C28E 1E 4E 9E24E26E31E33
  22581019.528   118664008.582    22581022.977    92465447.858                  
  20321957.248   106792617.411    20321956.783    83215029.101                  
  22985547.012   120789820.632    22985549.603    94121927.266                  
  22948124.489   120593166.159    22948127.062    93968690.321                  
  24303300.898   127714715.361    24303300.558    99517961.551                  
  22004044.037   115632037.521    22004044.502    90102889.878                  
  22011894.113   115673285.187    22011894.238    90135027.071                  
  22609470.801   118813568.661    22609470.122    92582001.577                  
  21150019.262   111144062.274    21150021.352    86605753.109                  
                 134118486.789                   134118486.789    25756041.261  
                 122152429.747                   122152429.747    23458081.227  
                 123663144.288                   123663144.288    23748207.615  
                 114563344.683                   114563344.683    22000685.197  
  25334889.922   133135713.223                                                  
  25595581.205   134505693.067                                                  
  23757210.815   124844974.312                                                  
  27730466.267   145724614.420                                                  
  25349865.253   133214409.812                                                  
  24619187.806   129374683.977                                                  
  25325164.313   133084656.567                                                  
 21  8 31  7 48 37.0000000  0 20G 1G 7G 8G 9G13G14G17G21G30C20C23C27
                                C28E 1E 4E 9E24E26E31E33
  22580564.440   118661617.165    22580567.907    92463584.419                  
  20321917.882   106792410.602    20321917.418    83214867.949                  
  22986161.527   120793049.881    22986164.100    94124443.567                  
  22948753.907   120596473.820    22948756.498    93971267.719                  
  24302758.734   127711866.278    24302758.376    99515741.489                  
  22003803.109   115630771.347    22003803.556    90101903.250                  
  22011375.125   115670557.773    22011375.232    90132901.813                  
  22609429.685   118813352.619    22609429.023    92581833.234                  
  21149650.785   111142125.981    21149652.893    86604244.309                  
                 134120102.426                   134120102.426    25756351.539  
                 122153510.624                   122153510.624    23458288.775  
                 123660090.439                   123660090.439    23747621.154  
                 114562757.804                   114562757.804    22000572.497  
  25335061.893   133136616.953                                                  
  25596030.200   134508052.613                                                  
  23757245.874   124845158.531                                                  
  27730193.514   145723181.148                                                  
  25349875.992   133214466.329                                                  
  24619084.577   129374141.532                                                  
  25324757.078   133082516.547                                                  
 21  8 31  7 48 38.0000000  0 20G 1G 7G 8G 9G13G14G17G21G30C20C23C27
                                C28E 1E 4E 9E24E26E31E33
  22580109.441   118659226.085    22580112.908    92461721.238                  
  20321878.624   106792204.237    20321878.159    83214707.148                  
  22986776.061   120796279.321    22986778.634    94126960.011                  
  22949383.361   120599781.630    22949385.952    93973845.235                  
  24302216.659   127709017.574    24302216.302    99513521.718                  
  22003562.181   115629505.332    22003562.645    90100916.747                  
  22010856.173   115667830.755    22010856.298    90130776.864                  
  22609388.675   118813137.124    22609387.996    92581665.317                  
  21149282.379   111140189.964    21149284.488    86602735.727                  
                 134121718.304                   134121718.304    25756661.834  
                 122154591.707                   122154591.707    23458496.395  
                 123657036.802                   123657036.802    23747034.746  
                 114562171.475                   114562171.475    22000459.904  
  25335233.883   133137520.687                                                  
  25596479.249   134510412.352                                                  
  23757281.023   124845343.175                                                  
  27729920.779   145721747.887                                                  
  25349886.857   133214523.316                                                  
  24618981.365   129373599.102                                                  
  25324349.897   133080376.797                                                  
 21  8 31  7 48 39.0000000  0 20G 1G 7G 8G 9G13G14G17G21G30C20C23C27
                                C28E 1E 4E 9E24E26E31E33
  22579654.496   118656835.352    22579657.962    92459858.329                  
  20321839.437   106791998.327    20321838.973    83214546.696                  
  22987390.648   120799508.966    22987393.221    94129476.617                  
  22950012.851   120603089.625    22950015.442    93976422.891                  
  24301674.638   127706169.234    24301674.281    99511302.230                  
  22003321.306   115628239.482    22003321.753    90099930.367                  
  22010337.328   115665104.136    22010337.435    90128652.226                  
  22609347.755   118812922.173    22609347.094    92581497.820                  
  21148914.027   111138254.232    21148916.118    86601227.359                  
                 134123334.429                   134123334.429    25756972.201  
                 122155672.988                   122155672.988    23458704.034  
                 123653983.380                   123653983.380    23746448.356  
                 114561585.690                   114561585.690    22000347.401  
  25335405.836   133138424.418                                                  
  25596928.315   134512772.289                                                  
  23757316.243   124845528.263                                                  
  27729648.044   145720314.620                                                  
  25349897.775   133214580.779                                                  
  24618878.136   129373056.687                                                  
  25323942.787   133078237.323                                                  
 21  8 31  7 48 40.0000000  0 20G 1G 7G 8G 9G13G14G17G21G30C20C23C27
                                C28E 1E 4E 9E24E26E31E33
  22579199.622   118654444.944    22579203.089    92457995.676                  
  20321800.340   106791792.866    20321799.875    83214386.601                  
  22988005.253   120802738.829    22988007.844    94131993.391                  
  22950642.377   120606397.769    22950644.968    93979000.664                  
  24301132.688   127703321.253    24301132.313    99509083.027                  
  22003080.432   115626973.781    22003080.897    90098944.105                  
  22009818.537   115662377.919    22009818.662    90126527.898                  
  22609306.960   118812707.741    22609306.299    92581330.730                  
  21148545.729   111136318.778    21148547.819    86599719.214                  
                 134124950.798                   134124950.798    25757282.622  
                 122156754.464                   122156754.464    23458911.725  
                 123650930.173                   123650930.173    23745862.020  
                 114561000.452                   114561000.452    22000235.022  
  25335577.826   133139328.149                                                  
  25597377.435   134515132.418                                                  
  23757351.552   124845713.820                                                  
  27729375.273   145718881.348                                                  
  25349908.800   133214638.699                                                  
  24618774.924   129372514.281                                                  
  25323535.695   133076098.128                                                  
 21  8 31  7 48 41.0000000  0 20G 1G 7G 8G 9G13G14G17G21G30C20C23C27
                                C28E 1E 4E 9E24E26E31E33
  22578744.802   118652054.883    22578748.268    92456133.288                  
  20321761.314   106791587.862    20321760.867    83214226.856                  
  22988619.912   120805968.905    22988622.521    94134510.336                  
  22951271.920   120609706.093    22951274.511    93981578.579                  
  24300590.792   127700473.649    24300590.435    99506864.113                  
  22002839.611   115625708.253    22002840.076    90097957.984                  
  22009299.835   115659652.107    22009299.960    90124403.891                  
  22609266.254   118812493.864    22609265.593    92581164.075                  
  21148177.466   111134383.598    21148179.574    86598211.285                  
                 134126567.411                   134126567.411    25757593.061  
                 122157836.143                   122157836.143    23459119.453  
                 123647877.184                   123647877.184    23745275.738  
                 114560415.763                   114560415.763    22000122.733  
  25335749.797   133140231.883                                                  
  25597826.609   134517492.742                                                  
  23757386.932   124845899.831                                                  
  27729102.538   145717448.092                                                  
  25349919.914   133214697.097                                                  
  24618671.713   129371971.895                                                  
  25323128.674   133073959.208                                                  
 21  8 31  7 48 42.0000000  0 20G 1G 7G 8G 9G13G14G17G21G30C20C23C27
                                C28E 1E 4E 9E24E26E31E33
  22578290.053   118649665.148    22578293.520    92454271.161                  
  20321722.395   106791383.308    20321721.948    83214067.460                  
