     2.11           OBSERVATION DATA    M (MIXED)           RINEX VERSION / TYPE
CONVBIN 2.4.3                           20210901 004858 UTC PGM / RUN BY / DATE 
log: logs/21_08_31_18_18_24_okdt_SW.rtcm                    COMMENT             
format: RTCM 3, station ID: 2696                            COMMENT             
2696                                                        MARKER NAME         
                                                            MARKER NUMBER       
                                                            OBSERVER / AGENCY   
                    SWFT                                    REC # / TYPE / VERS 
                    NULL                                    ANT # / TYPE        
  -686782.6115 -5211230.4450  3600696.6734                  APPROX POSITION XYZ 
        0.0000        0.0000        0.0000                  ANTENNA: DELTA H/E/N
     1     1                                                WAVELENGTH FACT L1/2
     5    C1    L1    P2    L2    C2                        # / TYPES OF OBSERV 
  2021     8    31    18    18   29.0000000     GPS         TIME OF FIRST OBS   
  2021     8    31    18    48   27.0000000     GPS         TIME OF LAST OBS    
                                                            END OF HEADER       
 21  8 31 18 18 29.0000000  0 10G 5G10G13G15G18G23G29E 5E 9E36
  22586022.354   118690345.438    22586023.176    92485982.489                  
  24345574.360   127936776.036    24345579.381    99690973.663                  
  21750749.260   114300954.970    21750749.600    89065677.999                  
  20291957.088   106634959.128    20291957.535    83092176.895                  
  21037674.248   110553725.276    21037675.178    86145762.180                  
  21636474.357   113700434.585    21636475.715    88597741.617                  
  20910162.580   109883640.276    20910163.259    85623613.918                  
  24146580.578   126891115.258                                                  
  22297533.197   117174311.200                                                  
  23635912.564   124207502.355                                                  
 21  8 31 18 18 30.0000000  0 10G 5G10G13G15G18G23G29E 5E 9E36
  22586535.714   118693043.130    22586536.536    92488084.581                  
  24345091.825   127934240.311    24345096.864    99688997.777                  
  21750999.605   114302270.519    21750999.963    89066703.102                  
  20291932.768   106634831.339    20291933.215    83092077.321                  
  21037356.966   110552057.984    21037357.895    86144462.992                  
  21636159.773   113698781.484    21636161.149    88596453.489                  
  20910544.084   109885645.073    20910544.763    85625176.097                  
  24146227.826   126889261.470                                                  
  22297696.520   117175169.380                                                  
  23635942.584   124207660.164                                                  
 21  8 31 18 18 31.0000000  0 15G 5G10G13G15G18G23G29C19C20C22C29C35
                                E 5E 9E36
  22587049.108   118695740.903    22587049.895    92490186.743                  
  24344609.326   127931704.757    24344614.365    99687022.022                  
  21751250.058   114303586.727    21751250.415    89067728.719                  
  20291908.574   106634704.265    20291909.038    83091978.301                  
  21037039.719   110550390.898    21037040.666    86143163.966                  
  21635845.260   113697128.683    21635846.618    88595165.589                  
  20910925.677   109887650.440    20910926.374    85626738.719                  
                 112341700.868                   112341700.868    21574042.760  
                 132643582.177                   132643582.177    25472803.863  
                 119203817.003                   119203817.003    22891837.352  
                 122688867.862                   122688867.862    23561110.225  
                 112415249.619                   112415249.619    21588168.241  
  24145875.127   126887408.043                                                  
  22297859.896   117176027.982                                                  
  23635972.657   124207818.219                                                  
 21  8 31 18 18 32.0000000  0 15G 5G10G13G15G18G23G29C19C20C22C29C35
                                E 5E 9E36
  22587562.486   118698438.759    22587563.308    92492288.968                  
  24344126.844   127929169.382    24344131.883    99685046.405                  
  21751500.635   114304903.579    21751500.992    89068754.837                  
  20291884.540   106634577.911    20291885.004    83091879.840                  
  21036722.526   110548724.008    21036723.473    86141865.090                  
  21635530.801   113695476.192    21635532.159    88593877.939                  
  20911307.395   109889656.382    20911308.092    85628301.793                  
                 112342859.115                   112342859.115    21574265.194  
                 132646487.102                   132646487.102    25473361.716  
                 119202078.563                   119202078.563    22891503.523  
                 122691521.181                   122691521.181    23561619.760  
                 112415328.259                   112415328.259    21588183.340  
  24145522.500   126885554.974                                                  
  22298023.362   117176886.986                                                  
  23636002.785   124207976.515                                                  
 21  8 31 18 18 33.0000000  0 15G 5G10G13G15G18G23G29C19C20C22C29C35
                                E 5E 9E36
  22588075.880   118701136.696    22588076.702    92494391.255                  
  24343644.416   127926634.189    24343649.455    99683070.935                  
  21751751.355   114306221.075    21751751.713    89069781.458                  
  20291860.613   106634452.258    20291861.078    83091781.929                  
  21036405.351   110547057.320    21036406.298    86140566.370                  
  21635216.396   113693824.006    21635217.754    88592590.519                  
  20911689.220   109891662.894    20911689.917    85629865.306                  
                 112344017.710                   112344017.710    21574487.699  
                 132649392.068                   132649392.068    25473919.605  
                 119200340.489                   119200340.489    22891169.748  
                 122694174.796                   122694174.796    23562129.367  
                 112415407.386                   112415407.386    21588198.547  
  24145169.944   126883702.266                                                  
  22298186.900   117177746.415                                                  
  23636032.965   124208135.051                                                  
 21  8 31 18 18 34.0000000  0 15G 5G10G13G15G18G23G29C19C20C22C29C35
                                E 5E 9E36
  22588589.293   118703834.710    22588590.115    92496493.605                  
  24343162.024   127924099.151    24343167.045    99681095.583                  
  21752002.201   114307539.218    21752002.558    89070808.577                  
  20291836.847   106634327.312    20291837.312    83091684.575                  
  21036088.248   110545390.832    21036089.177    86139267.808                  
  21634902.062   113692172.126    21634903.420    88591303.340                  
  20912071.153   109893669.971    20912071.867    85631429.262                  
                 112345176.664                   112345176.664    21574710.258  
                 132652297.071                   132652297.071    25474477.458  
                 119198602.784                   119198602.784    22890836.026  
                 122696828.710                   122696828.710    23562639.027  
                 112415487.000                   112415487.000    21588213.843  
  24144817.442   126881849.907                                                  
  22298350.526   117178606.253                                                  
  23636063.164   124208293.837                                                  
 21  8 31 18 18 35.0000000  0 15G 5G10G13G15G18G23G29C19C20C22C29C35
                                E 5E 9E36
  22589102.724   118706532.810    22589103.546    92498596.016                  
  24342679.632   127921564.298    24342684.671    99679120.371                  
  21752253.153   114308858.015    21752253.528    89071836.216                  
  20291813.207   106634203.091    20291813.671    83091587.773                  
  21035771.162   110543724.544    21035772.109    86137969.402                  
  21634587.781   113690520.551    21634589.121    88590016.398                  
  20912453.192   109895677.633    20912453.907    85632993.672                  
                 112346335.966                   112346335.966    21574932.906  
                 132655202.109                   132655202.109    25475035.365  
                 119196865.457                   119196865.457    22890502.375  
                 122699482.921                   122699482.921    23563148.741  
                 112415567.101                   112415567.101    21588229.228  
  24144465.029   126879997.906                                                  
  22298514.224   117179466.516                                                  
  23636093.416   124208452.858                                                  
 21  8 31 18 18 36.0000000  0 15G 5G10G13G15G18G23G29C19C20C22C29C35
                                E 5E 9E36
  22589616.154   118709230.979    22589616.976    92500698.488                  
  24342197.294   127919029.613    24342202.333    99677145.298                  
  21752504.249   114310177.446    21752504.588    89072864.339                  
  20291789.709   106634079.577    20291790.156    83091491.531                  
  21035454.112   110542058.461    21035455.059    86136671.155                  
  21634273.554   113688869.278    21634274.895    88588729.692                  
  20912835.357   109897685.864    20912836.054    85634558.527                  
                 112347495.626                   112347495.626    21575155.607  
                 132658107.191                   132658107.191    25475593.235  
                 119195128.497                   119195128.497    22890168.814  
                 122702137.429                   122702137.429    23563658.526  
                 112415647.684                   112415647.684    21588244.685  
  24144112.652   126878146.272                                                  
  22298677.994   117180327.175                                                  
  23636123.740   124208612.134                                                  
 21  8 31 18 18 37.0000000  0 15G 5G10G13G15G18G23G29C19C20C22C29C35
                                E 5E 9E36
  22590129.639   118711929.234    22590130.443    92502801.024                  
  24341715.009   127916495.100    24341720.048    99675170.351                  
  21752755.434   114311497.537    21752755.809    89073892.982                  
  20291766.336   106633956.776    20291766.801    83091395.844                  
  21035137.097   110540392.575    21035138.044    86135373.062                  
  21633959.381   113687218.314    21633960.739    88587443.226                  
  20913217.611   109899694.661    20913218.326    85636123.823                  
                 112348655.632                   112348655.632    21575378.363  
                 132661012.314                   132661012.314    25476151.142  
                 119193391.906                   119193391.906    22889835.325  
                 122704792.239                   122704792.239    23564168.347  
                 112415728.752                   112415728.752    21588260.266  
  24143760.382   126876294.996                                                  
  22298841.853   117181188.271                                                  
  23636154.099   124208771.642                                                  
 21  8 31 18 18 38.0000000  0 15G 5G10G13G15G18G23G29C19C20C22C29C35
                                E 5E 9E36
  22590643.105   118714627.568    22590643.927    92504903.622                  
  24341232.742   127913960.761    24341237.763    99673195.543                  
  21753006.761   114312818.273    21753007.119    89074922.129                  
  20291743.106   106633834.694    20291743.553    83091300.715                  
  21034820.137   110538726.894    21034821.084    86134075.129                  
  21633645.280   113685567.651    21633646.620    88586157.000                  
  20913600.008   109901704.036    20913600.687    85637689.566                  
                 112349815.993                   112349815.993    21575601.207  
                 132663917.471                   132663917.471    25476709.049  
                 119191655.687                   119191655.687    22889501.907  
                 122707447.342                   122707447.342    23564678.222  
                 112415810.310                   112415810.310    21588275.920  
  24143408.166   126874444.069                                                  
  22299005.801   117182049.766                                                  
  23636184.495   124208931.393                                                  
 21  8 31 18 18 39.0000000  0 15G 5G10G13G15G18G23G29C19C20C22C29C35
                                E 5E 9E36
  22591156.607   118717325.981    22591157.411    92507006.277                  
  24340750.492   127911426.606    24340755.531    99671220.880                  
  21753258.214   114314139.649    21753258.572    89075951.773                  
  20291720.002   106633713.325    20291720.484    83091206.140                  
  21034503.194   110537061.409    21034504.141    86132777.351                  
  21633331.214   113683917.297    21633332.554    88584871.007                  
  20913982.477   109903713.978    20913983.156    85639255.759                  
                 112350976.706                   112350976.706    21575824.105  
                 132666822.673                   132666822.673    25477266.955  
                 119189919.841                   119189919.841    22889168.560  
                 122710102.746                   122710102.746    23565188.168  
                 112415892.352                   112415892.352    21588291.680  
  24143056.003   126872593.512                                                  
  22299169.821   117182911.687                                                  
  23636214.943   124209091.388                                                  
 21  8 31 18 18 40.0000000  0 15G 5G10G13G15G18G23G29C19C20C22C29C35
                                E 5E 9E36
  22591670.091   118720024.488    22591670.913    92509109.012                  
  24340268.297   127908892.625    24340273.336    99669246.351                  
  21753509.774   114315461.668    21753510.132    89076981.918                  
  20291697.040   106633592.667    20291697.523    83091112.125                  
  21034186.322   110535396.119    21034187.252    86131479.722                  
  21633017.219   113682267.242    21633018.577    88583585.255                  
  20914365.053   109905724.492    20914365.768    85640822.390                  
                 112352137.773                   112352137.773    21576047.057  
                 132669727.911                   132669727.911    25477824.880  
                 119188184.363                   119188184.363    22888835.285  
                 122712758.448                   122712758.448    23565698.186  
                 112415974.875                   112415974.875    21588307.512  
  24142703.912   126870743.284                                                  
  22299333.912   117183774.025                                                  
  23636245.428   124209251.621                                                  
 21  8 31 18 18 41.0000000  0 15G 5G10G13G15G18G23G29C19C20C22C29C35
                                E 5E 9E36
  22592183.647   118722723.077    22592184.451    92511211.804                  
  24339786.119   127906358.799    24339791.158    99667271.946                  
  21753761.477   114316784.339    21753761.835    89078012.570                  
  20291674.221   106633472.724    20291674.686    83091018.661                  
  21033869.469   110533731.036    21033870.398    86130182.253                  
  21632703.296   113680617.501    21632704.636    88582299.738                  
  20914747.754   109907735.587    20914748.468    85642389.477                  
                 112353299.192                   112353299.192    21576270.098  
                 132672633.188                   132672633.188    25478382.804  
                 119186449.258                   119186449.258    22888502.063  
                 122715414.445                   122715414.445    23566208.221  
                 112416057.886                   112416057.886    21588323.451  
  24142351.892   126868893.466                                                  
  22299498.093   117184636.761                                                  
  23636275.984   124209412.132                                                  
 21  8 31 18 18 42.0000000  0 15G 5G10G13G15G18G23G29C19C20C22C29C35
                                E 5E 9E36
  22592697.185   118725421.757    22592698.007    92513314.672                  
  24339303.977   127903825.164    24339309.016    99665297.683                  
  21754013.306   114318107.652    21754013.663    89079043.723                  
  20291651.546   106633353.489    20291651.992    83090925.750                  
  21033552.633   110532066.148    21033553.580    86128884.942                  
  21632389.427   113678968.053    21632390.767    88581014.456                  
  20915130.562   109909747.245    20915131.259    85643957.003                  
                 112354460.961                   112354460.961    21576493.229  
                 132675538.503                   132675538.503    25478940.747  
                 119184714.520                   119184714.520    22888168.913  
                 122718070.743                   122718070.743    23566718.346  
                 112416141.386                   112416141.386    21588339.498  
  24141999.961   126867043.971                                                  
  22299662.345   117185499.926                                                  
  23636306.558   124209572.855                                                  
 21  8 31 18 18 43.0000000  0 15G 5G10G13G15G18G23G29C19C20C22C29C35
                                E 5E 9E36
  22593210.741   118728120.511    22593211.563    92515417.597                  
  24338821.889   127901291.697    24338826.928    99663323.554                  
  21754265.241   114319431.613    21754265.598    89080075.379                  
  20291628.977   106633234.969    20291629.442    83090833.395                  
  21033235.851   110530401.470    21033236.798    86127587.788                  
  21632075.575   113677318.917    21632076.933    88579729.417                  
  20915513.477   109911759.481    20915514.174    85645524.977                  
                 112355623.086                   112355623.086    21576716.377  
                 132678443.858                   132678443.858    25479498.671  
                 119182980.156                   119182980.156    22887835.853  
                 122720727.336                   122720727.336    23567228.525  
                 112416225.368                   112416225.368    21588355.616  
  24141648.085   126865194.835                                                  
  22299826.686   117186363.499                                                  
  23636337.203   124209733.827                                                  
 21  8 31 18 18 44.0000000  0 15G 5G10G13G15G18G23G29C19C20C22C29C35
                                E 5E 9E36
  22593724.296   118730819.335    22593725.118    92517520.579                  
  24338339.818   127898758.402    24338344.839    99661349.558                  
  21754517.301   114320756.226    21754517.659    89081107.547                  
  20291606.551   106633117.157    20291607.016    83090741.598                  
  21032919.123   110528736.989    21032920.052    86126290.788                  
  21631761.813   113675670.085    21631763.171    88578444.613                  
  20915896.500   109913772.281    20915897.196    85647093.391                  
                 112356785.558                   112356785.558    21576939.615  
                 132681349.254                   132681349.254    25480056.631  
                 119181246.165                   119181246.165    22887502.863  
                 122723384.228                   122723384.228    23567738.739  
                 112416309.836                   112416309.836    21588371.841  
  24141296.279   126863346.062                                                  
  22299991.099   117187227.489                                                  
  23636367.867   124209895.046                                                  
 21  8 31 18 18 45.0000000  0 15G 5G10G13G15G18G23G29C19C20C22C29C35
                                E 5E 9E36
  22594237.906   118733518.264    22594238.728    92519623.641                  
  24337857.783   127896225.286    24337862.805    99659375.702                  
  21754769.505   114322081.476    21754769.862    89082140.207                  
  20291584.287   106633000.064    20291584.733    83090650.351                  
  21032602.412   110527072.708    21032603.359    86124993.950                  
  21631448.122   113674021.559    21631449.463    88577160.047                  
  20916279.647   109915785.656    20916280.344    85648662.259                  
                 112357948.388                   112357948.388    21577162.942  
                 132684254.685                   132684254.685    25480614.592  
                 119179512.539                   119179512.539    22887169.946  
                 122726041.417                   122726041.417    23568249.025  
                 112416394.792                   112416394.792    21588388.155  
  24140944.545   126861497.644                                                  
  22300155.583   117188091.895                                                  
  23636398.601   124210056.505                                                  
 21  8 31 18 18 46.0000000  0 15G 5G10G13G15G18G23G29C19C20C22C29C35
                                E 5E 9E36
  22594751.497   118736217.264    22594752.319    92521726.757                  
  24337375.784   127893692.332    24337380.806    99657401.981                  
  21755021.797   114323407.374    21755022.155    89083173.374                  
  20291562.147   106632883.683    20291562.594    83090559.668                  
  21032285.755   110525408.629    21032286.702    86123697.261                  
  21631134.485   113672373.341    21631135.826    88575875.722                  
  20916662.884   109917799.600    20916663.581    85650231.566                  
                 112359111.566                   112359111.566    21577386.323  
                 132687160.156                   132687160.156    25481172.552  
                 119177779.289                   119177779.289    22886837.081  
                 122728698.902                   122728698.902    23568759.382  
                 112416480.231                   112416480.231    21588404.577  
  24140592.865   126859649.593                                                  
  22300320.157   117188956.710                                                  
  23636429.354   124210218.219                                                  
 21  8 31 18 18 47.0000000  0 15G 5G10G13G15G18G23G29C19C20C22C29C35
                                E 5E 9E36
  22595265.124   118738916.344    22595265.946    92523829.929                  
  24336893.803   127891159.563    24336898.824    99655428.392                  
  21755274.233   114324733.918    21755274.608    89084207.047                  
  20291540.114   106632768.016    20291540.579    83090469.540                  
  21031969.116   110523744.750    21031970.081    86122400.734                  
  21630820.884   113670725.419    21630822.242    88574591.629                  
  20917046.246   109919814.114    20917046.925    85651801.312                  
                 112360275.096                   112360275.096    21577609.757  
                 132690065.663                   132690065.663    25481730.548  
                 119176046.406                   119176046.406    22886504.307  
                 122731356.686                   122731356.686    23569269.775  
                 112416566.156                   112416566.156    21588421.088  
  24140241.256   126857801.894                                                  
  22300484.802   117189821.941                                                  
  23636460.178   124210380.157                                                  
 21  8 31 18 18 48.0000000  0 15G 5G10G13G15G18G23G29C19C20C22C29C35
                                E 5E 9E36
  22595778.734   118741615.496    22595779.556    92525933.167                  
  24336411.858   127888626.958    24336416.879    99653454.938                  
  21755526.794   114326061.113    21755527.151    89085241.223                  
  20291518.243   106632653.065    20291518.725    83090379.970                  
  21031652.549   110522081.071    21031653.478    86121104.362                  
  21630507.354   113669077.806    21630508.694    88573307.774                  
  20917429.697   109921829.208    20917430.376    85653371.516                  
                 112361438.981                   112361438.981    21577833.263  
                 132692971.216                   132692971.216    25482288.526  
                 119174313.897                   119174313.897    22886171.603  
                 122734014.765                   122734014.765    23569780.221  
                 112416652.566                   112416652.566    21588437.652  
  24139889.719   126855954.559                                                  
  22300649.519   117190687.591                                                  
  23636491.038   124210542.344                                                  
 21  8 31 18 18 49.0000000  0 15G 5G10G13G15G18G23G29C19C20C22C29C35
                                E 5E 9E36
  22596292.397   118744314.728    22596293.219    92528036.465                  
  24335929.966   127886094.529    24335934.987    99651481.617                  
  21755779.480   114327388.957    21755779.837    89086275.906                  
  20291496.496   106632538.821    20291496.979    83090290.946                  
  21031335.999   110520417.596    21031336.946    86119808.149                  
  21630193.878   113667430.500    21630195.218    88572024.160                  
  20917813.256   109923844.860    20917813.953    85654942.151                  
                 112362603.215                   112362603.215    21578056.840  
                 132695876.801                   132695876.801    25482846.504  
                 119172581.758                   119172581.758    22885838.953  
                 122736673.146                   122736673.146    23570290.739  
                 112416739.465                   112416739.465    21588454.360  
  24139538.235   126854107.573                                                  
  22300814.343   117191553.655                                                  
  23636521.951   124210704.780                                                  
 21  8 31 18 18 50.0000000  0 15G 5G10G13G15G18G23G29C19C20C22C29C35
                                E 5E 9E36
  22596806.060   118747014.036    22596806.882    92530139.820                  
  24335448.074   127883562.284    24335453.095    99649508.442                  
  21756032.273   114328717.449    21756032.648    89087311.098                  
  20291474.892   106632425.293    20291475.357    83090202.481                  
  21031019.485   110518754.325    21031020.414    86118512.093                  
  21629880.455   113665783.500    21629881.813    88570740.781                  
  20918196.940   109925861.085    20918197.619    85656513.238                  
                 112363767.801                   112363767.801    21578280.506  
                 132698782.427                   132698782.427    25483404.500  
                 119170849.988                   119170849.988    22885506.375  
                 122739331.820                   122739331.820    23570801.329  
                 112416826.846                   112416826.846    21588471.139  
  24139186.841   126852260.960                                                  
  22300979.220   117192420.136                                                  
  23636552.918   124210867.466                                                  
 21  8 31 18 18 51.0000000  0 15G 5G10G13G15G18G23G29C19C20C22C29C35
                                E 5E 9E36
  22597319.740   118749713.426    22597320.562    92532243.238                  
  24334966.236   127881030.202    24334971.257    99647535.395                  
  21756285.209   114330046.587    21756285.566    89088346.785                  
  20291453.432   106632312.473    20291453.896    83090114.571                  
  21030703.007   110517091.249    21030703.954    86117216.192                  
  21629567.122   113664136.796    21629568.462    88569457.637                  
  20918580.713   109927877.878    20918581.427    85658084.763                  
                 112364932.727                   112364932.727    21578504.209  
                 132701688.070                   132701688.070    25483962.496  
                 119169118.579                   119169118.579    22885173.886  
                 122741990.788                   122741990.788    23571311.936  
                 112416914.728                   112416914.728    21588488.025  
  24138835.518   126850414.699                                                  
  22301144.187   117193287.031                                                  
  23636583.921   124211030.387                                                  
 21  8 31 18 18 52.0000000  0 15G 5G10G13G15G18G23G29C19C20C22C29C35
                                E 5E 9E36
  22597833.421   118752412.890    22597834.243    92534346.719                  
  24334484.434   127878498.301    24334489.455    99645562.485                  
  21756538.252   114331376.359    21756538.627    89089382.973                  
  20291432.096   106632200.374    20291432.561    83090027.223                  
  21030386.582   110515428.380    21030387.529    86115920.450                  
  21629253.824   113662490.403    21629255.164    88568174.734                  
  20918964.629   109929895.250    20918965.308    85659656.743                  
                 112366098.017                   112366098.017    21578727.982  
                 132704593.771                   132704593.771    25484520.528  
                 119167387.551                   119167387.551    22884841.469  
                 122744650.059                   122744650.059    23571822.615  
                 112417003.083                   112417003.083    21588504.983  
  24138484.231   126848568.793                                                  
  22301309.225   117194154.337                                                  
  23636614.959   124211193.554                                                  
 21  8 31 18 18 53.0000000  0 15G 5G10G13G15G18G23G29C19C20C22C29C35
                                E 5E 9E36
  22598347.138   118755112.442    22598347.960    92536450.266                  
  24334002.667   127875966.573    24334007.688    99643589.710                  
  21756791.420   114332706.782    21756791.778    89090419.664                  
  20291410.903   106632088.988    20291411.386    83089940.427                  
  21030070.175   110513765.706    21030071.122    86114624.860                  
  21628940.580   113660844.316    21628941.920    88566892.070                  
  20919348.616   109931913.191    20919349.295    85661229.164                  
                 112367263.655                   112367263.655    21578951.846  
                 132707499.513                   132707499.513    25485078.524  
                 119165656.894                   119165656.894    22884509.105  
                 122747309.626                   122747309.626    23572333.383  
                 112417091.922                   112417091.922    21588522.048  
  24138133.051   126846723.251                                                  
  22301474.353   117195022.062                                                  
  23636646.051   124211356.976                                                  
 21  8 31 18 18 54.0000000  0 15G 5G10G13G15G18G23G29C19C20C22C29C35
                                E 5E 9E36
  22598860.854   118757812.076    22598861.676    92538553.872                  
  24333520.918   127873435.016    24333525.939    99641617.070                  
  21757044.714   114334037.845    21757045.071    89091456.856                  
  20291389.836   106631978.315    20291390.301    83089854.188                  
  21029753.822   110512103.248    21029754.751    86113329.433                  
  21628627.408   113659198.539    21628628.748    88565609.649                  
  20919732.729   109933931.704    20919733.426    85662802.027                  
                 112368429.648                   112368429.648    21579175.762  
                 132710405.290                   132710405.290    25485636.556  
                 119163926.610                   119163926.610    22884176.813  
                 122749969.490                   122749969.490    23572844.187  
                 112417181.245                   112417181.245    21588539.202  
  24137781.925   126844878.067                                                  
  22301639.552   117195890.198                                                  
  23636677.215   124211520.636                                                  
 21  8 31 18 18 55.0000000  0 15G 5G10G13G15G18G23G29C19C20C22C29C35
                                E 5E 9E36
  22599374.607   118760511.798    22599375.429    92540657.551                  
  24333039.223   127870903.632    24333044.244    99639644.565                  
  21757298.132   114335369.559    21757298.508    89092494.555                  
  20291368.911   106631868.356    20291369.376    83089768.503                  
  21029437.504   110510440.976    21029438.434    86112034.164                  
  21628314.253   113657553.068    21628315.611    88564327.461                  
  20920116.948   109935950.789    20920117.645    85664375.343                  
                 112369595.993                   112369595.993    21579399.733  
                 132713311.105                   132713311.105    25486194.587  
                 119162196.698                   119162196.698    22883844.592  
                 122752629.653                   122752629.653    23573355.026  
                 112417271.058                   112417271.058    21588556.445  
  24137430.852   126843033.232                                                  
  22301804.841   117196758.751                                                  
  23636708.396   124211684.543                                                  
 21  8 31 18 18 56.0000000  0 15G 5G10G13G15G18G23G29C19C20C22C29C35
                                E 5E 9E36
  22599888.359   118763211.590    22599889.181    92542761.290                  
  24332557.545   127868372.417    24332562.566    99637672.191                  
  21757551.676   114336701.919    21757552.033    89093532.758                  
  20291348.147   106631759.112    20291348.594    83089683.383                  
  21029121.223   110508778.911    21029122.152    86110739.043                  
  21628001.206   113655907.896    21628002.546    88563045.507                  
  20920501.275   109937970.444    20920501.954    85665949.102                  
                 112370762.687                   112370762.687    21579623.774  
                 132716216.960                   132716216.960    25486752.619  
                 119160467.156                   119160467.156    22883512.460  
                 122755290.110                   122755290.110    23573865.937  
                 112417361.356                   112417361.356    21588573.778  
  24137079.887   126841188.769                                                  
  22301970.201   117197627.720                                                  
  23636739.632   124211848.693                                                  
 21  8 31 18 18 57.0000000  0 15G 5G10G13G15G18G23G29C19C20C22C29C35
                                E 5E 9E36
  22600402.111   118765911.464    22600402.933    92544865.081                  
  24332075.904   127865841.394    24332080.925    99635699.969                  
  21757805.345   114338034.921    21757805.702    89094571.461                  
  20291327.473   106631650.578    20291327.938    83089598.809                  
  21028804.977   110507117.050    21028805.924    86109444.089                  
  21627688.194   113654263.023    21627689.534    88561763.792                  
  20920885.692   109939990.677    20920886.406    85667523.305                  
                 112371929.733                   112371929.733    21579847.906  
                 132719122.850                   132719122.850    25487310.686  
                 119158737.985                   119158737.985    22883180.400  
                 122757950.863                   122757950.863    23574376.920  
                 112417452.139                   112417452.139    21588591.219  
  24136728.957   126839344.656                                                  
  22302135.614   117198497.094                                                  
  23636770.920   124212013.086                                                  
 21  8 31 18 18 58.0000000  0 15G 5G10G13G15G18G23G29C19C20C22C29C35
                                E 5E 9E36
  22600915.899   118768611.409    22600916.721    92546968.937                  
  24331594.280   127863310.532    24331599.319    99633727.867                  
  21758059.120   114339368.564    21758059.478    89095610.661                  
  20291306.959   106631542.755    20291307.424    83089514.789                  
  21028488.784   110505455.387    21028489.714    86108149.286                  
  21627375.236   113652618.461    21627376.576    88560482.316                  
  20921270.269   109942011.476    20921270.948    85669097.953                  
                 112373097.128                   112373097.128    21580072.108  
                 132722028.784                   132722028.784    25487868.718  
                 119157009.184                   119157009.184    22882848.394  
                 122760611.919                   122760611.919    23574887.938  
                 112417543.411                   112417543.411    21588608.748  
  24136378.099   126837500.901                                                  
  22302301.135   117199366.894                                                  
  23636802.245   124212177.715                                                  
 21  8 31 18 18 59.0000000  0 15G 5G10G13G15G18G23G29C19C20C22C29C35
                                E 5E 9E36
  22601429.705   118771311.425    22601430.527    92549072.843                  
  24331112.728   127860779.843    24331117.749    99631755.906                  
  21758313.021   114340702.872    21758313.379    89096650.384                  
  20291286.589   106631435.645    20291287.035    83089431.328                  
  21028172.628   110503793.934    21028173.557    86106854.648                  
  21627062.367   113650974.208    21627063.707    88559201.079                  
  20921654.899   109944032.850    20921655.596    85670673.050                  
                 112374264.880                   112374264.880    21580296.347  
                 132724934.753                   132724934.753    25488426.786  
                 119155280.753                   119155280.753    22882516.477  
                 122763273.266                   122763273.266    23575399.028  
                 112417635.169                   112417635.169    21588626.367  
  24136027.312   126835657.513                                                  
  22302466.745   117200237.105                                                  
  23636833.623   124212342.601                                                  
 21  8 31 18 19  0.0000000  0 15G 5G10G13G15G18G23G29C19C20C22C29C35
                                E 5E 9E36
  22601943.529   118774011.540    22601944.333    92551176.828                  
  24330631.175   127858249.333    24330636.196    99629784.082                  
  21758567.065   114342037.797    21758567.423    89097690.587                  
  20291266.343   106631329.242    20291266.808    83089348.419                  
  21027856.471   110502132.673    21027857.418    86105560.161                  
  21626749.516   113649330.253    21626750.857    88557920.078                  
  20922039.673   109946054.788    20922040.352    85672248.586                  
                 112375432.981                   112375432.981    21580520.674  
                 132727840.757                   132727840.757    25488984.853  
                 119153552.696                   119153552.696    22882184.613  
                 122765934.909                   122765934.909    23575910.154  
                 112417727.406                   112417727.406    21588644.075  
  24135676.597   126833814.474                                                  
  22302632.427   117201107.724                                                  
  23636865.036   124212507.720                                                  
 21  8 31 18 19  1.0000000  0 15G 5G10G13G15G18G23G29C19C20C22C29C35
                                E 5E 9E36
  22602457.335   118776711.731    22602458.157    92553280.871                  
  24330149.659   127855718.994    24330154.680    99627812.391                  
  21758821.216   114343373.390    21758821.574    89098731.309                  
  20291246.223   106631223.552    20291246.687    83089266.063                  
  21027540.404   110500471.616    21027541.333    86104265.831                  
  21626436.737   113647686.604    21626438.077    88556639.312                  
  20922424.536   109948077.304    20922425.233    85673824.570                  
                 112376601.429                   112376601.429    21580745.056  
                 132730746.804                   132730746.804    25489542.938  
                 119151825.011                   119151825.011    22881852.839  
                 122768596.852                   122768596.852    23576421.369  
                 112417820.138                   112417820.138    21588661.873  
  24135325.935   126831971.805                                                  
  22302798.162   117201978.759                                                  
  23636896.522   124212673.085                                                  
 21  8 31 18 19  2.0000000  0 15G 5G10G13G15G18G23G29C19C20C22C29C35
                                E 5E 9E36
  22602971.176   118779411.999    22602972.016    92555384.976                  
  24329668.178   127853188.824    24329673.199    99625840.833                  
  21759075.475   114344709.621    21759075.832    89099772.523                  
  20291226.245   106631118.563    20291226.692    83089184.254                  
  21027224.337   110498810.765    21027225.284    86102971.659                  
  21626124.011   113646043.266    21626125.351    88555358.789                  
  20922809.524   109950100.392    20922810.221    85675401.000                  
                 112377770.231                   112377770.231    21580969.526  
                 132733652.886                   132733652.886    25490101.024  
                 119150097.696                   119150097.696    22881521.119  
                 122771259.094                   122771259.094    23576932.619  
                 112417913.353                   112417913.353    21588679.777  
  24134975.363   126830129.494                                                  
  22302964.004   117202850.211                                                  
  23636928.043   124212838.708                                                  
 21  8 31 18 19  3.0000000  0 15G 5G10G13G15G18G23G29C19C20C22C29C35
                                E 5E 9E36
  22603485.036   118782112.343    22603485.876    92557489.140                  
  24329186.733   127850658.837    24329191.754    99623869.414                  
  21759329.876   114346046.500    21759330.233    89100814.249                  
  20291206.393   106631014.302    20291206.857    83089103.007                  
  21026908.341   110497150.114    21026909.288    86101677.648                  
  21625811.357   113644400.227    21625812.697    88554078.499                  
  20923194.620   109952124.046    20923195.316    85676977.876                  
                 112378939.382                   112378939.382    21581194.033  
                 132736559.003                   132736559.003    25490659.091  
                 119148370.750                   119148370.750    22881189.487  
                 122773921.630                   122773921.630    23577443.941  
                 112418007.050                   112418007.050    21588697.772  
  24134624.844   126828287.531                                                  
  22303129.900   117203722.079                                                  
  23636959.599   124213004.563                                                  
 21  8 31 18 19  4.0000000  0 15G 5G10G13G15G18G23G29C19C20C22C29C35
                                E 5E 9E36
  22603998.913   118784812.769    22603999.735    92559593.366                  
  24328705.341   127848129.019    24328710.363    99621898.128                  
  21759584.420   114347384.024    21759584.778    89101856.476                  
  20291186.701   106630910.751    20291187.165    83089022.320                  
  21026592.363   110495489.671    21026593.292    86100383.794                  
  21625498.756   113642757.497    21625500.096    88552798.454                  
  20923579.822   109954148.278    20923580.501    85678555.195                  
                 112380108.887                   112380108.887    21581418.646  
                 132739465.164                   132739465.164    25491217.194  
                 119146644.177                   119146644.177    22880857.892  
                 122776584.460                   122776584.460    23577955.299  
                 112418101.235                   112418101.235    21588715.873  
  24134274.397   126826445.933                                                  
  22303295.903   117204594.359                                                  
  23636991.192   124213170.659                                                  
 21  8 31 18 19  5.0000000  0 15G 5G10G13G15G18G23G29C19C20C22C29C35
                                E 5E 9E36
  22604512.826   118787513.268    22604513.648    92561697.652                  
  24328223.968   127845599.363    24328228.989    99619926.972                  
  21759839.054   114348722.194    21759839.411    89102899.206                  
  20291167.116   106630807.902    20291167.581    83088942.180                  
  21026276.421   110493829.413    21026277.368    86099090.091                  
  21625186.227   113641115.062    21625187.567    88551518.633                  
  20923965.114   109956173.071    20923965.829    85680132.956                  
                 112381278.742                   112381278.742    21581643.278  
                 132742371.357                   132742371.357    25491775.298  
                 119144917.972                   119144917.972    22880526.404  
                 122779247.589                   122779247.589    23578466.746  
                 112418195.907                   112418195.907    21588734.064  
  24133924.021   126824604.702                                                  
  22303461.960   117205467.046                                                  
  23637022.856   124213337.004                                                  
 21  8 31 18 19  6.0000000  0 15G 5G10G13G15G18G23G29C19C20C22C29C35
                                E 5E 9E36
  22605026.722   118790213.874    22605027.543    92563802.019                  
  24327742.594   127843069.875    24327747.615    99617955.944                  
  21760093.812   114350060.990    21760094.188    89103942.421                  
  20291147.675   106630705.774    20291148.157    83088862.598                  
  21025960.514   110492169.372    21025961.479    86097796.548                  
  21624873.716   113639472.930    21624875.074    88550239.052                  
  20924350.549   109958198.436    20924351.246    85681711.165                  
                 112382448.949                   112382448.949    21581868.017  
                 132745277.590                   132745277.590    25492333.419  
                 119143192.140                   119143192.140    22880194.987  
                 122781911.015                   122781911.015    23578978.211  
                 112418291.066                   112418291.066    21588752.326  
  24133573.734   126822763.902                                                  
  22303628.124   117206340.180                                                  
  23637054.555   124213503.610                                                  
 21  8 31 18 19  7.0000000  0 15G 5G10G13G15G18G23G29C19C20C22C29C35
                                E 5E 9E36
  22605540.635   118792914.546    22605541.457    92565906.437                  
  24327261.292   127840540.559    24327266.313    99615985.051                  
  21760348.714   114351400.442    21760349.071    89104986.152                  
  20291128.376   106630604.351    20291128.859    83088783.571                  
  21025644.679   110490509.534    21025645.626    86096503.172                  
  21624561.294   113637831.112    21624562.634    88548959.715                  
  20924736.055   109960224.371    20924736.752    85683289.813                  
                 112383619.504                   112383619.504    21582092.809  
                 132748183.858                   132748183.858    25492891.540  
                 119141466.680                   119141466.680    22879863.624  
                 122784574.737                   122784574.737    23579489.766  
                 112418386.712                   112418386.712    21588770.695  
  24133223.519   126820923.513                                                  
  22303794.360   117207213.739                                                  
  23637086.308   124213670.457                                                  
 21  8 31 18 19  8.0000000  0 15G 5G10G13G15G18G23G29C19C20C22C29C35
                                E 5E 9E36
  22606054.583   118795615.278    22606055.405    92568010.903                  
  24326780.026   127838011.475    24326785.047    99614014.339                  
  21760603.723   114352740.558    21760604.080    89106030.398                  
  20291109.221   106630503.640    20291109.685    83088705.093                  
  21025328.862   110488849.886    21025329.791    86095209.937                  
  21624248.943   113636189.605    21624250.283    88547680.617                  
  20925121.686   109962250.871    20925122.383    85684868.902                  
                 112384790.411                   112384790.411    21582317.655  
                 132751090.167                   132751090.167    25493449.661  
                 119139741.589                   119139741.589    22879532.332  
                 122787238.753                   122787238.753    23580001.356  
                 112418482.840                   112418482.840    21588789.154  
  24132873.304   126819083.091                                                  
  22303960.649   117208087.603                                                  
  23637118.097   124213837.506                                                  
 21  8 31 18 19  9.0000000  0 15G 5G10G13G15G18G23G29C19C20C22C29C35
                                E 5E 9E36
  22606568.514   118798316.097    22606569.336    92570115.438                  
  24326298.777   127835482.524    24326303.798    99612043.727                  
  21760858.857   114354081.298    21760859.214    89107075.129                  
  20291090.208   106630403.652    20291090.655    83088627.180                  
  21025013.081   110487190.450    21025014.028    86093916.870                  
  21623936.628   113634548.398    21623937.969    88546401.754                  
  20925507.425   109964277.941    20925508.122    85686448.437                  
                 112385961.668                   112385961.668    21582542.608  
                 132753996.511                   132753996.511    25494007.800  
                 119138016.871                   119138016.871    22879201.112  
                 122789903.072                   122789903.072    23580513.000  
                 112418579.456                   112418579.456    21588807.720  
  24132523.197   126817243.339                                                  
  22304127.027   117208961.965                                                  
  23637149.940   124214004.846                                                  
 21  8 31 18 19 10.0000000  0 15G 5G10G13G15G18G23G29C19C20C22C29C35
                                E 5E 9E36
  22607082.499   118801017.007    22607083.321    92572220.043                  
  24325817.564   127832953.751    24325822.585    99610073.257                  
  21761114.116   114355422.690    21761114.473    89108120.372                  
  20291071.303   106630304.368    20291071.767    83088549.812                  
  21024697.317   110485531.210    21024698.282    86092623.958                  
  21623624.367   113632907.492    21623625.707    88545123.126                  
  20925893.289   109966305.589    20925893.986    85688028.422                  
                 112387133.273                   112387133.273    21582767.597  
                 132756902.896                   132756902.896    25494565.939  
                 119136292.527                   119136292.527    22878869.981  
                 122792567.681                   122792567.681    23581024.715  
                 112418676.561                   112418676.561    21588826.357  
  24132173.178   126815403.897                                                  
  22304293.477   117209836.719                                                  
  23637181.818   124214172.406                                                  
 21  8 31 18 19 11.0000000  0 15G 5G10G13G15G18G23G29C19C20C22C29C35
                                E 5E 9E36
  22607596.484   118803718.003    22607597.306    92574324.715                  
  24325336.405   127830425.157    24325341.426    99608102.925                  
  21761369.500   114356764.722    21761369.857    89109166.109                  
  20291052.540   106630205.797    20291053.005    83088473.008                  
  21024381.625   110483872.175    21024382.554    86091331.204                  
  21623312.160   113631266.886    21623313.518    88543844.734                  
  20926279.242   109968333.801    20926279.921    85689608.847                  
                 112388305.236                   112388305.236    21582992.657  
                 132759809.312                   132759809.312    25495124.095  
                 119134568.550                   119134568.550    22878538.904  
                 122795232.589                   122795232.589    23581536.484  
                 112418774.152                   112418774.152    21588845.102  
  24131823.195   126813564.805                                                  
  22304460.017   117210711.894                                                  
  23637213.768   124214340.221                                                  
 21  8 31 18 19 12.0000000  0 15G 5G10G13G15G18G23G29C19C20C22C29C35
                                E 5E 9E36
  22608110.468   118806419.060    22608111.308    92576429.430                  
  24324855.246   127827896.734    24324860.267    99606132.727                  
  21761624.991   114358107.394    21761625.366    89110212.349                  
  20291033.921   106630107.942    20291034.385    83088396.757                  
  21024065.969   110482213.346    21024066.898    86090038.610                  
  21623000.041   113629626.594    21623001.382    88542566.587                  
  20926665.302   109970362.591    20926665.999    85691189.720                  
                 112389477.544                   112389477.544    21583217.771  
                 132762715.770                   132762715.770    25495682.234  
                 119132844.945                   119132844.945    22878207.898  
                 122797897.792                   122797897.792    23582048.324  
                 112418872.225                   112418872.225    21588863.936  
  24131473.302   126811726.089                                                  
  22304626.645   117211587.493                                                  
  23637245.736   124214508.280                                                  
 21  8 31 18 19 13.0000000  0 15G 5G10G13G15G18G23G29C19C20C22C29C35
                                E 5E 9E36
  22608624.488   118809120.199    22608625.293    92578534.214                  
  24324374.140   127825368.478    24324379.162    99604162.659                  
  21761880.625   114359450.720    21761880.983    89111259.089                  
  20291015.444   106630010.800    20291015.909    83088321.062                  
  21023750.348   110480554.720    21023751.278    86088746.176                  
  21622687.941   113627986.601    21622689.299    88541288.672                  
  20927051.487   109972391.947    20927052.166    85692771.036                  
                 112390650.199                   112390650.199    21583442.974  
                 132765622.265                   132765622.265    25496240.391  
                 119131121.710                   119131121.710    22877876.981  
                 122800563.294                   122800563.294    23582560.200  
                 112418970.790                   112418970.790    21588882.859  
  24131123.480   126809887.718                                                  
  22304793.345   117212463.493                                                  
