% program   : rnx2rtkp ver.2.4.3 b31
% inp file  : ngs/21_08_31_08_48_18_nvbm.obs
% inp file  : ngs/21_08_31_08_48_18_nvbm_SW.obs
% inp file  : ngs/21_08_31_08_48_18_brdc.nav
% obs start : 2021/08/31 08:00:00.0 GPST (week2173 201600.0s)
% obs end   : 2021/08/31 08:59:59.0 GPST (week2173 205199.0s)
% ref pos   : -2221570.6064  -4730182.0172   3644377.9959
%
% (x/y/z-ecef=WGS84,Q=1:fix,2:float,3:sbas,4:dgps,5:single,6:ppp,ns=# of satellites)
%  GPST              x-ecef(m)      y-ecef(m)      z-ecef(m)   Q  ns   sdx(m)   sdy(m)   sdz(m)  sdxy(m)  sdyz(m)  sdzx(m) age(s)  ratio
2173 204473.000  -2197190.5009  -4678268.7565   3725900.1134   2   9   0.4654   0.7403   0.6785   0.3932  -0.5419  -0.2637 -30.00    1.1
2173 204474.000  -2197190.5069  -4678268.7660   3725900.1199   2   9   0.3315   0.5269   0.4823   0.2801  -0.3854  -0.1876 -29.00    1.1
2173 204475.000  -2197190.5074  -4678268.7659   3725900.1142   2   9   0.2714   0.4314   0.3949   0.2294  -0.3155  -0.1537 -28.00    1.1
2173 204476.000  -2197190.5093  -4678268.7685   3725900.1153   2   9   0.2355   0.3743   0.3427   0.1990  -0.2738  -0.1333 -27.00    1.1
2173 204477.000  -2197190.5124  -4678268.7746   3725900.1179   2   9   0.2109   0.3352   0.3069   0.1782  -0.2452  -0.1194 -26.00    1.1
2173 204478.000  -2197190.5125  -4678268.7760   3725900.1193   2   9   0.1927   0.3063   0.2805   0.1628  -0.2241  -0.1091 -25.00    1.0
2173 204479.000  -2197190.5136  -4678268.7759   3725900.1199   2   9   0.1785   0.2838   0.2600   0.1508  -0.2077  -0.1011 -24.00    1.0
2173 204480.000  -2197190.5111  -4678268.7767   3725900.1180   2   9   0.1670   0.2656   0.2433   0.1412  -0.1944  -0.0947 -23.00    1.0
2173 204481.000  -2197190.5131  -4678268.7798   3725900.1226   2   9   0.1575   0.2505   0.2295   0.1331  -0.1833  -0.0893 -22.00    1.0
2173 204482.000  -2197190.5139  -4678268.7803   3725900.1201   2   9   0.1495   0.2377   0.2178   0.1263  -0.1740  -0.0848 -21.00    1.0
2173 204483.000  -2197190.5136  -4678268.7795   3725900.1221   2   9   0.1426   0.2267   0.2077   0.1205  -0.1659  -0.0808 -20.00    1.0
2173 204484.000  -2197190.5138  -4678268.7809   3725900.1225   2   9   0.1365   0.2171   0.1989   0.1154  -0.1589  -0.0774 -19.00    1.0
2173 204485.000  -2197190.5154  -4678268.7809   3725900.1229   2   9   0.1311   0.2086   0.1911   0.1108  -0.1526  -0.0744 -18.00    1.0
2173 204486.000  -2197190.5156  -4678268.7857   3725900.1246   2   9   0.1264   0.2010   0.1841   0.1068  -0.1471  -0.0717 -17.00    1.0
2173 204487.000  -2197190.5148  -4678268.7811   3725900.1215   2   9   0.1221   0.1941   0.1778   0.1032  -0.1421  -0.0692 -16.00    1.0
2173 204488.000  -2197190.5155  -4678268.7799   3725900.1226   2   9   0.1182   0.1879   0.1721   0.0999  -0.1375  -0.0670 -15.00    1.0
2173 204489.000  -2197190.5139  -4678268.7825   3725900.1230   2   9   0.1146   0.1823   0.1669   0.0969  -0.1334  -0.0650 -14.00    1.0
2173 204490.000  -2197190.5117  -4678268.7800   3725900.1219   2   9   0.1114   0.1771   0.1621   0.0941  -0.1295  -0.0632 -13.00    1.0
2173 204491.000  -2197190.5107  -4678268.7828   3725900.1241   2   9   0.1084   0.1723   0.1577   0.0916  -0.1260  -0.0615 -12.00    1.0
2173 204492.000  -2197190.5099  -4678268.7806   3725900.1205   2   9   0.1056   0.1679   0.1536   0.0892  -0.1228  -0.0599 -11.00    1.0
2173 204493.000  -2197190.5077  -4678268.7764   3725900.1171   2   9   0.1030   0.1638   0.1498   0.0870  -0.1198  -0.0584 -10.00    1.0
2173 204494.000  -2197190.5072  -4678268.7743   3725900.1161   2   9   0.1006   0.1600   0.1463   0.0850  -0.1169  -0.0571  -9.00    1.0
2173 204495.000  -2197190.5043  -4678268.7738   3725900.1117   2   9   0.0984   0.1564   0.1430   0.0831  -0.1143  -0.0558  -8.00    1.0
2173 204496.000  -2197190.5041  -4678268.7712   3725900.1081   2   9   0.0963   0.1530   0.1398   0.0813  -0.1118  -0.0546  -7.00    1.0
2173 204497.000  -2197190.5035  -4678268.7736   3725900.1102   2   9   0.0943   0.1499   0.1369   0.0797  -0.1095  -0.0535  -6.00    1.0
2173 204498.000  -2197190.5018  -4678268.7695   3725900.1040   2   9   0.0924   0.1469   0.1342   0.0781  -0.1073  -0.0524  -5.00    1.0
2173 204499.000  -2197190.5009  -4678268.7664   3725900.0990   2   9   0.0907   0.1441   0.1316   0.0766  -0.1053  -0.0514  -4.00    1.1
2173 204500.000  -2197190.4991  -4678268.7635   3725900.0943   2   9   0.0890   0.1415   0.1291   0.0752  -0.1033  -0.0505  -3.00    1.1
2173 204501.000  -2197190.4976  -4678268.7614   3725900.0896   2   9   0.0874   0.1390   0.1268   0.0739  -0.1015  -0.0496  -2.00    1.1
2173 204502.000  -2197190.4972  -4678268.7593   3725900.0826   2   9   0.0860   0.1367   0.1246   0.0726  -0.0997  -0.0487  -1.00    1.1
2173 204503.000  -2197190.4957  -4678268.7549   3725900.0780   2   9   0.0846   0.1344   0.1225   0.0715  -0.0981  -0.0480   0.00    1.1
2173 204504.000  -2197190.4938  -4678268.7509   3725900.0731   2   9   0.0832   0.1323   0.1205   0.0703  -0.0965  -0.0472   0.00    1.0
2173 204505.000  -2197190.4944  -4678268.7513   3725900.0735   2   9   0.0819   0.1303   0.1186   0.0692  -0.0950  -0.0465   0.00    1.0
2173 204506.000  -2197190.4935  -4678268.7466   3725900.0684   2   9   0.0808   0.1283   0.1168   0.0682  -0.0936  -0.0458   0.00    1.0
2173 204507.000  -2197190.4937  -4678268.7416   3725900.0619   2   9   0.0796   0.1265   0.1151   0.0672  -0.0922  -0.0451   0.00    1.1
2173 204508.000  -2197190.4946  -4678268.7436   3725900.0622   2   9   0.0785   0.1247   0.1134   0.0663  -0.0909  -0.0445   0.00    1.1
2173 204509.000  -2197190.4955  -4678268.7424   3725900.0569   2   9   0.0774   0.1230   0.1118   0.0654  -0.0896  -0.0439   0.00    1.1
2173 204510.000  -2197190.4951  -4678268.7418   3725900.0550   2   9   0.0764   0.1214   0.1102   0.0645  -0.0884  -0.0433   0.00    1.2
2173 204511.000  -2197190.4958  -4678268.7378   3725900.0508   2   9   0.0754   0.1198   0.1088   0.0636  -0.0873  -0.0427   0.00    1.2
2173 204512.000  -2197190.4970  -4678268.7380   3725900.0457   2   9   0.0744   0.1183   0.1073   0.0629  -0.0861  -0.0422   0.00    1.2
2173 204513.000  -2197190.4945  -4678268.7338   3725900.0412   2   9   0.0735   0.1168   0.1059   0.0621  -0.0850  -0.0418   0.00    1.2
2173 204514.000  -2197190.4960  -4678268.7389   3725900.0427   2   9   0.0726   0.1154   0.1046   0.0613  -0.0840  -0.0412   0.00    1.2
2173 204515.000  -2197190.4946  -4678268.7373   3725900.0415   2   9   0.0718   0.1141   0.1033   0.0606  -0.0830  -0.0408   0.00    1.3
2173 204516.000  -2197190.4948  -4678268.7406   3725900.0420   2   9   0.0709   0.1127   0.1020   0.0600  -0.0820  -0.0403   0.00    1.3
2173 204517.000  -2197190.4989  -4678268.7463   3725900.0446   2   9   0.0701   0.1115   0.1008   0.0592  -0.0810  -0.0398   0.00    1.3
2173 204518.000  -2197190.5022  -4678268.7530   3725900.0501   2   9   0.0694   0.1102   0.0995   0.0586  -0.0801  -0.0394   0.00    1.3
2173 204519.000  -2197190.5062  -4678268.7578   3725900.0568   2   9   0.0686   0.1091   0.0984   0.0579  -0.0792  -0.0390   0.00    1.3
2173 204520.000  -2197190.5069  -4678268.7569   3725900.0598   2   9   0.0679   0.1079   0.0972   0.0574  -0.0783  -0.0386   0.00    1.4
2173 204521.000  -2197190.5096  -4678268.7623   3725900.0749   2   9   0.0672   0.1068   0.0961   0.0567  -0.0775  -0.0382   0.00    1.4
2173 204522.000  -2197190.5087  -4678268.7606   3725900.0837   2   9   0.0665   0.1057   0.0950   0.0562  -0.0766  -0.0378   0.00    1.4
2173 204523.000  -2197190.5075  -4678268.7607   3725900.0921   2   9   0.0658   0.1046   0.0940   0.0556  -0.0758  -0.0375   0.00    1.4
2173 204524.000  -2197190.5088  -4678268.7650   3725900.1019   2   9   0.0652   0.1036   0.0929   0.0550  -0.0750  -0.0371   0.00    1.4
2173 204525.000  -2197190.5059  -4678268.7615   3725900.1069   2   9   0.0645   0.1026   0.0919   0.0545  -0.0743  -0.0368   0.00    1.4
2173 204526.000  -2197190.5026  -4678268.7610   3725900.1122   2   9   0.0640   0.1016   0.0910   0.0540  -0.0735  -0.0364   0.00    1.4
2173 204527.000  -2197190.5028  -4678268.7609   3725900.1174   2   9   0.0634   0.1006   0.0900   0.0535  -0.0728  -0.0361   0.00    1.4
2173 204528.000  -2197190.5042  -4678268.7599   3725900.1172   2   9   0.0628   0.0997   0.0890   0.0530  -0.0721  -0.0358   0.00    1.4
2173 204529.000  -2197190.5038  -4678268.7615   3725900.1235   2   9   0.0622   0.0989   0.0881   0.0525  -0.0714  -0.0355   0.00    1.4
2173 204530.000  -2197190.5035  -4678268.7611   3725900.1303   2   9   0.0617   0.0980   0.0872   0.0521  -0.0707  -0.0352   0.00    1.4
2173 204531.000  -2197190.5041  -4678268.7601   3725900.1289   2   9   0.0611   0.0971   0.0863   0.0516  -0.0701  -0.0349   0.00    1.4
2173 204532.000  -2197190.5041  -4678268.7631   3725900.1335   2   9   0.0606   0.0963   0.0854   0.0512  -0.0694  -0.0346   0.00    1.4
2173 204533.000  -2197190.5059  -4678268.7609   3725900.1307   2   9   0.0601   0.0954   0.0846   0.0508  -0.0688  -0.0343   0.00    1.4
2173 204534.000  -2197190.5038  -4678268.7595   3725900.1290   2   9   0.0596   0.0947   0.0837   0.0503  -0.0682  -0.0340   0.00    1.5
2173 204535.000  -2197190.5018  -4678268.7580   3725900.1236   2   9   0.0591   0.0939   0.0829   0.0499  -0.0675  -0.0338   0.00    1.5
2173 204536.000  -2197190.5015  -4678268.7530   3725900.1175   2   9   0.0587   0.0931   0.0821   0.0495  -0.0669  -0.0335   0.00    1.5
2173 204537.000  -2197190.5008  -4678268.7508   3725900.1115   2   9   0.0582   0.0924   0.0813   0.0491  -0.0664  -0.0333   0.00    1.5
2173 204538.000  -2197190.5009  -4678268.7509   3725900.1057   2   9   0.0577   0.0916   0.0805   0.0487  -0.0658  -0.0330   0.00    1.5
2173 204539.000  -2197190.5013  -4678268.7508   3725900.1008   2   9   0.0573   0.0909   0.0797   0.0484  -0.0652  -0.0327   0.00    1.5
2173 204540.000  -2197190.5023  -4678268.7479   3725900.0945   2   9   0.0568   0.0902   0.0789   0.0480  -0.0647  -0.0325   0.00    1.5
2173 204541.000  -2197190.5033  -4678268.7490   3725900.0913   2   9   0.0564   0.0896   0.0782   0.0476  -0.0641  -0.0323   0.00    1.5
2173 204542.000  -2197190.5045  -4678268.7480   3725900.0843   2   9   0.0560   0.0889   0.0774   0.0473  -0.0636  -0.0321   0.00    1.5
2173 204543.000  -2197190.5046  -4678268.7509   3725900.0844   2   9   0.0556   0.0882   0.0767   0.0469  -0.0631  -0.0318   0.00    1.5
2173 204544.000  -2197190.5033  -4678268.7482   3725900.0734   2   9   0.0552   0.0876   0.0760   0.0466  -0.0625  -0.0316   0.00    1.5
2173 204545.000  -2197190.5043  -4678268.7475   3725900.0710   2   9   0.0548   0.0869   0.0753   0.0462  -0.0620  -0.0314   0.00    1.5
2173 204546.000  -2197190.5012  -4678268.7470   3725900.0651   2   9   0.0544   0.0863   0.0746   0.0459  -0.0615  -0.0312   0.00    1.5
2173 204547.000  -2197190.5043  -4678268.7455   3725900.0591   2   9   0.0541   0.0857   0.0739   0.0456  -0.0611  -0.0310   0.00    1.5
2173 204548.000  -2197190.5009  -4678268.7407   3725900.0495   2   9   0.0537   0.0851   0.0732   0.0453  -0.0606  -0.0308   0.00    1.5
2173 204549.000  -2197190.5003  -4678268.7403   3725900.0476   2   9   0.0533   0.0845   0.0725   0.0450  -0.0601  -0.0306   0.00    1.5
2173 204550.000  -2197190.4995  -4678268.7339   3725900.0361   2   9   0.0530   0.0840   0.0719   0.0447  -0.0596  -0.0304   0.00    1.5
2173 204551.000  -2197190.4984  -4678268.7325   3725900.0314   2   9   0.0526   0.0834   0.0712   0.0444  -0.0592  -0.0302   0.00    1.5
2173 204552.000  -2197190.4992  -4678268.7314   3725900.0247   2   9   0.0523   0.0829   0.0706   0.0441  -0.0587  -0.0301   0.00    1.5
2173 204553.000  -2197190.4997  -4678268.7297   3725900.0118   2   9   0.0519   0.0823   0.0699   0.0437  -0.0583  -0.0299   0.00    1.5
2173 204554.000  -2197190.5018  -4678268.7235   3725900.0019   2   9   0.0516   0.0818   0.0693   0.0435  -0.0579  -0.0297   0.00    1.5
2173 204555.000  -2197190.4980  -4678268.7152   3725899.9787   2   9   0.0512   0.0812   0.0687   0.0432  -0.0574  -0.0295   0.00    1.5
2173 204556.000  -2197190.4940  -4678268.7020   3725899.9533   2   9   0.0509   0.0807   0.0681   0.0430  -0.0570  -0.0294   0.00    1.5
2173 204557.000  -2197190.4940  -4678268.7000   3725899.9434   2   9   0.0506   0.0802   0.0675   0.0426  -0.0566  -0.0291   0.00    1.5
2173 204558.000  -2197190.4882  -4678268.6951   3725899.9325   2   9   0.0503   0.0797   0.0669   0.0424  -0.0562  -0.0290   0.00    1.5
2173 204559.000  -2197190.4778  -4678268.6826   3725899.9516   2   9   0.0500   0.0792   0.0663   0.0421  -0.0558  -0.0288   0.00    1.5
2173 204560.000  -2197190.4659  -4678268.6853   3725900.0016   2   9   0.0497   0.0787   0.0657   0.0419  -0.0554  -0.0287   0.00    1.4
2173 204561.000  -2197190.4525  -4678268.6923   3725900.0532   2   9   0.0494   0.0783   0.0652   0.0416  -0.0550  -0.0285   0.00    1.3
2173 204562.000  -2197190.4407  -4678268.6934   3725900.0993   2   9   0.0491   0.0778   0.0646   0.0414  -0.0546  -0.0283   0.00    1.3
2173 204563.000  -2197190.4307  -4678268.6957   3725900.1436   2   9   0.0488   0.0773   0.0640   0.0411  -0.0542  -0.0282   0.00    1.2
2173 204564.000  -2197190.4191  -4678268.6994   3725900.1832   2   9   0.0486   0.0769   0.0635   0.0409  -0.0538  -0.0281   0.00    1.2
2173 204565.000  -2197190.4100  -4678268.6996   3725900.2207   2   9   0.0483   0.0765   0.0630   0.0406  -0.0535  -0.0279   0.00    1.1
2173 204566.000  -2197190.3996  -4678268.6982   3725900.2540   2   9   0.0480   0.0760   0.0624   0.0404  -0.0531  -0.0278   0.00    1.1
2173 204567.000  -2197190.3922  -4678268.6987   3725900.2862   2   9   0.0477   0.0755   0.0619   0.0402  -0.0527  -0.0276   0.00    1.1
2173 204568.000  -2197190.3835  -4678268.6921   3725900.3135   2   9   0.0474   0.0751   0.0614   0.0399  -0.0524  -0.0275   0.00    1.0
2173 204569.000  -2197190.3750  -4678268.6880   3725900.3391   2   9   0.0472   0.0747   0.0608   0.0397  -0.0520  -0.0274   0.00    1.0
2173 204570.000  -2197190.3643  -4678268.6848   3725900.3635   2   9   0.0469   0.0743   0.0603   0.0395  -0.0517  -0.0272   0.00    1.0
2173 204571.000  -2197190.3551  -4678268.6759   3725900.3848   2   9   0.0467   0.0739   0.0598   0.0392  -0.0513  -0.0271   0.00    1.1
2173 204572.000  -2197190.3470  -4678268.6743   3725900.4089   2   9   0.0464   0.0735   0.0593   0.0391  -0.0510  -0.0269   0.00    1.1
2173 204573.000  -2197190.3367  -4678268.6712   3725900.4294   2   9   0.0462   0.0731   0.0589   0.0388  -0.0506  -0.0268   0.00    1.1
2173 204574.000  -2197190.3268  -4678268.6670   3725900.4530   2   9   0.0459   0.0727   0.0584   0.0386  -0.0503  -0.0266   0.00    1.1
2173 204575.000  -2197190.3207  -4678268.6661   3725900.4763   2   9   0.0457   0.0723   0.0579   0.0384  -0.0500  -0.0265   0.00    1.1
2173 204576.000  -2197190.3116  -4678268.6630   3725900.4940   2   9   0.0454   0.0719   0.0574   0.0382  -0.0497  -0.0264   0.00    1.1
2173 204577.000  -2197190.3023  -4678268.6576   3725900.5144   2   9   0.0452   0.0715   0.0569   0.0380  -0.0494  -0.0262   0.00    1.1
2173 204578.000  -2197190.2951  -4678268.6556   3725900.5269   2   9   0.0450   0.0712   0.0565   0.0378  -0.0490  -0.0261   0.00    1.1
2173 204579.000  -2197190.2863  -4678268.6522   3725900.5433   2   9   0.0448   0.0708   0.0560   0.0376  -0.0488  -0.0260   0.00    1.1
2173 204580.000  -2197190.2797  -4678268.6513   3725900.5576   2   9   0.0445   0.0705   0.0556   0.0373  -0.0484  -0.0259   0.00    1.1
2173 204581.000  -2197190.2739  -4678268.6481   3725900.5711   2   9   0.0443   0.0701   0.0551   0.0372  -0.0481  -0.0258   0.00    1.1
2173 204582.000  -2197190.2690  -4678268.6476   3725900.5835   2   9   0.0441   0.0697   0.0547   0.0370  -0.0478  -0.0256   0.00    1.1
2173 204583.000  -2197190.2628  -4678268.6427   3725900.5942   2   9   0.0438   0.0693   0.0542   0.0369  -0.0475  -0.0255   0.00    1.1
2173 204584.000  -2197190.2586  -4678268.6394   3725900.6050   2   9   0.0437   0.0690   0.0538   0.0366  -0.0473  -0.0254   0.00    1.1
2173 204585.000  -2197190.2556  -4678268.6392   3725900.6189   2   9   0.0434   0.0687   0.0534   0.0364  -0.0470  -0.0253   0.00    1.1
2173 204586.000  -2197190.2517  -4678268.6359   3725900.6311   2   9   0.0432   0.0684   0.0530   0.0362  -0.0467  -0.0252   0.00    1.1
2173 204587.000  -2197190.2481  -4678268.6402   3725900.6552   2   9   0.0430   0.0680   0.0526   0.0361  -0.0464  -0.0251   0.00    1.1
2173 204588.000  -2197190.2427  -4678268.6420   3725900.6808   2   9   0.0428   0.0677   0.0521   0.0359  -0.0461  -0.0250   0.00    1.1
2173 204589.000  -2197190.2392  -4678268.6385   3725900.6994   2   9   0.0426   0.0673   0.0517   0.0357  -0.0459  -0.0248   0.00    1.1
2173 204590.000  -2197190.2350  -4678268.6370   3725900.7206   2   9   0.0424   0.0670   0.0513   0.0355  -0.0456  -0.0247   0.00    1.1
2173 204591.000  -2197190.2297  -4678268.6329   3725900.7385   2   9   0.0422   0.0667   0.0509   0.0353  -0.0453  -0.0246   0.00    1.1
2173 204592.000  -2197190.2226  -4678268.6306   3725900.7539   2   9   0.0420   0.0664   0.0506   0.0352  -0.0451  -0.0245   0.00    1.1
2173 204593.000  -2197190.2187  -4678268.6276   3725900.7695   2   9   0.0418   0.0661   0.0502   0.0350  -0.0448  -0.0244   0.00    1.1
2173 204594.000  -2197190.2145  -4678268.6247   3725900.7839   2   9   0.0416   0.0658   0.0498   0.0348  -0.0446  -0.0243   0.00    1.1
2173 204595.000  -2197190.2101  -4678268.6214   3725900.7957   2   9   0.0414   0.0655   0.0494   0.0347  -0.0443  -0.0243   0.00    1.1
2173 204596.000  -2197190.2057  -4678268.6147   3725900.8076   2   9   0.0413   0.0652   0.0490   0.0345  -0.0440  -0.0241   0.00    1.1
2173 204597.000  -2197190.2012  -4678268.6096   3725900.8177   2   9   0.0410   0.0648   0.0487   0.0344  -0.0438  -0.0240   0.00    1.1
2173 204598.000  -2197190.1934  -4678268.6053   3725900.8235   2   9   0.0409   0.0646   0.0483   0.0342  -0.0436  -0.0239   0.00    1.1
2173 204599.000  -2197190.1927  -4678268.6054   3725900.8347   2   9   0.0407   0.0643   0.0479   0.0341  -0.0433  -0.0239   0.00    1.1
2173 204600.000  -2197190.1861  -4678268.5990   3725900.8428   2   9   0.0405   0.0640   0.0476   0.0339  -0.0431  -0.0236   0.00    1.1
2173 204601.000  -2197190.1818  -4678268.5962   3725900.8504   2   9   0.0403   0.0637   0.0472   0.0337  -0.0428  -0.0235   0.00    1.1
2173 204602.000  -2197190.1783  -4678268.5907   3725900.8580   2   9   0.0402   0.0634   0.0469   0.0336  -0.0426  -0.0236   0.00    1.1
2173 204603.000  -2197190.1754  -4678268.5847   3725900.8675   2   9   0.0400   0.0631   0.0465   0.0334  -0.0424  -0.0234   0.00    1.1
2173 204604.000  -2197190.1715  -4678268.5794   3725900.8747   2   9   0.0398   0.0629   0.0462   0.0332  -0.0422  -0.0233   0.00    1.1
2173 204605.000  -2197190.1703  -4678268.5758   3725900.8852   2   9   0.0397   0.0626   0.0459   0.0331  -0.0419  -0.0232   0.00    1.1
2173 204606.000  -2197190.1684  -4678268.5715   3725900.8940   2   9   0.0395   0.0624   0.0455   0.0329  -0.0417  -0.0231   0.00    1.1
2173 204607.000  -2197190.1731  -4678268.5692   3725900.8987   2   9   0.0393   0.0621   0.0452   0.0328  -0.0415  -0.0231   0.00    1.1
2173 204608.000  -2197190.1639  -4678268.5595   3725900.9051   2   9   0.0392   0.0618   0.0449   0.0326  -0.0413  -0.0229   0.00    1.1
2173 204609.000  -2197190.1603  -4678268.5494   3725900.9086   2   9   0.0389   0.0615   0.0446   0.0325  -0.0410  -0.0229   0.00    1.1
2173 204610.000  -2197190.1573  -4678268.5433   3725900.9120   2   9   0.0388   0.0613   0.0442   0.0323  -0.0408  -0.0228   0.00    1.1
2173 204611.000  -2197190.1559  -4678268.5379   3725900.9161   2   9   0.0386   0.0610   0.0439   0.0322  -0.0406  -0.0227   0.00    1.1
2173 204612.000  -2197190.1506  -4678268.5328   3725900.9212   2   9   0.0384   0.0607   0.0436   0.0321  -0.0404  -0.0227   0.00    1.1
2173 204613.000  -2197190.1482  -4678268.5268   3725900.9244   2   9   0.0383   0.0605   0.0433   0.0319  -0.0402  -0.0225   0.00    1.1
2173 204614.000  -2197190.1453  -4678268.5205   3725900.9241   2   9   0.0381   0.0602   0.0430   0.0318  -0.0400  -0.0224   0.00    1.1
2173 204615.000  -2197190.1367  -4678268.5128   3725900.9138   2   9   0.0380   0.0600   0.0427   0.0316  -0.0398  -0.0223   0.00    1.1
2173 204616.000  -2197190.1332  -4678268.5095   3725900.9122   2   9   0.0378   0.0598   0.0424   0.0315  -0.0396  -0.0222   0.00    1.1
2173 204617.000  -2197190.1298  -4678268.4995   3725900.9085   2   9   0.0377   0.0595   0.0421   0.0314  -0.0394  -0.0222   0.00    1.1
2173 204618.000  -2197190.1226  -4678268.4899   3725900.9065   2   9   0.0376   0.0593   0.0418   0.0312  -0.0392  -0.0221   0.00    1.1
2173 204619.000  -2197190.1165  -4678268.4823   3725900.9026   2   9   0.0374   0.0591   0.0415   0.0311  -0.0390  -0.0220   0.00    1.1
2173 204620.000  -2197190.1143  -4678268.4766   3725900.8989   2   9   0.0372   0.0588   0.0412   0.0310  -0.0388  -0.0219   0.00    1.1
2173 204621.000  -2197190.1110  -4678268.4708   3725900.8926   2   9   0.0371   0.0586   0.0410   0.0308  -0.0386  -0.0218   0.00    1.1
2173 204622.000  -2197190.1087  -4678268.4653   3725900.8862   2   9   0.0369   0.0583   0.0407   0.0307  -0.0384  -0.0217   0.00    1.1
2173 204623.000  -2197190.1041  -4678268.4574   3725900.8777   2   9   0.0368   0.0582   0.0404   0.0305  -0.0383  -0.0217   0.00    1.1
2173 204624.000  -2197190.1000  -4678268.4502   3725900.8679   2   9   0.0366   0.0579   0.0402   0.0304  -0.0381  -0.0216   0.00    1.1
2173 204625.000  -2197190.0940  -4678268.4394   3725900.8545   2   9   0.0365   0.0577   0.0398   0.0303  -0.0379  -0.0215   0.00    1.1
2173 204626.000  -2197190.0908  -4678268.4335   3725900.8449   2   9   0.0364   0.0575   0.0396   0.0302  -0.0377  -0.0214   0.00    1.1
2173 204627.000  -2197190.0854  -4678268.4230   3725900.8337   2   9   0.0362   0.0572   0.0394   0.0301  -0.0375  -0.0214   0.00    1.1
2173 204628.000  -2197190.0808  -4678268.4164   3725900.8223   2   9   0.0361   0.0570   0.0391   0.0299  -0.0373  -0.0213   0.00    1.1
2173 204629.000  -2197190.0758  -4678268.4069   3725900.8130   2   9   0.0359   0.0567   0.0388   0.0299  -0.0372  -0.0212   0.00    1.1
2173 204630.000  -2197190.0749  -4678268.4080   3725900.8073   2   9   0.0358   0.0565   0.0386   0.0297  -0.0370  -0.0211   0.00    1.1
2173 204631.000  -2197190.0763  -4678268.3992   3725900.7988   2   9   0.0357   0.0563   0.0384   0.0296  -0.0368  -0.0210   0.00    1.1
2173 204632.000  -2197190.0763  -4678268.3962   3725900.7952   2   9   0.0356   0.0561   0.0381   0.0295  -0.0367  -0.0209   0.00    1.0
2173 204633.000  -2197190.0770  -4678268.3944   3725900.7937   2   9   0.0355   0.0559   0.0379   0.0293  -0.0365  -0.0209   0.00    1.0
2173 204634.000  -2197190.0787  -4678268.3930   3725900.7971   2   9   0.0353   0.0557   0.0376   0.0293  -0.0363  -0.0208   0.00    1.0
2173 204635.000  -2197190.0768  -4678268.3846   3725900.7935   2   9   0.0352   0.0555   0.0374   0.0291  -0.0362  -0.0208   0.00    1.0
2173 204636.000  -2197190.0747  -4678268.3793   3725900.7952   2   9   0.0350   0.0554   0.0371   0.0289  -0.0360  -0.0206   0.00    1.0
2173 204637.000  -2197190.0734  -4678268.3749   3725900.7985   2   9   0.0349   0.0551   0.0369   0.0288  -0.0358  -0.0205   0.00    1.0
2173 204638.000  -2197190.0724  -4678268.3682   3725900.7994   2   9   0.0348   0.0549   0.0367   0.0287  -0.0357  -0.0205   0.00    1.0
2173 204639.000  -2197190.0706  -4678268.3605   3725900.7946   2   9   0.0346   0.0547   0.0365   0.0286  -0.0355  -0.0204   0.00    1.0
2173 204640.000  -2197190.0639  -4678268.3505   3725900.7903   2   9   0.0345   0.0545   0.0362   0.0286  -0.0354  -0.0204   0.00    1.0
2173 204641.000  -2197190.0609  -4678268.3457   3725900.7874   2   9   0.0344   0.0543   0.0360   0.0284  -0.0352  -0.0203   0.00    1.0
2173 204642.000  -2197190.0562  -4678268.3375   3725900.7845   2   9   0.0342   0.0541   0.0358   0.0282  -0.0350  -0.0202   0.00    1.0
2173 204643.000  -2197190.0520  -4678268.3300   3725900.7813   2   9   0.0342   0.0539   0.0356   0.0281  -0.0349  -0.0202   0.00    1.0
2173 204644.000  -2197190.0488  -4678268.3285   3725900.7789   2   9   0.0340   0.0538   0.0353   0.0280  -0.0347  -0.0200   0.00    1.0
2173 204645.000  -2197190.0458  -4678268.3196   3725900.7707   2   9   0.0339   0.0535   0.0351   0.0279  -0.0346  -0.0200   0.00    1.0
2173 204646.000  -2197190.0430  -4678268.3136   3725900.7651   2   9   0.0338   0.0534   0.0350   0.0278  -0.0344  -0.0199   0.00    1.0
2173 204647.000  -2197190.0361  -4678268.3048   3725900.7582   2   9   0.0336   0.0531   0.0347   0.0277  -0.0343  -0.0199   0.00    1.1
2173 204648.000  -2197190.0354  -4678268.3055   3725900.7511   2   9   0.0335   0.0530   0.0345   0.0276  -0.0341  -0.0198   0.00    1.1
2173 204649.000  -2197190.0341  -4678268.2987   3725900.7468   2   9   0.0334   0.0528   0.0343   0.0275  -0.0340  -0.0197   0.00    1.1
2173 204650.000  -2197190.0313  -4678268.2966   3725900.7395   2   9   0.0333   0.0526   0.0341   0.0274  -0.0339  -0.0197   0.00    1.1
2173 204651.000  -2197190.0286  -4678268.2947   3725900.7318   2   9   0.0332   0.0524   0.0339   0.0273  -0.0337  -0.0196   0.00    1.0
2173 204652.000  -2197190.0263  -4678268.2895   3725900.7214   2   9   0.0331   0.0522   0.0337   0.0273  -0.0335  -0.0195   0.00    1.0
2173 204653.000  -2197190.0232  -4678268.2893   3725900.7155   2   9   0.0330   0.0521   0.0335   0.0271  -0.0334  -0.0194   0.00    1.0
2173 204654.000  -2197190.0211  -4678268.2855   3725900.7064   2   9   0.0329   0.0519   0.0333   0.0270  -0.0333  -0.0194   0.00    1.0
2173 204655.000  -2197190.0159  -4678268.2803   3725900.6996   2   9   0.0327   0.0517   0.0331   0.0269  -0.0332  -0.0193   0.00    1.0
2173 204656.000  -2197190.0131  -4678268.2767   3725900.6916   2   9   0.0326   0.0515   0.0330   0.0268  -0.0330  -0.0193   0.00    1.0
2173 204657.000  -2197190.0101  -4678268.2735   3725900.6795   2   9   0.0325   0.0513   0.0327   0.0267  -0.0329  -0.0192   0.00    1.0
2173 204658.000  -2197190.0077  -4678268.2722   3725900.6746   2   9   0.0324   0.0511   0.0325   0.0266  -0.0328  -0.0191   0.00    1.0
2173 204659.000  -2197190.0057  -4678268.2674   3725900.6635   2   9   0.0323   0.0510   0.0324   0.0265  -0.0326  -0.0191   0.00    1.0
2173 204660.000  -2197190.0034  -4678268.2619   3725900.6552   2   9   0.0322   0.0508   0.0322   0.0264  -0.0325  -0.0191   0.00    1.0
2173 204661.000  -2197190.0001  -4678268.2612   3725900.6419   2   9   0.0321   0.0507   0.0321   0.0262  -0.0324  -0.0189   0.00    1.0
2173 204662.000  -2197189.9974  -4678268.2525   3725900.6262   2   9   0.0320   0.0505   0.0318   0.0262  -0.0322  -0.0189   0.00    1.0
2173 204663.000  -2197189.9935  -4678268.2454   3725900.6106   2   9   0.0318   0.0503   0.0317   0.0261  -0.0321  -0.0188   0.00    1.0
2173 204664.000  -2197189.9891  -4678268.2393   3725900.5980   2   9   0.0317   0.0502   0.0315   0.0260  -0.0320  -0.0187   0.00    1.0
2173 204665.000  -2197189.9857  -4678268.2356   3725900.5864   2   9   0.0317   0.0500   0.0313   0.0259  -0.0318  -0.0187   0.00    1.0
2173 204666.000  -2197189.9849  -4678268.2311   3725900.5747   2   9   0.0315   0.0498   0.0312   0.0259  -0.0317  -0.0187   0.00    1.0
2173 204667.000  -2197189.9831  -4678268.2301   3725900.5679   2   9   0.0314   0.0497   0.0309   0.0257  -0.0316  -0.0186   0.00    1.0
2173 204668.000  -2197189.9749  -4678268.2173   3725900.5509   2   9   0.0313   0.0495   0.0308   0.0256  -0.0315  -0.0185   0.00    1.0
2173 204669.000  -2197189.9712  -4678268.2160   3725900.5419   2   9   0.0312   0.0494   0.0307   0.0255  -0.0314  -0.0184   0.00    1.0
2173 204670.000  -2197189.9674  -4678268.2098   3725900.5299   2   9   0.0311   0.0491   0.0305   0.0255  -0.0312  -0.0184   0.00    1.0
2173 204671.000  -2197189.9636  -4678268.2072   3725900.5188   2   9   0.0310   0.0490   0.0304   0.0253  -0.0311  -0.0183   0.00    1.0
2173 204672.000  -2197189.9635  -4678268.2062   3725900.5117   2   9   0.0309   0.0488   0.0301   0.0253  -0.0310  -0.0182   0.00    1.0
2173 204673.000  -2197189.9610  -4678268.2072   3725900.5008   2   9   0.0308   0.0487   0.0300   0.0251  -0.0309  -0.0182   0.00    1.1
2173 204674.000  -2197189.9614  -4678268.2051   3725900.4925   2   9   0.0307   0.0486   0.0299   0.0250  -0.0308  -0.0180   0.00    1.1
2173 204675.000  -2197189.9682  -4678268.1979   3725900.4671   2   9   0.0306   0.0484   0.0297   0.0249  -0.0307  -0.0181   0.00    1.1
2173 204676.000  -2197189.9677  -4678268.2037   3725900.4604   2   9   0.0305   0.0483   0.0295   0.0247  -0.0305  -0.0180   0.00    1.1
2173 204677.000  -2197189.9726  -4678268.2074   3725900.4467   2   9   0.0304   0.0481   0.0294   0.0248  -0.0304  -0.0179   0.00    1.1
2173 204678.000  -2197189.9713  -4678268.2083   3725900.4382   2   9   0.0303   0.0480   0.0292   0.0246  -0.0303  -0.0179   0.00    1.1
2173 204679.000  -2197189.9729  -4678268.2079   3725900.4215   2   9   0.0302   0.0478   0.0291   0.0246  -0.0302  -0.0178   0.00    1.1
2173 204680.000  -2197189.9736  -4678268.2125   3725900.4109   2   9   0.0301   0.0477   0.0289   0.0244  -0.0301  -0.0177   0.00    1.1
2173 204681.000  -2197189.9757  -4678268.2189   3725900.4064   2   9   0.0300   0.0476   0.0288   0.0243  -0.0300  -0.0177   0.00    1.1
2173 204682.000  -2197189.9774  -4678268.2212   3725900.3957   2   9   0.0299   0.0474   0.0286   0.0243  -0.0299  -0.0176   0.00    1.1
2173 204683.000  -2197189.9810  -4678268.2258   3725900.3870   2   9   0.0298   0.0472   0.0285   0.0242  -0.0298  -0.0176   0.00    1.1
2173 204684.000  -2197189.9809  -4678268.2324   3725900.3832   2   9   0.0297   0.0470   0.0284   0.0242  -0.0296  -0.0176   0.00    1.1
2173 204685.000  -2197189.9838  -4678268.2329   3725900.3725   2   9   0.0296   0.0469   0.0282   0.0241  -0.0295  -0.0175   0.00    1.1
2173 204686.000  -2197189.9873  -4678268.2367   3725900.3668   2   9   0.0295   0.0468   0.0281   0.0240  -0.0294  -0.0174   0.00    1.1
2173 204687.000  -2197189.9873  -4678268.2356   3725900.3587   2   9   0.0294   0.0467   0.0279   0.0238  -0.0293  -0.0174   0.00    1.1
2173 204688.000  -2197189.9931  -4678268.2424   3725900.3543   2   9   0.0294   0.0464   0.0278   0.0239  -0.0292  -0.0174   0.00    1.1
2173 204689.000  -2197189.9967  -4678268.2465   3725900.3469   2   9   0.0293   0.0463   0.0277   0.0237  -0.0291  -0.0172   0.00    1.1
2173 204690.000  -2197189.9977  -4678268.2488   3725900.3440   2   9   0.0292   0.0462   0.0275   0.0236  -0.0290  -0.0172   0.00    1.1
2173 204691.000  -2197190.0008  -4678268.2520   3725900.3380   2   9   0.0291   0.0461   0.0274   0.0235  -0.0289  -0.0171   0.00    1.1
2173 204692.000  -2197190.0044  -4678268.2538   3725900.3271   2   9   0.0290   0.0459   0.0273   0.0234  -0.0288  -0.0171   0.00    1.1
2173 204693.000  -2197190.0076  -4678268.2575   3725900.3216   2   9   0.0290   0.0458   0.0272   0.0234  -0.0287  -0.0171   0.00    1.2
2173 204694.000  -2197190.0096  -4678268.2604   3725900.3156   2   9   0.0288   0.0456   0.0270   0.0234  -0.0286  -0.0171   0.00    1.2
2173 204695.000  -2197190.0134  -4678268.2646   3725900.3104   2   9   0.0287   0.0455   0.0269   0.0232  -0.0285  -0.0169   0.00    1.2
2173 204696.000  -2197190.0134  -4678268.2657   3725900.3020   2   9   0.0286   0.0454   0.0267   0.0231  -0.0284  -0.0169   0.00    1.2
2173 204697.000  -2197190.0155  -4678268.2702   3725900.2988   2   9   0.0286   0.0453   0.0266   0.0230  -0.0283  -0.0168   0.00    1.2
2173 204698.000  -2197190.0158  -4678268.2750   3725900.2940   2   9   0.0285   0.0452   0.0265   0.0228  -0.0282  -0.0167   0.00    1.2
2173 204699.000  -2197190.0205  -4678268.2832   3725900.2928   2   9   0.0284   0.0450   0.0264   0.0229  -0.0281  -0.0167   0.00    1.2
2173 204700.000  -2197190.0248  -4678268.2871   3725900.2892   2   9   0.0283   0.0449   0.0263   0.0228  -0.0280  -0.0167   0.00    1.2
2173 204701.000  -2197190.0259  -4678268.2902   3725900.2837   2   9   0.0282   0.0447   0.0261   0.0227  -0.0280  -0.0167   0.00    1.2
2173 204702.000  -2197190.0284  -4678268.2955   3725900.2817   2   9   0.0281   0.0446   0.0261   0.0227  -0.0279  -0.0167   0.00    1.2
2173 204703.000  -2197190.0308  -4678268.2953   3725900.2739   2   9   0.0281   0.0445   0.0259   0.0226  -0.0277  -0.0166   0.00    1.2
2173 204704.000  -2197190.0343  -4678268.3001   3725900.2716   2   9   0.0279   0.0443   0.0258   0.0226  -0.0277  -0.0165   0.00    1.2
2173 204705.000  -2197190.0400  -4678268.3073   3725900.2683   2   9   0.0279   0.0442   0.0257   0.0224  -0.0275  -0.0164   0.00    1.2
2173 204706.000  -2197190.0439  -4678268.3126   3725900.2616   2   9   0.0279   0.0441   0.0255   0.0223  -0.0274  -0.0163   0.00    1.2
2173 204707.000  -2197190.0462  -4678268.3162   3725900.2592   2   9   0.0277   0.0439   0.0254   0.0222  -0.0274  -0.0163   0.00    1.2
2173 204708.000  -2197190.0507  -4678268.3265   3725900.2591   2   9   0.0277   0.0438   0.0253   0.0222  -0.0273  -0.0163   0.00    1.2
2173 204709.000  -2197190.0538  -4678268.3279   3725900.2511   2   9   0.0276   0.0437   0.0252   0.0221  -0.0272  -0.0161   0.00    1.2
2173 204710.000  -2197190.0571  -4678268.3337   3725900.2491   2   9   0.0275   0.0435   0.0251   0.0221  -0.0271  -0.0162   0.00    1.2
2173 204711.000  -2197190.0586  -4678268.3364   3725900.2432   2   9   0.0274   0.0434   0.0250   0.0220  -0.0270  -0.0161   0.00    1.2
2173 204712.000  -2197190.0613  -4678268.3406   3725900.2402   2   9   0.0273   0.0433   0.0249   0.0218  -0.0269  -0.0160   0.00    1.3
2173 204713.000  -2197190.0630  -4678268.3409   3725900.2329   2   9   0.0272   0.0432   0.0247   0.0218  -0.0268  -0.0160   0.00    1.3
2173 204714.000  -2197190.0658  -4678268.3490   3725900.2306   2   9   0.0272   0.0431   0.0246   0.0217  -0.0268  -0.0160   0.00    1.3
2173 204715.000  -2197190.0689  -4678268.3531   3725900.2267   2   9   0.0271   0.0430   0.0245   0.0216  -0.0266  -0.0159   0.00    1.3
2173 204716.000  -2197190.0698  -4678268.3573   3725900.2262   2   9   0.0270   0.0428   0.0245   0.0216  -0.0266  -0.0159   0.00    1.3
2173 204717.000  -2197190.0712  -4678268.3621   3725900.2212   2   9   0.0269   0.0427   0.0243   0.0215  -0.0265  -0.0158   0.00    1.3
2173 204718.000  -2197190.0729  -4678268.3671   3725900.2179   2   9   0.0268   0.0426   0.0242   0.0215  -0.0264  -0.0158   0.00    1.3
2173 204719.000  -2197190.0767  -4678268.3736   3725900.2178   2   9   0.0268   0.0425   0.0242   0.0214  -0.0263  -0.0157   0.00    1.3
2173 204720.000  -2197190.0831  -4678268.3801   3725900.2152   2   9   0.0267   0.0424   0.0240   0.0213  -0.0262  -0.0157   0.00    1.3
2173 204721.000  -2197190.0901  -4678268.3832   3725900.2147   2   9   0.0266   0.0422   0.0239   0.0213  -0.0261  -0.0156   0.00    1.3
2173 204722.000  -2197190.0949  -4678268.3840   3725900.2100   2   9   0.0265   0.0422   0.0238   0.0211  -0.0260  -0.0157   0.00    1.3
2173 204723.000  -2197190.1028  -4678268.3887   3725900.2109   2   9   0.0264   0.0420   0.0237   0.0211  -0.0260  -0.0155   0.00    1.3
2173 204724.000  -2197190.1061  -4678268.3877   3725900.2085   2   9   0.0264   0.0419   0.0237   0.0210  -0.0259  -0.0155   0.00    1.3
2173 204725.000  -2197190.1102  -4678268.3893   3725900.2055   2   9   0.0264   0.0418   0.0235   0.0210  -0.0258  -0.0154   0.00    1.3
2173 204726.000  -2197190.1139  -4678268.3923   3725900.2033   2   9   0.0263   0.0417   0.0234   0.0208  -0.0258  -0.0153   0.00    1.3
2173 204727.000  -2197190.1278  -4678268.4388   3725900.2216   2   9   0.0262   0.0415   0.0233   0.0209  -0.0256  -0.0154   0.00    1.3
2173 204728.000  -2197190.1333  -4678268.4403   3725900.2276   2   9   0.0261   0.0414   0.0232   0.0207  -0.0256  -0.0154   0.00    1.3
2173 204729.000  -2197190.1428  -4678268.4531   3725900.2338   2   9   0.0260   0.0413   0.0232   0.0207  -0.0255  -0.0153   0.00    1.3
2173 204730.000  -2197190.1533  -4678268.4658   3725900.2428   2   9   0.0259   0.0413   0.0230   0.0205  -0.0254  -0.0152   0.00    1.3
2173 204731.000  -2197190.1601  -4678268.4768   3725900.2499   2   9   0.0259   0.0411   0.0230   0.0205  -0.0254  -0.0151   0.00    1.3
2173 204732.000  -2197190.1681  -4678268.4917   3725900.2575   2   9   0.0257   0.0410   0.0229   0.0206  -0.0252  -0.0152   0.00    1.3
2173 204733.000  -2197190.1771  -4678268.5056   3725900.2655   2   9   0.0257   0.0409   0.0228   0.0203  -0.0252  -0.0150   0.00    1.3
2173 204734.000  -2197190.1915  -4678268.5292   3725900.2851   2   9   0.0257   0.0408   0.0227   0.0202  -0.0251  -0.0150   0.00    1.3
2173 204735.000  -2197190.2030  -4678268.5416   3725900.2984   2   9   0.0256   0.0407   0.0226   0.0203  -0.0250  -0.0150   0.00    1.3
2173 204736.000  -2197190.2166  -4678268.5594   3725900.3148   2   9   0.0255   0.0406   0.0225   0.0201  -0.0250  -0.0150   0.00    1.3
2173 204737.000  -2197190.2329  -4678268.5757   3725900.3330   2   9   0.0254   0.0404   0.0224   0.0202  -0.0249  -0.0149   0.00    1.3
2173 204738.000  -2197190.2426  -4678268.5880   3725900.3473   2   9   0.0254   0.0404   0.0223   0.0200  -0.0248  -0.0149   0.00    1.3
2173 204739.000  -2197190.2488  -4678268.5948   3725900.3562   2   9   0.0252   0.0402   0.0223   0.0201  -0.0248  -0.0149   0.00    1.3
2173 204740.000  -2197190.2603  -4678268.6044   3725900.3665   2   9   0.0252   0.0401   0.0221   0.0199  -0.0247  -0.0148   0.00    1.3
2173 204741.000  -2197190.2698  -4678268.6127   3725900.3799   2   9   0.0251   0.0400   0.0221   0.0199  -0.0246  -0.0148   0.00    1.3
2173 204742.000  -2197190.2756  -4678268.6201   3725900.3849   2   9   0.0252   0.0400   0.0220   0.0197  -0.0245  -0.0146   0.00    1.2
2173 204743.000  -2197190.2826  -4678268.6269   3725900.3915   2   9   0.0251   0.0399   0.0219   0.0197  -0.0244  -0.0147   0.00    1.2
2173 204744.000  -2197190.2926  -4678268.6357   3725900.4054   2   9   0.0250   0.0398   0.0218   0.0195  -0.0243  -0.0146   0.00    1.2
2173 204745.000  -2197190.3016  -4678268.6448   3725900.4141   2   9   0.0249   0.0397   0.0217   0.0195  -0.0243  -0.0146   0.00    1.2
2173 204746.000  -2197190.3090  -4678268.6535   3725900.4225   2   9   0.0249   0.0395   0.0217   0.0196  -0.0242  -0.0146   0.00    1.2
2173 204747.000  -2197190.3168  -4678268.6625   3725900.4298   2   9   0.0248   0.0394   0.0216   0.0194  -0.0242  -0.0145   0.00    1.2
2173 204748.000  -2197190.3264  -4678268.6744   3725900.4378   2   9   0.0246   0.0393   0.0214   0.0194  -0.0241  -0.0145   0.00    1.2
2173 204749.000  -2197190.3328  -4678268.6781   3725900.4426   2   9   0.0247   0.0392   0.0214   0.0193  -0.0240  -0.0144   0.00    1.2
2173 204750.000  -2197190.3397  -4678268.6878   3725900.4517   2   9   0.0246   0.0392   0.0213   0.0192  -0.0240  -0.0143   0.00    1.2
2173 204751.000  -2197190.3482  -4678268.6999   3725900.4582   2   9   0.0245   0.0390   0.0212   0.0192  -0.0239  -0.0144   0.00    1.2
2173 204752.000  -2197190.3515  -4678268.7053   3725900.4633   2   9   0.0244   0.0389   0.0212   0.0191  -0.0238  -0.0142   0.00    1.2
2173 204753.000  -2197190.3540  -4678268.7101   3725900.4666   2   9   0.0244   0.0388   0.0211   0.0191  -0.0238  -0.0142   0.00    1.2
2173 204754.000  -2197190.3602  -4678268.7199   3725900.4758   2   9   0.0244   0.0387   0.0210   0.0190  -0.0237  -0.0142   0.00    1.2
2173 204755.000  -2197190.3655  -4678268.7292   3725900.4821   2   9   0.0242   0.0386   0.0210   0.0189  -0.0236  -0.0141   0.00    1.2
2173 204756.000  -2197190.3706  -4678268.7410   3725900.4922   2   9   0.0242   0.0385   0.0209   0.0190  -0.0236  -0.0142   0.00    1.2
2173 204757.000  -2197190.3783  -4678268.7487   3725900.4950   2   9   0.0242   0.0384   0.0208   0.0189  -0.0235  -0.0139   0.00    1.2
2173 204758.000  -2197190.3869  -4678268.7605   3725900.5031   2   9   0.0241   0.0383   0.0208   0.0188  -0.0234  -0.0140   0.00    1.2
2173 204759.000  -2197190.3933  -4678268.7696   3725900.5094   2   9   0.0240   0.0383   0.0207   0.0187  -0.0233  -0.0140   0.00    1.2
2173 204760.000  -2197190.4029  -4678268.7805   3725900.5143   2   9   0.0239   0.0382   0.0206   0.0186  -0.0232  -0.0140   0.00    1.2
2173 204761.000  -2197190.4094  -4678268.7880   3725900.5216   2   9   0.0239   0.0381   0.0206   0.0186  -0.0232  -0.0139   0.00    1.2
2173 204762.000  -2197190.4170  -4678268.7991   3725900.5259   2   9   0.0237   0.0379   0.0204   0.0187  -0.0232  -0.0139   0.00    1.2
2173 204763.000  -2197190.4250  -4678268.8109   3725900.5313   2   9   0.0238   0.0379   0.0203   0.0184  -0.0230  -0.0138   0.00    1.2
2173 204764.000  -2197190.4299  -4678268.8176   3725900.5346   2   9   0.0236   0.0377   0.0202   0.0185  -0.0230  -0.0138   0.00    1.2
2173 204765.000  -2197190.4360  -4678268.8288   3725900.5388   2   9   0.0237   0.0377   0.0202   0.0183  -0.0230  -0.0137   0.00    1.2
2173 204766.000  -2197190.4423  -4678268.8348   3725900.5401   2   9   0.0236   0.0376   0.0201   0.0183  -0.0229  -0.0138   0.00    1.2
2173 204767.000  -2197190.4462  -4678268.8434   3725900.5456   2   9   0.0235   0.0374   0.0200   0.0183  -0.0228  -0.0138   0.00    1.2
2173 204768.000  -2197190.4524  -4678268.8461   3725900.5490   2   9   0.0235   0.0374   0.0200   0.0182  -0.0228  -0.0137   0.00    1.2
2173 204769.000  -2197190.4585  -4678268.8572   3725900.5553   2   9   0.0234   0.0373   0.0200   0.0181  -0.0227  -0.0136   0.00    1.2
2173 204770.000  -2197190.4645  -4678268.8638   3725900.5595   2   9   0.0233   0.0373   0.0199   0.0180  -0.0227  -0.0136   0.00    1.1
2173 204771.000  -2197190.4704  -4678268.8696   3725900.5625   2   9   0.0233   0.0371   0.0198   0.0180  -0.0225  -0.0135   0.00    1.1
2173 204772.000  -2197190.4742  -4678268.8782   3725900.5688   2   9   0.0232   0.0371   0.0198   0.0179  -0.0225  -0.0135   0.00    1.1
2173 204773.000  -2197190.4808  -4678268.8873   3725900.5762   2   9   0.0231   0.0369   0.0197   0.0179  -0.0224  -0.0135   0.00    1.1
2173 204774.000  -2197190.4862  -4678268.8974   3725900.5830   2   9   0.0230   0.0369   0.0196   0.0178  -0.0224  -0.0134   0.00    1.1
2173 204775.000  -2197190.4934  -4678268.9032   3725900.5884   2   9   0.0230   0.0368   0.0196   0.0178  -0.0223  -0.0134   0.00    1.1
2173 204776.000  -2197190.5011  -4678268.9133   3725900.5923   2   9   0.0229   0.0367   0.0195   0.0177  -0.0223  -0.0134   0.00    1.1
2173 204777.000  -2197190.5080  -4678268.9214   3725900.5991   2   9   0.0229   0.0366   0.0195   0.0177  -0.0222  -0.0133   0.00    1.1
2173 204778.000  -2197190.5157  -4678268.9268   3725900.6002   2   9   0.0228   0.0365   0.0194   0.0176  -0.0222  -0.0133   0.00    1.1
2173 204779.000  -2197190.5198  -4678268.9376   3725900.6060   2   9   0.0228   0.0364   0.0193   0.0176  -0.0221  -0.0132   0.00    1.1
2173 204780.000  -2197190.5246  -4678268.9410   3725900.6090   2   9   0.0228   0.0363   0.0192   0.0175  -0.0221  -0.0132   0.00    1.1
2173 204781.000  -2197190.5331  -4678268.9489   3725900.6140   2   9   0.0227   0.0362   0.0191   0.0175  -0.0220  -0.0132   0.00    1.1
2173 204782.000  -2197190.5372  -4678268.9491   3725900.6134   2   9   0.0226   0.0361   0.0191   0.0174  -0.0219  -0.0132   0.00    1.1
2173 204783.000  -2197190.5429  -4678268.9548   3725900.6188   2   9   0.0226   0.0361   0.0190   0.0174  -0.0218  -0.0131   0.00    1.1
2173 204784.000  -2197190.5476  -4678268.9545   3725900.6166   2   9   0.0225   0.0360   0.0191   0.0173  -0.0218  -0.0131   0.00    1.1
2173 204785.000  -2197190.5518  -4678268.9563   3725900.6190   2   9   0.0224   0.0359   0.0190   0.0173  -0.0218  -0.0130   0.00    1.1
2173 204786.000  -2197190.5545  -4678268.9601   3725900.6204   2   9   0.0224   0.0358   0.0188   0.0173  -0.0217  -0.0131   0.00    1.1
2173 204787.000  -2197190.5627  -4678268.9652   3725900.6239   2   9   0.0223   0.0357   0.0188   0.0172  -0.0216  -0.0130   0.00    1.1
2173 204788.000  -2197190.5651  -4678268.9624   3725900.6214   2   9   0.0223   0.0357   0.0187   0.0171  -0.0215  -0.0130   0.00    1.1
2173 204789.000  -2197190.5727  -4678268.9702   3725900.6252   2   9   0.0223   0.0356   0.0187   0.0170  -0.0215  -0.0129   0.00    1.1
2173 204790.000  -2197190.5762  -4678268.9693   3725900.6281   2   9   0.0222   0.0354   0.0186   0.0171  -0.0215  -0.0129   0.00    1.1
2173 204791.000  -2197190.5851  -4678268.9772   3725900.6319   2   9   0.0222   0.0354   0.0187   0.0169  -0.0214  -0.0127   0.00    1.1
2173 204792.000  -2197190.5885  -4678268.9772   3725900.6320   2   9   0.0220   0.0353   0.0185   0.0169  -0.0214  -0.0128   0.00    1.1
2173 204793.000  -2197190.5939  -4678268.9815   3725900.6360   2   9   0.0220   0.0352   0.0185   0.0169  -0.0213  -0.0129   0.00    1.1
2173 204794.000  -2197190.5993  -4678268.9899   3725900.6451   2   9   0.0220   0.0352   0.0184   0.0168  -0.0212  -0.0127   0.00    1.1
2173 204795.000  -2197190.6050  -4678268.9957   3725900.6488   2   9   0.0220   0.0351   0.0184   0.0167  -0.0212  -0.0126   0.00    1.1
2173 204796.000  -2197190.6117  -4678268.9989   3725900.6500   2   9   0.0219   0.0350   0.0183   0.0168  -0.0211  -0.0126   0.00    1.1
2173 204797.000  -2197190.6168  -4678269.0027   3725900.6563   2   9   0.0218   0.0349   0.0182   0.0167  -0.0211  -0.0126   0.00    1.1
2173 204798.000  -2197190.6235  -4678269.0069   3725900.6605   2   9   0.0218   0.0348   0.0182   0.0167  -0.0210  -0.0126   0.00    1.1
2173 204799.000  -2197190.6321  -4678269.0121   3725900.6637   2   9   0.0217   0.0347   0.0182   0.0166  -0.0210  -0.0126   0.00    1.1
2173 204800.000  -2197190.6386  -4678269.0153   3725900.6658   2   9   0.0217   0.0346   0.0180   0.0165  -0.0210  -0.0126   0.00    1.1
2173 204801.000  -2197190.6465  -4678269.0224   3725900.6699   2   9   0.0216   0.0346   0.0180   0.0164  -0.0208  -0.0126   0.00    1.1
2173 204802.000  -2197190.6511  -4678269.0264   3725900.6735   2   9   0.0216   0.0345   0.0180   0.0164  -0.0208  -0.0124   0.00    1.1
2173 204803.000  -2197190.6556  -4678269.0259   3725900.6784   2   9   0.0215   0.0345   0.0179   0.0163  -0.0207  -0.0124   0.00    1.1
2173 204804.000  -2197190.6593  -4678269.0269   3725900.6835   2   9   0.0214   0.0343   0.0179   0.0164  -0.0207  -0.0124   0.00    1.1
2173 204805.000  -2197190.6644  -4678269.0275   3725900.6819   2   9   0.0214   0.0342   0.0177   0.0163  -0.0206  -0.0124   0.00    1.1
2173 204806.000  -2197190.6690  -4678269.0305   3725900.6893   2   9   0.0213   0.0342   0.0178   0.0162  -0.0206  -0.0123   0.00    1.1
2173 204807.000  -2197190.6751  -4678269.0338   3725900.6887   2   9   0.0213   0.0341   0.0177   0.0163  -0.0206  -0.0123   0.00    1.1
2173 204808.000  -2197190.6809  -4678269.0336   3725900.6885   2   9   0.0212   0.0340   0.0176   0.0162  -0.0206  -0.0122   0.00    1.1
2173 204809.000  -2197190.6843  -4678269.0328   3725900.6907   2   9   0.0213   0.0340   0.0176   0.0161  -0.0204  -0.0122   0.00    1.1
2173 204810.000  -2197190.6877  -4678269.0346   3725900.6922   2   9   0.0211   0.0338   0.0175   0.0161  -0.0204  -0.0124   0.00    1.1
2173 204811.000  -2197190.6943  -4678269.0383   3725900.6940   2   9   0.0211   0.0338   0.0175   0.0160  -0.0204  -0.0122   0.00    1.1
2173 204812.000  -2197190.6983  -4678269.0342   3725900.6869   2   9   0.0210   0.0337   0.0174   0.0161  -0.0203  -0.0122   0.00    1.0
2173 204813.000  -2197190.7038  -4678269.0351   3725900.6856   2   9   0.0210   0.0336   0.0173   0.0160  -0.0202  -0.0122   0.00    1.0
2173 204814.000  -2197190.7093  -4678269.0375   3725900.6839   2   9   0.0210   0.0336   0.0174   0.0159  -0.0202  -0.0121   0.00    1.0
2173 204815.000  -2197190.7127  -4678269.0366   3725900.6819   2   9   0.0210   0.0335   0.0173   0.0158  -0.0201  -0.0120   0.00    1.0
2173 204816.000  -2197190.7186  -4678269.0456   3725900.6847   2   9   0.0209   0.0335   0.0172   0.0157  -0.0201  -0.0120   0.00    1.0
2173 204817.000  -2197190.7261  -4678269.0474   3725900.6842   2   9   0.0208   0.0333   0.0172   0.0158  -0.0201  -0.0120   0.00    1.0
2173 204818.000  -2197190.7313  -4678269.0528   3725900.6867   2   9   0.0208   0.0333   0.0172   0.0158  -0.0200  -0.0120   0.00    1.0
2173 204819.000  -2197190.7329  -4678269.0559   3725900.6859   2   9   0.0207   0.0332   0.0171   0.0157  -0.0200  -0.0119   0.00    1.0
2173 204820.000  -2197190.7412  -4678269.0585   3725900.6866   2   9   0.0208   0.0332   0.0171   0.0155  -0.0199  -0.0117   0.00    1.0
2173 204821.000  -2197190.7448  -4678269.0598   3725900.6875   2   9   0.0206   0.0330   0.0171   0.0156  -0.0199  -0.0120   0.00    1.0
2173 204822.000  -2197190.7479  -4678269.0611   3725900.6832   2   9   0.0207   0.0330   0.0169   0.0155  -0.0198  -0.0118   0.00    1.0
2173 204823.000  -2197190.7511  -4678269.0633   3725900.6800   2   9   0.0206   0.0329   0.0169   0.0155  -0.0197  -0.0119   0.00    1.0
2173 204824.000  -2197190.7550  -4678269.0641   3725900.6778   2   9   0.0205   0.0328   0.0168   0.0155  -0.0197  -0.0118   0.00    1.0
2173 204825.000  -2197190.7573  -4678269.0682   3725900.6767   2   9   0.0205   0.0328   0.0169   0.0154  -0.0197  -0.0118   0.00    1.0
2173 204826.000  -2197190.7610  -4678269.0707   3725900.6743   2   9   0.0205   0.0327   0.0167   0.0153  -0.0196  -0.0116   0.00    1.0
2173 204827.000  -2197190.7623  -4678269.0730   3725900.6703   2   9   0.0203   0.0327   0.0167   0.0153  -0.0196  -0.0116   0.00    1.0
2173 204828.000  -2197190.7653  -4678269.0776   3725900.6702   2   9   0.0202   0.0325   0.0167   0.0153  -0.0196  -0.0117   0.00    1.0
2173 204829.000  -2197190.7687  -4678269.0792   3725900.6685   2   9   0.0203   0.0325   0.0166   0.0152  -0.0195  -0.0116   0.00    1.0
2173 204830.000  -2197190.7725  -4678269.0801   3725900.6665   2   9   0.0202   0.0325   0.0167   0.0151  -0.0194  -0.0115   0.00    1.0
2173 204831.000  -2197190.7744  -4678269.0829   3725900.6614   2   9   0.0201   0.0324   0.0165   0.0151  -0.0195  -0.0116   0.00    1.0
2173 204832.000  -2197190.7783  -4678269.0880   3725900.6622   2   9   0.0202   0.0323   0.0165   0.0151  -0.0193  -0.0116   0.00    1.0
2173 204833.000  -2197190.7835  -4678269.0941   3725900.6630   2   9   0.0201   0.0323   0.0164   0.0149  -0.0193  -0.0116   0.00    1.0
2173 204834.000  -2197190.7831  -4678269.0987   3725900.6610   2   9   0.0200   0.0322   0.0164   0.0149  -0.0193  -0.0116   0.00    1.0
2173 204835.000  -2197190.7885  -4678269.1033   3725900.6604   2   9   0.0200   0.0321   0.0164   0.0149  -0.0192  -0.0115   0.00    1.0
2173 204836.000  -2197190.7934  -4678269.1064   3725900.6606   2   9   0.0200   0.0320   0.0163   0.0150  -0.0192  -0.0114   0.00    1.0
2173 204837.000  -2197190.7933  -4678269.1073   3725900.6581   2   9   0.0199   0.0319   0.0163   0.0149  -0.0191  -0.0114   0.00    1.0
2173 204838.000  -2197190.7956  -4678269.1077   3725900.6552   2   9   0.0199   0.0319   0.0162   0.0148  -0.0191  -0.0115   0.00    1.0
2173 204839.000  -2197190.7978  -4678269.1147   3725900.6568   2   9   0.0197   0.0318   0.0162   0.0148  -0.0190  -0.0114   0.00    1.0
2173 204840.000  -2197190.7979  -4678269.1154   3725900.6549   2   9   0.0198   0.0318   0.0162   0.0147  -0.0190  -0.0114   0.00    1.0
2173 204841.000  -2197190.8020  -4678269.1210   3725900.6576   2   9   0.0197   0.0317   0.0161   0.0148  -0.0190  -0.0114   0.00    1.0
2173 204842.000  -2197190.8033  -4678269.1244   3725900.6583   2   9   0.0197   0.0316   0.0161   0.0147  -0.0189  -0.0113   0.00    1.0
2173 204843.000  -2197190.8056  -4678269.1281   3725900.6563   2   9   0.0196   0.0315   0.0161   0.0147  -0.0189  -0.0112   0.00    1.0
2173 204844.000  -2197190.8090  -4678269.1314   3725900.6553   2   9   0.0196   0.0315   0.0160   0.0146  -0.0188  -0.0111   0.00    1.0
2173 204845.000  -2197190.8110  -4678269.1346   3725900.6559   2   9   0.0196   0.0314   0.0159   0.0146  -0.0188  -0.0112   0.00    1.0
2173 204846.000  -2197190.8143  -4678269.1412   3725900.6578   2   9   0.0195   0.0313   0.0159   0.0146  -0.0188  -0.0114   0.00    1.0
2173 204847.000  -2197190.8202  -4678269.1496   3725900.6622   2   9   0.0194   0.0313   0.0158   0.0145  -0.0187  -0.0110   0.00    1.0
2173 204848.000  -2197190.8201  -4678269.1459   3725900.6522   2   9   0.0194   0.0312   0.0158   0.0144  -0.0187  -0.0112   0.00    1.0
2173 204849.000  -2197190.8225  -4678269.1507   3725900.6527   2   9   0.0193   0.0312   0.0158   0.0144  -0.0186  -0.0110   0.00    1.0
2173 204850.000  -2197190.8255  -4678269.1568   3725900.6512   2   9   0.0193   0.0312   0.0157   0.0142  -0.0186  -0.0109   0.00    1.0
2173 204851.000  -2197190.8250  -4678269.1555   3725900.6521   2   9   0.0193   0.0310   0.0157   0.0143  -0.0185  -0.0110   0.00    1.0
2173 204852.000  -2197190.8271  -4678269.1625   3725900.6483   2   9   0.0192   0.0309   0.0157   0.0145  -0.0185  -0.0111   0.00    1.0
2173 204853.000  -2197190.8325  -4678269.1660   3725900.6459   2   9   0.0192   0.0309   0.0157   0.0143  -0.0185  -0.0110   0.00    1.0
2173 204854.000  -2197190.8327  -4678269.1654   3725900.6435   2   9   0.0191   0.0308   0.0156   0.0142  -0.0184  -0.0110   0.00    1.0
2173 204855.000  -2197190.8347  -4678269.1529   3725900.6262   2   9   0.0191   0.0308   0.0157   0.0142  -0.0184  -0.0110   0.00    1.0
2173 204856.000  -2197190.8334  -4678269.1534   3725900.6252   2   9   0.0191   0.0308   0.0156   0.0140  -0.0183  -0.0110   0.00    1.0
2173 204857.000  -2197190.8321  -4678269.1511   3725900.6235   2   9   0.0190   0.0306   0.0155   0.0140  -0.0183  -0.0109   0.00    1.1
2173 204858.000  -2197190.8329  -4678269.1507   3725900.6258   2   9   0.0191   0.0306   0.0155   0.0140  -0.0183  -0.0108   0.00    1.1
2173 204859.000  -2197190.8323  -4678269.1495   3725900.6226   2   9   0.0189   0.0306   0.0154   0.0139  -0.0182  -0.0108   0.00    1.1
2173 204860.000  -2197190.8310  -4678269.1444   3725900.6212   2   9   0.0189   0.0305   0.0154   0.0139  -0.0182  -0.0108   0.00    1.1
2173 204861.000  -2197190.8310  -4678269.1415   3725900.6181   2   9   0.0189   0.0304   0.0154   0.0140  -0.0181  -0.0108   0.00    1.1
2173 204862.000  -2197190.8272  -4678269.1380   3725900.6176   2   9   0.0188   0.0303   0.0154   0.0140  -0.0181  -0.0107   0.00    1.1
2173 204863.000  -2197190.8267  -4678269.1373   3725900.6151   2   9   0.0189   0.0303   0.0153   0.0139  -0.0181  -0.0107   0.00    1.1
2173 204864.000  -2197190.8239  -4678269.1344   3725900.6158   2   9   0.0188   0.0302   0.0152   0.0139  -0.0181  -0.0106   0.00    1.1
2173 204865.000  -2197190.8231  -4678269.1356   3725900.6147   2   9   0.0187   0.0301   0.0152   0.0139  -0.0180  -0.0107   0.00    1.1
2173 204866.000  -2197190.8206  -4678269.1320   3725900.6128   2   9   0.0186   0.0301   0.0152   0.0137  -0.0180  -0.0106   0.00    1.1
2173 204867.000  -2197190.8219  -4678269.1331   3725900.6146   2   9   0.0187   0.0300   0.0152   0.0137  -0.0179  -0.0106   0.00    1.1
2173 204868.000  -2197190.8215  -4678269.1389   3725900.6120   2   9   0.0187   0.0300   0.0151   0.0136  -0.0178  -0.0106   0.00    1.1
2173 204869.000  -2197190.8191  -4678269.1396   3725900.6119   2   9   0.0186   0.0299   0.0150   0.0137  -0.0178  -0.0106   0.00    1.1
2173 204870.000  -2197190.8191  -4678269.1432   3725900.6131   2   9   0.0185   0.0299   0.0151   0.0136  -0.0178  -0.0106   0.00    1.1
2173 204871.000  -2197190.8210  -4678269.1460   3725900.6136   2   9   0.0186   0.0298   0.0150   0.0136  -0.0177  -0.0106   0.00    1.1
2173 204872.000  -2197190.8200  -4678269.1438   3725900.6151   2   9   0.0186   0.0297   0.0150   0.0136  -0.0177  -0.0104   0.00    1.1
2173 204873.000  -2197190.8199  -4678269.1394   3725900.6150   2   9   0.0185   0.0297   0.0150   0.0136  -0.0177  -0.0105   0.00    1.1
2173 204874.000  -2197190.8183  -4678269.1361   3725900.6142   2   9   0.0183   0.0296   0.0148   0.0135  -0.0176  -0.0106   0.00    1.1
2173 204875.000  -2197190.8184  -4678269.1335   3725900.6147   2   9   0.0183   0.0295   0.0149   0.0135  -0.0176  -0.0105   0.00    1.1
2173 204876.000  -2197190.8156  -4678269.1263   3725900.6119   2   9   0.0183   0.0295   0.0148   0.0134  -0.0176  -0.0105   0.00    1.1
2173 204877.000  -2197190.8158  -4678269.1262   3725900.6134   2   9   0.0183   0.0295   0.0148   0.0133  -0.0175  -0.0103   0.00    1.1
2173 204878.000  -2197190.8134  -4678269.1158   3725900.6066   2   9   0.0182   0.0294   0.0148   0.0133  -0.0175  -0.0105   0.00    1.1
2173 204879.000  -2197190.8132  -4678269.1150   3725900.6070   2   9   0.0181   0.0292   0.0147   0.0134  -0.0175  -0.0105   0.00    1.1
2173 204880.000  -2197190.8124  -4678269.1110   3725900.6056   2   9   0.0182   0.0293   0.0148   0.0133  -0.0174  -0.0103   0.00    1.1
2173 204881.000  -2197190.8084  -4678269.1042   3725900.6013   2   9   0.0181   0.0292   0.0147   0.0133  -0.0174  -0.0103   0.00    1.1
2173 204882.000  -2197190.8069  -4678269.1042   3725900.6003   2   9   0.0181   0.0292   0.0146   0.0132  -0.0173  -0.0103   0.00    1.1
2173 204883.000  -2197190.8054  -4678269.1022   3725900.6004   2   9   0.0181   0.0292   0.0146   0.0130  -0.0173  -0.0101   0.00    1.1
2173 204884.000  -2197190.8041  -4678269.0994   3725900.5985   2   9   0.0181   0.0291   0.0147   0.0131  -0.0172  -0.0102   0.00    1.1
2173 204885.000  -2197190.8055  -4678269.0959   3725900.5959   2   9   0.0179   0.0290   0.0146   0.0131  -0.0173  -0.0101   0.00    1.1
2173 204886.000  -2197190.8045  -4678269.0971   3725900.5931   2   9   0.0180   0.0290   0.0145   0.0130  -0.0172  -0.0102   0.00    1.1
2173 204887.000  -2197190.8034  -4678269.0951   3725900.5914   2   9   0.0179   0.0289   0.0146   0.0130  -0.0171  -0.0101   0.00    1.1
2173 204888.000  -2197190.8070  -4678269.1017   3725900.5946   2   9   0.0178   0.0288   0.0146   0.0131  -0.0171  -0.0102   0.00    1.1
2173 204889.000  -2197190.8089  -4678269.0996   3725900.5932   2   9   0.0179   0.0287   0.0145   0.0131  -0.0171  -0.0101   0.00    1.1
2173 204890.000  -2197190.8086  -4678269.0975   3725900.5922   2   9   0.0177   0.0287   0.0144   0.0131  -0.0170  -0.0102   0.00    1.1
2173 204891.000  -2197190.8108  -4678269.1009   3725900.5949   2   9   0.0179   0.0287   0.0144   0.0127  -0.0171  -0.0101   0.00    1.1
2173 204892.000  -2197190.8089  -4678269.0957   3725900.5930   2   9   0.0177   0.0286   0.0144   0.0130  -0.0170  -0.0101   0.00    1.1
2173 204893.000  -2197190.8068  -4678269.0923   3725900.5905   2   9   0.0177   0.0285   0.0143   0.0129  -0.0170  -0.0102   0.00    1.1
2173 204894.000  -2197190.8060  -4678269.0880   3725900.5899   2   9   0.0176   0.0285   0.0143   0.0129  -0.0169  -0.0101   0.00    1.1
2173 204895.000  -2197190.7956  -4678269.0900   3725900.5860   2   9   0.0177   0.0285   0.0142   0.0127  -0.0169  -0.0100   0.00    1.1
2173 204896.000  -2197190.7918  -4678269.0816   3725900.5798   2   9   0.0176   0.0284   0.0142   0.0127  -0.0168  -0.0099   0.00    1.1
2173 204897.000  -2197190.7907  -4678269.0775   3725900.5786   2   9   0.0176   0.0283   0.0142   0.0128  -0.0168  -0.0100   0.00    1.1
2173 204898.000  -2197190.7886  -4678269.0796   3725900.5810   2   9   0.0176   0.0283   0.0141   0.0126  -0.0168  -0.0101   0.00    1.1
2173 204899.000  -2197190.7844  -4678269.0661   3725900.5769   2   9   0.0175   0.0283   0.0141   0.0127  -0.0168  -0.0099   0.00    1.1
2173 204900.000  -2197190.7820  -4678269.0638   3725900.5797   2   9   0.0175   0.0282   0.0141   0.0126  -0.0168  -0.0099   0.00    1.1
2173 204901.000  -2197190.7810  -4678269.0619   3725900.5792   2   9   0.0174   0.0282   0.0141   0.0126  -0.0167  -0.0098   0.00    1.1
2173 204902.000  -2197190.7777  -4678269.0546   3725900.5765   2   9   0.0174   0.0281   0.0141   0.0127  -0.0166  -0.0099   0.00    1.1
2173 204903.000  -2197190.7771  -4678269.0519   3725900.5760   2   9   0.0173   0.0280   0.0140   0.0126  -0.0166  -0.0098   0.00    1.1
2173 204904.000  -2197190.7737  -4678269.0465   3725900.5760   2   9   0.0174   0.0280   0.0139   0.0125  -0.0166  -0.0098   0.00    1.1
2173 204905.000  -2197190.7727  -4678269.0395   3725900.5729   2   9   0.0173   0.0279   0.0140   0.0125  -0.0166  -0.0096   0.00    1.1
