% program   : rnx2rtkp ver.2.4.3 b31
% inp file  : ngs/21_09_02_07_16_58_scwt.obs
% inp file  : ngs/21_09_02_07_16_58_scwt_P1.obs
% inp file  : ngs/21_09_02_07_16_58_brdc.nav
% obs start : 2021/09/02 07:00:00.0 GPST (week2173 370800.0s)
% obs end   : 2021/09/02 07:59:59.0 GPST (week2173 374399.0s)
% ref pos   :   922959.8392  -5271911.7236   3457578.0221
%
% (x/y/z-ecef=WGS84,Q=1:fix,2:float,3:sbas,4:dgps,5:single,6:ppp,ns=# of satellites)
%  GPST              x-ecef(m)      y-ecef(m)      z-ecef(m)   Q  ns   sdx(m)   sdy(m)   sdz(m)  sdxy(m)  sdyz(m)  sdzx(m) age(s)  ratio
2173 371793.000    869159.9462  -5289360.0976   3444970.0331   2   8   0.4393   1.0040   0.5832  -0.2652  -0.6041   0.2425 -30.00    1.1
2173 371794.000    869159.9196  -5289360.0511   3444969.9828   2   8   0.3128   0.7144   0.4147  -0.1888  -0.4295   0.1727 -29.00    1.1
2173 371795.000    869159.8815  -5289360.1171   3444970.0019   2   8   0.2561   0.5849   0.3395  -0.1546  -0.3516   0.1415 -28.00    1.1
2173 371796.000    869159.8870  -5289360.1764   3444970.0365   2   8   0.2222   0.5074   0.2945  -0.1341  -0.3050   0.1227 -27.00    1.0
2173 371797.000    869159.9125  -5289360.2284   3444970.0780   2   8   0.1990   0.4543   0.2638  -0.1201  -0.2731   0.1099 -26.00    1.1
2173 371798.000    869159.9172  -5289360.2660   3444970.0799   2   8   0.1818   0.4151   0.2410  -0.1097  -0.2496   0.1004 -25.00    1.1
2173 371799.000    869159.8946  -5289360.2620   3444970.0639   2   8   0.1684   0.3846   0.2233  -0.1016  -0.2312   0.0930 -24.00    1.2
2173 371800.000    869159.8900  -5289360.3135   3444970.0753   2   8   0.1577   0.3599   0.2090  -0.0951  -0.2164   0.0871 -23.00    1.2
2173 371801.000    869159.8942  -5289360.3350   3444970.0827   2   8   0.1487   0.3394   0.1972  -0.0897  -0.2041   0.0821 -22.00    1.3
2173 371802.000    869159.8807  -5289360.3378   3444970.0753   2   8   0.1411   0.3220   0.1871  -0.0851  -0.1937   0.0779 -21.00    1.3
2173 371803.000    869159.8808  -5289360.3482   3444970.0671   2   8   0.1346   0.3070   0.1784  -0.0812  -0.1847   0.0743 -20.00    1.3
2173 371804.000    869159.8825  -5289360.3756   3444970.0670   2   8   0.1288   0.2940   0.1708  -0.0777  -0.1768   0.0712 -19.00    1.4
2173 371805.000    869159.8795  -5289360.3900   3444970.0653   2   8   0.1238   0.2824   0.1641  -0.0747  -0.1698   0.0684 -18.00    1.4
2173 371806.000    869159.8694  -5289360.4142   3444970.0628   2   8   0.1193   0.2720   0.1581  -0.0720  -0.1636   0.0659 -17.00    1.3
2173 371807.000    869159.8695  -5289360.4336   3444970.0578   2   8   0.1152   0.2627   0.1527  -0.0695  -0.1580   0.0636 -16.00    1.3
2173 371808.000    869159.8706  -5289360.4322   3444970.0526   2   8   0.1116   0.2543   0.1478  -0.0673  -0.1529   0.0616 -15.00    1.3
2173 371809.000    869159.8727  -5289360.4300   3444970.0584   2   8   0.1082   0.2465   0.1433  -0.0652  -0.1482   0.0598 -14.00    1.3
2173 371810.000    869159.8701  -5289360.4425   3444970.0608   2   8   0.1051   0.2395   0.1392  -0.0634  -0.1439   0.0580 -13.00    1.3
2173 371811.000    869159.8777  -5289360.4580   3444970.0690   2   8   0.1023   0.2329   0.1354  -0.0616  -0.1400   0.0565 -12.00    1.3
2173 371812.000    869159.8820  -5289360.4688   3444970.0753   2   8   0.0997   0.2269   0.1319  -0.0600  -0.1363   0.0550 -11.00    1.2
2173 371813.000    869159.8777  -5289360.4798   3444970.0798   2   8   0.0972   0.2213   0.1286  -0.0586  -0.1329   0.0537 -10.00    1.2
2173 371814.000    869159.8837  -5289360.4943   3444970.0893   2   8   0.0950   0.2160   0.1256  -0.0572  -0.1297   0.0524  -9.00    1.2
2173 371815.000    869159.8862  -5289360.5026   3444970.0938   2   8   0.0929   0.2111   0.1227  -0.0559  -0.1267   0.0512  -8.00    1.2
2173 371816.000    869159.8976  -5289360.5310   3444970.1077   2   8   0.0909   0.2065   0.1201  -0.0546  -0.1239   0.0501  -7.00    1.2
2173 371817.000    869159.9082  -5289360.5440   3444970.1124   2   8   0.0890   0.2021   0.1175  -0.0535  -0.1213   0.0491  -6.00    1.2
2173 371818.000    869159.9114  -5289360.5705   3444970.1200   2   8   0.0873   0.1980   0.1152  -0.0524  -0.1188   0.0481  -5.00    1.2
2173 371819.000    869159.9132  -5289360.5862   3444970.1262   2   8   0.0856   0.1941   0.1129  -0.0514  -0.1164   0.0471  -4.00    1.3
2173 371820.000    869159.9206  -5289360.5994   3444970.1320   2   8   0.0840   0.1904   0.1108  -0.0504  -0.1142   0.0463  -3.00    1.4
2173 371821.000    869159.9251  -5289360.6186   3444970.1376   2   8   0.0826   0.1869   0.1088  -0.0495  -0.1121   0.0454  -2.00    1.5
2173 371822.000    869159.9369  -5289360.6395   3444970.1485   2   8   0.0812   0.1836   0.1069  -0.0486  -0.1100   0.0446  -1.00    1.6
2173 371823.000    869159.9461  -5289360.6561   3444970.1549   2   8   0.0799   0.1805   0.1051  -0.0477  -0.1081   0.0439   0.00    1.7
2173 371824.000    869160.2683  -5289361.3396   3444970.4970   1   8   0.0044   0.0101   0.0059  -0.0027  -0.0061   0.0025   0.00    3.3
2173 371825.000    869160.2681  -5289361.3444   3444970.4978   1   8   0.0044   0.0101   0.0059  -0.0027  -0.0061   0.0025   0.00    3.2
2173 371826.000    869160.2698  -5289361.3396   3444970.4975   1   8   0.0044   0.0101   0.0059  -0.0027  -0.0061   0.0025   0.00    3.6
2173 371827.000    869160.2679  -5289361.3420   3444970.4964   1   8   0.0044   0.0101   0.0059  -0.0027  -0.0061   0.0025   0.00    3.1
2173 371828.000    869160.2684  -5289361.3387   3444970.4968   1   8   0.0044   0.0101   0.0059  -0.0027  -0.0061   0.0025   0.00    3.0
2173 371829.000    869160.2330  -5289361.0653   3444970.3313   2   8   0.4383   1.0005   0.5828  -0.2635  -0.6023   0.2428   0.00    3.0
2173 371830.000    869160.2688  -5289361.3392   3444970.4965   1   8   0.0044   0.0101   0.0059  -0.0027  -0.0061   0.0025   0.00    3.4
2173 371831.000    869160.2674  -5289361.3369   3444970.4975   1   8   0.0044   0.0101   0.0059  -0.0027  -0.0061   0.0025   0.00    3.3
2173 371832.000    869160.2690  -5289361.3405   3444970.4976   1   8   0.0044   0.0101   0.0059  -0.0027  -0.0061   0.0025   0.00    3.2
2173 371833.000    869160.2690  -5289361.3384   3444970.4966   1   8   0.0044   0.0101   0.0059  -0.0027  -0.0061   0.0025   0.00    3.2
2173 371834.000    869160.2672  -5289361.3408   3444970.4973   1   8   0.0044   0.0101   0.0059  -0.0027  -0.0061   0.0025   0.00    3.6
2173 371835.000    869160.2672  -5289361.3381   3444970.4964   1   8   0.0044   0.0101   0.0059  -0.0027  -0.0061   0.0025   0.00    3.1
2173 371836.000    869160.2674  -5289361.3342   3444970.4948   1   8   0.0044   0.0101   0.0059  -0.0027  -0.0061   0.0025   0.00    3.5
2173 371837.000    869160.2689  -5289361.3387   3444970.4964   1   8   0.0044   0.0101   0.0059  -0.0027  -0.0061   0.0025   0.00    3.3
2173 371838.000    869160.2674  -5289361.6626   3444970.7191   2   8   0.4382   1.0000   0.5830  -0.2632  -0.6021   0.2429   0.00    2.9
2173 371839.000    869160.2695  -5289361.3327   3444970.4929   1   8   0.0044   0.0101   0.0059  -0.0027  -0.0061   0.0025   0.00    3.2
2173 371840.000    869160.2691  -5289361.3353   3444970.4943   1   8   0.0044   0.0101   0.0059  -0.0027  -0.0061   0.0025   0.00    3.4
2173 371841.000    869160.2695  -5289361.3336   3444970.4949   1   8   0.0044   0.0101   0.0059  -0.0027  -0.0061   0.0025   0.00    3.2
2173 371842.000    869160.2694  -5289361.3348   3444970.4945   1   8   0.0044   0.0101   0.0059  -0.0027  -0.0061   0.0025   0.00    3.5
2173 371843.000    869160.2693  -5289361.3345   3444970.4941   1   8   0.0044   0.0101   0.0059  -0.0027  -0.0061   0.0025   0.00    3.5
2173 371844.000    869160.2700  -5289361.3349   3444970.4952   1   8   0.0044   0.0101   0.0059  -0.0027  -0.0061   0.0025   0.00    3.5
2173 371845.000    869160.2686  -5289361.3301   3444970.4939   1   8   0.0044   0.0101   0.0059  -0.0027  -0.0061   0.0025   0.00    4.2
2173 371846.000    869160.2699  -5289361.3337   3444970.4948   1   8   0.0044   0.0101   0.0059  -0.0027  -0.0061   0.0025   0.00    4.4
2173 371847.000    869160.2695  -5289361.3324   3444970.4952   1   8   0.0044   0.0101   0.0059  -0.0027  -0.0061   0.0025   0.00    4.3
2173 371848.000    869160.2695  -5289361.3344   3444970.4941   1   8   0.0044   0.0101   0.0059  -0.0027  -0.0061   0.0025   0.00    4.2
2173 371849.000    869160.2709  -5289361.3324   3444970.4933   1   8   0.0044   0.0101   0.0059  -0.0027  -0.0061   0.0025   0.00    3.9
2173 371850.000    869160.2705  -5289361.3331   3444970.4949   1   8   0.0044   0.0101   0.0059  -0.0027  -0.0061   0.0025   0.00    3.8
2173 371851.000    869160.2716  -5289361.3333   3444970.4950   1   8   0.0044   0.0101   0.0059  -0.0027  -0.0061   0.0025   0.00    4.7
2173 371852.000    869160.2697  -5289361.3323   3444970.4940   1   8   0.0044   0.0101   0.0059  -0.0027  -0.0061   0.0025   0.00    4.3
2173 371853.000    869160.2706  -5289361.3328   3444970.4926   1   8   0.0044   0.0101   0.0059  -0.0027  -0.0061   0.0025   0.00    3.9
2173 371854.000    869160.2711  -5289361.3274   3444970.4916   1   8   0.0044   0.0101   0.0059  -0.0027  -0.0061   0.0025   0.00    4.8
2173 371855.000    869160.2714  -5289361.3330   3444970.4944   1   8   0.0044   0.0101   0.0059  -0.0027  -0.0061   0.0025   0.00    4.1
2173 371856.000    869160.2705  -5289361.3316   3444970.4929   1   8   0.0044   0.0101   0.0059  -0.0027  -0.0061   0.0025   0.00    4.1
2173 371857.000    869160.2733  -5289361.3297   3444970.4934   1   8   0.0044   0.0101   0.0059  -0.0027  -0.0061   0.0025   0.00    3.7
2173 371858.000    869160.2737  -5289361.3341   3444970.4961   1   8   0.0044   0.0101   0.0059  -0.0027  -0.0061   0.0025   0.00    4.1
2173 371859.000    869160.2730  -5289361.3247   3444970.4915   1   8   0.0044   0.0101   0.0059  -0.0027  -0.0061   0.0025   0.00    4.4
2173 371860.000    869160.2732  -5289361.3307   3444970.4934   1   8   0.0044   0.0101   0.0059  -0.0027  -0.0061   0.0025   0.00    3.3
2173 371861.000    869160.2737  -5289361.3333   3444970.4945   1   8   0.0044   0.0101   0.0059  -0.0027  -0.0061   0.0025   0.00    3.4
2173 371862.000    869160.2729  -5289361.3322   3444970.4937   1   8   0.0044   0.0101   0.0059  -0.0027  -0.0061   0.0025   0.00    3.9
2173 371863.000    869160.2737  -5289361.3323   3444970.4945   1   8   0.0044   0.0101   0.0059  -0.0027  -0.0061   0.0025   0.00    3.7
2173 371864.000    869160.2735  -5289361.3325   3444970.4933   1   8   0.0044   0.0101   0.0059  -0.0027  -0.0061   0.0025   0.00    3.8
2173 371865.000    869160.2748  -5289361.3371   3444970.4951   1   8   0.0044   0.0101   0.0059  -0.0027  -0.0061   0.0025   0.00    4.1
2173 371866.000    869160.2725  -5289361.3358   3444970.4949   1   8   0.0044   0.0101   0.0059  -0.0027  -0.0061   0.0025   0.00    3.6
2173 371867.000    869160.2753  -5289361.3315   3444970.4951   1   8   0.0044   0.0101   0.0059  -0.0027  -0.0061   0.0025   0.00    3.5
2173 371868.000    869160.2758  -5289361.3356   3444970.4959   1   8   0.0044   0.0101   0.0059  -0.0027  -0.0061   0.0025   0.00    4.0
2173 371869.000    869160.2749  -5289361.3317   3444970.4935   1   8   0.0044   0.0101   0.0059  -0.0027  -0.0061   0.0025   0.00    4.2
2173 371870.000    869160.2750  -5289361.3340   3444970.4953   1   8   0.0044   0.0101   0.0059  -0.0027  -0.0061   0.0025   0.00    3.9
2173 371871.000    869160.2750  -5289361.3360   3444970.4945   1   8   0.0044   0.0101   0.0059  -0.0027  -0.0061   0.0025   0.00    3.1
2173 371872.000    869160.2760  -5289361.3342   3444970.4948   1   8   0.0044   0.0101   0.0059  -0.0026  -0.0061   0.0025   0.00    3.5
2173 371873.000    869160.2752  -5289360.9314   3444970.1060   2   8   0.4379   0.9981   0.5837  -0.2619  -0.6014   0.2435   0.00    2.8
2173 371874.000    869160.2754  -5289361.3332   3444970.4942   1   8   0.0044   0.0101   0.0059  -0.0026  -0.0061   0.0025   0.00    3.4
2173 371875.000    869160.1070  -5289361.4314   3444970.2408   2   8   0.4378   0.9980   0.5837  -0.2619  -0.6013   0.2435   0.00    3.0
2173 371876.000    869160.2771  -5289361.3337   3444970.4941   1   8   0.0044   0.0101   0.0059  -0.0026  -0.0061   0.0025   0.00    3.2
2173 371877.000    869160.2777  -5289361.3348   3444970.4949   1   8   0.0044   0.0101   0.0059  -0.0026  -0.0061   0.0025   0.00    3.7
2173 371878.000    869160.2766  -5289361.3303   3444970.4933   1   8   0.0044   0.0101   0.0059  -0.0026  -0.0061   0.0025   0.00    3.2
2173 371879.000    869160.3937  -5289360.9713   3444969.9243   2   8   0.4378   0.9978   0.5838  -0.2617  -0.6013   0.2436   0.00    2.8
2173 371880.000    869160.2643  -5289360.5460   3444969.7277   2   8   0.4378   0.9977   0.5839  -0.2617  -0.6012   0.2436   0.00    2.9
2173 371881.000    869160.2754  -5289361.3285   3444970.4913   1   8   0.0044   0.0101   0.0059  -0.0026  -0.0061   0.0025   0.00    3.0
2173 371882.000    869160.2838  -5289360.8730   3444969.9318   2   8   0.4378   0.9976   0.5839  -0.2616  -0.6012   0.2436   0.00    2.5
2173 371883.000    869160.3459  -5289361.0865   3444970.0020   2   8   0.4378   0.9976   0.5839  -0.2616  -0.6012   0.2436   0.00    2.8
2173 371884.000    869160.3007  -5289360.7291   3444969.8666   2   8   0.4378   0.9975   0.5839  -0.2615  -0.6012   0.2436   0.00    2.4
2173 371885.000    869160.4433  -5289360.6694   3444969.9137   2   8   0.4377   0.9975   0.5840  -0.2615  -0.6011   0.2436   0.00    2.8
2173 371886.000    869160.4326  -5289360.8317   3444969.9283   2   8   0.4377   0.9974   0.5840  -0.2615  -0.6011   0.2437   0.00    2.7
2173 371887.000    869160.3939  -5289361.0316   3444969.9440   2   8   0.4377   0.9974   0.5840  -0.2614  -0.6011   0.2437   0.00    2.6
2173 371888.000    869160.3904  -5289360.7345   3444969.8989   2   8   0.4377   0.9973   0.5840  -0.2614  -0.6011   0.2437   0.00    2.7
2173 371889.000    869160.2659  -5289360.9779   3444969.9597   2   8   0.4377   0.9973   0.5840  -0.2613  -0.6011   0.2437   0.00    2.9
2173 371890.000    869160.3311  -5289360.3552   3444969.7551   2   8   0.4377   0.9972   0.5841  -0.2613  -0.6010   0.2437   0.00    2.4
2173 371891.000    869160.4222  -5289360.7167   3444969.7682   2   8   0.4377   0.9971   0.5841  -0.2613  -0.6010   0.2437   0.00    2.7
2173 371892.000    869160.4338  -5289360.7067   3444969.8113   2   8   0.4377   0.9971   0.5841  -0.2612  -0.6010   0.2438   0.00    2.7
2173 371893.000    869160.4264  -5289360.2779   3444969.7405   2   8   0.4377   0.9970   0.5841  -0.2612  -0.6010   0.2438   0.00    2.3
2173 371894.000    869160.4199  -5289360.5428   3444969.8923   2   8   0.4376   0.9970   0.5841  -0.2612  -0.6010   0.2438   0.00    3.0
2173 371895.000    869160.4796  -5289360.5192   3444969.7146   2   8   0.4376   0.9969   0.5842  -0.2611  -0.6009   0.2438   0.00    2.3
2173 371896.000    869160.4009  -5289360.4280   3444969.8272   2   8   0.4376   0.9969   0.5842  -0.2611  -0.6009   0.2438   0.00    2.6
2173 371897.000    869160.2758  -5289361.3301   3444970.4926   1   8   0.0044   0.0101   0.0059  -0.0026  -0.0061   0.0025   0.00    3.1
2173 371898.000    869160.2992  -5289360.3181   3444969.7115   2   8   0.4376   0.9968   0.5842  -0.2610  -0.6009   0.2439   0.00    2.5
2173 371899.000    869160.2569  -5289360.5896   3444969.7461   2   8   0.4376   0.9967   0.5843  -0.2610  -0.6009   0.2439   0.00    2.9
2173 371900.000    869160.2182  -5289360.5201   3444969.8011   2   8   0.4376   0.9967   0.5843  -0.2610  -0.6008   0.2439   0.00    2.7
2173 371901.000    869160.2805  -5289360.1641   3444969.7268   2   8   0.4376   0.9966   0.5843  -0.2609  -0.6008   0.2439   0.00    2.6
2173 371902.000    869160.2771  -5289361.3303   3444970.4929   1   8   0.0044   0.0101   0.0059  -0.0026  -0.0061   0.0025   0.00    3.1
2173 371903.000    869160.2721  -5289360.4059   3444970.1310   2   8   0.4376   0.9965   0.5843  -0.2608  -0.6008   0.2439   0.00    2.8
2173 371904.000    869160.2707  -5289360.5658   3444970.0621   2   8   0.4375   0.9964   0.5844  -0.2608  -0.6008   0.2440   0.00    2.7
2173 371905.000    869160.3100  -5289360.6822   3444970.1234   2   8   0.4375   0.9964   0.5844  -0.2608  -0.6007   0.2440   0.00    2.8
2173 371906.000    869160.2232  -5289360.5126   3444969.9522   2   8   0.4375   0.9963   0.5844  -0.2607  -0.6007   0.2440   0.00    2.8
2173 371907.000    869160.0055  -5289360.2497   3444969.7507   2   8   0.4375   0.9963   0.5844  -0.2607  -0.6007   0.2440   0.00    2.6
2173 371908.000    869160.0625  -5289360.4746   3444969.8435   2   8   0.4375   0.9962   0.5844  -0.2607  -0.6007   0.2440   0.00    2.6
2173 371909.000    869159.9264  -5289360.7951   3444969.9186   2   8   0.4375   0.9962   0.5845  -0.2606  -0.6007   0.2440   0.00    2.4
2173 371910.000    869160.2783  -5289361.3342   3444970.4925   1   8   0.0044   0.0101   0.0059  -0.0026  -0.0061   0.0025   0.00    3.0
2173 371911.000    869159.9003  -5289361.1738   3444970.0390   2   8   0.4375   0.9961   0.5845  -0.2606  -0.6006   0.2441   0.00    2.9
2173 371912.000    869159.8881  -5289360.8857   3444969.9804   2   8   0.4375   0.9960   0.5845  -0.2605  -0.6006   0.2441   0.00    2.7
2173 371913.000    869160.0118  -5289360.7226   3444969.8727   2   8   0.4375   0.9959   0.5846  -0.2605  -0.6006   0.2441   0.00    2.5
2173 371914.000    869160.0776  -5289360.7122   3444969.7661   2   8   0.4374   0.9959   0.5846  -0.2605  -0.6006   0.2441   0.00    2.6
2173 371915.000    869159.9341  -5289360.6015   3444969.7951   2   8   0.4374   0.9958   0.5846  -0.2604  -0.6005   0.2441   0.00    2.3
2173 371916.000    869159.9268  -5289360.7734   3444970.0112   2   8   0.4374   0.9958   0.5846  -0.2604  -0.6005   0.2442   0.00    2.5
2173 371917.000    869160.0571  -5289360.3951   3444969.9165   2   8   0.4374   0.9957   0.5846  -0.2604  -0.6005   0.2442   0.00    2.2
2173 371918.000    869160.0530  -5289360.4773   3444969.8582   2   8   0.4374   0.9957   0.5847  -0.2603  -0.6005   0.2442   0.00    2.5
2173 371919.000    869159.9150  -5289360.5017   3444969.7581   2   8   0.4374   0.9956   0.5847  -0.2603  -0.6005   0.2442   0.00    2.4
2173 371920.000    869159.6277  -5289360.7156   3444969.7149   2   8   0.4374   0.9956   0.5847  -0.2602  -0.6004   0.2442   0.00    2.4
2173 371921.000    869159.6141  -5289360.8565   3444969.8165   2   8   0.4374   0.9955   0.5847  -0.2602  -0.6004   0.2443   0.00    2.0
2173 371922.000    869159.6099  -5289361.0311   3444969.7980   2   8   0.4374   0.9955   0.5848  -0.2602  -0.6004   0.2443   0.00    2.3
2173 371923.000    869159.5998  -5289361.4911   3444969.8829   2   8   0.4374   0.9954   0.5848  -0.2601  -0.6004   0.2443   0.00    2.1
2173 371924.000    869159.6834  -5289361.5776   3444970.1509   2   8   0.4373   0.9953   0.5848  -0.2601  -0.6004   0.2443   0.00    2.3
2173 371925.000    869159.7000  -5289361.4409   3444969.9004   2   8   0.4373   0.9953   0.5848  -0.2601  -0.6003   0.2443   0.00    1.9
2173 371926.000    869159.6420  -5289361.4396   3444969.9775   2   8   0.4373   0.9952   0.5848  -0.2600  -0.6003   0.2443   0.00    2.0
2173 371927.000    869159.6859  -5289361.3502   3444969.9833   2   8   0.4373   0.9952   0.5849  -0.2600  -0.6003   0.2444   0.00    2.0
2173 371928.000    869159.7516  -5289361.3229   3444969.9530   2   8   0.4373   0.9951   0.5849  -0.2600  -0.6003   0.2444   0.00    2.2
2173 371929.000    869159.7514  -5289361.1211   3444969.7663   2   8   0.4373   0.9951   0.5849  -0.2599  -0.6003   0.2444   0.00    1.8
2173 371930.000    869159.9148  -5289361.1298   3444969.7068   2   8   0.4373   0.9950   0.5849  -0.2599  -0.6002   0.2444   0.00    1.6
2173 371931.000    869159.7424  -5289361.4174   3444970.0556   2   8   0.4373   0.9950   0.5850  -0.2599  -0.6002   0.2444   0.00    2.2
2173 371932.000    869159.8205  -5289360.8961   3444969.7546   2   8   0.4373   0.9949   0.5850  -0.2598  -0.6002   0.2444   0.00    1.9
2173 371933.000    869159.7525  -5289360.9330   3444969.8897   2   8   0.4373   0.9949   0.5850  -0.2598  -0.6002   0.2445   0.00    1.8
2173 371934.000    869159.6093  -5289360.9304   3444969.9089   2   8   0.4373   0.9948   0.5850  -0.2598  -0.6002   0.2445   0.00    1.9
2173 371935.000    869159.5531  -5289361.0356   3444969.9815   2   8   0.4372   0.9947   0.5850  -0.2597  -0.6001   0.2445   0.00    2.1
2173 371936.000    869159.6564  -5289361.4456   3444970.0590   2   8   0.4372   0.9947   0.5851  -0.2597  -0.6001   0.2445   0.00    1.8
2173 371937.000    869159.7435  -5289361.8678   3444970.1775   2   8   0.4372   0.9946   0.5851  -0.2597  -0.6001   0.2445   0.00    1.7
2173 371938.000    869159.6524  -5289361.9221   3444970.1876   2   8   0.4372   0.9946   0.5851  -0.2596  -0.6001   0.2445   0.00    1.7
2173 371939.000    869159.7213  -5289361.4794   3444970.0255   2   8   0.4372   0.9945   0.5851  -0.2596  -0.6001   0.2446   0.00    2.0
2173 371940.000    869159.7082  -5289361.0620   3444969.8738   2   8   0.4372   0.9945   0.5852  -0.2595  -0.6000   0.2446   0.00    1.8
2173 371941.000    869159.6454  -5289361.5195   3444970.2692   2   8   0.4372   0.9944   0.5852  -0.2595  -0.6000   0.2446   0.00    1.8
2173 371942.000    869159.5691  -5289361.8751   3444970.1710   2   8   0.4372   0.9944   0.5852  -0.2595  -0.6000   0.2446   0.00    1.7
2173 371943.000    869159.5687  -5289361.6015   3444970.1556   2   8   0.4372   0.9943   0.5852  -0.2594  -0.6000   0.2446   0.00    2.0
2173 371944.000    869159.6142  -5289361.3127   3444970.2208   2   8   0.4372   0.9943   0.5853  -0.2594  -0.6000   0.2447   0.00    2.1
2173 371945.000    869159.4635  -5289361.3610   3444970.2439   2   8   0.4371   0.9942   0.5853  -0.2594  -0.5999   0.2447   0.00    1.8
2173 371946.000    869159.5176  -5289361.2362   3444970.1815   2   8   0.4371   0.9941   0.5853  -0.2593  -0.5999   0.2447   0.00    1.8
2173 371947.000    869159.7607  -5289361.6440   3444970.3891   2   8   0.4371   0.9941   0.5853  -0.2593  -0.5999   0.2447   0.00    1.8
2173 371948.000    869159.8092  -5289361.3521   3444970.2624   2   8   0.4371   0.9940   0.5853  -0.2593  -0.5999   0.2447   0.00    1.7
2173 371949.000    869159.8062  -5289361.7218   3444970.4736   2   8   0.4371   0.9940   0.5854  -0.2592  -0.5999   0.2447   0.00    1.8
2173 371950.000    869159.8383  -5289361.5737   3444970.4753   2   8   0.4371   0.9939   0.5854  -0.2592  -0.5998   0.2448   0.00    1.9
2173 371951.000    869159.8834  -5289361.3732   3444970.4600   2   8   0.4371   0.9939   0.5854  -0.2592  -0.5998   0.2448   0.00    1.9
2173 371952.000    869159.8420  -5289361.6216   3444970.5390   2   8   0.4371   0.9938   0.5854  -0.2591  -0.5998   0.2448   0.00    1.8
2173 371953.000    869159.9351  -5289361.5828   3444970.6311   2   8   0.4371   0.9938   0.5855  -0.2591  -0.5998   0.2448   0.00    2.0
2173 371954.000    869159.9911  -5289361.5140   3444970.6764   2   8   0.4371   0.9937   0.5855  -0.2591  -0.5998   0.2448   0.00    1.9
2173 371955.000    869160.0378  -5289361.8101   3444970.8141   2   8   0.4371   0.9936   0.5855  -0.2590  -0.5997   0.2449   0.00    1.7
2173 371956.000    869159.9480  -5289361.7219   3444970.8184   2   8   0.4370   0.9936   0.5855  -0.2590  -0.5997   0.2449   0.00    1.8
2173 371957.000    869159.9877  -5289362.0874   3444970.8921   2   8   0.4370   0.9935   0.5856  -0.2590  -0.5997   0.2449   0.00    1.6
2173 371958.000    869159.9745  -5289362.2054   3444970.9159   2   8   0.4370   0.9935   0.5856  -0.2589  -0.5997   0.2449   0.00    1.5
2173 371959.000    869160.0194  -5289362.6542   3444971.1433   2   8   0.4370   0.9934   0.5856  -0.2589  -0.5997   0.2449   0.00    1.8
2173 371960.000    869159.8379  -5289362.2538   3444971.0548   2   8   0.4370   0.9934   0.5856  -0.2589  -0.5996   0.2449   0.00    1.5
2173 371961.000    869159.9563  -5289362.5624   3444971.1939   2   8   0.4370   0.9933   0.5857  -0.2588  -0.5996   0.2450   0.00    1.7
2173 371962.000    869159.9525  -5289362.6099   3444971.1316   2   8   0.4370   0.9933   0.5857  -0.2588  -0.5996   0.2450   0.00    1.4
2173 371963.000    869159.8734  -5289362.9908   3444971.0919   2   8   0.4370   0.9932   0.5857  -0.2588  -0.5996   0.2450   0.00    1.4
2173 371964.000    869159.9505  -5289363.0150   3444971.1738   2   8   0.4370   0.9932   0.5857  -0.2587  -0.5996   0.2450   0.00    1.5
2173 371965.000    869160.0317  -5289362.8576   3444971.1437   2   8   0.4370   0.9931   0.5857  -0.2587  -0.5995   0.2450   0.00    1.7
2173 371966.000    869160.0906  -5289362.9529   3444971.1263   2   8   0.4369   0.9930   0.5858  -0.2587  -0.5995   0.2450   0.00    1.6
2173 371967.000    869160.1060  -5289362.4901   3444971.0211   2   8   0.4369   0.9930   0.5858  -0.2586  -0.5995   0.2451   0.00    1.8
2173 371968.000    869160.0764  -5289362.7429   3444970.9954   2   8   0.4369   0.9929   0.5858  -0.2586  -0.5995   0.2451   0.00    1.7
2173 371969.000    869160.1355  -5289362.1658   3444970.9581   2   8   0.4369   0.9929   0.5858  -0.2586  -0.5995   0.2451   0.00    1.6
2173 371970.000    869160.0717  -5289362.2962   3444970.9252   2   8   0.4369   0.9928   0.5859  -0.2585  -0.5995   0.2451   0.00    1.7
2173 371971.000    869160.1490  -5289362.5903   3444971.0790   2   8   0.4369   0.9928   0.5859  -0.2585  -0.5994   0.2451   0.00    1.9
2173 371972.000    869160.1077  -5289362.5719   3444970.9374   2   8   0.4369   0.9927   0.5859  -0.2585  -0.5994   0.2452   0.00    1.7
2173 371973.000    869160.0790  -5289362.4821   3444970.9774   2   8   0.4369   0.9927   0.5859  -0.2584  -0.5994   0.2452   0.00    1.7
2173 371974.000    869160.0660  -5289362.5828   3444970.9503   2   8   0.4369   0.9926   0.5860  -0.2584  -0.5994   0.2452   0.00    1.7
2173 371975.000    869160.0181  -5289362.6608   3444971.0518   2   8   0.4369   0.9926   0.5860  -0.2583  -0.5994   0.2452   0.00    1.9
2173 371976.000    869160.0172  -5289362.6504   3444970.9129   2   8   0.4369   0.9925   0.5860  -0.2583  -0.5993   0.2452   0.00    1.7
2173 371977.000    869160.1912  -5289361.9875   3444970.6421   2   8   0.4368   0.9924   0.5860  -0.2583  -0.5993   0.2453   0.00    1.8
2173 371978.000    869160.2383  -5289362.2284   3444970.7725   2   8   0.4368   0.9924   0.5861  -0.2582  -0.5993   0.2453   0.00    2.1
2173 371979.000    869160.2372  -5289362.0386   3444970.6747   2   8   0.4368   0.9923   0.5861  -0.2582  -0.5993   0.2453   0.00    2.2
2173 371980.000    869160.3447  -5289362.0999   3444970.8047   2   8   0.4368   0.9923   0.5861  -0.2582  -0.5993   0.2453   0.00    2.1
2173 371981.000    869160.3156  -5289361.9287   3444970.9036   2   8   0.4368   0.9922   0.5861  -0.2581  -0.5992   0.2453   0.00    2.0
2173 371982.000    869160.3767  -5289361.5120   3444970.8271   2   8   0.4368   0.9922   0.5862  -0.2581  -0.5992   0.2453   0.00    1.9
2173 371983.000    869160.2846  -5289361.2395   3444970.5414   2   8   0.4368   0.9921   0.5862  -0.2581  -0.5992   0.2454   0.00    1.8
2173 371984.000    869160.2874  -5289361.9704   3444971.0048   2   8   0.4368   0.9921   0.5862  -0.2580  -0.5992   0.2454   0.00    1.9
2173 371985.000    869160.3881  -5289362.2323   3444970.9741   2   8   0.4368   0.9920   0.5862  -0.2580  -0.5992   0.2454   0.00    1.8
2173 371986.000    869160.3356  -5289361.9198   3444970.8329   2   8   0.4368   0.9919   0.5863  -0.2580  -0.5991   0.2454   0.00    1.7
2173 371987.000    869160.1897  -5289361.7831   3444970.7816   2   8   0.4368   0.9919   0.5863  -0.2579  -0.5991   0.2454   0.00    1.7
2173 371988.000    869160.1096  -5289361.8685   3444970.6417   2   8   0.4367   0.9918   0.5863  -0.2579  -0.5991   0.2455   0.00    1.8
2173 371989.000    869160.1932  -5289361.8137   3444970.6963   2   8   0.4367   0.9918   0.5863  -0.2579  -0.5991   0.2455   0.00    1.8
2173 371990.000    869160.2519  -5289362.1141   3444971.0183   2   8   0.4367   0.9917   0.5864  -0.2578  -0.5991   0.2455   0.00    2.0
2173 371991.000    869160.3527  -5289361.8590   3444970.7746   2   8   0.4367   0.9917   0.5864  -0.2578  -0.5990   0.2455   0.00    2.1
2173 371992.000    869160.3347  -5289361.9978   3444970.8098   2   8   0.4367   0.9916   0.5864  -0.2578  -0.5990   0.2455   0.00    1.8
2173 371993.000    869160.2832  -5289362.0328   3444970.8884   2   8   0.4367   0.9916   0.5864  -0.2577  -0.5990   0.2456   0.00    1.8
2173 371994.000    869160.2793  -5289361.9915   3444970.7837   2   8   0.4367   0.9915   0.5865  -0.2577  -0.5990   0.2456   0.00    1.8
2173 371995.000    869160.1363  -5289361.6669   3444970.8096   2   8   0.4367   0.9914   0.5865  -0.2577  -0.5990   0.2456   0.00    2.0
2173 371996.000    869160.2123  -5289361.4824   3444970.8462   2   8   0.4367   0.9914   0.5865  -0.2576  -0.5989   0.2456   0.00    2.0
2173 371997.000    869160.3294  -5289361.6759   3444970.7636   2   8   0.4367   0.9913   0.5865  -0.2576  -0.5989   0.2456   0.00    1.7
2173 371998.000    869160.2141  -5289361.8217   3444970.9092   2   8   0.4367   0.9913   0.5866  -0.2576  -0.5989   0.2456   0.00    1.7
2173 371999.000    869160.3485  -5289361.5701   3444970.8719   2   8   0.4366   0.9912   0.5866  -0.2575  -0.5989   0.2457   0.00    1.7
2173 372000.000    869160.3363  -5289361.6171   3444970.8647   2   8   0.4366   0.9912   0.5866  -0.2575  -0.5989   0.2457   0.00    1.9
2173 372001.000    869160.1938  -5289361.3393   3444970.5903   2   8   0.4366   0.9911   0.5866  -0.2575  -0.5989   0.2457   0.00    1.7
2173 372002.000    869160.1180  -5289361.1145   3444970.4721   2   8   0.4366   0.9911   0.5867  -0.2574  -0.5988   0.2457   0.00    1.8
2173 372003.000    869160.1815  -5289360.9445   3444970.3436   2   8   0.4366   0.9910   0.5867  -0.2574  -0.5988   0.2457   0.00    1.7
2173 372004.000    869160.1917  -5289361.4244   3444970.5464   2   8   0.4366   0.9910   0.5867  -0.2574  -0.5988   0.2458   0.00    1.8
2173 372005.000    869160.1974  -5289361.2587   3444970.4530   2   8   0.4366   0.9909   0.5867  -0.2573  -0.5988   0.2458   0.00    1.8
2173 372006.000    869160.1574  -5289361.4769   3444970.4385   2   8   0.4366   0.9908   0.5868  -0.2573  -0.5988   0.2458   0.00    1.8
2173 372007.000    869160.1013  -5289361.3324   3444970.2500   2   8   0.4366   0.9908   0.5868  -0.2573  -0.5987   0.2458   0.00    1.8
2173 372008.000    869160.0552  -5289361.7371   3444970.1853   2   8   0.4366   0.9907   0.5868  -0.2572  -0.5987   0.2458   0.00    1.9
2173 372009.000    869159.9680  -5289361.3724   3444970.1873   2   8   0.4366   0.9907   0.5868  -0.2572  -0.5987   0.2459   0.00    1.8
2173 372010.000    869160.0892  -5289361.3801   3444970.1991   2   8   0.4366   0.9906   0.5869  -0.2572  -0.5987   0.2459   0.00    1.9
2173 372011.000    869160.1205  -5289361.5646   3444970.2545   2   8   0.4365   0.9906   0.5869  -0.2571  -0.5987   0.2459   0.00    1.6
2173 372012.000    869159.9203  -5289361.3166   3444970.1461   2   8   0.4365   0.9905   0.5869  -0.2571  -0.5986   0.2459   0.00    1.7
2173 372013.000    869159.9651  -5289361.3462   3444970.0681   2   8   0.4365   0.9905   0.5869  -0.2571  -0.5986   0.2459   0.00    1.8
2173 372014.000    869159.9215  -5289361.4099   3444970.3656   2   8   0.4365   0.9904   0.5870  -0.2570  -0.5986   0.2460   0.00    1.8
2173 372015.000    869159.9320  -5289362.0535   3444970.5173   2   8   0.4365   0.9903   0.5870  -0.2570  -0.5986   0.2460   0.00    1.8
2173 372016.000    869159.9697  -5289361.6739   3444970.4669   2   8   0.4365   0.9903   0.5870  -0.2570  -0.5986   0.2460   0.00    1.8
2173 372017.000    869159.8562  -5289361.7649   3444970.5524   2   8   0.4365   0.9902   0.5870  -0.2569  -0.5985   0.2460   0.00    1.8
2173 372018.000    869159.7448  -5289361.7656   3444970.3357   2   8   0.4365   0.9902   0.5871  -0.2569  -0.5985   0.2460   0.00    1.5
2173 372019.000    869159.5780  -5289361.8562   3444970.2614   2   8   0.4365   0.9901   0.5871  -0.2569  -0.5985   0.2461   0.00    1.7
2173 372020.000    869159.6492  -5289361.8370   3444970.2969   2   8   0.4365   0.9901   0.5871  -0.2569  -0.5985   0.2461   0.00    1.6
2173 372021.000    869159.6555  -5289361.7073   3444970.4016   2   8   0.4365   0.9900   0.5871  -0.2568  -0.5985   0.2461   0.00    1.6
2173 372022.000    869159.7601  -5289361.7000   3444970.4001   2   8   0.4364   0.9900   0.5872  -0.2568  -0.5984   0.2461   0.00    1.7
2173 372023.000    869159.7632  -5289362.1305   3444970.5554   2   8   0.4364   0.9899   0.5872  -0.2568  -0.5984   0.2461   0.00    1.6
2173 372024.000    869159.6134  -5289361.8100   3444970.3789   2   8   0.4364   0.9898   0.5872  -0.2567  -0.5984   0.2461   0.00    1.6
2173 372025.000    869159.8801  -5289361.9582   3444970.5754   2   8   0.4364   0.9898   0.5872  -0.2567  -0.5984   0.2462   0.00    1.8
2173 372026.000    869159.9376  -5289361.6497   3444970.2664   2   8   0.4364   0.9897   0.5873  -0.2567  -0.5984   0.2462   0.00    1.9
2173 372027.000    869159.9550  -5289361.1878   3444970.0821   2   8   0.4364   0.9897   0.5873  -0.2566  -0.5984   0.2462   0.00    1.7
2173 372028.000    869160.0255  -5289361.3063   3444970.1922   2   8   0.4364   0.9896   0.5873  -0.2566  -0.5983   0.2462   0.00    1.7
2173 372029.000    869159.9558  -5289361.4359   3444970.1939   2   8   0.4364   0.9896   0.5874  -0.2566  -0.5983   0.2462   0.00    1.7
2173 372030.000    869159.9528  -5289361.2175   3444970.1189   2   8   0.4364   0.9895   0.5874  -0.2565  -0.5983   0.2463   0.00    1.8
2173 372031.000    869160.0598  -5289361.6109   3444970.3223   2   8   0.4364   0.9895   0.5874  -0.2565  -0.5983   0.2463   0.00    1.7
2173 372032.000    869159.8220  -5289361.4577   3444970.3629   2   8   0.4364   0.9894   0.5874  -0.2565  -0.5983   0.2463   0.00    2.0
2173 372033.000    869159.9437  -5289361.4868   3444970.2268   2   8   0.4364   0.9893   0.5875  -0.2564  -0.5982   0.2463   0.00    1.8
2173 372034.000    869159.9672  -5289361.8978   3444970.2842   2   8   0.4363   0.9893   0.5875  -0.2564  -0.5982   0.2463   0.00    1.9
2173 372035.000    869159.6369  -5289362.1731   3444970.1987   2   8   0.4363   0.9892   0.5875  -0.2564  -0.5982   0.2464   0.00    1.8
2173 372036.000    869159.6584  -5289361.7708   3444969.9374   2   8   0.4363   0.9892   0.5875  -0.2563  -0.5982   0.2464   0.00    1.5
2173 372037.000    869159.6965  -5289361.5261   3444969.9511   2   8   0.4363   0.9891   0.5876  -0.2563  -0.5982   0.2464   0.00    1.5
2173 372038.000    869159.8443  -5289361.6579   3444970.0261   2   8   0.4363   0.9891   0.5876  -0.2563  -0.5981   0.2464   0.00    1.5
2173 372039.000    869159.9693  -5289361.3726   3444970.0209   2   8   0.4363   0.9890   0.5876  -0.2562  -0.5981   0.2464   0.00    1.8
2173 372040.000    869159.9559  -5289361.3711   3444969.9913   2   8   0.4363   0.9890   0.5876  -0.2562  -0.5981   0.2465   0.00    1.3
2173 372041.000    869159.8983  -5289361.2495   3444969.9481   2   8   0.4363   0.9889   0.5877  -0.2562  -0.5981   0.2465   0.00    1.3
2173 372042.000    869160.0054  -5289361.4357   3444970.0180   2   8   0.4363   0.9889   0.5877  -0.2561  -0.5981   0.2465   0.00    1.3
2173 372043.000    869159.9445  -5289361.4133   3444969.9969   2   8   0.4363   0.9888   0.5877  -0.2561  -0.5981   0.2465   0.00    1.2
2173 372044.000    869159.9889  -5289361.2368   3444969.9104   2   8   0.4363   0.9887   0.5878  -0.2561  -0.5980   0.2465   0.00    1.3
2173 372045.000    869160.1794  -5289361.0640   3444969.8417   2   8   0.4363   0.9887   0.5878  -0.2560  -0.5980   0.2466   0.00    1.5
2173 372046.000    869160.1575  -5289360.8966   3444969.9820   2   8   0.4362   0.9886   0.5878  -0.2560  -0.5980   0.2466   0.00    1.3
2173 372047.000    869160.0765  -5289360.9490   3444969.8366   2   8   0.4362   0.9886   0.5878  -0.2560  -0.5980   0.2466   0.00    1.3
2173 372048.000    869159.9274  -5289361.4839   3444969.9957   2   8   0.4362   0.9885   0.5879  -0.2559  -0.5980   0.2466   0.00    1.4
2173 372049.000    869160.1030  -5289361.7450   3444970.1720   2   8   0.4362   0.9885   0.5879  -0.2559  -0.5979   0.2466   0.00    1.5
2173 372050.000    869160.1410  -5289361.5100   3444970.1023   2   8   0.4362   0.9884   0.5879  -0.2559  -0.5979   0.2467   0.00    1.3
2173 372051.000    869159.9942  -5289361.3308   3444969.8955   2   8   0.4362   0.9884   0.5879  -0.2559  -0.5979   0.2467   0.00    1.4
2173 372052.000    869160.0312  -5289361.2175   3444969.7959   2   8   0.4362   0.9883   0.5880  -0.2558  -0.5979   0.2467   0.00    1.5
2173 372053.000    869160.0858  -5289361.7293   3444970.0168   2   8   0.4362   0.9882   0.5880  -0.2558  -0.5979   0.2467   0.00    1.5
2173 372054.000    869160.0649  -5289361.5728   3444969.9612   2   8   0.4362   0.9882   0.5880  -0.2558  -0.5978   0.2468   0.00    1.4
2173 372055.000    869160.0262  -5289361.4941   3444970.2332   2   8   0.4362   0.9881   0.5881  -0.2557  -0.5978   0.2468   0.00    1.5
2173 372056.000    869160.0417  -5289361.1216   3444970.0580   2   8   0.4362   0.9881   0.5881  -0.2557  -0.5978   0.2468   0.00    1.8
2173 372057.000    869160.0461  -5289361.3523   3444970.0976   2   8   0.4362   0.9880   0.5881  -0.2557  -0.5978   0.2468   0.00    1.6
2173 372058.000    869160.0558  -5289361.4333   3444970.1006   2   8   0.4361   0.9880   0.5881  -0.2556  -0.5978   0.2468   0.00    1.2
2173 372059.000    869160.0684  -5289360.7764   3444969.9484   2   8   0.4361   0.9879   0.5882  -0.2556  -0.5978   0.2469   0.00    1.4
2173 372060.000    869160.1630  -5289360.7355   3444970.1047   2   8   0.4361   0.9879   0.5882  -0.2556  -0.5977   0.2469   0.00    1.5
2173 372061.000    869159.9932  -5289360.6239   3444970.0747   2   8   0.4361   0.9878   0.5882  -0.2555  -0.5977   0.2469   0.00    1.1
2173 372062.000    869160.1165  -5289360.2412   3444969.9427   2   8   0.4361   0.9877   0.5882  -0.2555  -0.5977   0.2469   0.00    1.0
2173 372063.000    869160.1717  -5289360.0224   3444969.9922   2   8   0.4361   0.9877   0.5883  -0.2555  -0.5977   0.2469   0.00    1.2
2173 372064.000    869160.1279  -5289359.8497   3444969.8968   2   8   0.4361   0.9876   0.5883  -0.2554  -0.5977   0.2470   0.00    1.0
2173 372065.000    869160.0458  -5289359.8639   3444969.9752   2   8   0.4361   0.9876   0.5883  -0.2554  -0.5976   0.2470   0.00    1.1
2173 372066.000    869160.0888  -5289359.6351   3444969.9960   2   8   0.4361   0.9875   0.5884  -0.2554  -0.5976   0.2470   0.00    1.0
2173 372067.000    869160.0298  -5289359.6481   3444969.8266   2   8   0.4361   0.9875   0.5884  -0.2553  -0.5976   0.2470   0.00    1.0
2173 372068.000    869159.9689  -5289359.4350   3444969.5655   2   8   0.4361   0.9874   0.5884  -0.2553  -0.5976   0.2470   0.00    1.0
2173 372069.000    869159.8648  -5289359.5853   3444969.7199   2   8   0.4361   0.9874   0.5884  -0.2553  -0.5976   0.2471   0.00    1.0
2173 372070.000    869159.6243  -5289359.4363   3444969.4159   2   8   0.4360   0.9873   0.5885  -0.2553  -0.5976   0.2471   0.00    1.1
2173 372071.000    869159.6469  -5289359.1970   3444969.4109   2   8   0.4360   0.9872   0.5885  -0.2552  -0.5975   0.2471   0.00    1.1
2173 372072.000    869159.7793  -5289359.0763   3444969.3861   2   8   0.4360   0.9872   0.5885  -0.2552  -0.5975   0.2471   0.00    1.0
2173 372073.000    869159.7874  -5289358.9791   3444969.4310   2   8   0.4360   0.9871   0.5886  -0.2552  -0.5975   0.2471   0.00    1.1
2173 372074.000    869159.8381  -5289359.3211   3444969.3916   2   8   0.4360   0.9871   0.5886  -0.2551  -0.5975   0.2472   0.00    1.1
2173 372075.000    869159.7915  -5289359.6781   3444969.5090   2   8   0.4360   0.9870   0.5886  -0.2551  -0.5975   0.2472   0.00    1.0
2173 372076.000    869159.6846  -5289359.5177   3444969.4133   2   8   0.4360   0.9870   0.5886  -0.2551  -0.5974   0.2472   0.00    1.0
2173 372077.000    869159.7993  -5289359.4315   3444969.3691   2   8   0.4360   0.9869   0.5887  -0.2550  -0.5974   0.2472   0.00    1.2
2173 372078.000    869159.8764  -5289359.3981   3444969.3230   2   8   0.4360   0.9869   0.5887  -0.2550  -0.5974   0.2472   0.00    1.1
2173 372079.000    869159.7487  -5289359.2933   3444969.0193   2   8   0.4360   0.9868   0.5887  -0.2550  -0.5974   0.2473   0.00    1.0
2173 372080.000    869159.6371  -5289359.5573   3444969.2619   2   8   0.4360   0.9867   0.5887  -0.2549  -0.5974   0.2473   0.00    1.1
2173 372081.000    869159.6503  -5289360.1094   3444969.4162   2   8   0.4360   0.9867   0.5888  -0.2549  -0.5974   0.2473   0.00    1.0
2173 372082.000    869159.5953  -5289359.8573   3444969.2885   2   8   0.4360   0.9866   0.5888  -0.2549  -0.5973   0.2473   0.00    1.0
2173 372083.000    869159.5022  -5289359.7265   3444969.2705   2   8   0.4359   0.9866   0.5888  -0.2548  -0.5973   0.2474   0.00    1.1
2173 372084.000    869159.6365  -5289360.0299   3444969.5372   2   8   0.4359   0.9865   0.5889  -0.2548  -0.5973   0.2474   0.00    1.0
2173 372085.000    869159.6922  -5289359.4716   3444969.3397   2   8   0.4359   0.9865   0.5889  -0.2548  -0.5973   0.2474   0.00    1.3
2173 372086.000    869159.5781  -5289359.3199   3444969.2071   2   8   0.4359   0.9864   0.5889  -0.2548  -0.5973   0.2474   0.00    1.1
2173 372087.000    869159.6671  -5289359.1934   3444968.9454   2   8   0.4359   0.9864   0.5889  -0.2547  -0.5972   0.2474   0.00    1.2
2173 372088.000    869159.8016  -5289359.2240   3444969.0658   2   8   0.4359   0.9863   0.5890  -0.2547  -0.5972   0.2475   0.00    1.2
2173 372089.000    869160.0706  -5289358.6960   3444968.8343   2   8   0.4359   0.9862   0.5890  -0.2547  -0.5972   0.2475   0.00    1.3
2173 372090.000    869159.7862  -5289358.6646   3444968.7826   2   8   0.4359   0.9862   0.5890  -0.2546  -0.5972   0.2475   0.00    1.2
2173 372091.000    869159.9603  -5289358.7673   3444968.8408   2   8   0.4359   0.9861   0.5891  -0.2546  -0.5972   0.2475   0.00    1.4
2173 372092.000    869159.7865  -5289358.9715   3444968.7546   2   8   0.4359   0.9861   0.5891  -0.2546  -0.5972   0.2475   0.00    1.2
2173 372093.000    869159.7582  -5289359.1139   3444968.9085   2   8   0.4359   0.9860   0.5891  -0.2545  -0.5971   0.2476   0.00    1.1
2173 372094.000    869159.7727  -5289359.4277   3444969.0641   2   8   0.4359   0.9860   0.5891  -0.2545  -0.5971   0.2476   0.00    1.2
2173 372095.000    869159.9177  -5289359.6817   3444969.2348   2   8   0.4359   0.9859   0.5892  -0.2545  -0.5971   0.2476   0.00    1.1
2173 372096.000    869159.8220  -5289359.4559   3444969.2221   2   8   0.4358   0.9859   0.5892  -0.2544  -0.5971   0.2476   0.00    1.3
2173 372097.000    869159.8434  -5289359.8433   3444969.1752   2   8   0.4358   0.9858   0.5892  -0.2544  -0.5971   0.2477   0.00    1.1
2173 372098.000    869159.9363  -5289359.9706   3444969.2667   2   8   0.4358   0.9857   0.5893  -0.2544  -0.5970   0.2477   0.00    1.1
2173 372099.000    869159.7856  -5289359.8357   3444969.2266   2   8   0.4358   0.9857   0.5893  -0.2544  -0.5970   0.2477   0.00    1.2
2173 372100.000    869159.8814  -5289359.7233   3444969.1066   2   8   0.4358   0.9856   0.5893  -0.2543  -0.5970   0.2477   0.00    1.0
2173 372101.000    869159.9611  -5289359.8605   3444969.2770   2   8   0.4358   0.9856   0.5894  -0.2543  -0.5970   0.2477   0.00    1.1
2173 372102.000    869159.9273  -5289359.4794   3444969.0509   2   8   0.4358   0.9855   0.5894  -0.2543  -0.5970   0.2478   0.00    1.0
2173 372103.000    869159.8914  -5289359.3339   3444968.8915   2   8   0.4358   0.9855   0.5894  -0.2542  -0.5970   0.2478   0.00    1.1
2173 372104.000    869160.0110  -5289359.3388   3444969.0061   2   8   0.4358   0.9854   0.5894  -0.2542  -0.5969   0.2478   0.00    1.2
2173 372105.000    869160.0791  -5289359.0886   3444968.8084   2   8   0.4358   0.9854   0.5895  -0.2542  -0.5969   0.2478   0.00    1.0
2173 372106.000    869160.2150  -5289359.3519   3444969.1471   2   8   0.4358   0.9853   0.5895  -0.2541  -0.5969   0.2478   0.00    1.0
2173 372107.000    869160.1491  -5289359.2003   3444969.1049   2   8   0.4358   0.9852   0.5895  -0.2541  -0.5969   0.2479   0.00    1.0
2173 372108.000    869160.1572  -5289359.0092   3444968.8724   2   8   0.4358   0.9852   0.5896  -0.2541  -0.5969   0.2479   0.00    1.2
2173 372109.000    869160.2075  -5289358.9516   3444969.0346   2   8   0.4357   0.9851   0.5896  -0.2541  -0.5968   0.2479   0.00    1.1
2173 372110.000    869160.3873  -5289358.8536   3444969.1826   2   8   0.4357   0.9851   0.5896  -0.2540  -0.5968   0.2479   0.00    1.1
2173 372111.000    869160.2836  -5289358.8735   3444968.9870   2   8   0.4357   0.9850   0.5896  -0.2540  -0.5968   0.2480   0.00    1.0
2173 372112.000    869160.3188  -5289359.2872   3444969.2846   2   8   0.4357   0.9850   0.5897  -0.2540  -0.5968   0.2480   0.00    1.0
2173 372113.000    869160.2199  -5289359.4446   3444969.2946   2   8   0.4357   0.9849   0.5897  -0.2539  -0.5968   0.2480   0.00    1.1
2173 372114.000    869160.2625  -5289359.4426   3444969.2367   2   8   0.4357   0.9849   0.5897  -0.2539  -0.5968   0.2480   0.00    1.3
2173 372115.000    869160.2251  -5289358.9433   3444968.8904   2   8   0.4357   0.9848   0.5898  -0.2539  -0.5967   0.2480   0.00    1.3
2173 372116.000    869160.2026  -5289359.1658   3444969.0467   2   8   0.4357   0.9847   0.5898  -0.2538  -0.5967   0.2481   0.00    1.3
2173 372117.000    869160.0596  -5289359.4071   3444969.3346   2   8   0.4357   0.9847   0.5898  -0.2538  -0.5967   0.2481   0.00    1.3
2173 372118.000    869160.0280  -5289359.6257   3444969.5910   2   8   0.4357   0.9846   0.5899  -0.2538  -0.5967   0.2481   0.00    1.2
2173 372119.000    869160.1983  -5289359.8592   3444969.7613   2   8   0.4357   0.9846   0.5899  -0.2538  -0.5967   0.2481   0.00    1.1
2173 372120.000    869160.3099  -5289359.9968   3444969.8489   2   8   0.4357   0.9845   0.5899  -0.2537  -0.5966   0.2482   0.00    1.2
2173 372121.000    869160.4001  -5289360.1471   3444970.0490   2   8   0.4357   0.9845   0.5899  -0.2537  -0.5966   0.2482   0.00    1.1
2173 372122.000    869160.3335  -5289360.1853   3444969.9777   2   8   0.4357   0.9844   0.5900  -0.2537  -0.5966   0.2482   0.00    1.2
2173 372123.000    869160.4189  -5289360.2326   3444969.8351   2   8   0.4356   0.9844   0.5900  -0.2536  -0.5966   0.2482   0.00    1.3
2173 372124.000    869160.3735  -5289360.3541   3444969.9692   2   8   0.4356   0.9843   0.5900  -0.2536  -0.5966   0.2482   0.00    1.2
2173 372125.000    869160.2158  -5289360.3502   3444969.8597   2   8   0.4356   0.9842   0.5901  -0.2536  -0.5966   0.2483   0.00    1.2
2173 372126.000    869160.2706  -5289360.1056   3444969.8486   2   8   0.4356   0.9842   0.5901  -0.2535  -0.5965   0.2483   0.00    1.3
2173 372127.000    869160.4279  -5289360.7519   3444970.2531   2   8   0.4356   0.9841   0.5901  -0.2535  -0.5965   0.2483   0.00    1.2
2173 372128.000    869160.4777  -5289360.2522   3444969.8904   2   8   0.4356   0.9841   0.5902  -0.2535  -0.5965   0.2483   0.00    1.2
2173 372129.000    869160.3902  -5289360.4714   3444970.1517   2   8   0.4356   0.9840   0.5902  -0.2535  -0.5965   0.2484   0.00    1.3
2173 372130.000    869160.3813  -5289360.6502   3444970.1703   2   8   0.4356   0.9840   0.5902  -0.2534  -0.5965   0.2484   0.00    1.2
2173 372131.000    869160.4527  -5289360.8782   3444970.3034   2   8   0.4356   0.9839   0.5902  -0.2534  -0.5965   0.2484   0.00    1.2
2173 372132.000    869160.5510  -5289361.0112   3444970.6063   2   8   0.4356   0.9839   0.5903  -0.2534  -0.5964   0.2484   0.00    1.0
2173 372133.000    869160.4975  -5289360.5761   3444970.3857   2   8   0.4356   0.9838   0.5903  -0.2533  -0.5964   0.2484   0.00    1.1
2173 372134.000    869160.6436  -5289360.6696   3444970.6205   2   8   0.4356   0.9837   0.5903  -0.2533  -0.5964   0.2485   0.00    1.0
2173 372135.000    869160.5645  -5289360.7901   3444970.6684   2   8   0.4356   0.9837   0.5904  -0.2533  -0.5964   0.2485   0.00    1.0
2173 372136.000    869160.6667  -5289361.2405   3444970.8896   2   8   0.4355   0.9836   0.5904  -0.2533  -0.5964   0.2485   0.00    1.0
2173 372137.000    869160.6017  -5289361.3144   3444970.8801   2   8   0.4355   0.9836   0.5904  -0.2532  -0.5964   0.2485   0.00    1.0
2173 372138.000    869160.5699  -5289361.7527   3444970.7694   2   8   0.4355   0.9835   0.5905  -0.2532  -0.5963   0.2486   0.00    1.1
2173 372139.000    869160.4748  -5289361.8322   3444970.6535   2   8   0.4355   0.9835   0.5905  -0.2532  -0.5963   0.2486   0.00    1.2
2173 372140.000    869160.5932  -5289361.8760   3444970.8868   2   8   0.4355   0.9834   0.5905  -0.2531  -0.5963   0.2486   0.00    1.0
2173 372141.000    869160.6230  -5289361.8354   3444970.8277   2   8   0.4355   0.9834   0.5906  -0.2531  -0.5963   0.2486   0.00    1.0
2173 372142.000    869160.5407  -5289361.6075   3444970.7346   2   8   0.4355   0.9833   0.5906  -0.2531  -0.5963   0.2487   0.00    1.0
2173 372143.000    869160.3489  -5289361.3311   3444970.6231   2   8   0.4355   0.9832   0.5906  -0.2530  -0.5962   0.2487   0.00    1.1
2173 372144.000    869160.4300  -5289361.0521   3444970.5231   2   8   0.4355   0.9832   0.5907  -0.2530  -0.5962   0.2487   0.00    1.0
2173 372145.000    869160.4188  -5289361.1304   3444970.4841   2   8   0.4355   0.9831   0.5907  -0.2530  -0.5962   0.2487   0.00    1.0
2173 372146.000    869160.6541  -5289361.1042   3444970.5324   2   8   0.4355   0.9831   0.5907  -0.2530  -0.5962   0.2487   0.00    1.1
2173 372147.000    869160.4770  -5289361.0650   3444970.3527   2   8   0.4355   0.9830   0.5907  -0.2529  -0.5962   0.2488   0.00    1.0
2173 372148.000    869160.4453  -5289361.3584   3444970.5728   2   8   0.4355   0.9830   0.5908  -0.2529  -0.5962   0.2488   0.00    1.1
2173 372149.000    869160.2838  -5289361.0913   3444970.5886   2   8   0.4355   0.9829   0.5908  -0.2529  -0.5961   0.2488   0.00    1.1
2173 372150.000    869160.4047  -5289361.3039   3444970.8032   2   8   0.4355   0.9829   0.5908  -0.2528  -0.5961   0.2488   0.00    1.0
2173 372151.000    869160.3989  -5289361.1151   3444970.7752   2   8   0.4354   0.9828   0.5909  -0.2528  -0.5961   0.2489   0.00    1.1
2173 372152.000    869160.4243  -5289361.1447   3444970.8514   2   8   0.4354   0.9827   0.5909  -0.2528  -0.5961   0.2489   0.00    1.1
2173 372153.000    869160.3550  -5289361.1729   3444970.9901   2   8   0.4354   0.9827   0.5909  -0.2528  -0.5961   0.2489   0.00    1.2
2173 372154.000    869160.2999  -5289360.8983   3444970.8398   2   8   0.4354   0.9826   0.5910  -0.2527  -0.5961   0.2489   0.00    1.1
2173 372155.000    869160.4626  -5289361.1563   3444970.9244   2   8   0.4354   0.9826   0.5910  -0.2527  -0.5960   0.2489   0.00    1.1
2173 372156.000    869160.5370  -5289360.8330   3444970.6378   2   8   0.4354   0.9825   0.5910  -0.2527  -0.5960   0.2490   0.00    1.1
2173 372157.000    869160.5173  -5289361.1436   3444970.9561   2   8   0.4354   0.9825   0.5911  -0.2526  -0.5960   0.2490   0.00    1.1
2173 372158.000    869160.3767  -5289360.9451   3444971.0109   2   8   0.4354   0.9824   0.5911  -0.2526  -0.5960   0.2490   0.00    1.1
2173 372159.000    869160.4328  -5289360.7233   3444970.9440   2   8   0.4354   0.9824   0.5911  -0.2526  -0.5960   0.2490   0.00    1.1
2173 372160.000    869160.4563  -5289360.9449   3444971.0080   2   8   0.4354   0.9823   0.5912  -0.2526  -0.5960   0.2491   0.00    1.2
2173 372161.000    869160.5108  -5289360.9831   3444971.0491   2   8   0.4354   0.9822   0.5912  -0.2525  -0.5959   0.2491   0.00    1.1
2173 372162.000    869160.5797  -5289361.2608   3444971.0778   2   8   0.4354   0.9822   0.5912  -0.2525  -0.5959   0.2491   0.00    1.2
2173 372163.000    869160.5420  -5289361.4152   3444971.1622   2   8   0.4354   0.9821   0.5912  -0.2525  -0.5959   0.2491   0.00    1.1
2173 372164.000    869160.4850  -5289361.5193   3444971.2243   2   8   0.4354   0.9821   0.5913  -0.2524  -0.5959   0.2492   0.00    1.1
2173 372165.000    869160.6278  -5289361.6147   3444971.2812   2   8   0.4353   0.9820   0.5913  -0.2524  -0.5959   0.2492   0.00    1.3
2173 372166.000    869160.5408  -5289361.1363   3444971.0304   2   8   0.4353   0.9820   0.5913  -0.2524  -0.5959   0.2492   0.00    1.2
2173 372167.000    869160.7203  -5289361.2431   3444970.9919   2   8   0.4353   0.9819   0.5914  -0.2524  -0.5958   0.2492   0.00    1.3
2173 372168.000    869160.6985  -5289361.7265   3444970.9747   2   8   0.4353   0.9819   0.5914  -0.2523  -0.5958   0.2493   0.00    1.2
2173 372169.000    869160.6677  -5289361.3377   3444970.8263   2   8   0.4353   0.9818   0.5914  -0.2523  -0.5958   0.2493   0.00    1.2
2173 372170.000    869160.7040  -5289361.7865   3444971.0917   2   8   0.4353   0.9817   0.5915  -0.2523  -0.5958   0.2493   0.00    1.2
2173 372171.000    869160.7058  -5289361.7888   3444971.1782   2   8   0.4353   0.9817   0.5915  -0.2522  -0.5958   0.2493   0.00    1.2
2173 372172.000    869160.7799  -5289361.9401   3444971.1101   2   8   0.4353   0.9816   0.5915  -0.2522  -0.5958   0.2493   0.00    1.2
2173 372173.000    869160.7709  -5289361.9296   3444971.3252   2   8   0.4353   0.9816   0.5916  -0.2522  -0.5957   0.2494   0.00    1.2
2173 372174.000    869160.8306  -5289361.7257   3444971.1573   2   8   0.4353   0.9815   0.5916  -0.2522  -0.5957   0.2494   0.00    1.2
2173 372175.000    869160.4641  -5289361.6190   3444971.0012   2   8   0.4353   0.9815   0.5916  -0.2521  -0.5957   0.2494   0.00    1.2
2173 372176.000    869160.4041  -5289361.6074   3444970.9133   2   8   0.4353   0.9814   0.5917  -0.2521  -0.5957   0.2494   0.00    1.2
2173 372177.000    869160.3995  -5289361.1432   3444970.8405   2   8   0.4353   0.9814   0.5917  -0.2521  -0.5957   0.2495   0.00    1.2
2173 372178.000    869160.6581  -5289361.3432   3444971.0063   2   8   0.4353   0.9813   0.5917  -0.2521  -0.5957   0.2495   0.00    1.3
2173 372179.000    869160.6617  -5289361.6090   3444971.1914   2   8   0.4353   0.9812   0.5918  -0.2520  -0.5956   0.2495   0.00    1.2
2173 372180.000    869160.5816  -5289361.4310   3444971.2113   2   8   0.4352   0.9812   0.5918  -0.2520  -0.5956   0.2495   0.00    1.3
2173 372181.000    869160.4593  -5289361.5537   3444971.0540   2   8   0.4352   0.9811   0.5918  -0.2520  -0.5956   0.2496   0.00    1.3
2173 372182.000    869160.6549  -5289361.6472   3444971.2204   2   8   0.4352   0.9811   0.5919  -0.2519  -0.5956   0.2496   0.00    1.3
2173 372183.000    869160.5995  -5289361.7078   3444971.3938   2   8   0.4352   0.9810   0.5919  -0.2519  -0.5956   0.2496   0.00    1.4
2173 372184.000    869160.5510  -5289361.5891   3444971.0735   2   8   0.4352   0.9810   0.5919  -0.2519  -0.5956   0.2496   0.00    1.3
2173 372185.000    869160.6036  -5289361.5703   3444970.9079   2   8   0.4352   0.9809   0.5920  -0.2519  -0.5955   0.2497   0.00    1.3
2173 372186.000    869160.6077  -5289361.1976   3444970.6677   2   8   0.4352   0.9809   0.5920  -0.2518  -0.5955   0.2497   0.00    1.3
2173 372187.000    869160.6616  -5289361.4339   3444970.9900   2   8   0.4352   0.9808   0.5920  -0.2518  -0.5955   0.2497   0.00    1.1
2173 372188.000    869160.5354  -5289361.6563   3444970.9572   2   8   0.4352   0.9808   0.5921  -0.2518  -0.5955   0.2497   0.00    1.1
2173 372189.000    869160.4954  -5289361.0927   3444970.4186   2   8   0.4352   0.9807   0.5921  -0.2517  -0.5955   0.2498   0.00    1.3
2173 372190.000    869160.2773  -5289360.9991   3444970.4293   2   8   0.4352   0.9806   0.5921  -0.2517  -0.5955   0.2498   0.00    1.3
2173 372191.000    869160.1492  -5289360.7083   3444970.3681   2   8   0.4352   0.9806   0.5922  -0.2517  -0.5954   0.2498   0.00    1.2
2173 372192.000    869160.0804  -5289360.7128   3444970.5438   2   8   0.4352   0.9805   0.5922  -0.2517  -0.5954   0.2498   0.00    1.2
2173 372193.000    869160.0565  -5289360.8003   3444970.5308   2   8   0.4352   0.9805   0.5922  -0.2516  -0.5954   0.2498   0.00    1.2
2173 372194.000    869160.0130  -5289360.8152   3444970.4330   2   8   0.4352   0.9804   0.5923  -0.2516  -0.5954   0.2499   0.00    1.1
2173 372195.000    869160.0231  -5289360.5814   3444970.5348   2   8   0.4352   0.9804   0.5923  -0.2516  -0.5954   0.2499   0.00    1.1
2173 372196.000    869160.0149  -5289360.4949   3444970.5400   2   8   0.4351   0.9803   0.5923  -0.2516  -0.5954   0.2499   0.00    1.2
2173 372197.000    869160.0333  -5289360.4581   3444970.6121   2   8   0.4351   0.9803   0.5924  -0.2515  -0.5953   0.2499   0.00    1.0
2173 372198.000    869160.0224  -5289360.3742   3444970.7096   2   8   0.4351   0.9802   0.5924  -0.2515  -0.5953   0.2500   0.00    1.1
2173 372199.000    869160.0881  -5289360.4373   3444970.6265   2   8   0.4351   0.9801   0.5924  -0.2515  -0.5953   0.2500   0.00    1.2
2173 372200.000    869160.1460  -5289360.7484   3444970.8206   2   8   0.4351   0.9801   0.5925  -0.2514  -0.5953   0.2500   0.00    1.1
2173 372201.000    869160.1781  -5289360.5629   3444970.8471   2   8   0.4351   0.9800   0.5925  -0.2514  -0.5953   0.2500   0.00    1.1
2173 372202.000    869160.0643  -5289360.7687   3444970.8945   2   8   0.4351   0.9800   0.5925  -0.2514  -0.5953   0.2501   0.00    1.1
2173 372203.000    869160.1166  -5289360.5177   3444970.8929   2   8   0.4351   0.9799   0.5926  -0.2514  -0.5952   0.2501   0.00    1.1
2173 372204.000    869160.2341  -5289360.8243   3444971.1658   2   8   0.4351   0.9799   0.5926  -0.2513  -0.5952   0.2501   0.00    1.2
2173 372205.000    869160.0802  -5289360.8248   3444971.0974   2   8   0.4351   0.9798   0.5926  -0.2513  -0.5952   0.2501   0.00    1.1
2173 372206.000    869160.0071  -5289360.9810   3444971.0347   2   8   0.4351   0.9798   0.5927  -0.2513  -0.5952   0.2502   0.00    1.2
2173 372207.000    869160.0315  -5289361.1945   3444971.2091   2   8   0.4351   0.9797   0.5927  -0.2513  -0.5952   0.2502   0.00    1.2
2173 372208.000    869159.9008  -5289360.8827   3444971.0462   2   8   0.4351   0.9796   0.5927  -0.2512  -0.5952   0.2502   0.00    1.2
2173 372209.000    869159.9339  -5289360.5795   3444970.8382   2   8   0.4351   0.9796   0.5928  -0.2512  -0.5951   0.2502   0.00    1.2
2173 372210.000    869159.9944  -5289360.8667   3444971.0171   2   8   0.4351   0.9795   0.5928  -0.2512  -0.5951   0.2503   0.00    1.2
2173 372211.000    869160.1099  -5289360.7789   3444970.8416   2   8   0.4351   0.9795   0.5928  -0.2511  -0.5951   0.2503   0.00    1.3
2173 372212.000    869160.0431  -5289360.6318   3444970.8484   2   8   0.4350   0.9794   0.5929  -0.2511  -0.5951   0.2503   0.00    1.3
2173 372213.000    869159.9935  -5289360.4549   3444970.7957   2   8   0.4350   0.9794   0.5929  -0.2511  -0.5951   0.2503   0.00    1.4
2173 372214.000    869159.9264  -5289360.7665   3444970.8649   2   8   0.4350   0.9793   0.5929  -0.2511  -0.5951   0.2504   0.00    1.3
2173 372215.000    869160.0798  -5289360.5844   3444970.6561   2   8   0.4350   0.9793   0.5930  -0.2510  -0.5950   0.2504   0.00    1.2
2173 372216.000    869160.0394  -5289360.1730   3444970.4842   2   8   0.4350   0.9792   0.5930  -0.2510  -0.5950   0.2504   0.00    1.3
2173 372217.000    869160.0392  -5289360.0942   3444970.4591   2   8   0.4350   0.9791   0.5930  -0.2510  -0.5950   0.2504   0.00    1.2
2173 372218.000    869160.1897  -5289360.5257   3444970.6423   2   8   0.4350   0.9791   0.5931  -0.2510  -0.5950   0.2505   0.00    1.4
2173 372219.000    869160.2249  -5289360.3262   3444970.7669   2   8   0.4350   0.9790   0.5931  -0.2509  -0.5950   0.2505   0.00    1.2
2173 372220.000    869160.2805  -5289360.2357   3444970.6197   2   8   0.4350   0.9790   0.5931  -0.2509  -0.5950   0.2505   0.00    1.4
2173 372221.000    869160.1490  -5289360.4813   3444970.8074   2   8   0.4350   0.9789   0.5932  -0.2509  -0.5949   0.2505   0.00    1.5
2173 372222.000    869160.2525  -5289360.9367   3444970.8087   2   8   0.4350   0.9789   0.5932  -0.2509  -0.5949   0.2506   0.00    1.3
2173 372223.000    869160.2918  -5289360.7037   3444970.5891   2   8   0.4350   0.9788   0.5932  -0.2508  -0.5949   0.2506   0.00    1.3
2173 372224.000    869160.3047  -5289361.0235   3444970.7410   2   8   0.4350   0.9788   0.5933  -0.2508  -0.5949   0.2506   0.00    1.5
2173 372225.000    869160.3449  -5289360.8549   3444970.8713   2   8   0.4350   0.9787   0.5933  -0.2508  -0.5949   0.2506   0.00    1.4
