% program   : rnx2rtkp ver.2.4.3 b31
% inp file  : ngs/21_08_29_06_57_52_mifw.obs
% inp file  : ngs/21_08_29_06_57_52_mifw_VZ.obs
% inp file  : ngs/21_08_29_06_57_52_brdc.nav
% obs start : 2021/08/29 06:00:00.0 GPST (week2173  21600.0s)
% obs end   : 2021/08/29 06:59:59.0 GPST (week2173  25199.0s)
% ref pos   :   569137.7662  -4692048.7594   4268537.0714
%
% (x/y/z-ecef=WGS84,Q=1:fix,2:float,3:sbas,4:dgps,5:single,6:ppp,ns=# of satellites)
%  GPST              x-ecef(m)      y-ecef(m)      z-ecef(m)   Q  ns   sdx(m)   sdy(m)   sdz(m)  sdxy(m)  sdyz(m)  sdzx(m) age(s)  ratio
2173  25061.000    568227.7886  -4690530.5612   4270317.3630   2   5   0.5505   1.1304   1.0659   0.1906  -0.9004  -0.4018 -30.00    1.2
2173  25062.000    568227.7936  -4690530.5466   4270317.3563   2   5   0.3913   0.8033   0.7574   0.1348  -0.6396  -0.2854 -29.00    1.2
2173  25063.000    568227.7992  -4690530.5425   4270317.3514   2   5   0.3203   0.6576   0.6200   0.1101  -0.5235  -0.2336 -28.00    1.1
2173  25064.000    568227.8011  -4690530.5442   4270317.3566   2   5   0.2779   0.5706   0.5378   0.0954  -0.4542  -0.2027 -27.00    1.1
2173  25065.000    568227.8011  -4690530.5502   4270317.3615   2   5   0.2490   0.5110   0.4817   0.0853  -0.4068  -0.1815 -26.00    1.0
2173  25066.000    568227.8013  -4690530.5497   4270317.3626   2   5   0.2275   0.4670   0.4401   0.0779  -0.3717  -0.1658 -25.00    1.0
2173  25067.000    568227.7972  -4690530.5577   4270317.3684   2   5   0.2108   0.4327   0.4077   0.0720  -0.3444  -0.1536 -24.00    1.1
2173  25068.000    568227.8010  -4690530.5492   4270317.3619   2   5   0.1974   0.4050   0.3816   0.0673  -0.3223  -0.1438 -23.00    1.1
2173  25069.000    568227.8002  -4690530.5544   4270317.3658   2   5   0.1862   0.3820   0.3598   0.0633  -0.3040  -0.1356 -22.00    1.1
2173  25070.000    568227.8004  -4690530.5549   4270317.3680   2   5   0.1767   0.3625   0.3414   0.0600  -0.2884  -0.1286 -21.00    1.2
2173  25071.000    568227.8039  -4690530.5545   4270317.3642   2   5   0.1685   0.3457   0.3255   0.0570  -0.2750  -0.1226 -20.00    1.2
2173  25072.000    568227.8039  -4690530.5529   4270317.3638   2   5   0.1613   0.3309   0.3116   0.0544  -0.2632  -0.1173 -19.00    1.3
2173  25073.000    568227.8043  -4690530.5506   4270317.3638   2   5   0.1550   0.3179   0.2993   0.0521  -0.2528  -0.1127 -18.00    1.3
2173  25074.000    568227.8057  -4690530.5470   4270317.3610   2   5   0.1493   0.3062   0.2882   0.0501  -0.2435  -0.1085 -17.00    1.4
2173  25075.000    568227.8083  -4690530.5389   4270317.3523   2   5   0.1442   0.2957   0.2783   0.0482  -0.2351  -0.1048 -16.00    1.4
2173  25076.000    568227.8065  -4690530.5440   4270317.3588   2   5   0.1396   0.2862   0.2693   0.0465  -0.2275  -0.1013 -15.00    1.4
2173  25077.000    568227.8086  -4690530.5418   4270317.3582   2   5   0.1354   0.2775   0.2611   0.0449  -0.2205  -0.0982 -14.00    1.5
2173  25078.000    568227.8093  -4690530.5425   4270317.3542   2   5   0.1315   0.2695   0.2535   0.0435  -0.2141  -0.0954 -13.00    1.5
2173  25079.000    568227.8111  -4690530.5467   4270317.3546   2   5   0.1279   0.2621   0.2466   0.0421  -0.2082  -0.0927 -12.00    1.6
2173  25080.000    568227.8107  -4690530.5556   4270317.3619   2   5   0.1246   0.2553   0.2401   0.0409  -0.2028  -0.0903 -11.00    1.8
2173  25081.000    568227.8113  -4690530.5563   4270317.3653   2   5   0.1216   0.2490   0.2341   0.0397  -0.1977  -0.0880 -10.00    2.0
2173  25082.000    568227.8119  -4690530.5651   4270317.3702   2   5   0.1187   0.2431   0.2286   0.0386  -0.1930  -0.0859  -9.00    2.0
2173  25083.000    568227.8130  -4690530.5657   4270317.3734   2   5   0.1161   0.2376   0.2233   0.0376  -0.1885  -0.0839  -8.00    1.9
2173  25084.000    568227.8137  -4690530.5696   4270317.3802   2   5   0.1136   0.2324   0.2185   0.0366  -0.1844  -0.0821  -7.00    1.7
2173  25085.000    568227.8156  -4690530.5720   4270317.3805   2   5   0.1112   0.2276   0.2139   0.0357  -0.1805  -0.0803  -6.00    1.4
2173  25086.000    568227.8152  -4690530.5747   4270317.3889   2   5   0.1090   0.2230   0.2095   0.0349  -0.1769  -0.0787  -5.00    1.1
2173  25087.000    568227.8134  -4690530.5779   4270317.3962   2   5   0.1069   0.2187   0.2055   0.0341  -0.1734  -0.0771  -4.00    1.1
2173  25088.000    568227.8130  -4690530.5804   4270317.4047   2   5   0.1050   0.2147   0.2016   0.0333  -0.1702  -0.0757  -3.00    1.5
2173  25089.000    568227.8110  -4690530.5858   4270317.4153   2   5   0.1031   0.2109   0.1980   0.0326  -0.1671  -0.0743  -2.00    2.2
2173  25090.000    568227.8122  -4690530.5830   4270317.4156   2   5   0.1014   0.2073   0.1946   0.0319  -0.1642  -0.0730  -1.00    3.0
2173  25091.000    568227.8499  -4690530.7070   4270317.4051   1   5   0.0055   0.0113   0.0106   0.0015  -0.0090  -0.0040   0.00    3.4
2173  25092.000    568227.8482  -4690530.7098   4270317.4113   1   5   0.0056   0.0113   0.0107   0.0017  -0.0090  -0.0040   0.00    3.7
2173  25093.000    568227.8478  -4690530.7065   4270317.4063   1   5   0.0056   0.0113   0.0107   0.0020  -0.0089  -0.0041   0.00    3.8
2173  25094.000    568227.8522  -4690530.7121   4270317.4034   1   5   0.0055   0.0113   0.0106   0.0018  -0.0090  -0.0040   0.00    4.1
2173  25095.000    568227.8483  -4690530.7180   4270317.4104   1   5   0.0058   0.0114   0.0106   0.0015  -0.0090  -0.0041   0.00    4.3
2173  25096.000    568227.8522  -4690530.7108   4270317.4051   1   5   0.0056   0.0113   0.0107   0.0018  -0.0090  -0.0039   0.00    4.5
2173  25097.000    568227.8519  -4690530.7081   4270317.4087   1   5   0.0056   0.0113   0.0106   0.0017  -0.0090  -0.0040   0.00    4.5
2173  25098.000    568227.8540  -4690530.7184   4270317.4117   1   5   0.0056   0.0113   0.0107   0.0017  -0.0090  -0.0040   0.00    4.6
2173  25099.000    568227.8492  -4690530.7151   4270317.4120   1   5   0.0055   0.0113   0.0106   0.0016  -0.0090  -0.0042   0.00    4.8
2173  25100.000    568227.8520  -4690530.7127   4270317.4134   1   5   0.0054   0.0113   0.0106   0.0018  -0.0089  -0.0039   0.00    4.9
2173  25101.000    568227.8537  -4690530.7056   4270317.4055   1   5   0.0056   0.0113   0.0106   0.0017  -0.0090  -0.0042   0.00    5.1
2173  25102.000    568227.8512  -4690530.7192   4270317.4139   1   5   0.0056   0.0113   0.0106   0.0018  -0.0089  -0.0041   0.00    5.2
2173  25103.000    568227.8547  -4690530.7201   4270317.4133   1   5   0.0056   0.0113   0.0107   0.0015  -0.0090  -0.0037   0.00    5.3
2173  25104.000    568227.8530  -4690530.7200   4270317.4094   1   5   0.0053   0.0113   0.0106   0.0019  -0.0089  -0.0041   0.00    5.3
2173  25105.000    568227.8555  -4690530.7210   4270317.4132   1   5   0.0055   0.0113   0.0106   0.0015  -0.0090  -0.0041   0.00    5.2
2173  25106.000    568227.8545  -4690530.7165   4270317.4080   1   5   0.0053   0.0113   0.0107   0.0016  -0.0090  -0.0041   0.00    5.3
2173  25107.000    568227.8540  -4690530.7096   4270317.4077   1   5   0.0056   0.0113   0.0106   0.0018  -0.0090  -0.0041   0.00    5.4
2173  25108.000    568227.8511  -4690530.7139   4270317.4153   1   5   0.0055   0.0113   0.0106   0.0017  -0.0090  -0.0039   0.00    5.6
2173  25109.000    568227.8567  -4690530.7161   4270317.4069   1   5   0.0055   0.0113   0.0106   0.0017  -0.0090  -0.0041   0.00    5.9
2173  25110.000    568227.8541  -4690530.7180   4270317.4120   1   5   0.0057   0.0113   0.0106   0.0017  -0.0090  -0.0041   0.00    6.0
2173  25111.000    568227.8560  -4690530.7198   4270317.4106   1   5   0.0053   0.0113   0.0106   0.0016  -0.0090  -0.0043   0.00    6.2
2173  25112.000    568227.8540  -4690530.7198   4270317.4135   1   5   0.0055   0.0113   0.0107   0.0017  -0.0089  -0.0040   0.00    6.4
2173  25113.000    568227.8563  -4690530.7189   4270317.4117   1   5   0.0056   0.0113   0.0106   0.0017  -0.0089  -0.0039   0.00    6.7
2173  25114.000    568227.8501  -4690530.7166   4270317.4172   1   5   0.0057   0.0113   0.0106   0.0014  -0.0090  -0.0040   0.00    6.9
2173  25115.000    568227.8514  -4690530.7162   4270317.4166   1   5   0.0058   0.0113   0.0106   0.0017  -0.0090  -0.0038   0.00    7.0
2173  25116.000    568227.8527  -4690530.7162   4270317.4147   1   5   0.0054   0.0113   0.0107   0.0020  -0.0089  -0.0040   0.00    7.1
2173  25117.000    568227.8519  -4690530.7134   4270317.4124   1   5   0.0054   0.0113   0.0105   0.0017  -0.0090  -0.0041   0.00    7.4
2173  25118.000    568227.8503  -4690530.7164   4270317.4182   1   5   0.0057   0.0113   0.0105   0.0016  -0.0090  -0.0043   0.00    7.5
2173  25119.000    568227.8526  -4690530.7147   4270317.4144   1   5   0.0056   0.0113   0.0106   0.0016  -0.0090  -0.0041   0.00    7.6
2173  25120.000    568227.8530  -4690530.7182   4270317.4146   1   5   0.0054   0.0113   0.0107   0.0019  -0.0089  -0.0038   0.00    7.8
2173  25121.000    568227.8553  -4690530.7212   4270317.4153   1   5   0.0056   0.0113   0.0106   0.0018  -0.0089  -0.0037   0.00    7.9
2173  25122.000    568227.8547  -4690530.7267   4270317.4193   1   5   0.0056   0.0113   0.0106   0.0014  -0.0089  -0.0039   0.00    8.0
2173  25123.000    568227.8541  -4690530.7219   4270317.4162   1   5   0.0053   0.0113   0.0105   0.0017  -0.0089  -0.0044   0.00    8.1
2173  25124.000    568227.8524  -4690530.7226   4270317.4158   1   5   0.0053   0.0113   0.0106   0.0017  -0.0089  -0.0041   0.00    8.2
2173  25125.000    568227.8519  -4690530.7210   4270317.4224   1   5   0.0055   0.0113   0.0106   0.0019  -0.0089  -0.0041   0.00    8.4
2173  25126.000    568227.8518  -4690530.7216   4270317.4193   1   5   0.0057   0.0113   0.0105   0.0015  -0.0090  -0.0042   0.00    8.5
2173  25127.000    568227.8547  -4690530.7218   4270317.4180   1   5   0.0054   0.0113   0.0106   0.0016  -0.0089  -0.0039   0.00    8.6
2173  25128.000    568227.8522  -4690530.7232   4270317.4216   1   5   0.0057   0.0113   0.0106   0.0016  -0.0089  -0.0040   0.00    8.8
2173  25129.000    568227.8523  -4690530.7216   4270317.4189   1   5   0.0053   0.0113   0.0106   0.0016  -0.0089  -0.0041   0.00    8.8
2173  25130.000    568227.8548  -4690530.7217   4270317.4148   1   5   0.0054   0.0113   0.0106   0.0015  -0.0089  -0.0040   0.00    8.9
2173  25131.000    568227.8521  -4690530.7209   4270317.4176   1   5   0.0056   0.0113   0.0106   0.0018  -0.0089  -0.0039   0.00    8.9
2173  25132.000    568227.8530  -4690530.7232   4270317.4220   1   5   0.0058   0.0113   0.0106   0.0013  -0.0089  -0.0041   0.00    8.9
2173  25133.000    568227.8542  -4690530.7166   4270317.4157   1   5   0.0054   0.0113   0.0105   0.0017  -0.0089  -0.0041   0.00    8.8
2173  25134.000    568227.8501  -4690530.7264   4270317.4232   1   5   0.0058   0.0113   0.0106   0.0013  -0.0089  -0.0038   0.00    8.8
2173  25135.000    568227.8514  -4690530.7273   4270317.4230   1   5   0.0054   0.0113   0.0105   0.0014  -0.0089  -0.0040   0.00    8.7
2173  25136.000    568227.8500  -4690530.7186   4270317.4200   1   5   0.0055   0.0113   0.0106   0.0016  -0.0089  -0.0040   0.00    8.7
2173  25137.000    568227.8496  -4690530.7280   4270317.4234   1   5   0.0056   0.0113   0.0106   0.0015  -0.0089  -0.0039   0.00    8.7
2173  25138.000    568227.8509  -4690530.7237   4270317.4251   1   5   0.0055   0.0113   0.0106   0.0017  -0.0089  -0.0040   0.00    8.7
2173  25139.000    568227.8513  -4690530.7235   4270317.4223   1   5   0.0054   0.0113   0.0106   0.0017  -0.0089  -0.0039   0.00    8.7
2173  25140.000    568227.8490  -4690530.7266   4270317.4233   1   5   0.0056   0.0113   0.0105   0.0013  -0.0089  -0.0041   0.00    8.6
2173  25141.000    568227.8504  -4690530.7201   4270317.4220   1   5   0.0055   0.0113   0.0105   0.0014  -0.0089  -0.0042   0.00    8.7
2173  25142.000    568227.8522  -4690530.7254   4270317.4217   1   5   0.0057   0.0113   0.0106   0.0016  -0.0089  -0.0036   0.00    8.7
2173  25143.000    568227.8495  -4690530.7245   4270317.4220   1   5   0.0056   0.0113   0.0106   0.0015  -0.0089  -0.0039   0.00    8.7
2173  25144.000    568227.8480  -4690530.7227   4270317.4241   1   5   0.0056   0.0113   0.0105   0.0012  -0.0089  -0.0040   0.00    8.7
2173  25145.000    568227.8522  -4690530.7163   4270317.4202   1   5   0.0056   0.0113   0.0106   0.0017  -0.0089  -0.0039   0.00    8.7
2173  25146.000    568227.8484  -4690530.7260   4270317.4271   1   5   0.0055   0.0113   0.0105   0.0013  -0.0089  -0.0042   0.00    8.7
2173  25147.000    568227.8521  -4690530.7211   4270317.4237   1   5   0.0055   0.0113   0.0106   0.0017  -0.0088  -0.0038   0.00    8.8
2173  25148.000    568227.8494  -4690530.7142   4270317.4229   1   5   0.0056   0.0113   0.0106   0.0015  -0.0089  -0.0040   0.00    8.8
2173  25149.000    568227.8484  -4690530.7249   4270317.4237   1   5   0.0056   0.0113   0.0105   0.0016  -0.0089  -0.0041   0.00    8.8
2173  25150.000    568227.8485  -4690530.7166   4270317.4240   1   5   0.0055   0.0113   0.0106   0.0012  -0.0089  -0.0041   0.00    8.9
2173  25151.000    568227.8458  -4690530.7227   4270317.4287   1   5   0.0056   0.0113   0.0105   0.0015  -0.0089  -0.0039   0.00    9.1
2173  25152.000    568227.8445  -4690530.7280   4270317.4321   1   5   0.0056   0.0113   0.0106   0.0012  -0.0089  -0.0039   0.00    9.2
2173  25153.000    568227.8489  -4690530.7181   4270317.4244   1   5   0.0054   0.0113   0.0106   0.0015  -0.0089  -0.0038   0.00    9.4
2173  25154.000    568227.8464  -4690530.7232   4270317.4282   1   5   0.0057   0.0113   0.0106   0.0016  -0.0088  -0.0038   0.00    9.5
2173  25155.000    568227.8484  -4690530.7235   4270317.4278   1   5   0.0056   0.0113   0.0106   0.0014  -0.0089  -0.0038   0.00    9.5
2173  25156.000    568227.8455  -4690530.7235   4270317.4252   1   5   0.0054   0.0113   0.0106   0.0019  -0.0088  -0.0041   0.00    9.6
2173  25157.000    568227.8490  -4690530.7170   4270317.4222   1   5   0.0054   0.0112   0.0106   0.0017  -0.0088  -0.0037   0.00    9.6
2173  25158.000    568227.8463  -4690530.7224   4270317.4254   1   5   0.0056   0.0112   0.0105   0.0014  -0.0089  -0.0041   0.00    9.8
2173  25159.000    568227.8486  -4690530.7204   4270317.4235   1   5   0.0054   0.0113   0.0105   0.0013  -0.0089  -0.0039   0.00    9.9
2173  25160.000    568227.8478  -4690530.7189   4270317.4223   1   5   0.0056   0.0112   0.0105   0.0016  -0.0088  -0.0040   0.00   10.1
2173  25161.000    568227.8496  -4690530.7193   4270317.4216   1   5   0.0055   0.0112   0.0106   0.0017  -0.0088  -0.0038   0.00   10.3
2173  25162.000    568227.8470  -4690530.7230   4270317.4272   1   5   0.0056   0.0113   0.0106   0.0012  -0.0088  -0.0039   0.00   10.5
2173  25163.000    568227.8462  -4690530.7213   4270317.4264   1   5   0.0055   0.0113   0.0105   0.0012  -0.0089  -0.0038   0.00   10.7
2173  25164.000    568227.8484  -4690530.7215   4270317.4245   1   5   0.0055   0.0112   0.0105   0.0014  -0.0089  -0.0040   0.00   10.9
2173  25165.000    568227.8469  -4690530.7228   4270317.4290   1   5   0.0054   0.0113   0.0105   0.0015  -0.0088  -0.0039   0.00   11.1
2173  25166.000    568227.8455  -4690530.7190   4270317.4248   1   5   0.0056   0.0112   0.0105   0.0016  -0.0089  -0.0039   0.00   11.4
2173  25167.000    568227.8466  -4690530.7185   4270317.4252   1   5   0.0057   0.0113   0.0106   0.0016  -0.0088  -0.0037   0.00   11.7
2173  25168.000    568227.8426  -4690530.7244   4270317.4307   1   5   0.0055   0.0113   0.0105   0.0013  -0.0088  -0.0042   0.00   12.0
2173  25169.000    568227.8487  -4690530.7194   4270317.4249   1   5   0.0057   0.0113   0.0106   0.0015  -0.0088  -0.0038   0.00   12.3
2173  25170.000    568227.8500  -4690530.7206   4270317.4218   1   5   0.0052   0.0112   0.0105   0.0013  -0.0088  -0.0038   0.00   12.5
2173  25171.000    568227.8465  -4690530.7229   4270317.4244   1   5   0.0056   0.0113   0.0105   0.0016  -0.0088  -0.0038   0.00   12.7
2173  25172.000    568227.8463  -4690530.7230   4270317.4271   1   5   0.0055   0.0113   0.0106   0.0014  -0.0088  -0.0039   0.00   12.9
2173  25173.000    568227.8493  -4690530.7243   4270317.4255   1   5   0.0059   0.0112   0.0106   0.0008  -0.0089  -0.0038   0.00   13.2
2173  25174.000    568227.8474  -4690530.7241   4270317.4281   1   5   0.0057   0.0112   0.0105   0.0015  -0.0089  -0.0040   0.00   13.3
2173  25175.000    568227.8479  -4690530.7243   4270317.4307   1   5   0.0054   0.0113   0.0105   0.0013  -0.0088  -0.0039   0.00   13.5
2173  25176.000    568227.8449  -4690530.7230   4270317.4312   1   5   0.0056   0.0112   0.0105   0.0014  -0.0088  -0.0038   0.00   13.7
2173  25177.000    568227.8454  -4690530.7195   4270317.4270   1   5   0.0057   0.0112   0.0105   0.0012  -0.0088  -0.0038   0.00   14.0
2173  25178.000    568227.8447  -4690530.7263   4270317.4327   1   5   0.0055   0.0113   0.0105   0.0017  -0.0088  -0.0037   0.00   14.2
2173  25179.000    568227.8476  -4690530.7209   4270317.4309   1   5   0.0055   0.0112   0.0105   0.0016  -0.0088  -0.0039   0.00   14.4
2173  25180.000    568227.8457  -4690530.7184   4270317.4286   1   5   0.0053   0.0112   0.0106   0.0016  -0.0088  -0.0036   0.00   14.7
2173  25181.000    568227.8454  -4690530.7211   4270317.4280   1   5   0.0055   0.0113   0.0104   0.0017  -0.0088  -0.0038   0.00   14.9
2173  25182.000    568227.8443  -4690530.7226   4270317.4276   1   5   0.0056   0.0113   0.0104   0.0010  -0.0088  -0.0041   0.00   15.1
2173  25183.000    568227.8454  -4690530.7242   4270317.4284   1   5   0.0055   0.0112   0.0105   0.0013  -0.0088  -0.0038   0.00   15.4
2173  25184.000    568227.8469  -4690530.7271   4270317.4307   1   5   0.0059   0.0112   0.0106   0.0013  -0.0088  -0.0038   0.00   15.6
2173  25185.000    568227.8469  -4690530.7247   4270317.4281   1   5   0.0056   0.0112   0.0104   0.0011  -0.0088  -0.0041   0.00   15.8
2173  25186.000    568227.8458  -4690530.7290   4270317.4337   1   5   0.0054   0.0112   0.0105   0.0015  -0.0088  -0.0039   0.00   15.9
2173  25187.000    568227.8440  -4690530.7281   4270317.4347   1   5   0.0057   0.0112   0.0105   0.0011  -0.0088  -0.0040   0.00   16.1
2173  25188.000    568227.8465  -4690530.7281   4270317.4323   1   5   0.0054   0.0112   0.0104   0.0012  -0.0088  -0.0039   0.00   16.2
2173  25189.000    568227.8474  -4690530.7217   4270317.4312   1   5   0.0055   0.0112   0.0104   0.0013  -0.0088  -0.0040   0.00   16.4
2173  25190.000    568227.8479  -4690530.7252   4270317.4323   1   5   0.0057   0.0112   0.0106   0.0017  -0.0088  -0.0037   0.00   16.6
2173  25191.000    568227.8431  -4690530.7234   4270317.4358   1   5   0.0055   0.0112   0.0105   0.0010  -0.0088  -0.0038   0.00   16.7
2173  25192.000    568227.8446  -4690530.7225   4270317.4332   1   5   0.0058   0.0112   0.0105   0.0014  -0.0088  -0.0039   0.00   16.9
2173  25193.000    568227.8431  -4690530.7244   4270317.4335   1   5   0.0054   0.0112   0.0105   0.0015  -0.0088  -0.0039   0.00   17.0
2173  25194.000    568227.8458  -4690530.7285   4270317.4361   1   5   0.0053   0.0112   0.0106   0.0011  -0.0088  -0.0037   0.00   17.2
2173  25195.000    568227.8469  -4690530.7265   4270317.4310   1   5   0.0056   0.0112   0.0105   0.0009  -0.0088  -0.0039   0.00   17.3
2173  25196.000    568227.8429  -4690530.7293   4270317.4325   1   5   0.0052   0.0112   0.0104   0.0014  -0.0088  -0.0039   0.00   17.4
2173  25197.000    568227.8437  -4690530.7296   4270317.4396   1   5   0.0054   0.0112   0.0105   0.0014  -0.0088  -0.0040   0.00   17.6
2173  25198.000    568227.8435  -4690530.7247   4270317.4339   1   5   0.0055   0.0112   0.0104   0.0015  -0.0088  -0.0038   0.00   17.7
2173  25199.000    568227.8453  -4690530.7256   4270317.4329   1   5   0.0056   0.0112   0.0105   0.0011  -0.0088  -0.0037   0.00   17.8
