% program   : rnx2rtkp ver.2.4.3 b31
% inp file  : ngs/21_09_01_06_11_30_idpo.obs
% inp file  : ngs/21_09_01_06_11_30_idpo_VZ.obs
% inp file  : ngs/21_09_01_06_11_30_brdc.nav
% obs start : 2021/09/01 06:00:00.0 GPST (week2173 280800.0s)
% obs end   : 2021/09/01 06:59:59.0 GPST (week2173 284399.0s)
% ref pos   : -1741356.4839  -4295580.2759   4368754.4890
%
% (x/y/z-ecef=WGS84,Q=1:fix,2:float,3:sbas,4:dgps,5:single,6:ppp,ns=# of satellites)
%  GPST              x-ecef(m)      y-ecef(m)      z-ecef(m)   Q  ns   sdx(m)   sdy(m)   sdz(m)  sdxy(m)  sdyz(m)  sdzx(m) age(s)  ratio
2173 281469.000  -1787004.7627  -4328786.1228   4317505.2893   2   8   0.5318   0.8283   0.7366   0.5132  -0.6074  -0.3872 -30.00    1.1
2173 281470.000  -1787004.7029  -4328785.9715   4317505.2714   2   8   0.3781   0.5896   0.5242   0.3648  -0.4324  -0.2750 -29.00    1.1
2173 281471.000  -1787004.6967  -4328785.9980   4317505.2591   2   8   0.3095   0.4828   0.4292   0.2986  -0.3541  -0.2251 -28.00    1.1
2173 281472.000  -1787004.6808  -4328786.0740   4317505.3421   2   8   0.2685   0.4189   0.3724   0.2590  -0.3072  -0.1953 -27.00    1.1
2173 281473.000  -1787004.6945  -4328786.1059   4317505.3706   2   8   0.2405   0.3751   0.3335   0.2320  -0.2751  -0.1750 -26.00    1.0
2173 281474.000  -1787004.6970  -4328786.1113   4317505.4006   2   8   0.2198   0.3428   0.3047   0.2120  -0.2514  -0.1599 -25.00    1.0
2173 281475.000  -1787004.7032  -4328786.1364   4317505.4894   2   8   0.2036   0.3176   0.2823   0.1964  -0.2329  -0.1482 -24.00    1.0
2173 281476.000  -1787004.6857  -4328786.1520   4317505.4945   2   8   0.1906   0.2973   0.2642   0.1838  -0.2180  -0.1387 -23.00    1.0
2173 281477.000  -1787004.6754  -4328786.1519   4317505.5324   2   8   0.1797   0.2804   0.2491   0.1734  -0.2056  -0.1308 -22.00    1.1
2173 281478.000  -1787004.6746  -4328786.1559   4317505.5313   2   8   0.1706   0.2661   0.2364   0.1645  -0.1951  -0.1241 -21.00    1.1
2173 281479.000  -1787004.6575  -4328786.1577   4317505.5534   2   8   0.1626   0.2537   0.2254   0.1569  -0.1861  -0.1184 -20.00    1.0
2173 281480.000  -1787004.6740  -4328786.1647   4317505.5446   2   8   0.1557   0.2430   0.2158   0.1502  -0.1781  -0.1134 -19.00    1.1
2173 281481.000  -1787004.6852  -4328786.1983   4317505.5708   2   8   0.1496   0.2334   0.2073   0.1443  -0.1711  -0.1089 -18.00    1.2
2173 281482.000  -1787004.6915  -4328786.2020   4317505.5796   2   8   0.1441   0.2249   0.1997   0.1390  -0.1649  -0.1049 -17.00    1.3
2173 281483.000  -1787004.7017  -4328786.2375   4317505.6110   2   8   0.1392   0.2173   0.1929   0.1342  -0.1593  -0.1013 -16.00    1.4
2173 281484.000  -1787004.6988  -4328786.2696   4317505.6476   2   8   0.1347   0.2103   0.1867   0.1299  -0.1542  -0.0981 -15.00    1.4
2173 281485.000  -1787004.7058  -4328786.2599   4317505.6407   2   8   0.1307   0.2040   0.1811   0.1260  -0.1495  -0.0951 -14.00    1.4
2173 281486.000  -1787004.7106  -4328786.2799   4317505.6492   2   8   0.1269   0.1982   0.1759   0.1224  -0.1453  -0.0924 -13.00    1.4
2173 281487.000  -1787004.7039  -4328786.2778   4317505.6416   2   8   0.1235   0.1928   0.1711   0.1191  -0.1413  -0.0899 -12.00    1.3
2173 281488.000  -1787004.7053  -4328786.2985   4317505.6602   2   8   0.1203   0.1879   0.1667   0.1160  -0.1377  -0.0875 -11.00    1.3
2173 281489.000  -1787004.6959  -4328786.3048   4317505.6615   2   8   0.1173   0.1833   0.1626   0.1131  -0.1343  -0.0854 -10.00    1.3
2173 281490.000  -1787004.6910  -4328786.3086   4317505.6712   2   8   0.1146   0.1790   0.1587   0.1104  -0.1311  -0.0833  -9.00    1.2
2173 281491.000  -1787004.6910  -4328786.3167   4317505.6816   2   8   0.1120   0.1750   0.1552   0.1080  -0.1282  -0.0815  -8.00    1.2
2173 281492.000  -1787004.6982  -4328786.3262   4317505.6923   2   8   0.1096   0.1713   0.1518   0.1056  -0.1254  -0.0797  -7.00    1.2
2173 281493.000  -1787004.6970  -4328786.3305   4317505.6966   2   8   0.1073   0.1677   0.1486   0.1034  -0.1228  -0.0780  -6.00    1.2
2173 281494.000  -1787004.6993  -4328786.3405   4317505.7062   2   8   0.1052   0.1644   0.1456   0.1014  -0.1204  -0.0765  -5.00    1.2
2173 281495.000  -1787004.6997  -4328786.3415   4317505.6913   2   8   0.1032   0.1613   0.1428   0.0994  -0.1181  -0.0750  -4.00    1.1
2173 281496.000  -1787004.7019  -4328786.3487   4317505.6938   2   8   0.1013   0.1583   0.1402   0.0976  -0.1159  -0.0736  -3.00    1.1
2173 281497.000  -1787004.6996  -4328786.3392   4317505.6825   2   8   0.0995   0.1555   0.1376   0.0959  -0.1138  -0.0723  -2.00    1.0
2173 281498.000  -1787004.7008  -4328786.3384   4317505.6829   2   8   0.0978   0.1529   0.1352   0.0942  -0.1118  -0.0710  -1.00    1.0
2173 281499.000  -1787004.7078  -4328786.3343   4317505.6773   2   8   0.0962   0.1504   0.1329   0.0927  -0.1100  -0.0698   0.00    1.0
2173 281500.000  -1787004.7066  -4328786.3366   4317505.6801   2   8   0.0947   0.1480   0.1308   0.0912  -0.1082  -0.0687   0.00    1.0
2173 281501.000  -1787004.7117  -4328786.3422   4317505.6864   2   8   0.0932   0.1458   0.1287   0.0898  -0.1065  -0.0677   0.00    1.1
2173 281502.000  -1787004.7186  -4328786.3485   4317505.6904   2   8   0.0919   0.1436   0.1268   0.0884  -0.1049  -0.0667   0.00    1.1
2173 281503.000  -1787004.7211  -4328786.3440   4317505.6853   2   8   0.0905   0.1415   0.1249   0.0872  -0.1033  -0.0657   0.00    1.1
2173 281504.000  -1787004.7129  -4328786.3397   4317505.6806   2   8   0.0892   0.1395   0.1231   0.0859  -0.1018  -0.0647   0.00    1.1
2173 281505.000  -1787004.7244  -4328786.3412   4317505.6698   2   8   0.0880   0.1376   0.1213   0.0848  -0.1004  -0.0638   0.00    1.1
2173 281506.000  -1787004.7253  -4328786.3474   4317505.6693   2   8   0.0869   0.1358   0.1196   0.0836  -0.0991  -0.0630   0.00    1.1
2173 281507.000  -1787004.7278  -4328786.3452   4317505.6667   2   8   0.0857   0.1340   0.1180   0.0825  -0.0977  -0.0621   0.00    1.1
2173 281508.000  -1787004.7304  -4328786.3453   4317505.6618   2   8   0.0846   0.1323   0.1164   0.0815  -0.0965  -0.0613   0.00    1.1
2173 281509.000  -1787004.7288  -4328786.3362   4317505.6515   2   8   0.0836   0.1307   0.1149   0.0805  -0.0952  -0.0605   0.00    1.1
2173 281510.000  -1787004.7236  -4328786.3269   4317505.6550   2   8   0.0826   0.1291   0.1134   0.0795  -0.0940  -0.0598   0.00    1.1
2173 281511.000  -1787004.7200  -4328786.3279   4317505.6564   2   8   0.0816   0.1276   0.1120   0.0785  -0.0929  -0.0591   0.00    1.1
2173 281512.000  -1787004.7233  -4328786.3253   4317505.6482   2   8   0.0807   0.1261   0.1107   0.0776  -0.0917  -0.0583   0.00    1.1
2173 281513.000  -1787004.7218  -4328786.3280   4317505.6509   2   8   0.0798   0.1247   0.1093   0.0767  -0.0907  -0.0577   0.00    1.1
2173 281514.000  -1787004.7230  -4328786.3284   4317505.6580   2   8   0.0789   0.1233   0.1080   0.0759  -0.0896  -0.0570   0.00    1.1
2173 281515.000  -1787004.7216  -4328786.3261   4317505.6599   2   8   0.0781   0.1219   0.1068   0.0750  -0.0886  -0.0564   0.00    1.1
2173 281516.000  -1787004.7191  -4328786.3314   4317505.6697   2   8   0.0772   0.1206   0.1055   0.0742  -0.0876  -0.0557   0.00    1.1
2173 281517.000  -1787004.7161  -4328786.3274   4317505.6679   2   8   0.0764   0.1194   0.1043   0.0735  -0.0866  -0.0551   0.00    1.1
2173 281518.000  -1787004.7114  -4328786.3235   4317505.6723   2   8   0.0757   0.1181   0.1032   0.0727  -0.0857  -0.0545   0.00    1.1
2173 281519.000  -1787004.7091  -4328786.3235   4317505.6728   2   8   0.0749   0.1169   0.1020   0.0720  -0.0847  -0.0540   0.00    1.1
2173 281520.000  -1787004.7054  -4328786.3278   4317505.6816   2   8   0.0742   0.1158   0.1009   0.0713  -0.0838  -0.0534   0.00    1.0
2173 281521.000  -1787004.7027  -4328786.3253   4317505.6766   2   8   0.0735   0.1147   0.0999   0.0705  -0.0830  -0.0528   0.00    1.0
2173 281522.000  -1787004.6987  -4328786.3293   4317505.6858   2   8   0.0727   0.1136   0.0988   0.0699  -0.0821  -0.0523   0.00    1.0
2173 281523.000  -1787004.6936  -4328786.3224   4317505.6819   2   8   0.0721   0.1125   0.0978   0.0692  -0.0813  -0.0518   0.00    1.0
2173 281524.000  -1787004.6862  -4328786.3115   4317505.6757   2   8   0.0714   0.1115   0.0967   0.0686  -0.0804  -0.0513   0.00    1.0
2173 281525.000  -1787004.6883  -4328786.3182   4317505.6752   2   8   0.0708   0.1105   0.0958   0.0679  -0.0796  -0.0508   0.00    1.0
2173 281526.000  -1787004.6847  -4328786.3071   4317505.6686   2   8   0.0702   0.1095   0.0948   0.0673  -0.0789  -0.0503   0.00    1.0
2173 281527.000  -1787004.6858  -4328786.3017   4317505.6624   2   8   0.0696   0.1085   0.0938   0.0667  -0.0781  -0.0499   0.00    1.0
2173 281528.000  -1787004.6767  -4328786.2927   4317505.6591   2   8   0.0690   0.1076   0.0929   0.0661  -0.0773  -0.0493   0.00    1.0
2173 281529.000  -1787004.6736  -4328786.2866   4317505.6556   2   8   0.0684   0.1066   0.0920   0.0656  -0.0766  -0.0489   0.00    1.0
2173 281530.000  -1787004.6713  -4328786.2824   4317505.6500   2   8   0.0678   0.1057   0.0911   0.0650  -0.0759  -0.0484   0.00    1.0
2173 281531.000  -1787004.6675  -4328786.2797   4317505.6488   2   8   0.0673   0.1048   0.0902   0.0645  -0.0752  -0.0480   0.00    1.0
2173 281532.000  -1787004.6672  -4328786.2759   4317505.6404   2   8   0.0667   0.1040   0.0894   0.0639  -0.0745  -0.0476   0.00    1.0
2173 281533.000  -1787004.6669  -4328786.2762   4317505.6459   2   8   0.0662   0.1031   0.0885   0.0634  -0.0738  -0.0471   0.00    1.0
2173 281534.000  -1787004.6612  -4328786.2604   4317505.6331   2   8   0.0657   0.1023   0.0877   0.0629  -0.0732  -0.0467   0.00    1.0
2173 281535.000  -1787004.6594  -4328786.2637   4317505.6384   2   8   0.0652   0.1015   0.0868   0.0624  -0.0725  -0.0463   0.00    1.0
2173 281536.000  -1787004.6621  -4328786.2660   4317505.6345   2   8   0.0647   0.1007   0.0860   0.0619  -0.0719  -0.0459   0.00    1.0
2173 281537.000  -1787004.6557  -4328786.2627   4317505.6310   2   8   0.0642   0.0999   0.0852   0.0614  -0.0712  -0.0455   0.00    1.0
2173 281538.000  -1787004.6467  -4328786.2429   4317505.6179   2   8   0.0638   0.0992   0.0845   0.0610  -0.0706  -0.0451   0.00    1.0
2173 281539.000  -1787004.6451  -4328786.2416   4317505.6203   2   8   0.0633   0.0984   0.0837   0.0605  -0.0700  -0.0447   0.00    1.0
2173 281540.000  -1787004.6443  -4328786.2424   4317505.6192   2   8   0.0628   0.0977   0.0829   0.0601  -0.0694  -0.0444   0.00    1.0
2173 281541.000  -1787004.6423  -4328786.2379   4317505.6154   2   8   0.0624   0.0970   0.0822   0.0596  -0.0688  -0.0440   0.00    1.0
2173 281542.000  -1787004.6330  -4328786.2286   4317505.6080   2   8   0.0620   0.0963   0.0814   0.0592  -0.0682  -0.0437   0.00    1.0
2173 281543.000  -1787004.6313  -4328786.2315   4317505.6084   2   8   0.0615   0.0956   0.0807   0.0588  -0.0676  -0.0433   0.00    1.0
2173 281544.000  -1787004.6300  -4328786.2357   4317505.6086   2   8   0.0611   0.0949   0.0800   0.0583  -0.0670  -0.0430   0.00    1.0
2173 281545.000  -1787004.6242  -4328786.2235   4317505.5993   2   8   0.0607   0.0943   0.0793   0.0579  -0.0665  -0.0426   0.00    1.0
2173 281546.000  -1787004.6261  -4328786.2271   4317505.5996   2   8   0.0603   0.0936   0.0786   0.0575  -0.0659  -0.0422   0.00    1.0
2173 281547.000  -1787004.6223  -4328786.2249   4317505.5956   2   8   0.0599   0.0930   0.0779   0.0571  -0.0654  -0.0419   0.00    1.0
2173 281548.000  -1787004.6221  -4328786.2235   4317505.5945   2   8   0.0595   0.0923   0.0773   0.0567  -0.0648  -0.0416   0.00    1.0
2173 281549.000  -1787004.6190  -4328786.2211   4317505.5877   2   8   0.0591   0.0917   0.0766   0.0564  -0.0643  -0.0412   0.00    1.0
2173 281550.000  -1787004.6173  -4328786.2113   4317505.5768   2   8   0.0587   0.0911   0.0760   0.0560  -0.0638  -0.0410   0.00    1.0
2173 281551.000  -1787004.6146  -4328786.2114   4317505.5674   2   8   0.0584   0.0905   0.0753   0.0556  -0.0633  -0.0406   0.00    1.0
2173 281552.000  -1787004.6134  -4328786.2065   4317505.5576   2   8   0.0580   0.0899   0.0747   0.0552  -0.0628  -0.0403   0.00    1.0
2173 281553.000  -1787004.6111  -4328786.2032   4317505.5524   2   8   0.0577   0.0893   0.0740   0.0549  -0.0623  -0.0400   0.00    1.0
2173 281554.000  -1787004.6073  -4328786.1967   4317505.5411   2   8   0.0573   0.0888   0.0734   0.0545  -0.0618  -0.0397   0.00    1.0
2173 281555.000  -1787004.6045  -4328786.1899   4317505.5305   2   8   0.0570   0.0882   0.0728   0.0542  -0.0613  -0.0394   0.00    1.0
2173 281556.000  -1787004.6031  -4328786.1906   4317505.5326   2   8   0.0566   0.0877   0.0722   0.0538  -0.0608  -0.0391   0.00    1.0
2173 281557.000  -1787004.5983  -4328786.1781   4317505.5229   2   8   0.0563   0.0871   0.0716   0.0535  -0.0604  -0.0388   0.00    1.0
2173 281558.000  -1787004.6019  -4328786.1814   4317505.5173   2   8   0.0560   0.0866   0.0710   0.0532  -0.0599  -0.0385   0.00    1.0
2173 281559.000  -1787004.6025  -4328786.1774   4317505.5103   2   8   0.0556   0.0861   0.0704   0.0529  -0.0595  -0.0383   0.00    1.0
2173 281560.000  -1787004.6020  -4328786.1774   4317505.5076   2   8   0.0553   0.0855   0.0698   0.0526  -0.0590  -0.0379   0.00    1.0
2173 281561.000  -1787004.5998  -4328786.1670   4317505.4947   2   8   0.0550   0.0850   0.0693   0.0522  -0.0585  -0.0377   0.00    1.0
2173 281562.000  -1787004.6010  -4328786.1672   4317505.4892   2   8   0.0547   0.0845   0.0687   0.0519  -0.0581  -0.0374   0.00    1.0
2173 281563.000  -1787004.6005  -4328786.1593   4317505.4849   2   8   0.0544   0.0840   0.0682   0.0516  -0.0577  -0.0371   0.00    1.0
2173 281564.000  -1787004.6053  -4328786.1582   4317505.4782   2   8   0.0541   0.0836   0.0676   0.0513  -0.0572  -0.0369   0.00    1.0
2173 281565.000  -1787004.6058  -4328786.1563   4317505.4754   2   8   0.0538   0.0831   0.0670   0.0510  -0.0568  -0.0366   0.00    1.0
2173 281566.000  -1787004.6077  -4328786.1553   4317505.4703   2   8   0.0535   0.0826   0.0665   0.0507  -0.0564  -0.0364   0.00    1.0
2173 281567.000  -1787004.6054  -4328786.1427   4317505.4590   2   8   0.0533   0.0821   0.0660   0.0504  -0.0560  -0.0361   0.00    1.0
2173 281568.000  -1787004.6031  -4328786.1399   4317505.4484   2   8   0.0530   0.0817   0.0655   0.0501  -0.0555  -0.0358   0.00    1.0
2173 281569.000  -1787004.6019  -4328786.1357   4317505.4454   2   8   0.0527   0.0812   0.0649   0.0498  -0.0552  -0.0356   0.00    1.0
2173 281570.000  -1787004.6033  -4328786.1294   4317505.4362   2   8   0.0524   0.0808   0.0645   0.0496  -0.0548  -0.0354   0.00    1.0
2173 281571.000  -1787004.5953  -4328786.1244   4317505.4284   2   8   0.0521   0.0803   0.0639   0.0493  -0.0544  -0.0351   0.00    1.0
2173 281572.000  -1787004.5983  -4328786.1209   4317505.4268   2   8   0.0519   0.0799   0.0634   0.0490  -0.0539  -0.0349   0.00    1.0
2173 281573.000  -1787004.5956  -4328786.1202   4317505.4209   2   8   0.0516   0.0795   0.0630   0.0488  -0.0536  -0.0346   0.00    1.0
2173 281574.000  -1787004.5932  -4328786.1113   4317505.4163   2   8   0.0513   0.0790   0.0625   0.0485  -0.0532  -0.0344   0.00    1.0
2173 281575.000  -1787004.5950  -4328786.1126   4317505.4126   2   8   0.0511   0.0786   0.0620   0.0483  -0.0528  -0.0342   0.00    1.0
2173 281576.000  -1787004.5942  -4328786.1080   4317505.4102   2   8   0.0508   0.0782   0.0615   0.0480  -0.0524  -0.0339   0.00    1.0
2173 281577.000  -1787004.5943  -4328786.0986   4317505.4000   2   8   0.0506   0.0778   0.0610   0.0477  -0.0521  -0.0337   0.00    1.0
2173 281578.000  -1787004.5957  -4328786.1002   4317505.3983   2   8   0.0504   0.0774   0.0606   0.0475  -0.0517  -0.0335   0.00    1.0
2173 281579.000  -1787004.5952  -4328786.0970   4317505.3951   2   8   0.0501   0.0770   0.0601   0.0473  -0.0513  -0.0333   0.00    1.0
2173 281580.000  -1787004.5922  -4328786.0918   4317505.3889   2   8   0.0499   0.0766   0.0596   0.0470  -0.0510  -0.0330   0.00    1.0
2173 281581.000  -1787004.5911  -4328786.0854   4317505.3845   2   8   0.0496   0.0762   0.0592   0.0468  -0.0506  -0.0328   0.00    1.0
2173 281582.000  -1787004.5900  -4328786.0820   4317505.3805   2   8   0.0494   0.0758   0.0587   0.0465  -0.0503  -0.0326   0.00    1.0
2173 281583.000  -1787004.5887  -4328786.0798   4317505.3762   2   8   0.0492   0.0755   0.0583   0.0463  -0.0499  -0.0324   0.00    1.0
2173 281584.000  -1787004.5889  -4328786.0808   4317505.3789   2   8   0.0490   0.0751   0.0578   0.0461  -0.0496  -0.0322   0.00    1.0
2173 281585.000  -1787004.5841  -4328786.0687   4317505.3669   2   8   0.0487   0.0747   0.0574   0.0458  -0.0493  -0.0320   0.00    1.0
2173 281586.000  -1787004.5830  -4328786.0715   4317505.3676   2   8   0.0485   0.0743   0.0570   0.0456  -0.0489  -0.0318   0.00    1.0
2173 281587.000  -1787004.5847  -4328786.0745   4317505.3696   2   8   0.0483   0.0740   0.0565   0.0454  -0.0486  -0.0316   0.00    1.0
2173 281588.000  -1787004.5819  -4328786.0673   4317505.3602   2   8   0.0481   0.0736   0.0561   0.0452  -0.0483  -0.0314   0.00    1.0
2173 281589.000  -1787004.5780  -4328786.0622   4317505.3562   2   8   0.0479   0.0733   0.0557   0.0449  -0.0479  -0.0312   0.00    1.0
2173 281590.000  -1787004.5798  -4328786.0651   4317505.3608   2   8   0.0476   0.0729   0.0553   0.0447  -0.0476  -0.0310   0.00    1.0
2173 281591.000  -1787004.5812  -4328786.0682   4317505.3614   2   8   0.0474   0.0726   0.0549   0.0445  -0.0473  -0.0308   0.00    1.0
2173 281592.000  -1787004.5809  -4328786.0654   4317505.3566   2   8   0.0472   0.0723   0.0545   0.0443  -0.0470  -0.0306   0.00    1.0
2173 281593.000  -1787004.5788  -4328786.0575   4317505.3517   2   8   0.0470   0.0719   0.0541   0.0441  -0.0467  -0.0304   0.00    1.0
2173 281594.000  -1787004.5759  -4328786.0529   4317505.3468   2   8   0.0468   0.0716   0.0537   0.0439  -0.0464  -0.0302   0.00    1.0
2173 281595.000  -1787004.5805  -4328786.0582   4317505.3515   2   8   0.0466   0.0713   0.0533   0.0437  -0.0461  -0.0301   0.00    1.0
2173 281596.000  -1787004.5836  -4328786.0565   4317505.3470   2   8   0.0464   0.0709   0.0529   0.0435  -0.0458  -0.0299   0.00    1.0
2173 281597.000  -1787004.5827  -4328786.0589   4317505.3497   2   8   0.0462   0.0706   0.0526   0.0433  -0.0455  -0.0297   0.00    1.0
2173 281598.000  -1787004.5861  -4328786.0610   4317505.3491   2   8   0.0460   0.0703   0.0522   0.0431  -0.0452  -0.0295   0.00    1.0
2173 281599.000  -1787004.5797  -4328786.0454   4317505.3424   2   8   0.0459   0.0700   0.0517   0.0429  -0.0449  -0.0293   0.00    1.0
2173 281600.000  -1787004.5809  -4328786.0450   4317505.3404   2   8   0.0456   0.0697   0.0514   0.0427  -0.0446  -0.0292   0.00    1.0
2173 281601.000  -1787004.5822  -4328786.0426   4317505.3424   2   8   0.0455   0.0694   0.0510   0.0425  -0.0443  -0.0290   0.00    1.0
2173 281602.000  -1787004.5778  -4328786.0380   4317505.3400   2   8   0.0453   0.0691   0.0506   0.0423  -0.0440  -0.0288   0.00    1.0
2173 281603.000  -1787004.5818  -4328786.0391   4317505.3394   2   8   0.0451   0.0688   0.0503   0.0422  -0.0437  -0.0286   0.00    1.0
2173 281604.000  -1787004.5813  -4328786.0409   4317505.3415   2   8   0.0449   0.0685   0.0499   0.0420  -0.0435  -0.0284   0.00    1.0
2173 281605.000  -1787004.5832  -4328786.0388   4317505.3383   2   8   0.0447   0.0682   0.0496   0.0418  -0.0432  -0.0283   0.00    1.0
2173 281606.000  -1787004.5899  -4328786.0379   4317505.3389   2   8   0.0446   0.0679   0.0493   0.0416  -0.0429  -0.0281   0.00    1.0
2173 281607.000  -1787004.5841  -4328786.0298   4317505.3344   2   8   0.0444   0.0676   0.0489   0.0414  -0.0427  -0.0280   0.00    1.0
2173 281608.000  -1787004.5812  -4328786.0314   4317505.3337   2   8   0.0442   0.0673   0.0486   0.0413  -0.0424  -0.0278   0.00    1.0
2173 281609.000  -1787004.5893  -4328786.0353   4317505.3361   2   8   0.0441   0.0671   0.0482   0.0411  -0.0422  -0.0276   0.00    1.0
2173 281610.000  -1787004.5869  -4328786.0357   4317505.3368   2   8   0.0439   0.0668   0.0479   0.0409  -0.0419  -0.0275   0.00    1.0
2173 281611.000  -1787004.5932  -4328786.0393   4317505.3381   2   8   0.0437   0.0665   0.0476   0.0408  -0.0416  -0.0273   0.00    1.0
2173 281612.000  -1787004.5904  -4328786.0307   4317505.3340   2   8   0.0435   0.0662   0.0472   0.0406  -0.0414  -0.0272   0.00    1.0
2173 281613.000  -1787004.5883  -4328786.0247   4317505.3290   2   8   0.0434   0.0660   0.0468   0.0404  -0.0411  -0.0270   0.00    1.0
2173 281614.000  -1787004.5963  -4328786.0318   4317505.3321   2   8   0.0432   0.0657   0.0465   0.0403  -0.0409  -0.0268   0.00    1.0
2173 281615.000  -1787004.5928  -4328786.0262   4317505.3304   2   8   0.0431   0.0654   0.0463   0.0401  -0.0406  -0.0267   0.00    1.0
2173 281616.000  -1787004.5918  -4328786.0209   4317505.3261   2   8   0.0429   0.0652   0.0459   0.0399  -0.0404  -0.0265   0.00    1.0
2173 281617.000  -1787004.5909  -4328786.0241   4317505.3268   2   8   0.0427   0.0649   0.0457   0.0398  -0.0401  -0.0265   0.00    1.0
2173 281618.000  -1787004.5912  -4328786.0197   4317505.3245   2   8   0.0426   0.0647   0.0453   0.0396  -0.0399  -0.0263   0.00    1.0
2173 281619.000  -1787004.5913  -4328786.0209   4317505.3264   2   8   0.0425   0.0644   0.0450   0.0395  -0.0397  -0.0262   0.00    1.0
2173 281620.000  -1787004.5902  -4328786.0171   4317505.3215   2   8   0.0423   0.0642   0.0447   0.0393  -0.0394  -0.0260   0.00    1.0
2173 281621.000  -1787004.5897  -4328786.0174   4317505.3210   2   8   0.0422   0.0639   0.0445   0.0392  -0.0392  -0.0259   0.00    1.0
2173 281622.000  -1787004.5892  -4328786.0180   4317505.3255   2   8   0.0420   0.0637   0.0442   0.0390  -0.0390  -0.0258   0.00    1.0
2173 281623.000  -1787004.5896  -4328786.0186   4317505.3247   2   8   0.0418   0.0635   0.0439   0.0389  -0.0387  -0.0256   0.00    1.0
2173 281624.000  -1787004.5907  -4328786.0224   4317505.3316   2   8   0.0417   0.0632   0.0435   0.0387  -0.0385  -0.0254   0.00    1.0
2173 281625.000  -1787004.5912  -4328786.0215   4317505.3330   2   8   0.0416   0.0630   0.0433   0.0386  -0.0383  -0.0253   0.00    1.0
2173 281626.000  -1787004.5895  -4328786.0168   4317505.3286   2   8   0.0414   0.0627   0.0430   0.0384  -0.0381  -0.0252   0.00    1.0
2173 281627.000  -1787004.5838  -4328786.0202   4317505.3314   2   8   0.0413   0.0625   0.0427   0.0383  -0.0379  -0.0251   0.00    1.0
2173 281628.000  -1787004.5856  -4328786.0158   4317505.3298   2   8   0.0411   0.0623   0.0424   0.0381  -0.0377  -0.0249   0.00    1.0
2173 281629.000  -1787004.5863  -4328786.0159   4317505.3300   2   8   0.0410   0.0621   0.0421   0.0380  -0.0374  -0.0248   0.00    1.0
2173 281630.000  -1787004.5863  -4328786.0131   4317505.3302   2   8   0.0408   0.0618   0.0419   0.0379  -0.0372  -0.0246   0.00    1.0
2173 281631.000  -1787004.5876  -4328786.0158   4317505.3329   2   8   0.0407   0.0616   0.0416   0.0377  -0.0370  -0.0245   0.00    1.0
2173 281632.000  -1787004.5860  -4328786.0151   4317505.3297   2   8   0.0405   0.0614   0.0413   0.0376  -0.0368  -0.0244   0.00    1.0
2173 281633.000  -1787004.5886  -4328786.0137   4317505.3304   2   8   0.0404   0.0612   0.0410   0.0375  -0.0367  -0.0242   0.00    1.0
2173 281634.000  -1787004.5864  -4328786.0162   4317505.3340   2   8   0.0403   0.0610   0.0408   0.0373  -0.0364  -0.0242   0.00    1.0
2173 281635.000  -1787004.5857  -4328786.0129   4317505.3332   2   8   0.0402   0.0607   0.0405   0.0372  -0.0362  -0.0240   0.00    1.0
2173 281636.000  -1787004.5814  -4328786.0131   4317505.3325   2   8   0.0400   0.0605   0.0403   0.0371  -0.0360  -0.0239   0.00    1.0
2173 281637.000  -1787004.5825  -4328786.0137   4317505.3351   2   8   0.0399   0.0603   0.0400   0.0369  -0.0358  -0.0238   0.00    1.0
2173 281638.000  -1787004.5818  -4328786.0128   4317505.3306   2   8   0.0397   0.0601   0.0398   0.0368  -0.0356  -0.0237   0.00    1.0
2173 281639.000  -1787004.5828  -4328786.0161   4317505.3307   2   8   0.0396   0.0599   0.0395   0.0367  -0.0354  -0.0236   0.00    1.0
2173 281640.000  -1787004.5785  -4328786.0041   4317505.3265   2   8   0.0395   0.0597   0.0393   0.0366  -0.0352  -0.0235   0.00    1.0
2173 281641.000  -1787004.5820  -4328786.0176   4317505.3340   2   8   0.0394   0.0595   0.0390   0.0364  -0.0351  -0.0233   0.00    1.0
2173 281642.000  -1787004.5794  -4328786.0154   4317505.3334   2   8   0.0392   0.0593   0.0388   0.0363  -0.0349  -0.0232   0.00    1.0
2173 281643.000  -1787004.5819  -4328786.0154   4317505.3267   2   8   0.0392   0.0591   0.0385   0.0362  -0.0347  -0.0231   0.00    1.0
2173 281644.000  -1787004.5806  -4328786.0154   4317505.3307   2   8   0.0390   0.0589   0.0383   0.0361  -0.0345  -0.0230   0.00    1.0
2173 281645.000  -1787004.5787  -4328786.0107   4317505.3295   2   8   0.0389   0.0587   0.0381   0.0359  -0.0343  -0.0229   0.00    1.0
2173 281646.000  -1787004.5820  -4328786.0173   4317505.3311   2   8   0.0387   0.0585   0.0378   0.0358  -0.0342  -0.0228   0.00    1.0
2173 281647.000  -1787004.5766  -4328786.0138   4317505.3312   2   8   0.0386   0.0583   0.0376   0.0356  -0.0340  -0.0227   0.00    1.0
2173 281648.000  -1787004.5797  -4328786.0179   4317505.3330   2   8   0.0385   0.0581   0.0374   0.0356  -0.0338  -0.0225   0.00    1.0
2173 281649.000  -1787004.5753  -4328786.0197   4317505.3346   2   8   0.0384   0.0580   0.0372   0.0354  -0.0336  -0.0225   0.00    1.0
2173 281650.000  -1787004.5720  -4328786.0137   4317505.3330   2   8   0.0383   0.0578   0.0369   0.0353  -0.0335  -0.0223   0.00    1.0
2173 281651.000  -1787004.5752  -4328786.0196   4317505.3339   2   8   0.0382   0.0576   0.0367   0.0352  -0.0333  -0.0222   0.00    1.0
2173 281652.000  -1787004.5698  -4328786.0158   4317505.3283   2   8   0.0380   0.0574   0.0364   0.0351  -0.0331  -0.0221   0.00    1.0
2173 281653.000  -1787004.5698  -4328786.0113   4317505.3295   2   8   0.0379   0.0572   0.0362   0.0350  -0.0330  -0.0219   0.00    1.0
2173 281654.000  -1787004.5731  -4328786.0153   4317505.3293   2   8   0.0378   0.0570   0.0360   0.0349  -0.0328  -0.0220   0.00    1.0
2173 281655.000  -1787004.5719  -4328786.0192   4317505.3287   2   8   0.0377   0.0569   0.0358   0.0348  -0.0326  -0.0219   0.00    1.0
2173 281656.000  -1787004.5720  -4328786.0188   4317505.3283   2   8   0.0376   0.0567   0.0356   0.0347  -0.0325  -0.0217   0.00    1.0
2173 281657.000  -1787004.5704  -4328786.0174   4317505.3280   2   8   0.0375   0.0565   0.0353   0.0346  -0.0323  -0.0216   0.00    1.0
2173 281658.000  -1787004.5706  -4328786.0224   4317505.3302   2   8   0.0374   0.0563   0.0352   0.0344  -0.0321  -0.0215   0.00    1.0
2173 281659.000  -1787004.5704  -4328786.0183   4317505.3314   2   8   0.0373   0.0562   0.0350   0.0343  -0.0320  -0.0215   0.00    1.0
2173 281660.000  -1787004.5670  -4328786.0147   4317505.3310   2   8   0.0372   0.0560   0.0348   0.0342  -0.0318  -0.0213   0.00    1.0
2173 281661.000  -1787004.5698  -4328786.0201   4317505.3304   2   8   0.0370   0.0558   0.0345   0.0341  -0.0317  -0.0212   0.00    1.0
2173 281662.000  -1787004.5684  -4328786.0146   4317505.3279   2   8   0.0370   0.0556   0.0344   0.0340  -0.0315  -0.0212   0.00    1.0
2173 281663.000  -1787004.5680  -4328786.0215   4317505.3338   2   8   0.0368   0.0555   0.0341   0.0339  -0.0314  -0.0211   0.00    1.0
2173 281664.000  -1787004.5690  -4328786.0201   4317505.3331   2   8   0.0367   0.0553   0.0340   0.0338  -0.0312  -0.0209   0.00    1.0
2173 281665.000  -1787004.5722  -4328786.0205   4317505.3369   2   8   0.0366   0.0552   0.0338   0.0337  -0.0310  -0.0209   0.00    1.0
2173 281666.000  -1787004.5702  -4328786.0240   4317505.3390   2   8   0.0366   0.0550   0.0336   0.0336  -0.0309  -0.0208   0.00    1.0
2173 281667.000  -1787004.5717  -4328786.0253   4317505.3442   2   8   0.0364   0.0548   0.0334   0.0335  -0.0307  -0.0207   0.00    1.0
2173 281668.000  -1787004.5754  -4328786.0257   4317505.3467   2   8   0.0364   0.0547   0.0332   0.0334  -0.0306  -0.0206   0.00    1.0
2173 281669.000  -1787004.5732  -4328786.0221   4317505.3471   2   8   0.0362   0.0545   0.0330   0.0334  -0.0305  -0.0204   0.00    1.0
2173 281670.000  -1787004.5794  -4328786.0328   4317505.3550   2   8   0.0361   0.0544   0.0329   0.0332  -0.0303  -0.0204   0.00    1.0
2173 281671.000  -1787004.5766  -4328786.0274   4317505.3510   2   8   0.0360   0.0542   0.0326   0.0331  -0.0302  -0.0204   0.00    1.0
2173 281672.000  -1787004.5772  -4328786.0344   4317505.3531   2   8   0.0359   0.0540   0.0325   0.0330  -0.0301  -0.0203   0.00    1.0
2173 281673.000  -1787004.5794  -4328786.0362   4317505.3590   2   8   0.0359   0.0539   0.0323   0.0329  -0.0299  -0.0203   0.00    1.0
2173 281674.000  -1787004.5769  -4328786.0330   4317505.3567   2   8   0.0357   0.0537   0.0321   0.0328  -0.0298  -0.0201   0.00    1.0
2173 281675.000  -1787004.5809  -4328786.0406   4317505.3611   2   8   0.0357   0.0536   0.0319   0.0328  -0.0297  -0.0199   0.00    1.0
2173 281676.000  -1787004.5841  -4328786.0386   4317505.3661   2   8   0.0355   0.0534   0.0317   0.0327  -0.0295  -0.0198   0.00    1.0
2173 281677.000  -1787004.5847  -4328786.0438   4317505.3665   2   8   0.0355   0.0533   0.0316   0.0326  -0.0294  -0.0199   0.00    1.1
2173 281678.000  -1787004.5890  -4328786.0479   4317505.3696   2   8   0.0354   0.0531   0.0314   0.0325  -0.0293  -0.0198   0.00    1.1
2173 281679.000  -1787004.5887  -4328786.0474   4317505.3684   2   8   0.0353   0.0530   0.0313   0.0324  -0.0291  -0.0197   0.00    1.1
2173 281680.000  -1787004.5923  -4328786.0498   4317505.3747   2   8   0.0352   0.0528   0.0310   0.0323  -0.0290  -0.0195   0.00    1.1
2173 281681.000  -1787004.5957  -4328786.0563   4317505.3788   2   8   0.0351   0.0527   0.0309   0.0322  -0.0289  -0.0195   0.00    1.1
2173 281682.000  -1787004.5923  -4328786.0494   4317505.3771   2   8   0.0350   0.0525   0.0307   0.0321  -0.0288  -0.0194   0.00    1.1
2173 281683.000  -1787004.6001  -4328786.0587   4317505.3851   2   8   0.0349   0.0524   0.0305   0.0320  -0.0286  -0.0194   0.00    1.1
2173 281684.000  -1787004.5985  -4328786.0534   4317505.3829   2   8   0.0348   0.0523   0.0305   0.0319  -0.0285  -0.0193   0.00    1.1
2173 281685.000  -1787004.6009  -4328786.0547   4317505.3861   2   8   0.0347   0.0521   0.0302   0.0319  -0.0284  -0.0192   0.00    1.1
2173 281686.000  -1787004.6007  -4328786.0566   4317505.3910   2   8   0.0346   0.0520   0.0301   0.0318  -0.0282  -0.0192   0.00    1.1
2173 281687.000  -1787004.6049  -4328786.0553   4317505.3928   2   8   0.0345   0.0519   0.0299   0.0317  -0.0281  -0.0191   0.00    1.1
2173 281688.000  -1787004.6050  -4328786.0609   4317505.3938   2   8   0.0344   0.0517   0.0298   0.0316  -0.0280  -0.0190   0.00    1.1
2173 281689.000  -1787004.6052  -4328786.0635   4317505.3953   2   8   0.0343   0.0516   0.0296   0.0315  -0.0279  -0.0189   0.00    1.1
2173 281690.000  -1787004.6034  -4328786.0621   4317505.3953   2   8   0.0343   0.0515   0.0294   0.0314  -0.0278  -0.0189   0.00    1.1
2173 281691.000  -1787004.6080  -4328786.0639   4317505.3989   2   8   0.0342   0.0513   0.0294   0.0313  -0.0276  -0.0189   0.00    1.1
2173 281692.000  -1787004.6088  -4328786.0684   4317505.4013   2   8   0.0340   0.0512   0.0292   0.0313  -0.0275  -0.0188   0.00    1.1
2173 281693.000  -1787004.6068  -4328786.0721   4317505.4045   2   8   0.0340   0.0511   0.0291   0.0312  -0.0274  -0.0186   0.00    1.1
2173 281694.000  -1787004.6095  -4328786.0780   4317505.4058   2   8   0.0338   0.0509   0.0288   0.0311  -0.0273  -0.0185   0.00    1.1
2173 281695.000  -1787004.6138  -4328786.0784   4317505.4051   2   8   0.0338   0.0508   0.0287   0.0310  -0.0272  -0.0185   0.00    1.1
2173 281696.000  -1787004.6127  -4328786.0770   4317505.4046   2   8   0.0338   0.0507   0.0286   0.0309  -0.0271  -0.0184   0.00    1.1
2173 281697.000  -1787004.6149  -4328786.0864   4317505.4080   2   8   0.0337   0.0505   0.0284   0.0309  -0.0270  -0.0185   0.00    1.1
2173 281698.000  -1787004.6144  -4328786.0838   4317505.4055   2   8   0.0336   0.0504   0.0283   0.0308  -0.0269  -0.0183   0.00    1.1
2173 281699.000  -1787004.6137  -4328786.0832   4317505.4045   2   8   0.0335   0.0503   0.0281   0.0307  -0.0268  -0.0182   0.00    1.1
2173 281700.000  -1787004.6142  -4328786.0825   4317505.4027   2   8   0.0334   0.0502   0.0280   0.0306  -0.0266  -0.0182   0.00    1.1
2173 281701.000  -1787004.6135  -4328786.0844   4317505.4008   2   8   0.0334   0.0501   0.0278   0.0305  -0.0265  -0.0181   0.00    1.1
2173 281702.000  -1787004.6151  -4328786.0841   4317505.3982   2   8   0.0332   0.0499   0.0277   0.0305  -0.0264  -0.0180   0.00    1.1
2173 281703.000  -1787004.6187  -4328786.0846   4317505.3988   2   8   0.0332   0.0498   0.0276   0.0304  -0.0263  -0.0180   0.00    1.1
2173 281704.000  -1787004.6201  -4328786.0865   4317505.4017   2   8   0.0331   0.0497   0.0273   0.0303  -0.0262  -0.0179   0.00    1.1
2173 281705.000  -1787004.6220  -4328786.0901   4317505.4035   2   8   0.0330   0.0496   0.0272   0.0303  -0.0261  -0.0178   0.00    1.1
2173 281706.000  -1787004.6237  -4328786.0915   4317505.3987   2   8   0.0330   0.0495   0.0272   0.0302  -0.0260  -0.0177   0.00    1.1
2173 281707.000  -1787004.6235  -4328786.0921   4317505.3982   2   8   0.0328   0.0493   0.0271   0.0301  -0.0259  -0.0177   0.00    1.1
2173 281708.000  -1787004.6241  -4328786.0871   4317505.3932   2   8   0.0328   0.0492   0.0269   0.0300  -0.0258  -0.0176   0.00    1.1
2173 281709.000  -1787004.6258  -4328786.0959   4317505.3984   2   8   0.0327   0.0491   0.0267   0.0299  -0.0257  -0.0176   0.00    1.1
2173 281710.000  -1787004.6305  -4328786.0933   4317505.3951   2   8   0.0326   0.0490   0.0267   0.0299  -0.0256  -0.0175   0.00    1.1
2173 281711.000  -1787004.6305  -4328786.0981   4317505.3949   2   8   0.0325   0.0489   0.0266   0.0298  -0.0255  -0.0174   0.00    1.1
2173 281712.000  -1787004.6316  -4328786.0971   4317505.3969   2   8   0.0324   0.0487   0.0262   0.0297  -0.0255  -0.0173   0.00    1.1
2173 281713.000  -1787004.6339  -4328786.1000   4317505.3973   2   8   0.0324   0.0486   0.0263   0.0297  -0.0253  -0.0173   0.00    1.1
2173 281714.000  -1787004.6350  -4328786.0980   4317505.3941   2   8   0.0323   0.0485   0.0261   0.0296  -0.0252  -0.0173   0.00    1.1
2173 281715.000  -1787004.6350  -4328786.0993   4317505.3923   2   8   0.0322   0.0484   0.0260   0.0296  -0.0251  -0.0172   0.00    1.1
2173 281716.000  -1787004.6339  -4328786.0947   4317505.3925   2   8   0.0321   0.0483   0.0260   0.0294  -0.0250  -0.0172   0.00    1.1
2173 281717.000  -1787004.6367  -4328786.0963   4317505.3943   2   8   0.0321   0.0482   0.0258   0.0294  -0.0249  -0.0171   0.00    1.1
2173 281718.000  -1787004.6381  -4328786.0940   4317505.3909   2   8   0.0320   0.0481   0.0257   0.0293  -0.0249  -0.0170   0.00    1.1
2173 281719.000  -1787004.6394  -4328786.0932   4317505.3942   2   8   0.0319   0.0480   0.0255   0.0292  -0.0247  -0.0170   0.00    1.1
2173 281720.000  -1787004.6384  -4328786.0914   4317505.3879   2   8   0.0319   0.0478   0.0253   0.0292  -0.0247  -0.0169   0.00    1.1
2173 281721.000  -1787004.6386  -4328786.0914   4317505.3848   2   8   0.0318   0.0477   0.0253   0.0291  -0.0246  -0.0168   0.00    1.1
2173 281722.000  -1787004.6416  -4328786.0890   4317505.3829   2   8   0.0317   0.0476   0.0251   0.0291  -0.0245  -0.0169   0.00    1.1
2173 281723.000  -1787004.6433  -4328786.0926   4317505.3794   2   8   0.0317   0.0475   0.0252   0.0290  -0.0244  -0.0168   0.00    1.1
2173 281724.000  -1787004.6418  -4328786.0870   4317505.3799   2   8   0.0316   0.0474   0.0250   0.0289  -0.0243  -0.0167   0.00    1.1
2173 281725.000  -1787004.6470  -4328786.0917   4317505.3815   2   8   0.0315   0.0473   0.0249   0.0289  -0.0242  -0.0167   0.00    1.1
2173 281726.000  -1787004.6506  -4328786.0905   4317505.3825   2   8   0.0315   0.0472   0.0247   0.0288  -0.0242  -0.0166   0.00    1.1
2173 281727.000  -1787004.6536  -4328786.0965   4317505.3861   2   8   0.0313   0.0471   0.0246   0.0287  -0.0241  -0.0165   0.00    1.1
2173 281728.000  -1787004.6526  -4328786.0945   4317505.3808   2   8   0.0313   0.0470   0.0245   0.0287  -0.0240  -0.0165   0.00    1.1
2173 281729.000  -1787004.6531  -4328786.0898   4317505.3771   2   8   0.0313   0.0469   0.0245   0.0286  -0.0239  -0.0165   0.00    1.1
2173 281730.000  -1787004.6587  -4328786.0963   4317505.3832   2   8   0.0313   0.0468   0.0243   0.0285  -0.0238  -0.0164   0.00    1.1
2173 281731.000  -1787004.6612  -4328786.0913   4317505.3803   2   8   0.0311   0.0467   0.0242   0.0285  -0.0237  -0.0163   0.00    1.1
2173 281732.000  -1787004.6629  -4328786.0971   4317505.3793   2   8   0.0310   0.0466   0.0240   0.0284  -0.0237  -0.0164   0.00    1.1
2173 281733.000  -1787004.6583  -4328786.0888   4317505.3750   2   8   0.0310   0.0465   0.0240   0.0283  -0.0235  -0.0162   0.00    1.1
2173 281734.000  -1787004.6624  -4328786.0927   4317505.3781   2   8   0.0309   0.0464   0.0238   0.0283  -0.0235  -0.0162   0.00    1.1
2173 281735.000  -1787004.6638  -4328786.0953   4317505.3791   2   8   0.0308   0.0463   0.0239   0.0282  -0.0234  -0.0162   0.00    1.1
2173 281736.000  -1787004.6648  -4328786.0908   4317505.3791   2   8   0.0308   0.0462   0.0237   0.0282  -0.0233  -0.0161   0.00    1.1
2173 281737.000  -1787004.6675  -4328786.0908   4317505.3785   2   8   0.0307   0.0461   0.0235   0.0281  -0.0233  -0.0160   0.00    1.1
2173 281738.000  -1787004.6698  -4328786.0937   4317505.3808   2   8   0.0307   0.0460   0.0234   0.0281  -0.0232  -0.0159   0.00    1.1
2173 281739.000  -1787004.6717  -4328786.0945   4317505.3779   2   8   0.0306   0.0459   0.0234   0.0280  -0.0231  -0.0160   0.00    1.1
2173 281740.000  -1787004.6740  -4328786.0923   4317505.3787   2   8   0.0306   0.0458   0.0233   0.0279  -0.0230  -0.0159   0.00    1.1
2173 281741.000  -1787004.6754  -4328786.0944   4317505.3812   2   8   0.0304   0.0457   0.0231   0.0279  -0.0230  -0.0159   0.00    1.1
2173 281742.000  -1787004.6774  -4328786.0925   4317505.3796   2   8   0.0304   0.0456   0.0232   0.0278  -0.0228  -0.0159   0.00    1.1
2173 281743.000  -1787004.6816  -4328786.0958   4317505.3835   2   8   0.0303   0.0455   0.0230   0.0278  -0.0228  -0.0157   0.00    1.1
2173 281744.000  -1787004.6853  -4328786.1059   4317505.3865   2   8   0.0302   0.0454   0.0229   0.0277  -0.0227  -0.0157   0.00    1.1
2173 281745.000  -1787004.6863  -4328786.1020   4317505.3843   2   8   0.0302   0.0453   0.0228   0.0276  -0.0227  -0.0157   0.00    1.1
2173 281746.000  -1787004.6900  -4328786.1008   4317505.3840   2   8   0.0301   0.0453   0.0227   0.0276  -0.0226  -0.0156   0.00    1.1
2173 281747.000  -1787004.6909  -4328786.1042   4317505.3830   2   8   0.0301   0.0452   0.0225   0.0275  -0.0225  -0.0156   0.00    1.1
2173 281748.000  -1787004.6944  -4328786.1082   4317505.3874   2   8   0.0300   0.0451   0.0224   0.0275  -0.0224  -0.0155   0.00    1.1
2173 281749.000  -1787004.6999  -4328786.1113   4317505.3853   2   8   0.0299   0.0450   0.0224   0.0274  -0.0224  -0.0155   0.00    1.1
2173 281750.000  -1787004.7004  -4328786.1046   4317505.3836   2   8   0.0299   0.0449   0.0223   0.0274  -0.0223  -0.0154   0.00    1.1
2173 281751.000  -1787004.7042  -4328786.1088   4317505.3869   2   8   0.0298   0.0448   0.0222   0.0273  -0.0222  -0.0154   0.00    1.1
2173 281752.000  -1787004.7044  -4328786.1038   4317505.3810   2   8   0.0297   0.0447   0.0221   0.0273  -0.0222  -0.0154   0.00    1.1
2173 281753.000  -1787004.7091  -4328786.1069   4317505.3823   2   8   0.0297   0.0446   0.0220   0.0272  -0.0221  -0.0153   0.00    1.1
2173 281754.000  -1787004.7100  -4328786.1076   4317505.3820   2   8   0.0296   0.0445   0.0219   0.0271  -0.0220  -0.0153   0.00    1.1
2173 281755.000  -1787004.7087  -4328786.1019   4317505.3751   2   8   0.0296   0.0445   0.0218   0.0271  -0.0220  -0.0152   0.00    1.1
2173 281756.000  -1787004.7167  -4328786.1065   4317505.3818   2   8   0.0295   0.0444   0.0218   0.0270  -0.0219  -0.0152   0.00    1.1
2173 281757.000  -1787004.7137  -4328786.1007   4317505.3783   2   8   0.0294   0.0443   0.0217   0.0270  -0.0218  -0.0151   0.00    1.1
2173 281758.000  -1787004.7189  -4328786.1003   4317505.3787   2   8   0.0293   0.0442   0.0216   0.0269  -0.0217  -0.0151   0.00    1.1
2173 281759.000  -1787004.7197  -4328786.1031   4317505.3775   2   8   0.0293   0.0441   0.0216   0.0269  -0.0217  -0.0151   0.00    1.1
2173 281760.000  -1787004.7234  -4328786.0996   4317505.3756   2   8   0.0292   0.0440   0.0214   0.0268  -0.0216  -0.0150   0.00    1.1
2173 281761.000  -1787004.7232  -4328786.0968   4317505.3734   2   8   0.0292   0.0440   0.0215   0.0268  -0.0215  -0.0150   0.00    1.1
2173 281762.000  -1787004.7263  -4328786.0980   4317505.3740   2   8   0.0292   0.0439   0.0213   0.0267  -0.0215  -0.0150   0.00    1.1
2173 281763.000  -1787004.7279  -4328786.0965   4317505.3693   2   8   0.0291   0.0438   0.0211   0.0267  -0.0215  -0.0148   0.00    1.1
2173 281764.000  -1787004.7272  -4328786.0977   4317505.3739   2   8   0.0290   0.0437   0.0210   0.0266  -0.0214  -0.0148   0.00    1.1
2173 281765.000  -1787004.7310  -4328786.0974   4317505.3723   2   8   0.0290   0.0436   0.0210   0.0265  -0.0213  -0.0148   0.00    1.1
2173 281766.000  -1787004.7292  -4328786.0950   4317505.3675   2   8   0.0289   0.0435   0.0210   0.0265  -0.0212  -0.0148   0.00    1.1
2173 281767.000  -1787004.7332  -4328786.0991   4317505.3688   2   8   0.0288   0.0434   0.0208   0.0265  -0.0212  -0.0148   0.00    1.1
2173 281768.000  -1787004.7347  -4328786.0969   4317505.3670   2   8   0.0288   0.0434   0.0207   0.0264  -0.0211  -0.0147   0.00    1.1
2173 281769.000  -1787004.7378  -4328786.0994   4317505.3667   2   8   0.0287   0.0433   0.0207   0.0264  -0.0211  -0.0147   0.00    1.1
2173 281770.000  -1787004.7381  -4328786.0996   4317505.3676   2   8   0.0287   0.0432   0.0207   0.0263  -0.0210  -0.0146   0.00    1.1
2173 281771.000  -1787004.7413  -4328786.1007   4317505.3683   2   8   0.0286   0.0431   0.0207   0.0263  -0.0209  -0.0146   0.00    1.1
2173 281772.000  -1787004.7448  -4328786.1048   4317505.3678   2   8   0.0285   0.0430   0.0205   0.0262  -0.0209  -0.0146   0.00    1.1
2173 281773.000  -1787004.7452  -4328786.1051   4317505.3657   2   8   0.0285   0.0430   0.0204   0.0262  -0.0208  -0.0145   0.00    1.1
2173 281774.000  -1787004.7456  -4328786.1036   4317505.3639   2   8   0.0284   0.0429   0.0203   0.0261  -0.0208  -0.0146   0.00    1.1
2173 281775.000  -1787004.7483  -4328786.1081   4317505.3650   2   8   0.0285   0.0428   0.0203   0.0261  -0.0207  -0.0144   0.00    1.1
2173 281776.000  -1787004.7510  -4328786.1027   4317505.3627   2   8   0.0284   0.0427   0.0203   0.0260  -0.0206  -0.0145   0.00    1.1
2173 281777.000  -1787004.7520  -4328786.1073   4317505.3649   2   8   0.0283   0.0426   0.0201   0.0260  -0.0206  -0.0143   0.00    1.1
2173 281778.000  -1787004.7520  -4328786.1046   4317505.3616   2   8   0.0283   0.0426   0.0202   0.0259  -0.0205  -0.0144   0.00    1.1
2173 281779.000  -1787004.7534  -4328786.1063   4317505.3649   2   8   0.0282   0.0425   0.0200   0.0259  -0.0204  -0.0143   0.00    1.1
2173 281780.000  -1787004.7538  -4328786.1083   4317505.3642   2   8   0.0282   0.0424   0.0199   0.0258  -0.0204  -0.0143   0.00    1.1
2173 281781.000  -1787004.7568  -4328786.1098   4317505.3620   2   8   0.0281   0.0423   0.0197   0.0258  -0.0204  -0.0142   0.00    1.1
2173 281782.000  -1787004.7546  -4328786.1048   4317505.3557   2   8   0.0280   0.0423   0.0197   0.0257  -0.0203  -0.0143   0.00    1.1
2173 281783.000  -1787004.7570  -4328786.1077   4317505.3619   2   8   0.0280   0.0422   0.0196   0.0257  -0.0202  -0.0141   0.00    1.1
2173 281784.000  -1787004.7555  -4328786.1061   4317505.3573   2   8   0.0280   0.0421   0.0196   0.0257  -0.0202  -0.0142   0.00    1.1
2173 281785.000  -1787004.7589  -4328786.1105   4317505.3601   2   8   0.0279   0.0420   0.0195   0.0256  -0.0201  -0.0142   0.00    1.1
2173 281786.000  -1787004.7568  -4328786.1062   4317505.3579   2   8   0.0279   0.0420   0.0195   0.0256  -0.0201  -0.0141   0.00    1.1
2173 281787.000  -1787004.7622  -4328786.1136   4317505.3585   2   8   0.0278   0.0419   0.0194   0.0255  -0.0200  -0.0141   0.00    1.1
2173 281788.000  -1787004.7632  -4328786.1132   4317505.3565   2   8   0.0277   0.0418   0.0193   0.0255  -0.0200  -0.0141   0.00    1.1
2173 281789.000  -1787004.7658  -4328786.1143   4317505.3589   2   8   0.0277   0.0417   0.0191   0.0255  -0.0200  -0.0139   0.00    1.1
2173 281790.000  -1787004.7679  -4328786.1151   4317505.3567   2   8   0.0276   0.0417   0.0191   0.0254  -0.0199  -0.0139   0.00    1.1
2173 281791.000  -1787004.7664  -4328786.1143   4317505.3543   2   8   0.0276   0.0416   0.0191   0.0254  -0.0198  -0.0138   0.00    1.1
2173 281792.000  -1787004.7644  -4328786.1126   4317505.3559   2   8   0.0276   0.0415   0.0192   0.0253  -0.0197  -0.0139   0.00    1.1
2173 281793.000  -1787004.7717  -4328786.1189   4317505.3564   2   8   0.0274   0.0415   0.0190   0.0253  -0.0197  -0.0138   0.00    1.1
2173 281794.000  -1787004.7713  -4328786.1166   4317505.3571   2   8   0.0274   0.0414   0.0190   0.0252  -0.0196  -0.0138   0.00    1.1
2173 281795.000  -1787004.7699  -4328786.1156   4317505.3558   2   8   0.0274   0.0413   0.0189   0.0252  -0.0196  -0.0138   0.00    1.1
2173 281796.000  -1787004.7731  -4328786.1242   4317505.3553   2   8   0.0273   0.0412   0.0188   0.0251  -0.0196  -0.0137   0.00    1.1
2173 281797.000  -1787004.7714  -4328786.1181   4317505.3527   2   8   0.0272   0.0412   0.0187   0.0251  -0.0196  -0.0136   0.00    1.1
2173 281798.000  -1787004.7732  -4328786.1205   4317505.3553   2   8   0.0273   0.0411   0.0188   0.0250  -0.0194  -0.0137   0.00    1.1
2173 281799.000  -1787004.7732  -4328786.1234   4317505.3566   2   8   0.0272   0.0410   0.0187   0.0250  -0.0194  -0.0136   0.00    1.1
2173 281800.000  -1787004.7787  -4328786.1241   4317505.3529   2   8   0.0272   0.0410   0.0186   0.0249  -0.0193  -0.0136   0.00    1.1
2173 281801.000  -1787004.7816  -4328786.1266   4317505.3552   2   8   0.0271   0.0409   0.0185   0.0249  -0.0193  -0.0136   0.00    1.1
2173 281802.000  -1787004.7818  -4328786.1277   4317505.3521   2   8   0.0270   0.0409   0.0183   0.0249  -0.0192  -0.0135   0.00    1.1
2173 281803.000  -1787004.7843  -4328786.1297   4317505.3542   2   8   0.0270   0.0408   0.0184   0.0248  -0.0192  -0.0135   0.00    1.1
2173 281804.000  -1787004.7838  -4328786.1283   4317505.3536   2   8   0.0269   0.0407   0.0182   0.0248  -0.0192  -0.0134   0.00    1.1
2173 281805.000  -1787004.7848  -4328786.1257   4317505.3509   2   8   0.0269   0.0406   0.0181   0.0247  -0.0191  -0.0134   0.00    1.1
2173 281806.000  -1787004.7874  -4328786.1311   4317505.3543   2   8   0.0268   0.0406   0.0183   0.0247  -0.0190  -0.0135   0.00    1.1
2173 281807.000  -1787004.7925  -4328786.1333   4317505.3570   2   8   0.0268   0.0405   0.0181   0.0247  -0.0191  -0.0134   0.00    1.1
2173 281808.000  -1787004.7903  -4328786.1302   4317505.3520   2   8   0.0268   0.0404   0.0181   0.0246  -0.0189  -0.0134   0.00    1.1
2173 281809.000  -1787004.7922  -4328786.1302   4317505.3513   2   8   0.0267   0.0404   0.0180   0.0246  -0.0189  -0.0133   0.00    1.1
2173 281810.000  -1787004.7937  -4328786.1330   4317505.3542   2   8   0.0266   0.0403   0.0180   0.0245  -0.0188  -0.0133   0.00    1.1
2173 281811.000  -1787004.7944  -4328786.1351   4317505.3549   2   8   0.0267   0.0402   0.0179   0.0245  -0.0189  -0.0132   0.00    1.1
2173 281812.000  -1787004.7989  -4328786.1368   4317505.3541   2   8   0.0266   0.0402   0.0179   0.0245  -0.0188  -0.0132   0.00    1.1
2173 281813.000  -1787004.7962  -4328786.1356   4317505.3540   2   8   0.0265   0.0401   0.0178   0.0244  -0.0187  -0.0132   0.00    1.1
2173 281814.000  -1787004.7983  -4328786.1340   4317505.3552   2   8   0.0265   0.0400   0.0177   0.0244  -0.0187  -0.0131   0.00    1.1
2173 281815.000  -1787004.8010  -4328786.1351   4317505.3551   2   8   0.0265   0.0400   0.0178   0.0243  -0.0186  -0.0132   0.00    1.1
2173 281816.000  -1787004.8040  -4328786.1385   4317505.3574   2   8   0.0264   0.0399   0.0177   0.0243  -0.0186  -0.0131   0.00    1.1
2173 281817.000  -1787004.8015  -4328786.1373   4317505.3547   2   8   0.0264   0.0399   0.0176   0.0243  -0.0186  -0.0130   0.00    1.1
2173 281818.000  -1787004.8052  -4328786.1426   4317505.3621   2   8   0.0264   0.0398   0.0174   0.0242  -0.0186  -0.0130   0.00    1.1
2173 281819.000  -1787004.8093  -4328786.1419   4317505.3615   2   8   0.0263   0.0397   0.0175   0.0242  -0.0184  -0.0130   0.00    1.1
2173 281820.000  -1787004.8051  -4328786.1359   4317505.3579   2   8   0.0262   0.0397   0.0174   0.0242  -0.0184  -0.0130   0.00    1.1
2173 281821.000  -1787004.8120  -4328786.1434   4317505.3599   2   8   0.0262   0.0396   0.0173   0.0241  -0.0185  -0.0129   0.00    1.1
2173 281822.000  -1787004.8102  -4328786.1416   4317505.3647   2   8   0.0261   0.0396   0.0173   0.0241  -0.0184  -0.0130   0.00    1.1
2173 281823.000  -1787004.8127  -4328786.1409   4317505.3653   2   8   0.0260   0.0395   0.0173   0.0241  -0.0183  -0.0130   0.00    1.1
2173 281824.000  -1787004.8140  -4328786.1411   4317505.3655   2   8   0.0260   0.0394   0.0173   0.0240  -0.0182  -0.0128   0.00    1.1
2173 281825.000  -1787004.8173  -4328786.1439   4317505.3692   2   8   0.0260   0.0393   0.0171   0.0240  -0.0183  -0.0129   0.00    1.1
2173 281826.000  -1787004.8155  -4328786.1381   4317505.3655   2   8   0.0259   0.0393   0.0172   0.0239  -0.0181  -0.0128   0.00    1.1
2173 281827.000  -1787004.8211  -4328786.1482   4317505.3773   2   8   0.0258   0.0392   0.0170   0.0239  -0.0181  -0.0128   0.00    1.1
2173 281828.000  -1787004.8206  -4328786.1419   4317505.3709   2   8   0.0258   0.0392   0.0171   0.0239  -0.0181  -0.0128   0.00    1.1
2173 281829.000  -1787004.8186  -4328786.1409   4317505.3730   2   8   0.0258   0.0391   0.0170   0.0238  -0.0181  -0.0128   0.00    1.1
2173 281830.000  -1787004.8196  -4328786.1426   4317505.3737   2   8   0.0258   0.0391   0.0170   0.0238  -0.0180  -0.0127   0.00    1.1
2173 281831.000  -1787004.8207  -4328786.1397   4317505.3680   2   8   0.0258   0.0390   0.0167   0.0237  -0.0180  -0.0127   0.00    1.1
2173 281832.000  -1787004.8239  -4328786.1449   4317505.3759   2   8   0.0257   0.0389   0.0167   0.0237  -0.0180  -0.0126   0.00    1.1
2173 281833.000  -1787004.8226  -4328786.1431   4317505.3756   2   8   0.0256   0.0389   0.0168   0.0237  -0.0179  -0.0126   0.00    1.1
2173 281834.000  -1787004.8232  -4328786.1395   4317505.3732   2   8   0.0256   0.0388   0.0167   0.0236  -0.0178  -0.0126   0.00    1.1
2173 281835.000  -1787004.8255  -4328786.1398   4317505.3791   2   8   0.0256   0.0388   0.0167   0.0236  -0.0178  -0.0126   0.00    1.1
2173 281836.000  -1787004.8250  -4328786.1412   4317505.3796   2   8   0.0255   0.0387   0.0166   0.0236  -0.0178  -0.0125   0.00    1.1
2173 281837.000  -1787004.8264  -4328786.1434   4317505.3825   2   8   0.0255   0.0387   0.0165   0.0236  -0.0177  -0.0125   0.00    1.1
2173 281838.000  -1787004.8262  -4328786.1423   4317505.3821   2   8   0.0254   0.0386   0.0165   0.0235  -0.0177  -0.0125   0.00    1.1
2173 281839.000  -1787004.8268  -4328786.1363   4317505.3805   2   8   0.0255   0.0385   0.0165   0.0235  -0.0177  -0.0125   0.00    1.1
2173 281840.000  -1787004.8255  -4328786.1370   4317505.3796   2   8   0.0254   0.0385   0.0165   0.0234  -0.0176  -0.0125   0.00    1.1
2173 281841.000  -1787004.8266  -4328786.1369   4317505.3818   2   8   0.0253   0.0384   0.0163   0.0234  -0.0176  -0.0126   0.00    1.1
2173 281842.000  -1787004.8280  -4328786.1363   4317505.3850   2   8   0.0252   0.0384   0.0163   0.0233  -0.0175  -0.0124   0.00    1.1
2173 281843.000  -1787004.8301  -4328786.1408   4317505.3869   2   8   0.0253   0.0383   0.0161   0.0233  -0.0176  -0.0124   0.00    1.1
2173 281844.000  -1787004.8321  -4328786.1351   4317505.3832   2   8   0.0252   0.0382   0.0162   0.0233  -0.0175  -0.0123   0.00    1.1
2173 281845.000  -1787004.8297  -4328786.1359   4317505.3902   2   8   0.0251   0.0382   0.0162   0.0233  -0.0175  -0.0124   0.00    1.1
2173 281846.000  -1787004.8322  -4328786.1328   4317505.3905   2   8   0.0251   0.0381   0.0160   0.0233  -0.0175  -0.0123   0.00    1.1
2173 281847.000  -1787004.8331  -4328786.1377   4317505.3945   2   8   0.0251   0.0381   0.0162   0.0232  -0.0174  -0.0123   0.00    1.1
2173 281848.000  -1787004.8357  -4328786.1356   4317505.3969   2   8   0.0250   0.0380   0.0159   0.0232  -0.0174  -0.0123   0.00    1.1
2173 281849.000  -1787004.8344  -4328786.1343   4317505.3935   2   8   0.0250   0.0380   0.0159   0.0231  -0.0173  -0.0122   0.00    1.1
2173 281850.000  -1787004.8361  -4328786.1325   4317505.3918   2   8   0.0249   0.0379   0.0159   0.0231  -0.0173  -0.0123   0.00    1.1
2173 281851.000  -1787004.8344  -4328786.1301   4317505.3938   2   8   0.0249   0.0378   0.0160   0.0231  -0.0172  -0.0122   0.00    1.1
2173 281852.000  -1787004.8381  -4328786.1286   4317505.3987   2   8   0.0249   0.0378   0.0159   0.0231  -0.0173  -0.0122   0.00    1.1
2173 281853.000  -1787004.8377  -4328786.1309   4317505.3982   2   8   0.0249   0.0377   0.0158   0.0230  -0.0172  -0.0121   0.00    1.1
2173 281854.000  -1787004.8376  -4328786.1325   4317505.3960   2   8   0.0248   0.0377   0.0157   0.0230  -0.0172  -0.0121   0.00    1.1
2173 281855.000  -1787004.8376  -4328786.1206   4317505.3960   2   8   0.0247   0.0376   0.0158   0.0229  -0.0171  -0.0123   0.00    1.1
2173 281856.000  -1787004.8398  -4328786.1267   4317505.3994   2   8   0.0247   0.0376   0.0158   0.0229  -0.0171  -0.0123   0.00    1.1
2173 281857.000  -1787004.8386  -4328786.1265   4317505.4013   2   8   0.0246   0.0375   0.0157   0.0229  -0.0170  -0.0121   0.00    1.1
2173 281858.000  -1787004.8421  -4328786.1249   4317505.4000   2   8   0.0247   0.0375   0.0157   0.0228  -0.0169  -0.0120   0.00    1.1
2173 281859.000  -1787004.8402  -4328786.1238   4317505.4004   2   8   0.0247   0.0374   0.0156   0.0228  -0.0169  -0.0121   0.00    1.1
2173 281860.000  -1787004.8385  -4328786.1223   4317505.3984   2   8   0.0245   0.0374   0.0155   0.0228  -0.0170  -0.0120   0.00    1.1
2173 281861.000  -1787004.8398  -4328786.1211   4317505.4015   2   8   0.0245   0.0373   0.0155   0.0228  -0.0169  -0.0119   0.00    1.1
2173 281862.000  -1787004.8386  -4328786.1187   4317505.3995   2   8   0.0245   0.0373   0.0155   0.0227  -0.0169  -0.0119   0.00    1.1
2173 281863.000  -1787004.8385  -4328786.1166   4317505.3977   2   8   0.0244   0.0372   0.0155   0.0227  -0.0168  -0.0120   0.00    1.1
2173 281864.000  -1787004.8384  -4328786.1188   4317505.3988   2   8   0.0244   0.0372   0.0154   0.0227  -0.0168  -0.0119   0.00    1.1
2173 281865.000  -1787004.8387  -4328786.1178   4317505.3989   2   8   0.0244   0.0371   0.0153   0.0226  -0.0168  -0.0119   0.00    1.1
2173 281866.000  -1787004.8361  -4328786.1122   4317505.3986   2   8   0.0243   0.0371   0.0153   0.0226  -0.0168  -0.0118   0.00    1.1
2173 281867.000  -1787004.8377  -4328786.1178   4317505.3984   2   8   0.0243   0.0370   0.0153   0.0225  -0.0167  -0.0118   0.00    1.1
2173 281868.000  -1787004.8358  -4328786.1161   4317505.3970   2   8   0.0243   0.0370   0.0153   0.0225  -0.0167  -0.0119   0.00    1.0
2173 281869.000  -1787004.8373  -4328786.1119   4317505.3955   2   8   0.0242   0.0369   0.0152   0.0225  -0.0166  -0.0118   0.00    1.0
2173 281870.000  -1787004.8380  -4328786.1179   4317505.4008   2   8   0.0242   0.0369   0.0151   0.0224  -0.0166  -0.0118   0.00    1.0
2173 281871.000  -1787004.8366  -4328786.1147   4317505.3983   2   8   0.0241   0.0368   0.0151   0.0224  -0.0166  -0.0118   0.00    1.0
2173 281872.000  -1787004.8370  -4328786.1108   4317505.3964   2   8   0.0241   0.0367   0.0152   0.0224  -0.0166  -0.0119   0.00    1.0
2173 281873.000  -1787004.8378  -4328786.1160   4317505.3996   2   8   0.0241   0.0367   0.0151   0.0224  -0.0165  -0.0116   0.00    1.0
2173 281874.000  -1787004.8332  -4328786.1087   4317505.3940   2   8   0.0241   0.0367   0.0150   0.0223  -0.0165  -0.0116   0.00    1.0
2173 281875.000  -1787004.8323  -4328786.1078   4317505.3924   2   8   0.0240   0.0366   0.0150   0.0223  -0.0164  -0.0118   0.00    1.0
2173 281876.000  -1787004.8314  -4328786.1095   4317505.3967   2   8   0.0240   0.0366   0.0151   0.0223  -0.0164  -0.0117   0.00    1.0
2173 281877.000  -1787004.8340  -4328786.1055   4317505.3935   2   8   0.0240   0.0365   0.0150   0.0222  -0.0164  -0.0117   0.00    1.0
2173 281878.000  -1787004.8370  -4328786.1073   4317505.3954   2   8   0.0239   0.0365   0.0149   0.0222  -0.0164  -0.0116   0.00    1.0
2173 281879.000  -1787004.8325  -4328786.1002   4317505.3926   2   8   0.0239   0.0364   0.0149   0.0222  -0.0163  -0.0116   0.00    1.0
2173 281880.000  -1787004.8365  -4328786.1047   4317505.3963   2   8   0.0238   0.0364   0.0147   0.0222  -0.0164  -0.0116   0.00    1.0
2173 281881.000  -1787004.8343  -4328786.1065   4317505.3972   2   8   0.0239   0.0363   0.0149   0.0221  -0.0163  -0.0115   0.00    1.0
2173 281882.000  -1787004.8307  -4328786.0957   4317505.3892   2   8   0.0238   0.0363   0.0146   0.0221  -0.0163  -0.0116   0.00    1.0
2173 281883.000  -1787004.8336  -4328786.0989   4317505.3954   2   8   0.0237   0.0362   0.0148   0.0221  -0.0163  -0.0116   0.00    1.0
2173 281884.000  -1787004.8343  -4328786.0988   4317505.3936   2   8   0.0237   0.0362   0.0147   0.0221  -0.0162  -0.0116   0.00    1.0
2173 281885.000  -1787004.8322  -4328786.0948   4317505.3962   2   8   0.0237   0.0361   0.0145   0.0220  -0.0162  -0.0114   0.00    1.0
2173 281886.000  -1787004.8355  -4328786.0951   4317505.3933   2   8   0.0237   0.0361   0.0146   0.0220  -0.0162  -0.0115   0.00    1.0
2173 281887.000  -1787004.8334  -4328786.0954   4317505.3914   2   8   0.0236   0.0360   0.0146   0.0220  -0.0161  -0.0113   0.00    1.0
2173 281888.000  -1787004.8351  -4328786.0987   4317505.3972   2   8   0.0235   0.0360   0.0144   0.0220  -0.0161  -0.0114   0.00    1.0
2173 281889.000  -1787004.8310  -4328786.0868   4317505.3916   2   8   0.0235   0.0360   0.0147   0.0219  -0.0160  -0.0115   0.00    1.0
2173 281890.000  -1787004.8370  -4328786.0967   4317505.3958   2   8   0.0235   0.0359   0.0146   0.0219  -0.0160  -0.0114   0.00    1.0
2173 281891.000  -1787004.8309  -4328786.0893   4317505.3917   2   8   0.0234   0.0358   0.0144   0.0219  -0.0160  -0.0114   0.00    1.0
2173 281892.000  -1787004.8344  -4328786.0919   4317505.3962   2   8   0.0234   0.0358   0.0145   0.0219  -0.0160  -0.0114   0.00    1.0
2173 281893.000  -1787004.8337  -4328786.0915   4317505.3916   2   8   0.0233   0.0357   0.0143   0.0218  -0.0160  -0.0114   0.00    1.0
2173 281894.000  -1787004.8334  -4328786.0885   4317505.3955   2   8   0.0233   0.0357   0.0145   0.0218  -0.0158  -0.0114   0.00    1.0
2173 281895.000  -1787004.8345  -4328786.0901   4317505.3972   2   8   0.0232   0.0357   0.0144   0.0218  -0.0159  -0.0113   0.00    1.0
2173 281896.000  -1787004.8348  -4328786.0889   4317505.3957   2   8   0.0233   0.0356   0.0143   0.0217  -0.0159  -0.0113   0.00    1.0
2173 281897.000  -1787004.8301  -4328786.0835   4317505.3929   2   8   0.0232   0.0356   0.0141   0.0217  -0.0158  -0.0113   0.00    1.0
2173 281898.000  -1787004.8318  -4328786.0854   4317505.3966   2   8   0.0233   0.0355   0.0143   0.0216  -0.0158  -0.0112   0.00    1.0
2173 281899.000  -1787004.8318  -4328786.0835   4317505.3981   2   8   0.0232   0.0355   0.0143   0.0217  -0.0158  -0.0111   0.00    1.0
2173 281900.000  -1787004.8332  -4328786.0847   4317505.3965   2   8   0.0232   0.0354   0.0141   0.0216  -0.0158  -0.0113   0.00    1.0
2173 281901.000  -1787004.8294  -4328786.0781   4317505.4009   2   8   0.0231   0.0354   0.0142   0.0216  -0.0157  -0.0113   0.00    1.0
