% program   : rnx2rtkp ver.2.4.3 b31
% inp file  : ngs/21_08_28_19_51_19_txda.obs
% inp file  : ngs/21_08_28_19_51_19_txda_VZ.obs
% inp file  : ngs/21_08_28_19_51_19_brdc.nav
% obs start : 2021/08/28 19:00:00.0 GPST (week2172 586800.0s)
% obs end   : 2021/08/28 19:59:59.0 GPST (week2172 590399.0s)
% ref pos   :  -623220.2692  -5323949.8091   3445259.9498
%
% (x/y/z-ecef=WGS84,Q=1:fix,2:float,3:sbas,4:dgps,5:single,6:ppp,ns=# of satellites)
%  GPST              x-ecef(m)      y-ecef(m)      z-ecef(m)   Q  ns   sdx(m)   sdy(m)   sdz(m)  sdxy(m)  sdyz(m)  sdzx(m) age(s)  ratio
2172 589871.000   -623613.2093  -5330304.4260   3435421.6086   2   7   0.4927   1.3521   0.5636   0.4982  -0.6206  -0.2130 -30.00    1.0
2172 589872.000   -623613.2124  -5330304.2753   3435421.6307   2   7   0.3504   0.9607   0.4012   0.3539  -0.4408  -0.1507 -29.00    1.0
2172 589873.000   -623613.1859  -5330304.1924   3435421.6208   2   7   0.2869   0.7863   0.3285   0.2896  -0.3608  -0.1233 -28.00    1.0
2172 589874.000   -623613.1779  -5330304.2777   3435421.6662   2   7   0.2489   0.6822   0.2850   0.2513  -0.3131  -0.1069 -27.00    1.0
2172 589875.000   -623613.1619  -5330304.3284   3435421.6744   2   7   0.2229   0.6110   0.2553   0.2250  -0.2804  -0.0958 -26.00    1.0
2172 589876.000   -623613.1323  -5330304.4005   3435421.6601   2   7   0.2037   0.5583   0.2333   0.2056  -0.2563  -0.0876 -25.00    1.1
2172 589877.000   -623613.1286  -5330304.4669   3435421.6717   2   7   0.1887   0.5172   0.2161   0.1905  -0.2375  -0.0811 -24.00    1.1
2172 589878.000   -623613.0929  -5330304.3968   3435421.6688   2   7   0.1766   0.4840   0.2023   0.1782  -0.2223  -0.0760 -23.00    1.0
2172 589879.000   -623613.0667  -5330304.4386   3435421.6613   2   7   0.1666   0.4565   0.1908   0.1681  -0.2096  -0.0716 -22.00    1.1
2172 589880.000   -623613.0448  -5330304.3868   3435421.6500   2   7   0.1581   0.4331   0.1811   0.1594  -0.1989  -0.0680 -21.00    1.1
2172 589881.000   -623613.0389  -5330304.3398   3435421.6346   2   7   0.1507   0.4129   0.1727   0.1520  -0.1896  -0.0648 -20.00    1.1
2172 589882.000   -623613.0400  -5330304.3782   3435421.6438   2   7   0.1443   0.3952   0.1653   0.1454  -0.1815  -0.0620 -19.00    1.1
2172 589883.000   -623613.0285  -5330304.4086   3435421.6452   2   7   0.1386   0.3796   0.1588   0.1397  -0.1743  -0.0595 -18.00    1.1
2172 589884.000   -623613.0186  -5330304.4083   3435421.6388   2   7   0.1335   0.3656   0.1530   0.1345  -0.1679  -0.0573 -17.00    1.1
2172 589885.000   -623613.0137  -5330304.4172   3435421.6355   2   7   0.1290   0.3530   0.1478   0.1298  -0.1621  -0.0553 -16.00    1.1
2172 589886.000   -623613.0030  -5330304.4233   3435421.6300   2   7   0.1248   0.3415   0.1431   0.1256  -0.1568  -0.0535 -15.00    1.1
2172 589887.000   -623612.9941  -5330304.4318   3435421.6257   2   7   0.1211   0.3310   0.1388   0.1217  -0.1520  -0.0518 -14.00    1.0
2172 589888.000   -623612.9896  -5330304.4101   3435421.6158   2   7   0.1176   0.3214   0.1348   0.1182  -0.1476  -0.0503 -13.00    1.0
2172 589889.000   -623612.9885  -5330304.3983   3435421.6087   2   7   0.1144   0.3125   0.1311   0.1149  -0.1435  -0.0488 -12.00    1.0
2172 589890.000   -623612.9929  -5330304.3915   3435421.6072   2   7   0.1115   0.3043   0.1277   0.1118  -0.1397  -0.0475 -11.00    1.0
2172 589891.000   -623612.9916  -5330304.3888   3435421.6001   2   7   0.1087   0.2966   0.1246   0.1090  -0.1362  -0.0463 -10.00    1.0
2172 589892.000   -623612.9947  -5330304.3739   3435421.5996   2   7   0.1062   0.2895   0.1217   0.1063  -0.1329  -0.0451  -9.00    1.0
2172 589893.000   -623613.0018  -5330304.3758   3435421.5981   2   7   0.1038   0.2828   0.1189   0.1039  -0.1298  -0.0441  -8.00    1.0
2172 589894.000   -623612.9977  -5330304.3805   3435421.5928   2   7   0.1015   0.2765   0.1163   0.1015  -0.1269  -0.0430  -7.00    1.0
2172 589895.000   -623612.9993  -5330304.3784   3435421.5897   2   7   0.0994   0.2706   0.1139   0.0993  -0.1241  -0.0421  -6.00    1.0
2172 589896.000   -623612.9902  -5330304.3617   3435421.5897   2   7   0.0974   0.2651   0.1116   0.0973  -0.1215  -0.0412  -5.00    1.0
2172 589897.000   -623612.9888  -5330304.3461   3435421.5839   2   7   0.0956   0.2598   0.1095   0.0953  -0.1191  -0.0403  -4.00    1.1
2172 589898.000   -623612.9855  -5330304.3270   3435421.5749   2   7   0.0938   0.2548   0.1074   0.0935  -0.1168  -0.0395  -3.00    1.1
2172 589899.000   -623612.9890  -5330304.3163   3435421.5691   2   7   0.0922   0.2501   0.1055   0.0918  -0.1146  -0.0388  -2.00    1.2
2172 589900.000   -623612.9908  -5330304.3057   3435421.5643   2   7   0.0906   0.2457   0.1037   0.0901  -0.1125  -0.0380  -1.00    1.2
2172 589901.000   -623612.9857  -5330304.2972   3435421.5576   2   7   0.0891   0.2415   0.1020   0.0886  -0.1106  -0.0374   0.00    1.3
2172 589902.000   -623612.9966  -5330304.3072   3435421.5597   2   7   0.0877   0.2375   0.1003   0.0871  -0.1087  -0.0368   0.00    1.4
2172 589903.000   -623612.9942  -5330304.3181   3435421.5583   2   7   0.0863   0.2337   0.0987   0.0856  -0.1070  -0.0361   0.00    1.5
2172 589904.000   -623612.9920  -5330304.2964   3435421.5480   2   7   0.0850   0.2301   0.0972   0.0843  -0.1053  -0.0355   0.00    1.5
2172 589905.000   -623612.9792  -5330304.2819   3435421.5421   2   7   0.0838   0.2266   0.0958   0.0830  -0.1036  -0.0350   0.00    1.6
2172 589906.000   -623612.9811  -5330304.2632   3435421.5309   2   7   0.0826   0.2233   0.0944   0.0818  -0.1021  -0.0344   0.00    1.7
2172 589907.000   -623612.9743  -5330304.2504   3435421.5266   2   7   0.0815   0.2200   0.0931   0.0806  -0.1006  -0.0339   0.00    1.7
2172 589908.000   -623612.9752  -5330304.2479   3435421.5235   2   7   0.0804   0.2169   0.0918   0.0794  -0.0991  -0.0334   0.00    1.8
2172 589909.000   -623612.9742  -5330304.2381   3435421.5277   2   7   0.0793   0.2140   0.0906   0.0783  -0.0977  -0.0329   0.00    1.9
2172 589910.000   -623612.9751  -5330304.2159   3435421.5221   2   7   0.0783   0.2111   0.0894   0.0772  -0.0963  -0.0324   0.00    1.9
2172 589911.000   -623612.9788  -5330304.2012   3435421.5228   2   7   0.0773   0.2083   0.0883   0.0762  -0.0950  -0.0320   0.00    1.9
2172 589912.000   -623612.9800  -5330304.1919   3435421.5243   2   7   0.0764   0.2056   0.0872   0.0752  -0.0937  -0.0315   0.00    2.0
2172 589913.000   -623612.9763  -5330304.1693   3435421.5203   2   7   0.0755   0.2030   0.0861   0.0742  -0.0925  -0.0311   0.00    2.0
2172 589914.000   -623612.9735  -5330304.1720   3435421.5239   2   7   0.0746   0.2004   0.0850   0.0732  -0.0913  -0.0307   0.00    2.0
2172 589915.000   -623612.9703  -5330304.1601   3435421.5218   2   7   0.0738   0.1980   0.0840   0.0723  -0.0901  -0.0303   0.00    2.1
2172 589916.000   -623612.9765  -5330304.1414   3435421.5172   2   7   0.0730   0.1956   0.0831   0.0714  -0.0890  -0.0299   0.00    2.2
2172 589917.000   -623612.9677  -5330304.1054   3435421.5090   2   7   0.0722   0.1932   0.0821   0.0705  -0.0878  -0.0295   0.00    2.2
2172 589918.000   -623612.9615  -5330304.0943   3435421.5073   2   7   0.0714   0.1910   0.0812   0.0697  -0.0868  -0.0291   0.00    2.3
2172 589919.000   -623612.9629  -5330304.0714   3435421.5021   2   7   0.0706   0.1888   0.0803   0.0689  -0.0857  -0.0287   0.00    2.3
2172 589920.000   -623612.9597  -5330304.0518   3435421.5007   2   7   0.0699   0.1866   0.0794   0.0681  -0.0847  -0.0284   0.00    2.4
2172 589921.000   -623612.9510  -5330304.0557   3435421.4983   2   7   0.0692   0.1845   0.0785   0.0673  -0.0836  -0.0280   0.00    2.4
2172 589922.000   -623612.9519  -5330304.0534   3435421.4938   2   7   0.0685   0.1825   0.0777   0.0665  -0.0826  -0.0277   0.00    2.5
2172 589923.000   -623612.9458  -5330304.0364   3435421.4876   2   7   0.0678   0.1805   0.0769   0.0657  -0.0817  -0.0273   0.00    2.5
2172 589924.000   -623612.9423  -5330304.0340   3435421.4884   2   7   0.0672   0.1786   0.0761   0.0650  -0.0807  -0.0270   0.00    2.6
2172 589925.000   -623612.9362  -5330303.9995   3435421.4673   2   7   0.0666   0.1766   0.0753   0.0643  -0.0798  -0.0266   0.00    2.6
2172 589926.000   -623612.9340  -5330303.9969   3435421.4652   2   7   0.0660   0.1748   0.0746   0.0636  -0.0789  -0.0263   0.00    2.7
2172 589927.000   -623612.9264  -5330303.9711   3435421.4523   2   7   0.0653   0.1730   0.0738   0.0629  -0.0780  -0.0260   0.00    2.7
2172 589928.000   -623612.9261  -5330303.9575   3435421.4402   2   7   0.0648   0.1712   0.0731   0.0622  -0.0771  -0.0257   0.00    2.8
2172 589929.000   -623612.9158  -5330303.9383   3435421.4360   2   7   0.0642   0.1694   0.0724   0.0616  -0.0762  -0.0254   0.00    2.8
2172 589930.000   -623612.9134  -5330303.9140   3435421.4270   2   7   0.0636   0.1677   0.0717   0.0609  -0.0754  -0.0251   0.00    2.9
2172 589931.000   -623612.9114  -5330303.8998   3435421.4241   2   7   0.0631   0.1661   0.0710   0.0603  -0.0745  -0.0247   0.00    2.9
2172 589932.000   -623612.9067  -5330303.8844   3435421.4129   2   7   0.0626   0.1644   0.0704   0.0597  -0.0737  -0.0244   0.00    3.0
2172 589933.000   -623612.1781  -5330303.3361   3435421.1515   1   7   0.0050   0.0134   0.0057   0.0048  -0.0062  -0.0022   0.00    3.0
2172 589934.000   -623612.1801  -5330303.3326   3435421.1503   1   7   0.0049   0.0134   0.0056   0.0050  -0.0062  -0.0022   0.00    3.1
2172 589935.000   -623612.1827  -5330303.3319   3435421.1517   1   7   0.0053   0.0135   0.0057   0.0049  -0.0062  -0.0020   0.00    3.1
2172 589936.000   -623612.1820  -5330303.3338   3435421.1546   1   7   0.0045   0.0134   0.0058   0.0051  -0.0061  -0.0020   0.00    3.1
2172 589937.000   -623612.1834  -5330303.3378   3435421.1560   1   7   0.0049   0.0134   0.0057   0.0050  -0.0061  -0.0024   0.00    3.2
2172 589938.000   -623612.1838  -5330303.3354   3435421.1551   1   7   0.0048   0.0134   0.0057   0.0049  -0.0062  -0.0023   0.00    3.2
2172 589939.000   -623612.1831  -5330303.3330   3435421.1515   1   7   0.0050   0.0134   0.0059   0.0049  -0.0062  -0.0022   0.00    3.3
2172 589940.000   -623612.1817  -5330303.3301   3435421.1514   1   7   0.0051   0.0134   0.0057   0.0050  -0.0060  -0.0022   0.00    3.3
2172 589941.000   -623612.1842  -5330303.3351   3435421.1544   1   7   0.0047   0.0134   0.0057   0.0050  -0.0062  -0.0021   0.00    3.4
2172 589942.000   -623612.1845  -5330303.3341   3435421.1516   1   7   0.0049   0.0134   0.0057   0.0051  -0.0062  -0.0021   0.00    3.4
2172 589943.000   -623612.1812  -5330303.3271   3435421.1509   1   7   0.0049   0.0134   0.0058   0.0049  -0.0061  -0.0017   0.00    3.5
2172 589944.000   -623612.1848  -5330303.3304   3435421.1482   1   7   0.0049   0.0134   0.0058   0.0050  -0.0061  -0.0017   0.00    3.5
2172 589945.000   -623612.1826  -5330303.3330   3435421.1478   1   7   0.0049   0.0134   0.0055   0.0050  -0.0061  -0.0022   0.00    3.6
2172 589946.000   -623612.1849  -5330303.3318   3435421.1489   1   7   0.0048   0.0134   0.0056   0.0048  -0.0061  -0.0022   0.00    3.6
2172 589947.000   -623612.1837  -5330303.3295   3435421.1498   1   7   0.0049   0.0133   0.0057   0.0050  -0.0061  -0.0023   0.00    3.7
2172 589948.000   -623612.1834  -5330303.3309   3435421.1481   1   7   0.0051   0.0134   0.0056   0.0048  -0.0061  -0.0020   0.00    3.7
2172 589949.000   -623612.1832  -5330303.3331   3435421.1485   1   7   0.0053   0.0134   0.0056   0.0048  -0.0062  -0.0022   0.00    3.8
2172 589950.000   -623612.1819  -5330303.3347   3435421.1500   1   7   0.0048   0.0134   0.0055   0.0049  -0.0061  -0.0019   0.00    3.8
2172 589951.000   -623612.1791  -5330303.3321   3435421.1478   1   7   0.0048   0.0133   0.0058   0.0049  -0.0062  -0.0022   0.00    3.9
2172 589952.000   -623612.1803  -5330303.3272   3435421.1473   1   7   0.0048   0.0134   0.0057   0.0049  -0.0062  -0.0023   0.00    4.0
2172 589953.000   -623612.1802  -5330303.3312   3435421.1479   1   7   0.0053   0.0134   0.0056   0.0046  -0.0060  -0.0020   0.00    4.0
2172 589954.000   -623612.1834  -5330303.3335   3435421.1481   1   7   0.0049   0.0134   0.0055   0.0050  -0.0061  -0.0017   0.00    4.0
2172 589955.000   -623612.1856  -5330303.3369   3435421.1493   1   7   0.0053   0.0133   0.0057   0.0047  -0.0062  -0.0021   0.00    4.1
2172 589956.000   -623612.1861  -5330303.3335   3435421.1509   1   7   0.0051   0.0134   0.0058   0.0050  -0.0061  -0.0022   0.00    4.1
2172 589957.000   -623612.1854  -5330303.3346   3435421.1479   1   7   0.0050   0.0134   0.0059   0.0049  -0.0062  -0.0017   0.00    4.2
2172 589958.000   -623612.1853  -5330303.3327   3435421.1484   1   7   0.0049   0.0133   0.0056   0.0050  -0.0061  -0.0021   0.00    4.2
2172 589959.000   -623612.1856  -5330303.3341   3435421.1529   1   7   0.0047   0.0133   0.0055   0.0048  -0.0060  -0.0021   0.00    4.3
2172 589960.000   -623612.1857  -5330303.3391   3435421.1507   1   7   0.0048   0.0132   0.0056   0.0050  -0.0062  -0.0023   0.00    4.3
2172 589961.000   -623612.1861  -5330303.3389   3435421.1507   1   7   0.0049   0.0133   0.0056   0.0049  -0.0062  -0.0021   0.00    4.3
2172 589962.000   -623612.1843  -5330303.3394   3435421.1517   1   7   0.0049   0.0133   0.0056   0.0051  -0.0061  -0.0024   0.00    4.4
2172 589963.000   -623612.1831  -5330303.3275   3435421.1469   1   7   0.0050   0.0133   0.0056   0.0048  -0.0062  -0.0022   0.00    4.4
2172 589964.000   -623612.1859  -5330303.3381   3435421.1486   1   7   0.0051   0.0133   0.0056   0.0047  -0.0062  -0.0019   0.00    4.4
2172 589965.000   -623612.1850  -5330303.3354   3435421.1493   1   7   0.0049   0.0133   0.0057   0.0047  -0.0062  -0.0024   0.00    4.5
2172 589966.000   -623612.1849  -5330303.3347   3435421.1497   1   7   0.0051   0.0133   0.0056   0.0049  -0.0061  -0.0020   0.00    4.5
2172 589967.000   -623612.1831  -5330303.3303   3435421.1480   1   7   0.0051   0.0133   0.0058   0.0048  -0.0062  -0.0018   0.00    4.5
2172 589968.000   -623612.1836  -5330303.3342   3435421.1484   1   7   0.0052   0.0133   0.0056   0.0048  -0.0060  -0.0021   0.00    4.6
2172 589969.000   -623612.1837  -5330303.3412   3435421.1503   1   7   0.0051   0.0133   0.0057   0.0048  -0.0062  -0.0022   0.00    4.6
2172 589970.000   -623612.1847  -5330303.3334   3435421.1502   1   7   0.0051   0.0133   0.0059   0.0046  -0.0062  -0.0017   0.00    4.6
2172 589971.000   -623612.1850  -5330303.3284   3435421.1489   1   7   0.0051   0.0133   0.0057   0.0048  -0.0061  -0.0019   0.00    4.6
2172 589972.000   -623612.1868  -5330303.3344   3435421.1510   1   7   0.0052   0.0133   0.0058   0.0049  -0.0063  -0.0021   0.00    4.6
2172 589973.000   -623612.1856  -5330303.3341   3435421.1513   1   7   0.0048   0.0133   0.0058   0.0049  -0.0061  -0.0018   0.00    4.7
2172 589974.000   -623612.1819  -5330303.3279   3435421.1478   1   7   0.0050   0.0133   0.0059   0.0047  -0.0061  -0.0017   0.00    4.7
2172 589975.000   -623612.1823  -5330303.3268   3435421.1481   1   7   0.0051   0.0133   0.0059   0.0049  -0.0062  -0.0021   0.00    4.7
2172 589976.000   -623612.1820  -5330303.3295   3435421.1483   1   7   0.0050   0.0133   0.0056   0.0051  -0.0061  -0.0021   0.00    4.8
2172 589977.000   -623612.1823  -5330303.3310   3435421.1501   1   7   0.0049   0.0133   0.0058   0.0048  -0.0061  -0.0021   0.00    4.8
2172 589978.000   -623612.1818  -5330303.3267   3435421.1492   1   7   0.0049   0.0133   0.0054   0.0049  -0.0061  -0.0021   0.00    4.8
2172 589979.000   -623612.1841  -5330303.3348   3435421.1508   1   7   0.0048   0.0133   0.0055   0.0048  -0.0061  -0.0020   0.00    4.8
2172 589980.000   -623612.1834  -5330303.3294   3435421.1487   1   7   0.0048   0.0133   0.0058   0.0049  -0.0061  -0.0023   0.00    4.8
2172 589981.000   -623612.1849  -5330303.3263   3435421.1489   1   7   0.0052   0.0133   0.0059   0.0048  -0.0062  -0.0015   0.00    4.8
2172 589982.000   -623612.1835  -5330303.3261   3435421.1495   1   7   0.0049   0.0133   0.0058   0.0049  -0.0061  -0.0022   0.00    4.9
2172 589983.000   -623612.1816  -5330303.3202   3435421.1492   1   7   0.0049   0.0133   0.0059   0.0048  -0.0061  -0.0017   0.00    4.9
2172 589984.000   -623612.1850  -5330303.3268   3435421.1485   1   7   0.0048   0.0133   0.0059   0.0049  -0.0061  -0.0018   0.00    4.9
2172 589985.000   -623612.1860  -5330303.3315   3435421.1507   1   7   0.0051   0.0133   0.0058   0.0050  -0.0062  -0.0019   0.00    4.9
2172 589986.000   -623612.1846  -5330303.3295   3435421.1494   1   7   0.0046   0.0132   0.0056   0.0050  -0.0062  -0.0020   0.00    4.9
2172 589987.000   -623612.1864  -5330303.3246   3435421.1474   1   7   0.0048   0.0132   0.0056   0.0049  -0.0060  -0.0020   0.00    4.9
2172 589988.000   -623612.1853  -5330303.3238   3435421.1501   1   7   0.0048   0.0132   0.0056   0.0051  -0.0061  -0.0024   0.00    4.9
2172 589989.000   -623612.1846  -5330303.3197   3435421.1493   1   7   0.0050   0.0132   0.0055   0.0050  -0.0061  -0.0020   0.00    4.9
2172 589990.000   -623612.1847  -5330303.3266   3435421.1485   1   7   0.0046   0.0132   0.0058   0.0049  -0.0061  -0.0019   0.00    4.9
2172 589991.000   -623612.1838  -5330303.3219   3435421.1488   1   7   0.0049   0.0132   0.0056   0.0049  -0.0061  -0.0024   0.00    4.9
2172 589992.000   -623612.1815  -5330303.3228   3435421.1476   1   7   0.0050   0.0132   0.0056   0.0049  -0.0060  -0.0020   0.00    4.9
2172 589993.000   -623612.1856  -5330303.3224   3435421.1502   1   7   0.0051   0.0132   0.0058   0.0048  -0.0062  -0.0021   0.00    5.0
2172 589994.000   -623612.1845  -5330303.3155   3435421.1464   1   7   0.0048   0.0132   0.0059   0.0051  -0.0062  -0.0020   0.00    5.0
2172 589995.000   -623612.1822  -5330303.3195   3435421.1451   1   7   0.0050   0.0132   0.0056   0.0048  -0.0061  -0.0026   0.00    5.0
2172 589996.000   -623612.1811  -5330303.3229   3435421.1481   1   7   0.0047   0.0132   0.0057   0.0050  -0.0062  -0.0024   0.00    5.0
2172 589997.000   -623612.1828  -5330303.3188   3435421.1469   1   7   0.0046   0.0132   0.0055   0.0049  -0.0061  -0.0018   0.00    5.0
2172 589998.000   -623612.1830  -5330303.3167   3435421.1458   1   7   0.0048   0.0132   0.0057   0.0048  -0.0061  -0.0023   0.00    5.0
2172 589999.000   -623612.1821  -5330303.3288   3435421.1478   1   7   0.0052   0.0132   0.0059   0.0048  -0.0061  -0.0018   0.00    5.0
2172 590000.000   -623612.1827  -5330303.3197   3435421.1456   1   7   0.0050   0.0132   0.0057   0.0049  -0.0062  -0.0021   0.00    5.1
2172 590001.000   -623612.1809  -5330303.3230   3435421.1461   1   7   0.0050   0.0132   0.0058   0.0048  -0.0063  -0.0019   0.00    5.1
2172 590002.000   -623612.1816  -5330303.3174   3435421.1466   1   7   0.0048   0.0132   0.0058   0.0050  -0.0061  -0.0022   0.00    5.1
2172 590003.000   -623612.1828  -5330303.3240   3435421.1453   1   7   0.0046   0.0132   0.0059   0.0048  -0.0061  -0.0021   0.00    5.1
2172 590004.000   -623612.1793  -5330303.3143   3435421.1449   1   7   0.0047   0.0132   0.0057   0.0049  -0.0060  -0.0023   0.00    5.2
2172 590005.000   -623612.1793  -5330303.3206   3435421.1477   1   7   0.0053   0.0132   0.0057   0.0046  -0.0061  -0.0019   0.00    5.2
2172 590006.000   -623612.1783  -5330303.3166   3435421.1452   1   7   0.0052   0.0132   0.0057   0.0048  -0.0060  -0.0017   0.00    5.2
2172 590007.000   -623612.1829  -5330303.3197   3435421.1467   1   7   0.0049   0.0132   0.0059   0.0048  -0.0061  -0.0021   0.00    5.2
2172 590008.000   -623612.1814  -5330303.3132   3435421.1456   1   7   0.0047   0.0132   0.0058   0.0048  -0.0061  -0.0022   0.00    5.2
2172 590009.000   -623612.1813  -5330303.3171   3435421.1495   1   7   0.0052   0.0132   0.0058   0.0048  -0.0062  -0.0018   0.00    5.2
2172 590010.000   -623612.1793  -5330303.3137   3435421.1476   1   7   0.0052   0.0132   0.0057   0.0048  -0.0062  -0.0021   0.00    5.2
2172 590011.000   -623612.1828  -5330303.3127   3435421.1474   1   7   0.0048   0.0132   0.0057   0.0049  -0.0061  -0.0019   0.00    5.2
2172 590012.000   -623612.1809  -5330303.3127   3435421.1443   1   7   0.0050   0.0132   0.0055   0.0048  -0.0061  -0.0016   0.00    5.2
2172 590013.000   -623612.1807  -5330303.3138   3435421.1471   1   7   0.0050   0.0132   0.0057   0.0047  -0.0060  -0.0022   0.00    5.3
2172 590014.000   -623612.1824  -5330303.3157   3435421.1470   1   7   0.0050   0.0132   0.0058   0.0046  -0.0061  -0.0021   0.00    5.3
2172 590015.000   -623612.1828  -5330303.3155   3435421.1486   1   7   0.0045   0.0131   0.0057   0.0049  -0.0060  -0.0020   0.00    5.3
2172 590016.000   -623612.1811  -5330303.3124   3435421.1465   1   7   0.0048   0.0131   0.0056   0.0050  -0.0061  -0.0022   0.00    5.4
2172 590017.000   -623612.1823  -5330303.3144   3435421.1497   1   7   0.0050   0.0132   0.0057   0.0048  -0.0061  -0.0022   0.00    5.4
2172 590018.000   -623612.1818  -5330303.3137   3435421.1481   1   7   0.0046   0.0131   0.0058   0.0050  -0.0061  -0.0022   0.00    5.4
2172 590019.000   -623612.1838  -5330303.3199   3435421.1473   1   7   0.0046   0.0131   0.0056   0.0049  -0.0061  -0.0022   0.00    5.4
2172 590020.000   -623612.1817  -5330303.3156   3435421.1478   1   7   0.0049   0.0132   0.0059   0.0048  -0.0062  -0.0023   0.00    5.4
2172 590021.000   -623612.1835  -5330303.3185   3435421.1470   1   7   0.0047   0.0131   0.0058   0.0049  -0.0061  -0.0024   0.00    5.4
2172 590022.000   -623612.1834  -5330303.3142   3435421.1460   1   7   0.0050   0.0131   0.0058   0.0048  -0.0061  -0.0019   0.00    5.4
2172 590023.000   -623612.1833  -5330303.3155   3435421.1453   1   7   0.0049   0.0131   0.0057   0.0049  -0.0061  -0.0018   0.00    5.4
2172 590024.000   -623612.1859  -5330303.3183   3435421.1462   1   7   0.0045   0.0132   0.0057   0.0049  -0.0060  -0.0022   0.00    5.4
2172 590025.000   -623612.1859  -5330303.3223   3435421.1492   1   7   0.0047   0.0131   0.0056   0.0049  -0.0060  -0.0025   0.00    5.4
2172 590026.000   -623612.1882  -5330303.3169   3435421.1484   1   7   0.0051   0.0132   0.0056   0.0048  -0.0060  -0.0021   0.00    5.4
2172 590027.000   -623612.1844  -5330303.3147   3435421.1470   1   7   0.0047   0.0131   0.0058   0.0050  -0.0060  -0.0020   0.00    5.4
2172 590028.000   -623612.1866  -5330303.3141   3435421.1478   1   7   0.0048   0.0131   0.0056   0.0047  -0.0061  -0.0018   0.00    5.4
2172 590029.000   -623612.1857  -5330303.3220   3435421.1491   1   7   0.0045   0.0131   0.0056   0.0049  -0.0062  -0.0018   0.00    5.4
2172 590030.000   -623612.1846  -5330303.3132   3435421.1469   1   7   0.0051   0.0131   0.0057   0.0049  -0.0061  -0.0022   0.00    5.4
2172 590031.000   -623612.1848  -5330303.3191   3435421.1441   1   7   0.0049   0.0131   0.0057   0.0049  -0.0061  -0.0024   0.00    5.4
2172 590032.000   -623612.1863  -5330303.3148   3435421.1423   1   7   0.0051   0.0132   0.0056   0.0047  -0.0060  -0.0018   0.00    5.4
2172 590033.000   -623612.1854  -5330303.3181   3435421.1453   1   7   0.0050   0.0131   0.0056   0.0047  -0.0061  -0.0021   0.00    5.4
2172 590034.000   -623612.1871  -5330303.3194   3435421.1477   1   7   0.0050   0.0131   0.0056   0.0049  -0.0060  -0.0022   0.00    5.4
2172 590035.000   -623612.1852  -5330303.3139   3435421.1449   1   7   0.0050   0.0131   0.0057   0.0048  -0.0060  -0.0021   0.00    5.5
2172 590036.000   -623612.1875  -5330303.3185   3435421.1468   1   7   0.0050   0.0131   0.0055   0.0045  -0.0060  -0.0017   0.00    5.5
2172 590037.000   -623612.1878  -5330303.3147   3435421.1472   1   7   0.0051   0.0131   0.0059   0.0049  -0.0061  -0.0023   0.00    5.5
2172 590038.000   -623612.1887  -5330303.3099   3435421.1474   1   7   0.0051   0.0131   0.0057   0.0046  -0.0060  -0.0019   0.00    5.5
2172 590039.000   -623612.1877  -5330303.3175   3435421.1440   1   7   0.0048   0.0131   0.0058   0.0049  -0.0060  -0.0023   0.00    5.5
2172 590040.000   -623612.1875  -5330303.3191   3435421.1460   1   7   0.0049   0.0131   0.0056   0.0047  -0.0061  -0.0021   0.00    5.6
2172 590041.000   -623612.1868  -5330303.3090   3435421.1454   1   7   0.0050   0.0131   0.0056   0.0047  -0.0061  -0.0022   0.00    5.6
2172 590042.000   -623612.1876  -5330303.3081   3435421.1432   1   7   0.0050   0.0131   0.0060   0.0048  -0.0060  -0.0018   0.00    5.6
2172 590043.000   -623612.1898  -5330303.3165   3435421.1456   1   7   0.0052   0.0131   0.0058   0.0047  -0.0061  -0.0023   0.00    5.7
2172 590044.000   -623612.1882  -5330303.3140   3435421.1463   1   7   0.0052   0.0131   0.0058   0.0048  -0.0061  -0.0019   0.00    5.7
2172 590045.000   -623612.1885  -5330303.3066   3435421.1484   1   7   0.0047   0.0131   0.0058   0.0049  -0.0061  -0.0021   0.00    5.7
2172 590046.000   -623612.1887  -5330303.3071   3435421.1459   1   7   0.0049   0.0131   0.0056   0.0047  -0.0061  -0.0020   0.00    5.7
2172 590047.000   -623612.1914  -5330303.3161   3435421.1448   1   7   0.0052   0.0131   0.0056   0.0047  -0.0060  -0.0020   0.00    5.8
2172 590048.000   -623612.1893  -5330303.3115   3435421.1480   1   7   0.0050   0.0131   0.0057   0.0047  -0.0061  -0.0020   0.00    5.8
2172 590049.000   -623612.1887  -5330303.3065   3435421.1473   1   7   0.0052   0.0131   0.0059   0.0047  -0.0060  -0.0023   0.00    5.8
2172 590050.000   -623612.1896  -5330303.3089   3435421.1459   1   7   0.0047   0.0131   0.0057   0.0049  -0.0060  -0.0019   0.00    5.9
2172 590051.000   -623612.1895  -5330303.3100   3435421.1479   1   7   0.0050   0.0131   0.0059   0.0047  -0.0061  -0.0020   0.00    5.9
2172 590052.000   -623612.1886  -5330303.3117   3435421.1468   1   7   0.0049   0.0131   0.0059   0.0045  -0.0061  -0.0018   0.00    6.0
2172 590053.000   -623612.1898  -5330303.3083   3435421.1456   1   7   0.0047   0.0131   0.0058   0.0049  -0.0061  -0.0021   0.00    6.0
2172 590054.000   -623612.1925  -5330303.3169   3435421.1477   1   7   0.0047   0.0131   0.0057   0.0048  -0.0059  -0.0016   0.00    6.1
2172 590055.000   -623612.1922  -5330303.3152   3435421.1481   1   7   0.0048   0.0130   0.0057   0.0049  -0.0061  -0.0023   0.00    6.1
2172 590056.000   -623612.1917  -5330303.3115   3435421.1494   1   7   0.0045   0.0131   0.0057   0.0050  -0.0060  -0.0021   0.00    6.2
2172 590057.000   -623612.1887  -5330303.3114   3435421.1490   1   7   0.0050   0.0131   0.0057   0.0048  -0.0059  -0.0018   0.00    6.2
2172 590058.000   -623612.1943  -5330303.3162   3435421.1473   1   7   0.0051   0.0131   0.0056   0.0047  -0.0060  -0.0021   0.00    6.3
2172 590059.000   -623612.1897  -5330303.3151   3435421.1476   1   7   0.0051   0.0131   0.0057   0.0046  -0.0062  -0.0018   0.00    6.3
2172 590060.000   -623612.1907  -5330303.3142   3435421.1500   1   7   0.0051   0.0131   0.0059   0.0047  -0.0060  -0.0020   0.00    6.4
2172 590061.000   -623612.1903  -5330303.3166   3435421.1478   1   7   0.0049   0.0131   0.0059   0.0048  -0.0061  -0.0019   0.00    6.4
2172 590062.000   -623612.1901  -5330303.3138   3435421.1496   1   7   0.0052   0.0131   0.0057   0.0047  -0.0061  -0.0022   0.00    6.5
2172 590063.000   -623612.1915  -5330303.3173   3435421.1488   1   7   0.0049   0.0130   0.0059   0.0047  -0.0061  -0.0017   0.00    6.5
2172 590064.000   -623612.1926  -5330303.3173   3435421.1497   1   7   0.0050   0.0131   0.0058   0.0047  -0.0060  -0.0020   0.00    6.6
2172 590065.000   -623612.1925  -5330303.3198   3435421.1505   1   7   0.0049   0.0130   0.0057   0.0048  -0.0062  -0.0023   0.00    6.6
2172 590066.000   -623612.1938  -5330303.3218   3435421.1514   1   7   0.0048   0.0131   0.0056   0.0048  -0.0059  -0.0020   0.00    6.7
2172 590067.000   -623612.1906  -5330303.3135   3435421.1501   1   7   0.0049   0.0131   0.0055   0.0048  -0.0060  -0.0020   0.00    6.8
2172 590068.000   -623612.1912  -5330303.3143   3435421.1505   1   7   0.0043   0.0130   0.0058   0.0049  -0.0061  -0.0022   0.00    6.8
2172 590069.000   -623612.1920  -5330303.3173   3435421.1488   1   7   0.0048   0.0131   0.0057   0.0047  -0.0059  -0.0020   0.00    6.9
2172 590070.000   -623612.1925  -5330303.3159   3435421.1467   1   7   0.0047   0.0130   0.0058   0.0048  -0.0061  -0.0022   0.00    6.9
2172 590071.000   -623612.1913  -5330303.3195   3435421.1476   1   7   0.0047   0.0130   0.0059   0.0048  -0.0062  -0.0021   0.00    7.0
2172 590072.000   -623612.1926  -5330303.3163   3435421.1492   1   7   0.0049   0.0130   0.0057   0.0048  -0.0060  -0.0019   0.00    7.0
2172 590073.000   -623612.1941  -5330303.3211   3435421.1501   1   7   0.0048   0.0130   0.0057   0.0049  -0.0061  -0.0020   0.00    7.1
2172 590074.000   -623612.1889  -5330303.3159   3435421.1496   1   7   0.0052   0.0130   0.0058   0.0048  -0.0061  -0.0023   0.00    7.1
2172 590075.000   -623612.1912  -5330303.3207   3435421.1529   1   7   0.0049   0.0130   0.0058   0.0048  -0.0061  -0.0017   0.00    7.2
2172 590076.000   -623612.1931  -5330303.3188   3435421.1512   1   7   0.0048   0.0130   0.0057   0.0049  -0.0061  -0.0019   0.00    7.2
2172 590077.000   -623612.1909  -5330303.3213   3435421.1499   1   7   0.0047   0.0130   0.0056   0.0048  -0.0060  -0.0023   0.00    7.3
2172 590078.000   -623612.1896  -5330303.3160   3435421.1495   1   7   0.0049   0.0130   0.0058   0.0047  -0.0061  -0.0021   0.00    7.3
2172 590079.000   -623612.1904  -5330303.3213   3435421.1479   1   7   0.0054   0.0130   0.0060   0.0045  -0.0060  -0.0018   0.00    7.4
2172 590080.000   -623612.1912  -5330303.3177   3435421.1484   1   7   0.0048   0.0130   0.0057   0.0049  -0.0060  -0.0020   0.00    7.4
2172 590081.000   -623612.1880  -5330303.3223   3435421.1477   1   7   0.0053   0.0131   0.0057   0.0046  -0.0060  -0.0020   0.00    7.4
2172 590082.000   -623612.1878  -5330303.3185   3435421.1492   1   7   0.0051   0.0130   0.0057   0.0045  -0.0060  -0.0022   0.00    7.5
2172 590083.000   -623612.1863  -5330303.3193   3435421.1460   1   7   0.0045   0.0130   0.0059   0.0047  -0.0060  -0.0024   0.00    7.5
2172 590084.000   -623612.1921  -5330303.3191   3435421.1492   1   7   0.0050   0.0130   0.0057   0.0048  -0.0061  -0.0022   0.00    7.5
2172 590085.000   -623612.1912  -5330303.3192   3435421.1490   1   7   0.0046   0.0130   0.0059   0.0049  -0.0060  -0.0025   0.00    7.6
2172 590086.000   -623612.1904  -5330303.3227   3435421.1497   1   7   0.0052   0.0130   0.0058   0.0047  -0.0061  -0.0022   0.00    7.6
2172 590087.000   -623612.1930  -5330303.3239   3435421.1481   1   7   0.0053   0.0130   0.0057   0.0047  -0.0062  -0.0018   0.00    7.7
2172 590088.000   -623612.1904  -5330303.3235   3435421.1481   1   7   0.0050   0.0129   0.0055   0.0048  -0.0061  -0.0017   0.00    7.7
2172 590089.000   -623612.1893  -5330303.3230   3435421.1513   1   7   0.0048   0.0130   0.0058   0.0048  -0.0061  -0.0023   0.00    7.7
2172 590090.000   -623612.1911  -5330303.3236   3435421.1511   1   7   0.0051   0.0130   0.0057   0.0045  -0.0060  -0.0022   0.00    7.7
2172 590091.000   -623612.1887  -5330303.3194   3435421.1521   1   7   0.0050   0.0130   0.0058   0.0047  -0.0061  -0.0021   0.00    7.8
2172 590092.000   -623612.1907  -5330303.3209   3435421.1487   1   7   0.0049   0.0130   0.0056   0.0048  -0.0060  -0.0023   0.00    7.8
2172 590093.000   -623612.1919  -5330303.3251   3435421.1496   1   7   0.0051   0.0130   0.0057   0.0049  -0.0060  -0.0017   0.00    7.8
2172 590094.000   -623612.1889  -5330303.3211   3435421.1498   1   7   0.0051   0.0130   0.0056   0.0045  -0.0060  -0.0017   0.00    7.9
2172 590095.000   -623612.1910  -5330303.3203   3435421.1494   1   7   0.0051   0.0130   0.0057   0.0047  -0.0061  -0.0020   0.00    7.9
2172 590096.000   -623612.1906  -5330303.3204   3435421.1465   1   7   0.0048   0.0129   0.0056   0.0047  -0.0060  -0.0022   0.00    8.0
2172 590097.000   -623612.1929  -5330303.3254   3435421.1486   1   7   0.0048   0.0130   0.0058   0.0047  -0.0059  -0.0023   0.00    8.0
2172 590098.000   -623612.1914  -5330303.3262   3435421.1466   1   7   0.0049   0.0130   0.0056   0.0046  -0.0060  -0.0019   0.00    8.0
2172 590099.000   -623612.1917  -5330303.3218   3435421.1501   1   7   0.0047   0.0129   0.0058   0.0048  -0.0061  -0.0021   0.00    8.1
2172 590100.000   -623612.1897  -5330303.3227   3435421.1483   1   7   0.0046   0.0129   0.0058   0.0048  -0.0060  -0.0018   0.00    8.1
2172 590101.000   -623612.1909  -5330303.3227   3435421.1487   1   7   0.0047   0.0129   0.0058   0.0047  -0.0061  -0.0022   0.00    8.1
2172 590102.000   -623612.1889  -5330303.3215   3435421.1477   1   7   0.0050   0.0129   0.0056   0.0046  -0.0060  -0.0022   0.00    8.2
2172 590103.000   -623612.1907  -5330303.3253   3435421.1480   1   7   0.0046   0.0129   0.0056   0.0047  -0.0061  -0.0022   0.00    8.2
2172 590104.000   -623612.1896  -5330303.3190   3435421.1478   1   7   0.0048   0.0129   0.0059   0.0047  -0.0060  -0.0022   0.00    8.2
2172 590105.000   -623612.1873  -5330303.3165   3435421.1464   1   7   0.0047   0.0129   0.0057   0.0047  -0.0060  -0.0023   0.00    8.3
2172 590106.000   -623612.1875  -5330303.3182   3435421.1474   1   7   0.0049   0.0130   0.0056   0.0048  -0.0060  -0.0019   0.00    8.3
2172 590107.000   -623612.1909  -5330303.3213   3435421.1465   1   7   0.0048   0.0129   0.0058   0.0048  -0.0060  -0.0021   0.00    8.3
2172 590108.000   -623612.1896  -5330303.3261   3435421.1479   1   7   0.0046   0.0129   0.0058   0.0048  -0.0060  -0.0022   0.00    8.4
2172 590109.000   -623612.1896  -5330303.3276   3435421.1503   1   7   0.0048   0.0129   0.0058   0.0048  -0.0061  -0.0023   0.00    8.4
2172 590110.000   -623612.1899  -5330303.3218   3435421.1470   1   7   0.0045   0.0129   0.0056   0.0046  -0.0061  -0.0023   0.00    8.5
2172 590111.000   -623612.1889  -5330303.3222   3435421.1450   1   7   0.0048   0.0129   0.0058   0.0048  -0.0060  -0.0021   0.00    8.5
2172 590112.000   -623612.1875  -5330303.3251   3435421.1487   1   7   0.0051   0.0130   0.0057   0.0047  -0.0060  -0.0018   0.00    8.5
2172 590113.000   -623612.1877  -5330303.3216   3435421.1465   1   7   0.0050   0.0129   0.0057   0.0047  -0.0060  -0.0022   0.00    8.6
2172 590114.000   -623612.1906  -5330303.3249   3435421.1488   1   7   0.0050   0.0129   0.0057   0.0047  -0.0060  -0.0020   0.00    8.6
2172 590115.000   -623612.1870  -5330303.3250   3435421.1491   1   7   0.0051   0.0129   0.0056   0.0046  -0.0061  -0.0020   0.00    8.6
2172 590116.000   -623612.1899  -5330303.3273   3435421.1482   1   7   0.0049   0.0129   0.0057   0.0046  -0.0060  -0.0022   0.00    8.7
2172 590117.000   -623612.1893  -5330303.3215   3435421.1486   1   7   0.0047   0.0129   0.0056   0.0047  -0.0060  -0.0022   0.00    8.7
2172 590118.000   -623612.1890  -5330303.3227   3435421.1508   1   7   0.0049   0.0129   0.0056   0.0047  -0.0060  -0.0020   0.00    8.8
2172 590119.000   -623612.1897  -5330303.3233   3435421.1512   1   7   0.0049   0.0129   0.0056   0.0047  -0.0061  -0.0019   0.00    8.8
2172 590120.000   -623612.1887  -5330303.3235   3435421.1500   1   7   0.0046   0.0129   0.0058   0.0048  -0.0061  -0.0022   0.00    8.8
2172 590121.000   -623612.1889  -5330303.3241   3435421.1495   1   7   0.0052   0.0129   0.0056   0.0044  -0.0060  -0.0021   0.00    8.9
2172 590122.000   -623612.1887  -5330303.3274   3435421.1520   1   7   0.0045   0.0128   0.0055   0.0048  -0.0060  -0.0022   0.00    8.9
2172 590123.000   -623612.1901  -5330303.3343   3435421.1551   1   7   0.0050   0.0129   0.0058   0.0047  -0.0060  -0.0020   0.00    8.9
2172 590124.000   -623612.1886  -5330303.3217   3435421.1483   1   7   0.0049   0.0129   0.0057   0.0047  -0.0060  -0.0022   0.00    9.0
2172 590125.000   -623612.1891  -5330303.3214   3435421.1487   1   7   0.0049   0.0129   0.0059   0.0046  -0.0061  -0.0016   0.00    9.0
2172 590126.000   -623612.1838  -5330303.3247   3435421.1474   1   7   0.0050   0.0129   0.0058   0.0046  -0.0061  -0.0019   0.00    9.0
2172 590127.000   -623612.1886  -5330303.3258   3435421.1484   1   7   0.0049   0.0129   0.0057   0.0048  -0.0060  -0.0020   0.00    9.0
2172 590128.000   -623612.1899  -5330303.3260   3435421.1503   1   7   0.0048   0.0129   0.0057   0.0048  -0.0060  -0.0021   0.00    9.1
2172 590129.000   -623612.1889  -5330303.3280   3435421.1519   1   7   0.0051   0.0129   0.0059   0.0046  -0.0059  -0.0016   0.00    9.1
2172 590130.000   -623612.1903  -5330303.3362   3435421.1522   1   7   0.0048   0.0129   0.0060   0.0046  -0.0060  -0.0023   0.00    9.2
2172 590131.000   -623612.1886  -5330303.3284   3435421.1519   1   7   0.0049   0.0129   0.0058   0.0045  -0.0060  -0.0021   0.00    9.2
2172 590132.000   -623612.1901  -5330303.3341   3435421.1527   1   7   0.0049   0.0129   0.0058   0.0047  -0.0060  -0.0021   0.00    9.3
2172 590133.000   -623612.1884  -5330303.3301   3435421.1509   1   7   0.0047   0.0128   0.0055   0.0048  -0.0060  -0.0022   0.00    9.4
2172 590134.000   -623612.1871  -5330303.3270   3435421.1518   1   7   0.0047   0.0128   0.0058   0.0048  -0.0061  -0.0021   0.00    9.4
2172 590135.000   -623612.1865  -5330303.3264   3435421.1503   1   7   0.0043   0.0128   0.0056   0.0047  -0.0059  -0.0023   0.00    9.5
2172 590136.000   -623612.1874  -5330303.3220   3435421.1515   1   7   0.0050   0.0129   0.0057   0.0045  -0.0060  -0.0021   0.00    9.5
2172 590137.000   -623612.1851  -5330303.3194   3435421.1500   1   7   0.0053   0.0129   0.0056   0.0044  -0.0061  -0.0019   0.00    9.6
2172 590138.000   -623612.1865  -5330303.3232   3435421.1491   1   7   0.0044   0.0128   0.0056   0.0046  -0.0059  -0.0020   0.00    9.6
2172 590139.000   -623612.1867  -5330303.3175   3435421.1468   1   7   0.0047   0.0128   0.0056   0.0046  -0.0060  -0.0018   0.00    9.7
2172 590140.000   -623612.1850  -5330303.3168   3435421.1463   1   7   0.0047   0.0129   0.0057   0.0047  -0.0059  -0.0020   0.00    9.8
2172 590141.000   -623612.1843  -5330303.3127   3435421.1449   1   7   0.0051   0.0128   0.0059   0.0045  -0.0061  -0.0020   0.00    9.8
2172 590142.000   -623612.1864  -5330303.3173   3435421.1456   1   7   0.0051   0.0129   0.0058   0.0045  -0.0059  -0.0020   0.00    9.9
2172 590143.000   -623612.1869  -5330303.3193   3435421.1456   1   7   0.0049   0.0128   0.0057   0.0047  -0.0059  -0.0022   0.00   10.0
2172 590144.000   -623612.1842  -5330303.3188   3435421.1477   1   7   0.0046   0.0128   0.0056   0.0048  -0.0059  -0.0018   0.00   10.1
2172 590145.000   -623612.1850  -5330303.3198   3435421.1456   1   7   0.0048   0.0128   0.0059   0.0045  -0.0059  -0.0019   0.00   10.2
2172 590146.000   -623612.1838  -5330303.3173   3435421.1443   1   7   0.0048   0.0128   0.0055   0.0045  -0.0060  -0.0019   0.00   10.2
2172 590147.000   -623612.1833  -5330303.3176   3435421.1467   1   7   0.0048   0.0128   0.0059   0.0048  -0.0061  -0.0019   0.00   10.3
2172 590148.000   -623612.1851  -5330303.3169   3435421.1457   1   7   0.0048   0.0128   0.0057   0.0047  -0.0061  -0.0023   0.00   10.4
2172 590149.000   -623612.1814  -5330303.3123   3435421.1447   1   7   0.0048   0.0128   0.0058   0.0048  -0.0060  -0.0021   0.00   10.5
2172 590150.000   -623612.1834  -5330303.3176   3435421.1472   1   7   0.0049   0.0128   0.0056   0.0045  -0.0060  -0.0017   0.00   10.5
2172 590151.000   -623612.1811  -5330303.3151   3435421.1444   1   7   0.0050   0.0128   0.0059   0.0046  -0.0060  -0.0022   0.00   10.6
2172 590152.000   -623612.1835  -5330303.3140   3435421.1458   1   7   0.0051   0.0128   0.0059   0.0045  -0.0061  -0.0018   0.00   10.7
2172 590153.000   -623612.1809  -5330303.3137   3435421.1457   1   7   0.0045   0.0127   0.0057   0.0047  -0.0060  -0.0022   0.00   10.8
2172 590154.000   -623612.1834  -5330303.3154   3435421.1435   1   7   0.0050   0.0128   0.0057   0.0047  -0.0060  -0.0019   0.00   10.9
2172 590155.000   -623612.1833  -5330303.3126   3435421.1411   1   7   0.0044   0.0128   0.0056   0.0049  -0.0059  -0.0023   0.00   11.0
2172 590156.000   -623612.1862  -5330303.3110   3435421.1434   1   7   0.0048   0.0128   0.0058   0.0045  -0.0060  -0.0022   0.00   11.1
2172 590157.000   -623612.1852  -5330303.3149   3435421.1437   1   7   0.0050   0.0128   0.0058   0.0045  -0.0059  -0.0019   0.00   11.1
2172 590158.000   -623612.1834  -5330303.3167   3435421.1439   1   7   0.0049   0.0128   0.0057   0.0046  -0.0059  -0.0019   0.00   11.2
2172 590159.000   -623612.1858  -5330303.3199   3435421.1445   1   7   0.0050   0.0128   0.0057   0.0045  -0.0059  -0.0019   0.00   11.3
2172 590160.000   -623612.1845  -5330303.3160   3435421.1439   1   7   0.0049   0.0128   0.0055   0.0046  -0.0059  -0.0016   0.00   11.4
2172 590161.000   -623612.1867  -5330303.3163   3435421.1447   1   7   0.0053   0.0128   0.0058   0.0047  -0.0060  -0.0018   0.00   11.5
2172 590162.000   -623612.1864  -5330303.3153   3435421.1452   1   7   0.0051   0.0128   0.0058   0.0047  -0.0059  -0.0020   0.00   11.5
2172 590163.000   -623612.1872  -5330303.3196   3435421.1457   1   7   0.0047   0.0128   0.0057   0.0046  -0.0060  -0.0015   0.00   11.6
2172 590164.000   -623612.1806  -5330303.3112   3435421.1446   1   7   0.0050   0.0128   0.0059   0.0046  -0.0060  -0.0015   0.00   11.7
2172 590165.000   -623612.1807  -5330303.3096   3435421.1453   1   7   0.0047   0.0128   0.0058   0.0046  -0.0059  -0.0019   0.00   11.8
2172 590166.000   -623612.1807  -5330303.3104   3435421.1409   1   7   0.0051   0.0128   0.0058   0.0044  -0.0060  -0.0020   0.00   11.9
2172 590167.000   -623612.1810  -5330303.3145   3435421.1445   1   7   0.0048   0.0127   0.0060   0.0046  -0.0060  -0.0014   0.00   11.9
2172 590168.000   -623612.1812  -5330303.3098   3435421.1424   1   7   0.0051   0.0128   0.0054   0.0045  -0.0059  -0.0020   0.00   12.0
2172 590169.000   -623612.1828  -5330303.3143   3435421.1447   1   7   0.0046   0.0127   0.0056   0.0047  -0.0059  -0.0021   0.00   12.1
2172 590170.000   -623612.1809  -5330303.3118   3435421.1390   1   7   0.0051   0.0128   0.0058   0.0046  -0.0059  -0.0017   0.00   12.1
2172 590171.000   -623612.1817  -5330303.3091   3435421.1418   1   7   0.0045   0.0127   0.0055   0.0047  -0.0060  -0.0024   0.00   12.2
2172 590172.000   -623612.1833  -5330303.3143   3435421.1449   1   7   0.0044   0.0128   0.0056   0.0047  -0.0060  -0.0020   0.00   12.3
2172 590173.000   -623612.1829  -5330303.3104   3435421.1420   1   7   0.0046   0.0127   0.0057   0.0048  -0.0060  -0.0024   0.00   12.3
2172 590174.000   -623612.1729  -5330303.4018   3435421.0712   2   8   0.0256   0.0417   0.0201   0.0060   0.0079  -0.0029   0.00    1.1
2172 590175.000   -623612.1728  -5330303.3998   3435421.0702   2   8   0.0254   0.0413   0.0200   0.0060   0.0082  -0.0029   0.00    1.2
2172 590176.000   -623612.1698  -5330303.3991   3435421.0684   2   8   0.0255   0.0410   0.0199   0.0058   0.0084  -0.0030   0.00    1.3
2172 590177.000   -623612.1671  -5330303.3935   3435421.0684   2   8   0.0255   0.0408   0.0199   0.0056   0.0085  -0.0029   0.00    1.5
2172 590178.000   -623612.1618  -5330303.3868   3435421.0667   2   8   0.0254   0.0406   0.0199   0.0059   0.0085  -0.0029   0.00    1.6
2172 590179.000   -623612.1604  -5330303.3869   3435421.0649   2   8   0.0254   0.0405   0.0198   0.0058   0.0086  -0.0029   0.00    1.7
2172 590180.000   -623612.1584  -5330303.3782   3435421.0651   2   8   0.0253   0.0403   0.0197   0.0055   0.0085  -0.0028   0.00    1.8
2172 590181.000   -623612.1551  -5330303.3807   3435421.0656   2   8   0.0252   0.0402   0.0197   0.0057   0.0086  -0.0030   0.00    1.9
2172 590182.000   -623612.1496  -5330303.3679   3435421.0667   2   8   0.0252   0.0400   0.0196   0.0053   0.0086  -0.0032   0.00    2.0
2172 590183.000   -623612.1462  -5330303.3672   3435421.0643   2   8   0.0251   0.0399   0.0195   0.0055   0.0087  -0.0029   0.00    2.2
2172 590184.000   -623612.1387  -5330303.3561   3435421.0639   2   8   0.0251   0.0398   0.0195   0.0051   0.0088  -0.0032   0.00    2.3
2172 590185.000   -623612.1360  -5330303.3552   3435421.0632   2   8   0.0250   0.0396   0.0194   0.0052   0.0088  -0.0029   0.00    2.4
2172 590186.000   -623612.1317  -5330303.3523   3435421.0651   2   8   0.0250   0.0395   0.0194   0.0051   0.0088  -0.0030   0.00    2.5
2172 590187.000   -623612.1272  -5330303.3510   3435421.0658   2   8   0.0249   0.0393   0.0193   0.0049   0.0087  -0.0030   0.00    2.6
2172 590188.000   -623612.1245  -5330303.3485   3435421.0632   2   8   0.0249   0.0392   0.0193   0.0047   0.0088  -0.0032   0.00    2.7
2172 590189.000   -623612.1187  -5330303.3392   3435421.0646   2   8   0.0248   0.0391   0.0192   0.0047   0.0089  -0.0034   0.00    2.8
2172 590190.000   -623612.1181  -5330303.3396   3435421.0640   2   8   0.0248   0.0389   0.0191   0.0046   0.0089  -0.0030   0.00    2.9
2172 590191.000   -623612.1806  -5330303.3007   3435421.1412   1   8   0.0052   0.0105   0.0057   0.0046  -0.0052  -0.0016   0.00    3.0
2172 590192.000   -623612.1813  -5330303.3004   3435421.1433   1   8   0.0049   0.0105   0.0057   0.0049  -0.0052  -0.0024   0.00    3.1
2172 590193.000   -623612.1803  -5330303.3012   3435421.1426   1   8   0.0054   0.0105   0.0056   0.0045  -0.0052  -0.0020   0.00    3.3
2172 590194.000   -623612.1786  -5330303.3019   3435421.1398   1   8   0.0049   0.0104   0.0056   0.0047  -0.0053  -0.0017   0.00    3.4
2172 590195.000   -623612.1807  -5330303.3039   3435421.1413   1   8   0.0048   0.0104   0.0057   0.0046  -0.0051  -0.0018   0.00    3.5
2172 590196.000   -623612.1818  -5330303.3066   3435421.1409   1   8   0.0048   0.0104   0.0057   0.0046  -0.0053  -0.0021   0.00    3.6
2172 590197.000   -623612.1807  -5330303.3005   3435421.1401   1   8   0.0046   0.0104   0.0056   0.0046  -0.0052  -0.0020   0.00    3.7
2172 590198.000   -623612.1818  -5330303.3006   3435421.1396   1   8   0.0045   0.0103   0.0056   0.0048  -0.0052  -0.0020   0.00    3.8
2172 590199.000   -623612.1823  -5330303.3067   3435421.1407   1   8   0.0051   0.0104   0.0055   0.0047  -0.0053  -0.0018   0.00    3.9
2172 590200.000   -623612.1815  -5330303.3012   3435421.1384   1   8   0.0052   0.0105   0.0057   0.0043  -0.0053  -0.0016   0.00    3.9
2172 590201.000   -623612.1819  -5330303.3032   3435421.1408   1   8   0.0050   0.0104   0.0058   0.0046  -0.0052  -0.0024   0.00    4.0
2172 590202.000   -623612.1822  -5330303.3080   3435421.1400   1   8   0.0046   0.0103   0.0056   0.0049  -0.0053  -0.0018   0.00    4.1
2172 590203.000   -623612.1814  -5330303.3036   3435421.1384   1   8   0.0047   0.0104   0.0056   0.0048  -0.0053  -0.0024   0.00    4.2
2172 590204.000   -623612.1803  -5330303.3056   3435421.1372   1   8   0.0052   0.0105   0.0054   0.0043  -0.0052  -0.0020   0.00    4.3
2172 590205.000   -623612.1806  -5330303.3093   3435421.1386   1   8   0.0045   0.0104   0.0057   0.0046  -0.0052  -0.0017   0.00    4.4
2172 590206.000   -623612.1801  -5330303.3056   3435421.1367   1   8   0.0047   0.0103   0.0057   0.0050  -0.0052  -0.0021   0.00    4.5
2172 590207.000   -623612.1813  -5330303.3013   3435421.1390   1   8   0.0049   0.0104   0.0055   0.0046  -0.0051  -0.0024   0.00    4.7
2172 590208.000   -623612.1801  -5330303.3012   3435421.1386   1   8   0.0047   0.0104   0.0055   0.0046  -0.0053  -0.0021   0.00    4.8
2172 590209.000   -623612.1815  -5330303.2995   3435421.1375   1   8   0.0051   0.0104   0.0057   0.0047  -0.0052  -0.0023   0.00    4.9
2172 590210.000   -623612.1797  -5330303.2998   3435421.1384   1   8   0.0053   0.0105   0.0054   0.0045  -0.0052  -0.0018   0.00    4.9
2172 590211.000   -623612.1796  -5330303.2997   3435421.1388   1   8   0.0052   0.0104   0.0056   0.0044  -0.0051  -0.0024   0.00    5.0
2172 590212.000   -623612.1825  -5330303.3036   3435421.1410   1   8   0.0051   0.0104   0.0056   0.0045  -0.0053  -0.0020   0.00    5.1
2172 590213.000   -623612.1809  -5330303.2994   3435421.1376   1   8   0.0048   0.0104   0.0058   0.0048  -0.0051  -0.0018   0.00    5.2
2172 590214.000   -623612.1805  -5330303.3174   3435421.1427   1   8   0.0047   0.0104   0.0056   0.0047  -0.0052  -0.0020   0.00    5.3
2172 590215.000   -623612.1819  -5330303.3140   3435421.1445   1   8   0.0048   0.0104   0.0057   0.0047  -0.0051  -0.0019   0.00    5.5
2172 590216.000   -623612.1822  -5330303.3173   3435421.1428   1   8   0.0046   0.0104   0.0055   0.0046  -0.0053  -0.0023   0.00    5.6
2172 590217.000   -623612.1818  -5330303.3159   3435421.1397   1   8   0.0048   0.0105   0.0054   0.0047  -0.0051  -0.0017   0.00    5.7
2172 590218.000   -623612.1829  -5330303.3160   3435421.1426   1   8   0.0048   0.0104   0.0055   0.0047  -0.0051  -0.0023   0.00    5.8
2172 590219.000   -623612.1769  -5330303.3116   3435421.1368   1   8   0.0050   0.0104   0.0057   0.0045  -0.0052  -0.0018   0.00    5.9
2172 590220.000   -623612.1796  -5330303.3152   3435421.1409   1   8   0.0046   0.0103   0.0057   0.0048  -0.0052  -0.0017   0.00    6.1
2172 590221.000   -623612.1796  -5330303.3117   3435421.1379   1   8   0.0049   0.0103   0.0056   0.0046  -0.0053  -0.0017   0.00    6.2
2172 590222.000   -623612.1778  -5330303.3095   3435421.1410   1   8   0.0045   0.0104   0.0057   0.0047  -0.0053  -0.0019   0.00    6.3
2172 590223.000   -623612.1797  -5330303.3136   3435421.1412   1   8   0.0052   0.0104   0.0057   0.0046  -0.0051  -0.0019   0.00    6.4
2172 590224.000   -623612.1815  -5330303.3165   3435421.1425   1   8   0.0046   0.0103   0.0058   0.0049  -0.0052  -0.0024   0.00    6.5
2172 590225.000   -623612.1809  -5330303.3140   3435421.1405   1   8   0.0048   0.0103   0.0056   0.0048  -0.0051  -0.0020   0.00    6.6
2172 590226.000   -623612.1811  -5330303.3159   3435421.1417   1   8   0.0046   0.0104   0.0057   0.0047  -0.0054  -0.0020   0.00    6.7
2172 590227.000   -623612.1808  -5330303.3188   3435421.1418   1   8   0.0050   0.0103   0.0057   0.0047  -0.0051  -0.0025   0.00    6.8
2172 590228.000   -623612.1815  -5330303.3126   3435421.1373   1   8   0.0047   0.0103   0.0057   0.0049  -0.0053  -0.0025   0.00    6.9
2172 590229.000   -623612.1802  -5330303.3182   3435421.1430   1   8   0.0047   0.0104   0.0056   0.0047  -0.0052  -0.0020   0.00    7.0
2172 590230.000   -623612.1801  -5330303.3194   3435421.1418   1   8   0.0048   0.0104   0.0056   0.0049  -0.0053  -0.0018   0.00    7.1
2172 590231.000   -623612.1811  -5330303.3165   3435421.1439   1   8   0.0048   0.0104   0.0055   0.0045  -0.0052  -0.0022   0.00    7.3
2172 590232.000   -623612.1797  -5330303.3134   3435421.1404   1   8   0.0048   0.0105   0.0056   0.0046  -0.0050  -0.0019   0.00    7.4
2172 590233.000   -623612.1819  -5330303.3159   3435421.1413   1   8   0.0049   0.0104   0.0056   0.0045  -0.0051  -0.0019   0.00    7.5
2172 590234.000   -623612.1809  -5330303.3173   3435421.1411   1   8   0.0051   0.0104   0.0056   0.0044  -0.0052  -0.0019   0.00    7.6
2172 590235.000   -623612.1790  -5330303.3089   3435421.1355   1   8   0.0049   0.0103   0.0055   0.0045  -0.0052  -0.0020   0.00    7.7
2172 590236.000   -623612.1771  -5330303.3119   3435421.1366   1   8   0.0046   0.0102   0.0057   0.0048  -0.0053  -0.0020   0.00    7.8
2172 590237.000   -623612.1796  -5330303.3095   3435421.1374   1   8   0.0049   0.0104   0.0055   0.0047  -0.0053  -0.0021   0.00    7.9
2172 590238.000   -623612.1783  -5330303.3092   3435421.1380   1   8   0.0049   0.0103   0.0056   0.0046  -0.0052  -0.0024   0.00    8.0
2172 590239.000   -623612.1796  -5330303.3177   3435421.1383   1   8   0.0046   0.0103   0.0057   0.0046  -0.0052  -0.0018   0.00    8.1
2172 590240.000   -623612.1789  -5330303.3169   3435421.1373   1   8   0.0051   0.0103   0.0058   0.0046  -0.0052  -0.0021   0.00    8.2
2172 590241.000   -623612.1795  -5330303.3188   3435421.1397   1   8   0.0046   0.0103   0.0056   0.0047  -0.0053  -0.0022   0.00    8.3
2172 590242.000   -623612.1805  -5330303.3153   3435421.1384   1   8   0.0050   0.0104   0.0054   0.0048  -0.0052  -0.0020   0.00    8.4
2172 590243.000   -623612.1789  -5330303.3127   3435421.1373   1   8   0.0047   0.0103   0.0055   0.0047  -0.0053  -0.0023   0.00    8.5
2172 590244.000   -623612.1790  -5330303.3140   3435421.1357   1   8   0.0044   0.0103   0.0055   0.0050  -0.0050  -0.0021   0.00    8.6
2172 590245.000   -623612.1817  -5330303.3133   3435421.1369   1   8   0.0046   0.0103   0.0053   0.0047  -0.0053  -0.0021   0.00    8.7
2172 590246.000   -623612.1806  -5330303.3167   3435421.1400   1   8   0.0043   0.0103   0.0056   0.0049  -0.0051  -0.0022   0.00    8.8
2172 590247.000   -623612.1778  -5330303.3089   3435421.1350   1   8   0.0046   0.0102   0.0057   0.0045  -0.0052  -0.0023   0.00    8.9
2172 590248.000   -623612.1832  -5330303.3173   3435421.1389   1   8   0.0049   0.0104   0.0054   0.0047  -0.0052  -0.0013   0.00    9.0
2172 590249.000   -623612.1790  -5330303.3112   3435421.1380   1   8   0.0048   0.0103   0.0057   0.0048  -0.0052  -0.0021   0.00    9.1
2172 590250.000   -623612.1788  -5330303.3097   3435421.1372   1   8   0.0053   0.0104   0.0057   0.0044  -0.0052  -0.0019   0.00    9.1
2172 590251.000   -623612.1787  -5330303.3116   3435421.1371   1   8   0.0046   0.0102   0.0057   0.0049  -0.0052  -0.0020   0.00    9.2
2172 590252.000   -623612.1778  -5330303.3069   3435421.1400   1   8   0.0046   0.0103   0.0059   0.0046  -0.0051  -0.0024   0.00    9.3
2172 590253.000   -623612.1767  -5330303.3089   3435421.1388   1   8   0.0046   0.0103   0.0055   0.0048  -0.0051  -0.0015   0.00    9.4
2172 590254.000   -623612.1814  -5330303.3027   3435421.1380   1   8   0.0051   0.0104   0.0058   0.0045  -0.0050  -0.0021   0.00    9.5
2172 590255.000   -623612.1765  -5330303.3005   3435421.1370   1   8   0.0047   0.0103   0.0058   0.0048  -0.0052  -0.0024   0.00    9.6
2172 590256.000   -623612.1781  -5330303.2973   3435421.1368   1   8   0.0049   0.0104   0.0057   0.0046  -0.0052  -0.0023   0.00    9.6
2172 590257.000   -623612.1753  -5330303.2951   3435421.1361   1   8   0.0044   0.0103   0.0058   0.0049  -0.0053  -0.0020   0.00    9.7
2172 590258.000   -623612.1765  -5330303.2990   3435421.1365   1   8   0.0053   0.0104   0.0058   0.0044  -0.0051  -0.0018   0.00    9.7
2172 590259.000   -623612.1741  -5330303.3006   3435421.1387   1   8   0.0051   0.0103   0.0058   0.0045  -0.0052  -0.0018   0.00    9.8
2172 590260.000   -623612.1752  -5330303.2997   3435421.1383   1   8   0.0050   0.0103   0.0057   0.0047  -0.0052  -0.0017   0.00    9.9
2172 590261.000   -623612.1752  -5330303.3035   3435421.1401   1   8   0.0052   0.0104   0.0056   0.0044  -0.0052  -0.0017   0.00    9.9
2172 590262.000   -623612.1741  -5330303.2941   3435421.1345   1   8   0.0047   0.0103   0.0056   0.0047  -0.0052  -0.0023   0.00   10.0
2172 590263.000   -623612.1745  -5330303.2991   3435421.1361   1   8   0.0046   0.0103   0.0057   0.0048  -0.0052  -0.0023   0.00   10.0
2172 590264.000   -623612.1736  -5330303.2976   3435421.1379   1   8   0.0047   0.0104   0.0058   0.0047  -0.0052  -0.0020   0.00   10.1
2172 590265.000   -623612.1747  -5330303.2936   3435421.1352   1   8   0.0045   0.0102   0.0058   0.0049  -0.0053  -0.0024   0.00   10.1
2172 590266.000   -623612.1743  -5330303.2965   3435421.1354   1   8   0.0046   0.0103   0.0057   0.0048  -0.0053  -0.0020   0.00   10.2
2172 590267.000   -623612.1737  -5330303.2961   3435421.1380   1   8   0.0049   0.0103   0.0057   0.0046  -0.0051  -0.0022   0.00   10.2
2172 590268.000   -623612.1731  -5330303.2983   3435421.1354   1   8   0.0047   0.0103   0.0057   0.0047  -0.0050  -0.0017   0.00   10.2
2172 590269.000   -623612.1844  -5330303.3063   3435421.1454   1   7   0.0062   0.0105   0.0064   0.0050  -0.0057  -0.0039   0.00   18.5
2172 590270.000   -623612.1823  -5330303.3025   3435421.1459   1   7   0.0060   0.0105   0.0064   0.0054  -0.0056  -0.0038   0.00   18.5
2172 590271.000   -623612.1816  -5330303.3001   3435421.1432   1   7   0.0063   0.0105   0.0064   0.0051  -0.0057  -0.0038   0.00   18.4
2172 590272.000   -623612.1820  -5330303.3043   3435421.1438   1   7   0.0058   0.0104   0.0064   0.0053  -0.0057  -0.0039   0.00   18.4
2172 590273.000   -623612.1838  -5330303.3055   3435421.1451   1   7   0.0061   0.0105   0.0063   0.0051  -0.0057  -0.0040   0.00   18.3
2172 590274.000   -623612.1822  -5330303.3036   3435421.1443   1   7   0.0060   0.0104   0.0063   0.0052  -0.0057  -0.0039   0.00   18.3
2172 590275.000   -623612.1831  -5330303.3059   3435421.1433   1   7   0.0060   0.0104   0.0064   0.0053  -0.0057  -0.0038   0.00   18.2
2172 590276.000   -623612.1841  -5330303.3075   3435421.1439   1   7   0.0060   0.0105   0.0062   0.0052  -0.0057  -0.0039   0.00   18.1
2172 590277.000   -623612.1801  -5330303.3073   3435421.1437   1   7   0.0059   0.0105   0.0064   0.0053  -0.0056  -0.0040   0.00   18.1
2172 590278.000   -623612.1838  -5330303.3101   3435421.1469   1   7   0.0061   0.0105   0.0062   0.0052  -0.0056  -0.0039   0.00   18.0
2172 590279.000   -623612.1836  -5330303.3050   3435421.1431   1   7   0.0058   0.0104   0.0064   0.0055  -0.0056  -0.0039   0.00   18.0
2172 590280.000   -623612.1828  -5330303.2965   3435421.1410   1   7   0.0062   0.0105   0.0064   0.0052  -0.0056  -0.0038   0.00   17.9
2172 590281.000   -623612.1834  -5330303.3021   3435421.1390   1   7   0.0061   0.0104   0.0064   0.0053  -0.0057  -0.0039   0.00   17.9
2172 590282.000   -623612.1848  -5330303.3025   3435421.1422   1   7   0.0060   0.0105   0.0066   0.0052  -0.0056  -0.0038   0.00   17.8
2172 590283.000   -623612.1844  -5330303.3022   3435421.1392   1   7   0.0063   0.0104   0.0063   0.0052  -0.0058  -0.0038   0.00   17.8
2172 590284.000   -623612.1865  -5330303.3039   3435421.1391   1   7   0.0061   0.0106   0.0063   0.0053  -0.0057  -0.0039   0.00   17.7
2172 590285.000   -623612.1867  -5330303.3062   3435421.1420   1   7   0.0063   0.0105   0.0064   0.0053  -0.0056  -0.0038   0.00   17.7
2172 590286.000   -623612.1856  -5330303.3080   3435421.1418   1   7   0.0058   0.0103   0.0065   0.0053  -0.0058  -0.0038   0.00   17.7
2172 590287.000   -623612.1862  -5330303.3078   3435421.1423   1   7   0.0058   0.0104   0.0064   0.0053  -0.0057  -0.0039   0.00   17.6
2172 590288.000   -623612.1869  -5330303.3026   3435421.1392   1   7   0.0062   0.0105   0.0065   0.0051  -0.0057  -0.0037   0.00   17.6
2172 590289.000   -623612.1880  -5330303.3057   3435421.1424   1   7   0.0061   0.0104   0.0064   0.0053  -0.0057  -0.0038   0.00   17.5
2172 590290.000   -623612.1844  -5330303.3015   3435421.1396   1   7   0.0061   0.0105   0.0064   0.0052  -0.0056  -0.0038   0.00   17.5
2172 590291.000   -623612.1857  -5330303.3097   3435421.1428   1   7   0.0062   0.0105   0.0064   0.0052  -0.0057  -0.0038   0.00   17.4
2172 590292.000   -623612.1869  -5330303.3054   3435421.1409   1   7   0.0059   0.0104   0.0063   0.0054  -0.0057  -0.0040   0.00   17.4
2172 590293.000   -623612.1839  -5330303.3068   3435421.1405   1   7   0.0056   0.0104   0.0064   0.0057  -0.0057  -0.0039   0.00   17.4
2172 590294.000   -623612.1898  -5330303.3120   3435421.1431   1   7   0.0059   0.0104   0.0064   0.0054  -0.0057  -0.0039   0.00   17.3
2172 590295.000   -623612.1898  -5330303.3121   3435421.1432   1   7   0.0061   0.0104   0.0064   0.0051  -0.0057  -0.0038   0.00   17.3
2172 590296.000   -623612.1858  -5330303.3076   3435421.1451   1   7   0.0062   0.0105   0.0065   0.0051  -0.0056  -0.0038   0.00   17.2
2172 590297.000   -623612.1883  -5330303.3115   3435421.1421   1   7   0.0060   0.0104   0.0064   0.0052  -0.0057  -0.0038   0.00   17.2
2172 590298.000   -623612.1876  -5330303.3029   3435421.1407   1   7   0.0060   0.0104   0.0064   0.0054  -0.0057  -0.0038   0.00   17.1
2172 590299.000   -623612.1850  -5330303.3046   3435421.1409   1   7   0.0057   0.0104   0.0065   0.0052  -0.0057  -0.0039   0.00   17.1
2172 590300.000   -623612.1862  -5330303.3058   3435421.1415   1   7   0.0061   0.0105   0.0064   0.0050  -0.0057  -0.0039   0.00   17.0
2172 590301.000   -623612.1865  -5330303.3093   3435421.1422   1   7   0.0056   0.0103   0.0064   0.0052  -0.0058  -0.0039   0.00   17.0
2172 590302.000   -623612.1841  -5330303.3073   3435421.1404   1   7   0.0062   0.0105   0.0066   0.0051  -0.0057  -0.0038   0.00   16.9
2172 590303.000   -623612.1832  -5330303.3068   3435421.1411   1   7   0.0059   0.0104   0.0064   0.0052  -0.0056  -0.0039   0.00   16.9
