     2.11           OBSERVATION DATA    M (MIXED)           RINEX VERSION / TYPE
CONVBIN 2.4.3                           20210831 165329 UTC PGM / RUN BY / DATE 
log: logs/21_08_31_08_18_10_txlu_SW.rtcm                    COMMENT             
format: RTCM 3, station ID: 492                             COMMENT             
0492                                                        MARKER NAME         
                                                            MARKER NUMBER       
                                                            OBSERVER / AGENCY   
                    SWFT                                    REC # / TYPE / VERS 
                    NULL                                    ANT # / TYPE        
 -1103367.0434 -5261870.5964  3420150.1499                  APPROX POSITION XYZ 
        0.0000        0.0000        0.0000                  ANTENNA: DELTA H/E/N
     1     1                                                WAVELENGTH FACT L1/2
     5    C1    L1    P2    L2    C2                        # / TYPES OF OBSERV 
  2021     8    31     8    18   15.0000000     GPS         TIME OF FIRST OBS   
  2021     8    31     8    48   13.0000000     GPS         TIME OF LAST OBS    
                                                            END OF HEADER       
 21  8 31  8 18 15.0000000  0 18G 1G 7G 8G 9G13G14G17G19G21G30E 1E 4
                                E 5E 9E24E26E31E33
  22257129.388   116961956.833    22257132.694    91139174.335                  
  20598506.878   108245894.220    20598506.503    84347452.255                  
  24002167.727   126132200.055    24002170.175    98284820.625                  
  24529387.585   128902756.433    24529390.355   100443694.883                  
  22982881.025   120775864.126    22982880.525    94111065.025                  
  21276774.588   111810215.266    21276774.838    87124847.720                  
  21330127.738   112090582.777    21330127.666    87343311.911                  
  23859389.999   125381947.324    23859388.587    97700220.777                  
  22865375.634   120158360.750    22865374.777    93629892.266                  
  20442615.324   107426630.856    20442617.343    83709053.644                  
  25705116.976   135081269.821                                                  
  26698568.680   140301928.265                                                  
  27429871.132   144144937.437                                                  
  23726521.555   124683700.519                                                  
  26819063.433   140935167.923                                                  
  25542168.426   134224972.656                                                  
  24140136.008   126857252.324                                                  
  25046217.804   131618784.952                                                  
 21  8 31  8 18 16.0000000  0 18G 1G 7G 8G 9G13G14G17G19G21G30E 1E 4
                                E 5E 9E24E26E31E33
  22256766.218   116960048.423    22256769.542    91137687.263                  
  20598709.656   108246959.833    20598709.280    84348282.603                  
  24002827.987   126135669.726    24002830.435    98287524.265                  
  24530066.054   128906321.864    24530068.842   100446473.137                  
  22982519.946   120773966.706    22982519.463    94109586.520                  
  21276583.639   111809211.890    21276583.907    87124065.871                  
  21329707.155   112088372.632    21329707.083    87341589.718                  
  23858709.868   125378373.107    23858708.420    97697435.673                  
  22865456.938   120158788.008    22865456.099    93630225.195                  
  20442439.403   107425706.402    20442441.422    83708333.292                  
  25705347.486   135082481.109                                                  
  26699095.405   140304696.204                                                  
  27429658.240   144143818.552                                                  
  23726742.952   124684863.984                                                  
  26818766.772   140933608.938                                                  
  25542281.877   134225568.839                                                  
  24140061.905   126856862.917                                                  
  25045874.021   131616978.391                                                  
 21  8 31  8 18 17.0000000  0 18G 1G 7G 8G 9G13G14G17G19G21G30E 1E 4
                                E 5E 9E24E26E31E33
  22256403.156   116958140.515    22256406.479    91136200.581                  
  20598912.540   108248025.950    20598912.147    84349113.343                  
  24003488.266   126139139.500    24003490.714    98290227.985                  
  24530744.523   128909887.240    24530747.328   100449251.351                  
  22982158.973   120772069.837    22982158.509    94108108.438                  
  21276392.745   111808208.711    21276392.995    87123284.173                  
  21329286.679   112086162.952    21329286.607    87339867.891                  
  23858029.737   125374799.057    23858028.308    97694650.704                  
  22865538.367   120159215.827    22865537.492    93630558.563                  
  20442263.554   107424782.397    20442265.573    83707613.288                  
  25705577.979   135083692.446                                                  
  26699622.148   140307464.199                                                  
  27429445.403   144142700.066                                                  
  23726964.438   124686027.848                                                  
  26818470.128   140932049.954                                                  
  25542395.416   134226165.495                                                  
  24139987.820   126856473.554                                                  
  25045530.329   131615172.203                                                  
 21  8 31  8 18 18.0000000  0 18G 1G 7G 8G 9G13G14G17G19G21G30E 1E 4
                                E 5E 9E24E26E31E33
  22256040.200   116956233.082    22256043.524    91134714.259                  
  20599115.497   108249092.581    20599115.122    84349944.491                  
  24004148.544   126142609.453    24004151.028    98292931.874                  
  24531422.974   128913452.515    24531425.779   100452029.461                  
  22981798.126   120770173.500    22981797.644    94106630.761                  
  21276201.886   111807205.693    21276202.136    87122502.582                  
  21328866.274   112083953.735    21328866.185    87338146.421                  
  23857349.642   125371225.160    23857348.212    97691865.833                  
  22865619.886   120159644.233    22865619.028    93630892.386                  
  20442087.812   107423858.868    20442089.831    83706893.659                  
  25705808.507   135084903.836                                                  
  26700148.874   140310232.126                                                  
  27429232.636   144141581.907                                                  
  23727185.979   124687192.093                                                  
  26818173.467   140930491.104                                                  
  25542509.045   134226762.652                                                  
  24139913.735   126856084.264                                                  
  25045186.672   131613366.358                                                  
 21  8 31  8 18 19.0000000  0 18G 1G 7G 8G 9G13G14G17G19G21G30E 1E 4
                                E 5E 9E24E26E31E33
  22255677.316   116954326.181    22255680.640    91133228.355                  
  20599318.560   108250159.711    20599318.185    84350776.019                  
  24004808.858   126146079.430    24004811.324    98295635.754                  
  24532101.425   128917017.794    24532104.213   100454807.602                  
  22981437.387   120768277.743    22981436.886    94105153.546                  
  21276011.062   111806202.892    21276011.312    87121721.179                  
  21328445.959   112081744.999    21328445.888    87336425.333                  
  23856669.601   125367651.472    23856668.171    97689081.140                  
  22865701.494   120160073.212    22865700.654    93631226.657                  
  20441912.160   107422935.761    20441914.179    83706174.355                  
  25706039.017   135086115.250                                                  
  26700675.635   140313000.182                                                  
  27429019.941   144140464.231                                                  
  23727407.608   124688356.746                                                  
  26817876.805   140928932.117                                                  
  25542622.764   134227360.247                                                  
  24139839.668   126855695.016                                                  
  25044843.104   131611560.868                                                  
 21  8 31  8 18 20.0000000  0 18G 1G 7G 8G 9G13G14G17G19G21G30E 1E 4
                                E 5E 9E24E26E31E33
  22255314.539   116952419.773    22255317.863    91131742.848                  
  20599521.713   108251227.339    20599521.338    84351607.937                  
  24005469.208   126149549.503    24005471.656    98298339.707                  
  24532779.858   128920583.016    24532782.664   100457585.695                  
  22981076.718   120766382.536    22981076.236    94103676.761                  
  21275820.257   111805200.276    21275820.525    87120939.922                  
  21328025.733   112079536.729    21328025.662    87334704.601                  
  23855989.577   125364077.985    23855988.165    97686296.601                  
  22865783.245   120160502.736    22865782.387    93631561.348                  
  20441736.579   107422013.108    20441738.598    83705455.405                  
  25706269.563   135087326.702                                                  
  26701202.395   140315768.321                                                  
  27428807.335   144139346.990                                                  
  23727629.291   124689521.790                                                  
  26817580.143   140927373.180                                                  
  25542736.554   134227958.317                                                  
  24139765.601   126855305.826                                                  
  25044499.608   131609755.777                                                  
 21  8 31  8 18 21.0000000  0 18G 1G 7G 8G 9G13G14G17G19G21G30E 1E 4
                                E 5E 9E24E26E31E33
  22254951.851   116950513.875    22254955.175    91130257.731                  
  20599724.973   108252295.482    20599724.598    84352440.253                  
  24006129.540   126153019.685    24006132.023    98301043.743                  
  24533458.291   128924148.192    24533461.097   100460363.754                  
  22980716.175   120764487.886    22980715.692    94102200.415                  
  21275629.505   111804197.868    21275629.755    87120158.825                  
  21327605.615   112077328.927    21327605.525    87332984.233                  
  23855309.607   125360504.661    23855308.178    97683512.195                  
  22865865.085   120160932.841    22865864.245    93631896.495                  
  20441561.087   107421090.911    20441563.106    83704736.812                  
  25706500.092   135088538.192                                                  
  26701729.156   140318536.512                                                  
  27428594.819   144138230.165                                                  
  23727851.081   124690687.238                                                  
  26817283.482   140925814.219                                                  
  25542850.469   134228556.862                                                  
  24139691.534   126854916.677                                                  
  25044156.183   131607951.039                                                  
 21  8 31  8 18 22.0000000  0 22G 1G 7G 8G 9G13G14G17G19G21G30C20C23
                                C27C28E 1E 4E 5E 9E24E26E31E33
  22254589.271   116948608.482    22254592.595    91128773.011                  
  20599928.341   108253364.120    20599927.966    84353272.961                  
  24006789.925   126156489.964    24006792.373    98303747.858                  
  24534136.725   128927713.309    24534139.512   100463141.765                  
  22980355.757   120762593.793    22980355.256    94100724.501                  
  21275438.771   111803195.622    21275439.039    87119377.856                  
  21327185.568   112075121.585    21327185.478    87331264.231                  
  23854629.655   125356931.509    23854628.226    97680727.923                  
  22865947.032   120161363.524    22865946.174    93632232.095                  
  20441385.685   107420169.157    20441387.704    83704018.562                  
                 136710390.700                   136710390.700    26253789.436  
                 126013567.649                   126013567.649    24199572.506  
                 120102207.833                   120102207.833    23064366.575  
                 114971830.617                   114971830.617    22079130.029  
  25706730.638   135089749.720                                                  
  26702255.935   140321304.745                                                  
  27428382.374   144137113.754                                                  
  23728072.943   124691853.062                                                  
  26816986.820   140924255.296                                                  
  25542964.455   134229155.871                                                  
  24139617.502   126854527.578                                                  
  25043812.812   131606146.673                                                  
 21  8 31  8 18 23.0000000  0 22G 1G 7G 8G 9G13G14G17G19G21G30C20C23
                                C27C28E 1E 4E 5E 9E24E26E31E33
  22254226.780   116946703.578    22254230.104    91127288.676                  
  20600131.798   108254433.265    20600131.422    84354106.066                  
  24007450.328   126159960.348    24007452.776    98306452.059                  
  24534815.122   128931278.374    24534817.928   100465919.742                  
  22979995.428   120760700.246    22979994.945    94099249.012                  
  21275248.109   111802193.570    21275248.359    87118597.038                  
  21326765.628   112072914.706    21326765.520    87329544.590                  
  23853949.739   125353358.551    23853948.327    97677943.804                  
  22866029.104   120161794.765    22866028.265    93632568.133                  
  20441210.354   107419247.849    20441212.373    83703300.664                  
                 136712567.001                   136712567.001    26254207.374  
                 126015338.034                   126015338.034    24199912.482  
                 120099450.140                   120099450.140    23063837.009  
                 114971923.009                   114971923.009    22079147.755  
  25706961.202   135090961.292                                                  
  26702782.714   140324073.039                                                  
  27428170.001   144135997.763                                                  
  23728294.859   124693019.306                                                  
  26816690.159   140922696.379                                                  
  25543078.513   134229755.352                                                  
  24139543.453   126854138.531                                                  
  25043469.512   131604342.671                                                  
 21  8 31  8 18 24.0000000  0 22G 1G 7G 8G 9G13G14G17G19G21G30C20C23
                                C27C28E 1E 4E 5E 9E24E26E31E33
  22253864.396   116944799.183    22253867.702    91125804.738                  
  20600335.344   108255502.907    20600334.968    84354939.560                  
  24008110.714   126163430.817    24008113.180    98309156.325                  
  24535493.520   128934843.368    24535496.325   100468697.664                  
  22979635.206   120758807.263    22979634.724    94097773.960                  
  21275057.464   111801191.714    21275057.714    87117816.376                  
  21326345.741   112070708.301    21326345.652    87327825.317                  
  23853269.858   125349785.757    23853268.447    97675159.816                  
  22866111.284   120162226.574    22866110.426    93632904.609                  
  20441035.148   107418327.004    20441037.167    83702583.125                  
                 136714743.387                   136714743.387    26254625.349  
                 126017108.632                   126017108.632    24200252.494  
                 120096692.761                   120096692.761    23063307.460  
                 114972015.956                   114972015.956    22079165.606  
  25707191.766   135092172.905                                                  
  26703309.529   140326841.374                                                  
  27427957.717   144134882.191                                                  
  23728516.863   124694185.934                                                  
  26816393.515   140921137.456                                                  
  25543192.696   134230355.312                                                  
  24139469.440   126853749.544                                                  
  25043126.302   131602539.033                                                  
 21  8 31  8 18 25.0000000  0 22G 1G 7G 8G 9G13G14G17G19G21G30C20C23
                                C27C28E 1E 4E 5E 9E24E26E31E33
  22253502.102   116942895.301    22253505.408    91124321.196                  
  20600538.979   108256573.051    20600538.604    84355773.438                  
  24008771.135   126166901.387    24008773.619    98311860.665                  
  24536171.899   128938408.318    24536174.705   100471475.552                  
  22979275.074   120756914.825    22979274.591    94096299.340                  
  21274866.837   111800190.040    21274867.105    87117035.855                  
  21325925.980   112068502.358    21325925.873    87326106.401                  
  23852590.013   125346213.157    23852588.584    97672375.972                  
  22866193.553   120162658.954    22866192.695    93633241.532                  
  20440859.978   107417406.594    20440861.997    83701865.925                  
                 136716919.863                   136716919.863    26255043.305  
                 126018879.444                   126018879.444    24200592.559  
                 120093935.699                   120093935.699    23062778.001  
                 114972109.464                   114972109.464    22079183.564  
  25707422.312   135093384.548                                                  
  26703836.325   140329609.759                                                  
  27427745.505   144133767.024                                                  
  23728738.940   124695352.938                                                  
  26816096.854   140919578.539                                                  
  25543306.969   134230955.735                                                  
  24139395.426   126853360.600                                                  
  25042783.145   131600735.753                                                  
 21  8 31  8 18 26.0000000  0 22G 1G 7G 8G 9G13G14G17G19G21G30C20C23
                                C27C28E 1E 4E 5E 9E24E26E31E33
  22253139.897   116940991.915    22253143.203    91122838.036                  
  20600742.722   108257643.699    20600742.346    84356607.711                  
  24009431.592   126170372.059    24009434.058    98314565.087                  
  24536850.279   128941973.215    24536853.084   100474253.394                  
  22978915.067   120755022.942    22978914.584    94094825.144                  
  21274676.264   111799188.563    21274676.514    87116255.481                  
  21325506.272   112066296.894    21325506.201    87324387.860                  
  23851910.204   125342640.731    23851908.775    97669592.263                  
  22866275.947   120163091.914    22866275.072    93633578.901                  
  20440684.915   107416486.641    20440686.934    83701149.081                  
                 136719096.423                   136719096.423    26255461.279  
                 126020650.466                   126020650.466    24200932.678  
                 120091178.946                   120091178.946    23062248.595  
                 114972203.525                   114972203.525    22079201.612  
  25707652.894   135094596.234                                                  
  26704363.140   140332378.188                                                  
  27427533.381   144132652.280                                                  
  23728961.087   124696520.352                                                  
  26815800.192   140918019.628                                                  
  25543421.295   134231556.634                                                  
  24139321.413   126852971.710                                                  
  25042440.060   131598932.851                                                  
 21  8 31  8 18 27.0000000  0 22G 1G 7G 8G 9G13G14G17G19G21G30C20C23
                                C27C28E 1E 4E 5E 9E24E26E31E33
  22252777.781   116939089.040    22252781.105    91121355.274                  
  20600946.553   108258714.849    20600946.178    84357442.371                  
  24010092.067   126173842.824    24010094.515    98317269.577                  
  24537528.658   128945538.071    24537531.464   100477031.199                  
  22978555.167   120753131.620    22978554.684    94093351.386                  
  21274485.727   111798187.267    21274485.977    87115475.251                  
  21325086.672   112064091.897    21325086.601    87322669.683                  
  23851230.413   125339068.491    23851229.001    97666808.700                  
  22866358.448   120163525.423    22866357.573    93633916.703                  
  20440509.942   107415567.138    20440511.961    83700432.582                  
                 136721273.070                   136721273.070    26255879.307  
                 126022421.700                   126022421.700    24201272.815  
                 120088422.512                   120088422.512    23061719.261  
                 114972298.141                   114972298.141    22079219.803  
  25707883.476   135095807.956                                                  
  26704889.954   140335146.661                                                  
  27427321.312   144131537.938                                                  
  23729183.306   124697688.148                                                  
  26815503.566   140916460.735                                                  
  25543535.746   134232158.005                                                  
  24139247.435   126852582.875                                                  
  25042097.046   131597130.304                                                  
 21  8 31  8 18 28.0000000  0 22G 1G 7G 8G 9G13G14G17G19G21G30C20C23
                                C27C28E 1E 4E 5E 9E24E26E31E33
  22252415.772   116937186.663    22252419.096    91119872.907                  
  20601150.475   108259786.500    20601150.100    84358277.427                  
  24010752.542   126177313.702    24010755.025    98319974.157                  
  24538207.002   128949102.847    24538209.808   100479808.949                  
  22978195.356   120751240.852    22978194.874    94091878.063                  
  21274295.225   111797186.159    21274295.475    87114695.172                  
  21324667.179   112061887.363    21324667.072    87320951.864                  
  23850550.675   125335496.434    23850549.264    97664025.281                  
  22866441.039   120163959.531    22866440.199    93634254.969                  
  20440335.058   107414648.086    20440337.077    83699716.441                  
                 136723449.802                   136723449.802    26256297.317  
                 126024193.144                   126024193.144    24201613.006  
                 120085666.387                   120085666.387    23061189.963  
                 114972393.309                   114972393.309    22079238.065  
  25708114.075   135097019.722                                                  
  26705416.805   140337915.175                                                  
  27427109.367   144130424.016                                                  
  23729405.597   124698856.355                                                  
  26815206.905   140914901.833                                                  
  25543650.268   134232759.843                                                  
  24139173.439   126852194.090                                                  
  25041754.104   131595328.116                                                  
 21  8 31  8 18 29.0000000  0 22G 1G 7G 8G 9G13G14G17G19G21G30C20C23
                                C27C28E 1E 4E 5E 9E24E26E31E33
  22252053.853   116935284.800    22252057.177    91118390.933                  
  20601354.503   108260858.660    20601354.128    84359112.876                  
  24011413.052   126180784.696    24011415.518    98322678.824                  
  24538885.364   128952667.583    24538888.151   100482586.663                  
  22977835.653   120749350.645    22977835.188    94090405.172                  
  21274104.759   111796185.251    21274105.027    87113915.239                  
  21324247.757   112059683.305    21324247.686    87319234.414                  
  23849870.973   125331924.574    23849869.562    97661242.011                  
  22866523.755   120164394.196    22866522.897    93634593.669                  
  20440160.263   107413729.480    20440162.282    83699000.642                  
                 136725626.621                   136725626.621    26256715.345  
                 126025964.800                   126025964.800    24201953.232  
                 120082910.578                   120082910.578    23060660.736  
                 114972489.039                   114972489.039    22079256.452  
  25708344.657   135098231.526                                                  
  26705943.637   140340683.757                                                  
  27426897.459   144129310.516                                                  
  23729627.977   124700024.949                                                  
  26814910.261   140913342.945                                                  
  25543764.880   134233362.159                                                  
  24139099.479   126851805.360                                                  
  25041411.215   131593526.312                                                  
 21  8 31  8 18 30.0000000  0 22G 1G 7G 8G 9G13G14G17G19G21G30C20C23
                                C27C28E 1E 4E 5E 9E24E26E31E33
  22251692.041   116933383.413    22251695.365    91116909.335                  
  20601558.639   108261931.324    20601558.246    84359948.716                  
  24012073.581   126184255.765    24012076.047    98325383.554                  
  24539563.708   128956232.263    24539566.477   100485364.336                  
  22977476.074   120747460.977    22977475.574    94088932.703                  
  21273914.311   111795184.522    21273914.579    87113135.452                  
  21323828.443   112057479.716    21323828.335    87317517.336                  
  23849191.325   125328352.878    23849189.878    97658458.875                  
  22866606.578   120164829.424    22866605.720    93634932.808                  
  20439985.540   107412811.324    20439987.559    83698285.195                  
                 136727803.527                   136727803.527    26257133.391  
                 126027736.668                   126027736.668    24202293.494  
                 120080155.086                   120080155.086    23060131.581  
                 114972585.321                   114972585.321    22079274.947  
  25708575.275   135099443.374                                                  
  26706470.487   140343452.374                                                  
  27426685.639   144128197.415                                                  
  23729850.446   124701193.922                                                  
  26814613.618   140911784.057                                                  
  25543879.582   134233964.942                                                  
  24139025.502   126851416.669                                                  
  25041068.416   131591724.857                                                  
 21  8 31  8 18 31.0000000  0 22G 1G 7G 8G 9G13G14G17G19G21G30C20C23
                                C27C28E 1E 4E 5E 9E24E26E31E33
  22251330.319   116931482.548    22251333.642    91115428.141                  
  20601762.846   108263004.484    20601762.453    84360784.942                  
  24012734.127   126187726.921    24012736.575    98328088.351                  
  24540242.016   128959796.890    24540244.821   100488141.972                  
  22977116.585   120745571.876    22977116.103    94087460.679                  
  21273723.917   111794183.987    21273724.185    87112355.816                  
  21323409.182   112055276.591    21323409.092    87315800.613                  
  23848511.677   125324781.384    23848510.265    97655675.891                  
  22866689.526   120165265.231    22866688.668    93635272.397                  
  20439810.906   107411893.616    20439812.925    83697570.100                  
                 136729980.515                   136729980.515    26257551.455  
                 126029508.751                   126029508.751    24202633.827  
                 120077399.906                   120077399.906    23059602.479  
                 114972682.155                   114972682.155    22079293.548  
  25708805.875   135100655.245                                                  
  26706997.337   140346221.032                                                  
  27426473.891   144127084.734                                                  
  23730072.951   124702363.306                                                  
  26814316.956   140910225.176                                                  
  25543994.372   134234568.200                                                  
  24138951.560   126851028.037                                                  
  25040725.688   131589923.766                                                  
 21  8 31  8 18 32.0000000  0 22G 1G 7G 8G 9G13G14G17G19G21G30C20C23
                                C27C28E 1E 4E 5E 9E24E26E31E33
  22250968.703   116929582.196    22250971.991    91113947.348                  
  20601967.161   108264078.149    20601966.785    84361621.566                  
  24013394.673   126191198.188    24013397.139    98330793.235                  
  24540920.342   128963361.458    24540923.147   100490919.555                  
  22976757.203   120743683.327    22976756.721    94085989.087                  
  21273533.558   111793183.639    21273533.826    87111576.325                  
  21322990.046   112053073.929    21322989.939    87314084.254                  
  23847832.082   125321210.055    23847830.653    97652893.039                  
  22866772.563   120165701.604    22866771.705    93635612.431                  
  20439636.361   107410976.360    20439638.380    83696855.356                  
                 136732157.595                   136732157.595    26257969.554  
                 126031281.044                   126031281.044    24202974.160  
                 120074645.039                   120074645.039    23059073.449  
                 114972779.551                   114972779.551    22079312.239  
  25709036.492   135101867.152                                                  
  26707524.206   140348989.731                                                  
  27426262.233   144125972.457                                                  
  23730295.564   124703533.074                                                  
  26814020.312   140908666.297                                                  
  25544109.252   134235171.910                                                  
  24138877.600   126850639.436                                                  
  25040383.014   131588123.033                                                  
 21  8 31  8 18 33.0000000  0 22G 1G 7G 8G 9G13G14G17G19G21G30C20C23
                                C27C28E 1E 4E 5E 9E24E26E31E33
  22250607.159   116927682.340    22250610.483    91112466.941                  
  20602171.564   108265152.324    20602171.171    84362458.586                  
  24014055.255   126194669.573    24014057.721    98333498.210                  
  24541598.632   128966925.977    24541601.438   100493697.102                  
  22976397.947   120741795.344    22976397.464    94084517.926                  
  21273343.235   111792183.485    21273343.503    87110796.979                  
  21322570.982   112050871.743    21322570.874    87312368.267                  
  23847152.523   125317638.919    23847151.076    97650110.336                  
  22866855.708   120166138.546    22866854.832    93635952.905                  
  20439461.906   107410059.565    20439463.925    83696140.968                  
                 136734334.754                   136734334.754    26258387.654  
                 126033053.546                   126033053.546    24203314.565  
                 120071890.487                   120071890.487    23058544.436  
                 114972877.500                   114972877.500    22079331.055  
  25709267.146   135103079.117                                                  
  26708051.074   140351758.477                                                  
  27426050.663   144124860.607                                                  
  23730518.248   124704703.232                                                  
  26813723.687   140907107.430                                                  
  25544224.239   134235776.098                                                  
  24138803.676   126850250.907                                                  
  25040040.429   131586322.675                                                  
 21  8 31  8 18 34.0000000  0 22G 1G 7G 8G 9G13G14G17G19G21G30C20C23
                                C27C28E 1E 4E 5E 9E24E26E31E33
  22250245.740   116925782.989    22250249.046    91110986.927                  
  20602376.075   108266226.999    20602375.682    84363295.997                  
  24014715.855   126198141.046    24014718.321    98336203.254                  
  24542276.940   128970490.431    24542279.728   100496474.599                  
  22976038.779   120739907.913    22976038.279    94083047.198                  
  21273152.966   111791183.522    21273153.216    87110017.790                  
  21322152.007   112048670.027    21322151.917    87310652.646                  
  23846472.982   125314067.953    23846471.553    97647327.766                  
  22866938.959   120166576.064    22866938.102    93636293.823                  
  20439287.522   107409143.205    20439289.541    83695426.923                  
                 136736512.003                   136736512.003    26258805.753  
                 126034826.263                   126034826.263    24203654.988  
                 120069136.249                   120069136.249    23058015.513  
                 114972976.003                   114972976.003    22079349.961  
  25709497.781   135104291.121                                                  
  26708577.978   140354527.284                                                  
  27425839.166   144123749.167                                                  
  23730740.985   124705873.798                                                  
  26813427.043   140905548.572                                                  
  25544339.298   134236380.770                                                  
  24138729.734   126849862.421                                                  
  25039697.897   131584522.684                                                  
 21  8 31  8 18 35.0000000  0 22G 1G 7G 8G 9G13G14G17G19G21G30C20C23
                                C27C28E 1E 4E 5E 9E24E26E31E33
  22249884.393   116923884.148    22249887.699    91109507.313                  
  20602580.676   108267302.175    20602580.283    84364133.794                  
  24015376.473   126201612.610    24015378.939    98338908.367                  
  24542955.213   128974054.847    24542958.018   100499252.066                  
  22975679.701   120738021.030    22975679.219    94081576.902                  
  21272962.696   111790183.738    21272962.964    87109238.739                  
  21321733.121   112046468.774    21321733.014    87308937.379                  
  23845793.477   125310497.167    23845792.065    97644545.337                  
  22867022.318   120167014.142    22867021.461    93636635.183                  
  20439113.227   107408227.305    20439115.247    83694713.230                  
                 136738689.337                   136738689.337    26259223.906  
                 126036599.186                   126036599.186    24203995.464  
                 120066382.327                   120066382.327    23057486.662  
                 114973075.062                   114973075.062    22079368.991  
  25709728.417   135105503.142                                                  
  26709104.864   140357296.118                                                  
  27425627.739   144122638.141                                                  
  23730963.794   124707044.743                                                  
  26813130.399   140903989.713                                                  
  25544454.446   134236985.906                                                  
  24138655.827   126849473.988                                                  
  25039355.438   131582723.046                                                  
 21  8 31  8 18 36.0000000  0 22G 1G 7G 8G 9G13G14G17G19G21G30C20C23
                                C27C28E 1E 4E 5E 9E24E26E31E33
  22249523.153   116921985.813    22249526.459    91108028.090                  
  20602785.365   108268377.858    20602784.972    84364971.989                  
  24016037.127   126205084.274    24016039.575    98341613.559                  
  24543633.503   128977619.198    24543636.273   100502029.480                  
  22975320.766   120736134.702    22975320.266    94080107.039                  
  21272772.481   111789184.148    21272772.749    87108459.835                  
  21321314.325   112044267.993    21321314.235    87307222.485                  
  23845114.025   125306926.559    23845112.596    97641763.043                  
  22867105.785   120167452.786    22867104.945    93636976.988                  
  20438939.022   107407311.851    20438941.042    83693999.891                  
                 136740866.755                   136740866.755    26259642.059  
                 126038372.328                   126038372.328    24204335.977  
                 120063628.723                   120063628.723    23056957.864  
                 114973174.680                   114973174.680    22079388.111  
  25709959.052   135106715.222                                                  
  26709631.768   140360065.011                                                  
  27425416.402   144121527.531                                                  
  23731186.692   124708216.078                                                  
  26812833.756   140902430.867                                                  
  25544569.701   134237591.512                                                  
  24138581.921   126849085.605                                                  
  25039013.031   131580923.789                                                  
 21  8 31  8 18 37.0000000  0 22G 1G 7G 8G 9G13G14G17G19G21G30C20C23
                                C27C28E 1E 4E 5E 9E24E26E31E33
  22249162.002   116920087.982    22249165.326    91106549.259                  
  20602990.162   108269454.038    20602989.787    84365810.571                  
  24016697.780   126208556.052    24016700.246    98344318.839                  
  24544311.757   128981183.488    24544314.563   100504806.848                  
  22974961.903   120734248.937    22974961.420    94078637.610                  
  21272582.301   111788184.745    21272582.569    87107681.082                  
  21320895.618   112042067.667    21320895.528    87305507.950                  
  23844434.573   125303356.134    23844433.162    97638980.896                  
  22867189.376   120167892.014    22867188.518    93637319.242                  
  20438764.907   107406396.851    20438766.926    83693286.907                  
                 136743044.263                   136743044.263    26260060.212  
                 126040145.679                   126040145.679    24204676.524  
                 120060875.429                   120060875.429    23056429.119  
                 114973274.847                   114973274.847    22079407.356  
  25710189.723   135107927.331                                                  
  26710158.671   140362833.945                                                  
  27425205.137   144120417.335                                                  
  23731409.679   124709387.821                                                  
  26812537.112   140900872.026                                                  
  25544685.028   134238197.587                                                  
  24138508.015   126848697.269                                                  
  25038670.715   131579124.884                                                  
 21  8 31  8 18 38.0000000  0 22G 1G 7G 8G 9G13G14G17G19G21G30C20C23
                                C27C28E 1E 4E 5E 9E24E26E31E33
  22248800.958   116918190.641    22248804.264    91105070.814                  
  20603195.048   108270530.722    20603194.655    84366649.543                  
  24017358.434   126212027.918    24017360.917    98347024.187                  
  24544989.994   128984747.727    24544992.799   100507584.180                  
  22974603.164   120732363.730    22974602.682    94077168.617                  
  21272392.156   111787185.536    21272392.424    87106902.476                  
  21320477.000   112039867.823    21320476.893    87303793.786                  
  23843755.193   125299785.890    23843753.764    97636198.888                  
  22867273.056   120168331.806    22867272.199    93637661.936                  
  20438590.862   107405482.304    20438592.899    83692574.271                  
                 136745221.847                   136745221.847    26260478.401  
                 126041919.243                   126041919.243    24205017.126  
                 120058122.453                   120058122.453    23055900.446  
                 114973375.575                   114973375.575    22079426.708  
  25710420.377   135109139.487                                                  
  26710685.593   140365602.934                                                  
  27424993.961   144119307.550                                                  
  23731632.721   124710559.954                                                  
  26812240.486   140899313.189                                                  
  25544800.444   134238804.144                                                  
  24138434.144   126848309.003                                                  
  25038328.487   131577326.349                                                  
 21  8 31  8 18 39.0000000  0 22G 1G 7G 8G 9G13G14G17G19G21G30C20C23
                                C27C28E 1E 4E 5E 9E24E26E31E33
  22248440.004   116916293.816    22248443.328    91103592.768                  
  20603400.024   108271607.914    20603399.649    84367488.914                  
  24018019.141   126215499.864    24018021.607    98349729.601                  
  24545668.248   128988311.905    24545671.036   100510361.462                  
  22974244.515   120730479.075    22974244.033    94075700.054                  
  21272202.066   111786186.512    21272202.316    87106124.015                  
  21320058.454   112037668.413    21320058.383    87302079.962                  
  23843075.849   125296215.840    23843074.401    97633417.030                  
  22867356.862   120168772.173    22867356.004    93638005.082                  
  20438416.925   107404568.200    20438418.944    83691861.979                  
                 136747399.523                   136747399.523    26260896.607  
                 126043693.015                   126043693.015    24205357.763  
                 120055369.788                   120055369.788    23055371.827  
                 114973476.855                   114973476.855    22079446.168  
  25710651.066   135110351.678                                                  
  26711212.515   140368371.962                                                  
  27424782.856   144118198.188                                                  
  23731855.851   124711732.471                                                  
  26811943.843   140897754.357                                                  
  25544915.967   134239411.161                                                  
  24138360.256   126847920.767                                                  
  25037986.295   131575528.180                                                  
 21  8 31  8 18 40.0000000  0 22G 1G 7G 8G 9G13G14G17G19G21G30C20C23
                                C27C28E 1E 4E 5E 9E24E26E31E33
  22248079.139   116914397.496    22248082.463    91102115.117                  
  20603605.107   108272685.605    20603604.714    84368328.673                  
  24018679.848   126218971.903    24018682.314    98352435.086                  
  24546346.485   128991876.042    24546349.273   100513138.712                  
  22973886.009   120728594.977    22973885.509    94074231.926                  
  21272011.975   111785187.675    21272012.243    87105345.703                  
  21319640.015   112035469.481    21319639.926    87300366.504                  
  23842396.504   125292645.958    23842395.075    97630635.304                  
  22867440.757   120169213.097    22867439.900    93638348.659                  
  20438243.060   107403654.551    20438245.079    83691150.047                  
                 136749577.284                   136749577.284    26261314.814  
                 126045467.003                   126045467.003    24205698.436  
                 120052617.442                   120052617.442    23054843.261  
                 114973578.691                   114973578.691    22079465.698  
  25710881.737   135111563.902                                                  
  26711739.455   140371141.031                                                  
  27424571.823   144117089.231                                                  
  23732079.053   124712905.382                                                  
  26811647.217   140896195.528                                                  
  25545031.562   134240018.647                                                  
  24138286.403   126847532.586                                                  
  25037644.175   131573730.367                                                  
 21  8 31  8 18 41.0000000  0 22G 1G 7G 8G 9G13G14G17G19G21G30C20C23
                                C27C28E 1E 4E 5E 9E24E26E31E33
  22247718.382   116912501.672    22247721.687    91100637.851                  
  20603810.279   108273763.804    20603809.904    84369168.827                  
  24019340.573   126222444.066    24019343.039    98355140.668                  
  24547024.704   128995440.121    24547027.491   100515915.913                  
  22973527.556   120726711.437    22973527.074    94072764.235                  
  21271821.938   111784189.027    21271822.206    87104567.536                  
  21319221.666   112033271.015    21319221.576    87298653.418                  
  23841717.213   125289076.266    23841715.802    97627853.730                  
  22867524.777   120169654.597    22867523.920    93638692.687                  
  20438069.283   107402741.359    20438071.303    83690438.469                  
                 136751755.130                   136751755.130    26261733.056  
                 126047241.203                   126047241.203    24206039.145  
                 120049865.405                   120049865.405    23054314.767  
                 114973681.086                   114973681.086    22079485.372  
  25711112.426   135112776.172                                                  
  26712266.412   140373910.153                                                  
  27424360.879   144115980.690                                                  
  23732302.327   124714078.695                                                  
  26811350.573   140894636.711                                                  
  25545147.264   134240626.606                                                  
  24138212.533   126847144.464                                                  
  25037302.144   131571932.932                                                  
 21  8 31  8 18 42.0000000  0 22G 1G 7G 8G 9G13G14G17G19G21G30C20C23
                                C27C28E 1E 4E 5E 9E24E26E31E33
  22247357.713   116910606.368    22247361.019    91099160.988                  
  20604015.540   108274842.507    20604015.165    84370009.375                  
  24020001.316   126225916.328    24020003.799    98357846.324                  
  24547702.923   128999004.152    24547705.728   100518693.078                  
  22973169.247   120724828.445    22973168.764    94071296.969                  
  21271631.937   111783190.575    21271632.205    87103789.519                  
  21318803.405   112031073.020    21318803.298    87296940.692                  
  23841037.958   125285506.747    23841036.546    97625072.285                  
  22867608.905   120170096.677    22867608.047    93639037.163                  
  20437895.596   107401828.616    20437897.616    83689727.241                  
                 136753933.059                   136753933.059    26262151.299  
                 126049015.613                   126049015.613    24206379.907  
                 120047113.691                   120047113.691    23053786.327  
                 114973784.032                   114973784.032    22079505.135  
  25711343.115   135113988.481                                                  
  26712793.352   140376679.324                                                  
  27424150.007   144114872.569                                                  
  23732525.671   124715252.404                                                  
  26811053.947   140893077.902                                                  
  25545263.037   134241235.044                                                  
  24138138.680   126846756.389                                                  
  25036960.184   131570135.864                                                  
 21  8 31  8 18 43.0000000  0 22G 1G 7G 8G 9G13G14G17G19G21G30C20C23
                                C27C28E 1E 4E 5E 9E24E26E31E33
  22246997.134   116908711.565    22247000.458    91097684.523                  
  20604220.927   108275921.703    20604220.534    84370850.310                  
  24020662.094   126229388.679    24020664.560    98360552.054                  
  24548381.124   129002568.122    24548383.911   100521470.200                  
  22972811.026   120722946.008    22972810.544    94069830.132                  
  21271441.989   111782192.302    21271442.239    87103011.644                  
  21318385.217   112028875.488    21318385.145    87295228.332                  
  23840358.739   125281937.419    23840357.327    97622290.992                  
  22867693.139   120170539.321    22867692.282    93639382.083                  
  20437721.999   107400916.317    20437724.018    83689016.359                  
                 136756111.070                   136756111.070    26262569.559  
                 126050790.234                   126050790.234    24206720.705  
                 120044362.290                   120044362.290    23053257.940  
                 114973887.534                   114973887.534    22079525.024  
  25711573.822   135115200.825                                                  
  26713320.345   140379448.537                                                  
  27423939.224   144113764.856                                                  
  23732749.106   124716426.488                                                  
  26810757.322   140891519.091                                                  
  25545378.900   134241843.939                                                  
  24138064.845   126846368.367                                                  
  25036618.261   131568339.151                                                  
 21  8 31  8 18 44.0000000  0 22G 1G 7G 8G 9G13G14G17G19G21G30C20C23
                                C27C28E 1E 4E 5E 9E24E26E31E33
  22246636.680   116906817.261    22246639.986    91096208.445                  
  20604426.385   108277001.410    20604425.992    84371691.633                  
  24021322.873   126232861.138    24021325.339    98363257.864                  
  24549059.307   129006132.036    24549062.094   100524247.274                  
  22972452.913   120721064.141    22972452.449    94068363.742                  
  21271252.059   111781194.225    21271252.327    87102233.927                  
  21317967.135   112026678.443    21317967.046    87293516.349                  
  23839679.555   125278368.261    23839678.125    97619509.828                  
  22867777.481   120170982.534    22867776.623    93639727.441                  
  20437548.473   107400004.475    20437550.492    83688305.835                  
                 136758289.172                   136758289.172    26262987.837  
                 126052565.071                   126052565.071    24207061.539  
                 120041611.198                   120041611.198    23052729.624  
                 114973991.595                   114973991.595    22079545.001  
  25711804.511   135116413.204                                                  
  26713847.302   140382217.784                                                  
  27423728.495   144112657.565                                                  
  23732972.594   124717600.978                                                  
  26810460.678   140889960.292                                                  
  25545494.852   134242453.309                                                  
  24137991.028   126845980.398                                                  
  25036276.444   131566542.811                                                  
 21  8 31  8 18 45.0000000  0 22G 1G 7G 8G 9G13G14G17G19G21G30C20C23
                                C27C28E 1E 4E 5E 9E24E26E31E33
  22246276.298   116904923.474    22246279.604    91094732.762                  
  20604631.932   108278081.618    20604631.557    84372533.356                  
  24021983.687   126236333.685    24021986.135    98365963.747                  
  24549737.472   129009695.894    24549740.277   100527024.308                  
  22972094.925   120719182.816    22972094.443    94066897.772                  
  21271062.165   111780196.340    21271062.415    87101456.351                  
  21317549.143   112024481.876    21317549.054    87291804.734                  
  23839000.407   125274799.297    23838998.977    97616728.819                  
  22867861.912   120171426.314    22867861.072    93640073.246                  
  20437375.036   107399093.086    20437377.055    83687595.661                  
                 136760467.354                   136760467.354    26263406.133  
                 126054340.115                   126054340.115    24207402.426  
                 120038860.429                   120038860.429    23052201.362  
                 114974096.208                   114974096.208    22079565.104  
  25712035.236   135117625.630                                                  
  26714374.278   140384987.091                                                  
  27423517.872   144111550.688                                                  
  23733196.153   124718775.861                                                  
  26810164.052   140888401.501                                                  
  25545610.911   134243063.152                                                  
  24137917.193   126845592.481                                                  
  25035934.681   131564746.841                                                  
 21  8 31  8 18 46.0000000  0 22G 1G 7G 8G 9G13G14G17G19G21G30C20C23
                                C27C28E 1E 4E 5E 9E24E26E31E33
  22245916.023   116903030.189    22245919.328    91093257.476                  
  20604837.587   108279162.329    20604837.194    84373375.468                  
  24022644.502   126239806.329    24022646.985    98368669.699                  
  24550415.655   129013259.700    24550418.460   100529801.297                  
  22971737.027   120717302.046    22971736.544    94065432.242                  
  21270872.307   111779198.642    21270872.557    87100678.922                  
  21317131.240   112022285.779    21317131.169    87290093.491                  
  23838321.277   125271230.520    23838319.865    97613947.952                  
  22867946.486   120171870.663    22867945.629    93640419.492                  
  20437201.707   107398182.148    20437203.726    83686885.837                  
                 136762645.621                   136762645.621    26263824.465  
                 126056115.376                   126056115.376    24207743.331  
                 120036109.974                   120036109.974    23051673.172  
                 114974201.376                   114974201.376    22079585.278  
  25712265.961   135118838.094                                                  
  26714901.289   140387756.441                                                  
  27423307.322   144110444.222                                                  
  23733419.819   124719951.134                                                  
  26809867.426   140886842.716                                                  
