     2.11           OBSERVATION DATA    M (MIXED)           RINEX VERSION / TYPE
CONVBIN 2.4.3                           20210831 165133 UTC PGM / RUN BY / DATE 
log: logs/21_08_31_06_17_36_momf_SNMO.rtcm                  COMMENT             
format: RTCM 3, station ID: 3915                            COMMENT             
3915                                                        MARKER NAME         
                                                            MARKER NUMBER       
                                                            OBSERVER / AGENCY   
1706591             LEICA GR30          4.50                REC # / TYPE / VERS 
                    GPPNULLANTENNA                          ANT # / TYPE        
  -261313.9276 -5070058.8207  3847994.0302                  APPROX POSITION XYZ 
        0.0000        0.0000        0.0000                  ANTENNA: DELTA H/E/N
     1     1                                                WAVELENGTH FACT L1/2
     7    C1    L1    C2    L2    P2    C5    L5            # / TYPES OF OBSERV 
  2021     8    31     6    17   43.0000000     GPS         TIME OF FIRST OBS   
  2021     8    31     6    47   40.0000000     GPS         TIME OF LAST OBS    
                                                            END OF HEADER       
 21  8 31  6 17 43.0000000  0 17G 4G 7G 8G 9G16G27G30R 1R 2R12R20R21
                                E 1E 4E19E21E31
  22451984.222   117985972.714    22451983.722    91937118.390    22451983.472  
  22451987.117    88106419.801  
  21135540.725   111068016.466    21135538.206    86546494.227    21135537.848  
                                
  20509212.922   107776641.056    20509213.512    83981798.061    20509212.779  
  20509211.904    80482552.353  
  20985966.353   110281997.741    20985966.103    85934022.078    20985965.835  
  20985966.264    82353438.732  
  23933643.741   125772146.873                    98004257.479    23933640.828  
                                
  21578373.979   113395120.533    21578373.979    88359832.181    21578373.497  
  21578373.211    84678171.089  
  23461814.459   123292667.425    23461814.870    96072207.244    23461814.226  
  23461814.208    92069197.945  
  21313706.463   113933975.642    21313708.339    88615322.115    21313709.072  
                                
  21475683.796   114598363.317    21475685.154    89132066.409    21475685.136  
                                
  21744607.445   116155790.164    21744608.553    90343396.421    21744608.499  
                                
  22117113.586   118270145.625    22117116.337    91987902.008    22117115.283  
                                
  21209897.125   113498443.323    21209896.553    88276565.276    21209896.446  
                                
  23949678.526   125856410.249                                                  
  23949679.795    93983687.860  
  24451395.250   128492950.021                                                  
  24451396.054    95952529.763  
  26402187.276   138744430.960                                                  
  26402189.098   103607859.964  
  26089723.500   137102422.923                                                  
  26089725.466   102381686.089  
  25674949.955   134922772.665                                                  
  25674952.582   100754028.685  
 21  8 31  6 17 44.0000000  0 17G 4G 7G 8G 9G16G27G30R 1R 2R12R20R21
                                E 1E 4E19E21E31
  22452614.731   117989285.988    22452614.212    91939700.162    22452613.962  
  22452617.625    88108893.999  
  21135201.321   111066232.864    21135198.801    86545104.410    21135198.426  
                                
  20509183.867   107776488.474    20509184.492    83981679.166    20509183.760  
  20509182.849    80482438.412  
  20986270.877   110283598.028    20986270.627    85935269.064    20986270.359  
  20986270.787    82354633.756  
  23934261.115   125775391.208                    98006785.532    23934258.203  
                                
  21578740.562   113397046.975    21578740.562    88361333.302    21578740.062  
  21578739.812    84679609.666  
  23461273.617   123289825.282    23461274.028    96069992.588    23461273.385  
  23461273.367    92067075.564  
  21314291.066   113937100.575    21314292.924    88617752.623    21314293.657  
                                
  21475454.071   114597137.456    21475455.412    89131112.964    21475455.394  
                                
  21744220.438   116153722.841    21744221.546    90341788.505    21744221.492  
                                
  22117388.393   118271615.094    22117391.127    91989044.929    22117390.073  
                                
  21209405.619   113495813.172    21209405.048    88274519.602    21209404.940  
                                
  23949751.396   125856793.206                                                  
  23949752.665    93983973.835  
  24451591.631   128493981.958                                                  
  24451592.417    95953300.365  
  26402767.268   138747478.816                                                  
  26402769.091   103610135.973  
  26090080.345   137104298.074                                                  
  26090082.293   102383086.364  
  25674661.174   134921255.039                                                  
  25674663.801   100752895.397  
 21  8 31  6 17 45.0000000  0 17G 4G 7G 8G 9G16G27G30R 1R 2R12R20R21
                                E 1E 4E19E21E31
  22453245.311   117992599.749    22453244.792    91942282.313    22453244.578  
  22453248.205    88111368.563  
  21134861.988   111064449.653    21134859.469    86543714.895    21134859.111  
                                
  20509155.009   107776336.769    20509155.616    83981560.956    20509154.866  
  20509153.990    80482325.128  
  20986575.544   110285199.116    20986575.293    85936516.660    20986575.025  
  20986575.472    82355829.369  
  23934878.508   125778635.730                    98009313.736    23934875.613  
                                
  21579107.306   113398974.203    21579107.306    88362835.043    21579106.806  
  21579106.538    84681048.832  
  23460732.811   123286983.375    23460733.240    96067778.114    23460732.597  
  23460732.579    92064953.353  
  21314875.776   113940226.219    21314877.635    88620183.677    21314878.367  
                                
  21475224.562   114595912.662    21475225.902    89130160.346    21475225.884  
                                
  21743833.466   116151655.839    21743834.610    90340180.840    21743834.556  
                                
  22117663.380   118273085.615    22117666.131    91990188.665    22117665.077  
                                
  21208914.275   113493183.880    21208913.685    88272474.596    21208913.578  
                                
  23949824.338   125857176.477                                                  
  23949825.606    93984260.044  
  24451788.119   128495014.523                                                  
  24451788.905    95954071.436  
  26403347.297   138750526.931                                                  
  26403349.102   103612412.165  
  26090437.189   137106173.424                                                  
  26090439.155   102384486.787  
  25674372.428   134919737.729                                                  
  25674375.073   100751762.346  
 21  8 31  6 17 46.0000000  0 17G 4G 7G 8G 9G16G27G30R 1R 2R12R20R21
                                E 1E 4E19E21E31
  22453875.926   117995913.792    22453875.426    91944864.684    22453875.194  
  22453878.839    88113843.346  
  21134522.691   111062666.638    21134520.154    86542325.530    21134519.814  
                                
  20509126.257   107776185.727    20509126.865    83981443.261    20509126.132  
  20509125.239    80482212.341  
  20986880.318   110286800.770    20986880.085    85937764.700    20986879.799  
  20986880.246    82357025.414  
  23935495.936   125781880.238                    98011841.926    23935493.006  
                                
  21579474.139   113400902.010    21579474.139    88364337.230    21579473.639  
  21579473.389    84682488.441  
  23460192.023   123284141.467    23460192.416    96065563.643    23460191.808  
  23460191.773    92062831.158  
  21315460.594   113943352.376    21315462.452    88622615.133    21315463.185  
                                
  21474995.177   114594688.708    21474996.517    89129208.384    21474996.499  
                                
  21743446.548   116149588.936    21743447.692    90338573.249    21743447.620  
                                
  22117938.527   118274556.933    22117941.279    91991333.023    22117940.224  
                                
  21208423.038   113490555.223    21208422.448    88270430.090    21208422.359  
                                
  23949897.297   125857559.877                                                  
  23949898.565    93984546.354  
  24451984.678   128496047.528                                                  
  24451985.482    95954842.834  
  26403927.379   138753575.150                                                  
  26403929.166   103614688.422  
  26090794.069   137108048.774                                                  
  26090796.035   102385887.209  
  25674083.718   134918220.528                                                  
  25674086.327   100750629.371  
 21  8 31  6 17 47.0000000  0 17G 4G 7G 8G 9G16G27G30R 1R 2R12R20R21
                                E 1E 4E19E21E31
  22454506.649   117999228.187    22454506.131    91947447.330    22454505.899  
  22454509.562    88116318.375  
  21134183.448   111060883.852    21134180.910    86540936.348    21134180.553  
                                
  20509097.667   107776035.416    20509098.274    83981326.133    20509097.524  
  20509096.630    80482100.087  
  20987185.235   110288403.052    20987184.985    85939013.232    20987184.717  
  20987185.145    82358221.919  
  23936113.347   125785124.794                    98014370.156    23936110.434  
                                
  21579841.133   113402830.476    21579841.133    88365839.931    21579840.633  
  21579840.365    84683928.514  
  23459651.253   123281299.644    23459651.646    96063349.231    23459651.038  
  23459650.985    92060709.007  
  21316045.500   113946479.095    21316047.359    88625047.025    21316048.109  
                                
  21474765.971   114593465.636    21474767.311    89128257.106    21474767.293  
                                
  21743059.648   116147522.167    21743060.774    90336965.760    21743060.720  
                                
  22118213.817   118276029.090    22118216.587    91992478.032    22118215.532  
                                
  21207931.943   113487927.284    21207931.371    88268386.138    21207931.264  
                                
  23949970.292   125857943.427                                                  
  23949971.560    93984832.762  
  24452181.344   128497080.985                                                  
  24452182.148    95955614.567  
  26404507.443   138756623.473                                                  
  26404509.248   103616964.765  
  26091150.949   137109924.151                                                  
  26091152.897   102387287.655  
  25673795.027   134916703.480                                                  
  25673797.653   100749496.509  
 21  8 31  6 17 48.0000000  0 17G 4G 7G 8G 9G16G27G30R 1R 2R12R20R21
                                E 1E 4E19E21E31
  22455137.426   118002542.890    22455136.925    91950030.213    22455136.675  
  22455140.320    88118793.633  
  21133844.222   111059101.289    21133841.703    86539547.338    21133841.345  
                                
  20509069.202   107775885.791    20509069.791    83981209.545    20509069.059  
  20509068.183    80481988.361  
  20987490.259   110290005.945    20987490.009    85940262.237    20987489.741  
  20987490.170    82359418.886  
  23936730.757   125788369.328                    98016898.367    23936727.845  
                                
  21580208.217   113404759.542    21580208.217    88367343.097    21580207.716  
  21580207.448    84685369.056  
  23459110.482   123278457.863    23459110.875    96061134.856    23459110.250  
  23459110.214    92058586.900  
  21316630.514   113949606.350    21316632.391    88627479.332    21316633.105  
                                
  21474536.944   114592243.428    21474538.284    89127306.498    21474538.248  
                                
  21742672.784   116145455.512    21742673.892    90335358.359    21742673.838  
                                
  22118489.286   118277502.134    22118492.056    91993623.733    22118490.983  
                                
  21207440.992   113485300.020    21207440.384    88266342.713    21207440.277  
                                
  23950043.287   125858327.127                                                  
  23950044.573    93985119.298  
  24452378.100   128498114.902                                                  
  24452378.904    95956386.655  
  26405087.543   138759671.884                                                  
  26405089.330   103619241.180  
  26091507.812   137111799.557                                                  
  26091509.777   102388688.123  
  25673506.370   134915186.582                                                  
  25673508.997   100748363.757  
 21  8 31  6 17 49.0000000  0 17G 4G 7G 8G 9G16G27G30R 1R 2R12R20R21
                                E 1E 4E19E21E31
  22455768.184   118005857.602    22455767.684    91952613.098    22455767.452  
  22455771.079    88121268.907  
  21133504.997   111057318.646    21133502.477    86538158.264    21133502.120  
                                
  20509040.790   107775736.583    20509041.415    83981093.277    20509040.665  
  20509039.789    80481876.937  
  20987795.337   110291609.160    20987795.104    85941511.493    20987794.819  
  20987795.265    82360616.082  
  23937348.132   125791613.593                    98019426.363    23937345.202  
                                
  21580575.371   113406688.936    21580575.371    88368846.521    21580574.871  
  21580574.621    84686809.833  
  23458569.658   123275615.838    23458570.069    96058920.291    23458569.426  
  23458569.408    92056464.611  
  21317215.582   113952733.866    21317217.458    88629911.840    21317218.191  
                                
  21474307.988   114591021.783    21474309.328    89126356.322    21474309.310  
                                
  21742285.848   116143388.714    21742286.992    90333750.849    21742286.938  
                                
  22118764.880   118278975.718    22118767.614    91994769.847    22118766.559  
                                
  21206950.076   113482673.115    21206949.504    88264299.564    21206949.379  
                                
  23950116.282   125858710.680                                                  
  23950117.568    93985405.715  
  24452574.856   128499148.976                                                  
  24452575.660    95957158.850  
  26405667.572   138762720.092                                                  
  26405669.394   103621517.448  
  26091864.656   137113674.693                                                  
  26091866.604   102390088.380  
  25673217.696   134913669.513                                                  
  25673220.305   100747230.890  
 21  8 31  6 17 50.0000000  0 17G 4G 7G 8G 9G16G27G30R 1R 2R12R20R21
                                E 1E 4E19E21E31
  22456399.086   118009173.006    22456398.586    91955196.530    22456398.353  
  22456402.016    88123744.686  
  21133165.878   111055536.582    21133163.341    86536769.643    21133163.001  
                                
  20509012.610   107775588.437    20509013.200    83980977.841    20509012.467  
  20509011.592    80481766.309  
  20988100.611   110293213.326    20988100.361    85942761.493    20988100.093  
  20988100.522    82361814.000  
  23937965.543   125794858.221                    98021954.645    23937962.648  
                                
  21580942.705   113408619.304    21580942.705    88370350.701    21580942.205  
  21580941.954    84688251.338  
  23458028.906   123272774.227    23458029.335    96056706.044    23458028.692  
  23458028.674    92054342.622  
  21317800.810   113955862.294    21317802.704    88632345.060    21317803.419  
                                
  21474079.300   114589801.354    21474080.641    89125407.102    21474080.623  
                                
  21741899.037   116141322.416    21741900.181    90332143.731    21741900.109  
                                
  22119040.652   118280450.524    22119043.422    91995916.918    22119042.368  
                                
  21206459.375   113480047.259    21206458.803    88262257.234    21206458.678  
                                
  23950189.366   125859094.735                                                  
  23950190.652    93985692.511  
  24452771.808   128500183.871                                                  
  24452772.612    95957931.659  
  26406247.743   138765768.790                                                  
  26406249.566   103623794.049  
  26092221.554   137115550.196                                                  
  26092223.520   102391488.918  
  25672929.076   134912152.946                                                  
  25672931.720   100746098.393  
 21  8 31  6 17 51.0000000  0 17G 4G 7G 8G 9G16G27G30R 1R 2R12R20R21
                                E 1E 4E19E21E31
  22457030.059   118012488.698    22457029.559    91957780.189    22457029.309  
  22457032.954    88126220.691  
  21132826.814   111053754.732    21132824.276    86535381.191    21132823.919  
                                
  20508984.538   107775440.990    20508985.146    83980862.947    20508984.395  
  20508983.520    80481656.207  
  20988405.993   110294818.103    20988405.743    85944011.966    20988405.475  
  20988405.903    82363012.372  
  23938582.989   125798102.852                    98024482.933    23938580.058  
                                
  21581310.164   113410550.277    21581310.164    88371855.355    21581309.663  
  21581309.395    84689693.300  
  23457488.172   123269932.665    23457488.600    96054491.836    23457487.957  
  23457487.939    92052220.674  
  21318386.164   113958991.276    21318388.022    88634778.714    21318388.773  
                                
  21473850.738   114588581.757    21473852.078    89124458.524    21473852.060  
                                
  21741512.262   116139256.235    21741513.370    90330536.697    21741513.316  
                                
  22119316.604   118281926.153    22119319.373    91997064.632    22119318.301  
                                
  21205968.799   113477422.102    21205968.209    88260215.447    21205968.120  
                                
  23950262.468   125859478.927                                                  
  23950263.755    93985979.406  
  24452968.814   128501219.203                                                  
  24452969.618    95958704.794  
  26406827.897   138768817.550                                                  
  26406829.701   103626070.733  
  26092578.452   137117425.722                                                  
  26092580.400   102392889.480  
  25672640.527   134910636.511                                                  
  25672643.154   100744965.984  
 21  8 31  6 17 52.0000000  0 17G 4G 7G 8G 9G16G27G30R 1R 2R12R20R21
                                E 1E 4E19E21E31
  22457661.032   118015804.587    22457660.532    91960363.996    22457660.299  
  22457663.963    88128696.840  
  21132487.749   111051972.971    21132485.211    86533992.805    21132484.872  
                                
  20508956.591   107775294.139    20508957.198    83980748.517    20508956.448  
  20508955.572    80481546.543  
  20988711.446   110296423.357    20988711.214    85945262.814    20988710.928  
  20988711.374    82364211.101  
  23939200.399   125801347.369                    98027011.128    23939197.487  
                                
  21581677.711   113412481.731    21581677.711    88373360.384    21581677.211  
  21581676.943    84691135.619  
  23456947.419   123267091.007    23456947.848    96052277.557    23456947.205  
  23456947.187    92050098.661  
  21318971.571   113962120.665    21318973.465    88637212.684    21318974.180  
                                
  21473622.318   114587362.865    21473623.658    89123510.495    21473623.640  
                                
  21741125.451   116137190.051    21741126.595    90328929.665    21741126.541  
                                
  22119592.716   118283402.577    22119595.450    91998212.964    22119594.413  
                                
  21205478.330   113474797.506    21205477.740    88258174.097    21205477.651  
                                
  23950335.588   125859863.135                                                  
  23950336.857    93986266.318  
  24453165.892   128502254.855                                                  
  24453166.696    95959478.173  
  26407408.068   138771866.307                                                  
  26407409.873   103628347.396  
  26092935.332   137119301.137                                                  
  26092937.280   102394289.952  
  25672351.960   134909120.085                                                  
  25672354.569   100743833.586  
 21  8 31  6 17 53.0000000  0 17G 4G 7G 8G 9G16G27G30R 1R 2R12R20R21
                                E 1E 4E19E21E31
  22458292.059   118019120.604    22458291.558    91962947.905    22458291.308  
  22458294.954    88131173.091  
  21132148.702   111050191.250    21132146.165    86532604.453    21132145.825  
                                
  20508928.751   107775147.801    20508929.359    83980634.490    20508928.608  
  20508927.732    80481437.269  
  20989017.006   110298029.052    20989016.756    85946514.002    20989016.470  
  20989016.935    82365410.159  
  23939817.774   125804591.725                    98029539.188    23939814.861  
                                
  21582045.349   113414413.633    21582045.331    88374865.761    21582044.848  
  21582044.563    84692578.276  
  23456406.649   123264249.228    23456407.078    96050063.184    23456406.435  
  23456406.399    92047976.567  
  21319557.067   113965250.429    21319558.926    88639646.946    21319559.658  
                                
  21473394.023   114586144.635    21473395.363    89122562.978    21473395.346  
                                
  21740738.641   116135123.819    21740739.784    90327322.591    21740739.731  
                                
  22119868.935   118284879.685    22119871.687    91999361.828    22119870.615  
                                
  21204987.950   113472173.386    21204987.361    88256133.117    21204987.271  
                                
  23950408.690   125860247.322                                                  
  23950409.977    93986553.207  
  24453363.041   128503290.788                                                  
  24453363.845    95960251.764  
  26407988.186   138774914.970                                                  
  26407990.009   103630623.991  
  26093292.177   137121176.399                                                  
  26093294.142   102395690.310  
  25672063.393   134907603.624                                                  
  25672066.002   100742701.172  
 21  8 31  6 17 54.0000000  0 17G 4G 7G 8G 9G16G27G30R 1R 2R12R20R21
                                E 1E 4E19E21E31
  22458923.139   118022436.963    22458922.639    91965532.078    22458922.406  
  22458926.052    88133649.584  
  21131809.709   111048409.770    21131807.171    86531216.284    21131806.814  
                                
  20508901.054   107775002.199    20508901.644    83980521.034    20508900.911  
  20508900.018    80481328.538  
  20989322.674   110299635.366    20989322.441    85947765.673    20989322.155  
  20989322.602    82366609.673  
  23940435.167   125807836.098                    98032067.267    23940432.254  
                                
  21582413.075   113416346.167    21582413.075    88376371.634    21582412.593  
  21582412.325    84694021.396  
  23455865.897   123261407.541    23455866.325    96047848.882    23455865.682  
  23455865.664    92045854.514  
  21320142.653   113968380.738    21320144.511    88642081.631    21320145.262  
                                
  21473165.907   114584927.282    21473167.248    89121616.152    21473167.230  
                                
  21740351.884   116133057.722    21740353.027    90325715.631    21740352.938  
                                
  22120145.333   118286357.629    22120148.067    92000511.345    22120147.013  
                                
  21204497.678   113469549.947    21204497.106    88254092.667    21204496.999  
                                
  23950481.846   125860631.658                                                  
  23950483.115    93986840.207  
  24453560.243   128504327.188                                                  
  24453561.065    95961025.693  
  26408568.357   138777963.756                                                  
  26408570.180   103632900.682  
  26093649.039   137123051.699                                                  
  26093650.987   102397090.692  
  25671774.844   134906087.321                                                  
  25671777.471   100741568.864  
 21  8 31  6 17 55.0000000  0 17G 4G 7G 8G 9G16G27G30R 1R 2R12R20R21
                                E 1E 4E19E21E31
  22459554.273   118025753.614    22459553.773    91968116.477    22459553.540  
  22459557.203    88136126.304  
  21131470.733   111046628.495    21131468.196    86529828.278    21131467.839  
                                
  20508873.464   107774857.290    20508874.072    83980408.118    20508873.339  
  20508872.464    80481220.329  
  20989628.466   110301242.276    20989628.234    85949017.811    20989627.948  
  20989628.395    82367809.640  
  23941052.541   125811080.480                    98034595.359    23941049.647  
                                
  21582780.945   113418279.291    21582780.945    88377877.964    21582780.445  
  21582780.177    84695464.969  
  23455325.144   123258565.877    23455325.573    96045634.596    23455324.930  
  23455324.894    92043732.497  
  21320728.346   113971511.570    21320730.222    88644516.723    21320730.937  
                                
  21472937.916   114583710.789    21472939.257    89120669.991    21472939.239  
                                
  21739965.109   116130991.740    21739966.252    90324108.752    21739966.199  
                                
  22120421.874   118287836.442    22120424.608    92001661.533    22120423.554  
                                
  21204007.548   113466927.153    21204006.977    88252052.717    21204006.869  
                                
  23950555.002   125861016.135                                                  
  23950556.271    93987127.317  
  24453757.553   128505364.041                                                  
  24453758.357    95961799.966  
  26409148.529   138781012.610                                                  
  26409150.351   103635177.438  
  26094005.901   137124927.003                                                  
  26094007.849   102398491.081  
  25671486.313   134904571.123                                                  
  25671488.940   100740436.641  
 21  8 31  6 17 56.0000000  0 17G 4G 7G 8G 9G16G27G30R 1R 2R12R20R21
                                E 1E 4E19E21E31
  22460185.460   118029070.515    22460184.978    91970701.069    22460184.746  
  22460188.373    88138603.197  
  21131131.794   111044847.364    21131129.256    86528440.384    21131128.917  
                                
  20508846.017   107774713.015    20508846.607    83980295.696    20508845.874  
  20508844.999    80481112.587  
  20989934.348   110302849.729    20989934.134    85950270.369    20989933.830  
  20989934.295    82369010.004  
  23941669.916   125814324.783                    98037123.385    23941667.003  
                                
  21583148.922   113420212.960    21583148.922    88379384.717    21583148.421  
  21583148.135    84696908.940  
  23454784.392   123255724.178    23454784.803    96043420.289    23454784.160  
  23454784.142    92041610.457  
  21321314.128   113974642.867    21321315.987    88646952.174    21321316.737  
                                
  21472710.104   114582495.095    21472711.444    89119724.447    21472711.427  
                                
  21739578.387   116128925.801    21739579.513    90322501.912    21739579.441  
                                
  22120698.558   118289316.031    22120701.310    92002812.322    22120700.238  
                                
  21203517.526   113464304.955    21203516.954    88250013.229    21203516.847  
                                
  23950628.176   125861400.674                                                  
  23950629.462    93987414.474  
  24453954.934   128506401.257                                                  
  24453955.738    95962574.503  
  26409728.718   138784061.502                                                  
  26409730.541   103637454.202  
  26094362.745   137126802.259                                                  
  26094364.693   102399891.428  
  25671197.800   134903054.997                                                  
  25671200.427   100739304.472  
 21  8 31  6 17 57.0000000  0 17G 4G 7G 8G 9G16G27G30R 1R 2R12R20R21
                                E 1E 4E19E21E31
  22460816.702   118032387.692    22460816.201    91973285.875    22460815.969  
  22460819.632    88141080.310  
  21130792.890   111043066.421    21130790.353    86527052.638    21130790.013  
                                
  20508818.696   107774569.430    20508819.303    83980183.811    20508818.553  
  20508817.677    80481005.362  
  20990240.355   110304457.751    20990240.105    85951523.373    20990239.837  
  20990240.266    82370210.800  
  23942287.291   125817569.076                    98039651.411    23942284.378  
                                
  21583516.988   113422147.217    21583516.988    88380891.932    21583516.488  
  21583516.219    84698353.348  
  23454243.640   123252882.516    23454244.050    96041206.008    23454243.425  
  23454243.389    92039488.433  
  21321900.000   113977774.684    21321901.876    88649388.029    21321902.591  
                                
  21472482.453   114581280.235    21472483.793    89118779.553    21472483.775  
                                
  21739191.666   116126859.975    21739192.774    90320895.156    21739192.720  
                                
  22120975.403   118290796.466    22120978.155    92003963.776    22120977.083  
                                
  21203027.629   113461683.407    21203027.057    88247974.249    21203026.950  
                                
  23950701.385   125861785.331                                                  
  23950702.654    93987701.718  
  24454152.405   128507438.910                                                  
  24454153.209    95963349.374  
  26410308.925   138787110.476                                                  
  26410310.748   103639731.031  
  26094719.572   137128677.495                                                  
  26094721.538   102401291.773  
  25670909.322   134901538.990                                                  
  25670911.967   100738172.385  
 21  8 31  6 17 58.0000000  0 17G 4G 7G 8G 9G16G27G30R 1R 2R12R20R21
                                E 1E 4E19E21E31
  22461448.032   118035705.370    22461447.532    91975871.081    22461447.281  
  22461450.945    88143557.808  
  21130454.058   111041285.894    21130451.520    86525665.211    21130451.181  
                                
  20508791.553   107774426.751    20508792.142    83980072.631    20508791.410  
  20508790.516    80480898.820  
  20990546.505   110306066.583    20990546.255    85952777.008    20990545.969  
  20990546.434    82371412.203  
  23942904.701   125820813.582                    98042179.599    23942901.789  
                                
  21583885.215   113424082.286    21583885.215    88382399.783    21583884.714  
  21583884.446    84699798.378  
  23453702.923   123250041.093    23453703.352    96038991.918    23453702.708  
  23453702.673    92037366.593  
  21322485.997   113980907.220    21322487.891    88651824.446    21322488.605  
                                
  21472254.998   114580066.430    21472256.338    89117835.485    21472256.303  
                                
  21738804.998   116124794.501    21738806.124    90319288.679    21738806.052  
                                
  22121252.444   118292277.915    22121255.196    92005116.010    22121254.142  
                                
  21202537.911   113459062.768    21202537.321    88245935.975    21202537.232  
                                
  23950774.630   125862170.342                                                  
  23950775.917    93987989.229  
  24454349.983   128508477.203                                                  
  24454350.769    95964124.727  
  26410889.204   138790159.735                                                  
  26410891.027   103642008.064  
  26095076.488   137130552.962                                                  
  26095078.418   102402692.285  
  25670620.916   134900023.324                                                  
  25670623.525   100737040.552  
 21  8 31  6 17 59.0000000  0 17G 4G 7G 8G 9G16G27G30R 1R 2R12R20R21
                                E 1E 4E19E21E31
  22462079.398   118039023.249    22462078.934    91978456.443    22462078.683  
  22462082.329    88146035.431  
  21130115.261   111039505.438    21130112.723    86524277.844    21130112.384  
                                
  20508764.499   107774284.644    20508765.124    83979961.900    20508764.356  
  20508763.480    80480792.697  
  20990852.744   110307675.878    20990852.494    85954031.000    20990852.226  
  20990852.673    82372613.943  
  23943522.094   125824057.964                    98044707.691    23943519.163  
                                
  21584253.549   113426017.839    21584253.549    88383908.004    21584253.049  
  21584252.763    84701243.750  
  23453162.224   123247199.605    23453162.635    96036777.765    23453161.992  
  23453161.956    92035244.699  
  21323072.083   113984040.159    21323073.941    88654261.181    21323074.692  
                                
  21472027.651   114578853.358    21472028.991    89116891.992    21472028.973  
                                
  21738418.330   116122728.991    21738419.456    90317682.171    21738419.384  
                                
  22121529.629   118293760.105    22121532.363    92006268.831    22121531.326  
                                
  21202048.281   113456442.670    21202047.710    88243898.123    21202047.585  
                                
  23950847.911   125862555.353                                                  
  23950849.180    93988276.733  
  24454547.614   128509515.821                                                  
  24454548.418    95964900.321  
  26411469.429   138793208.952                                                  
  26411471.252   103644285.081  
  26095433.350   137132428.313                                                  
  26095435.298   102404092.711  
  25670332.474   134898507.640                                                  
  25670335.101   100735908.717  
 21  8 31  6 18  0.0000000  0 17G 4G 7G 8G 9G16G27G30R 1R 2R12R20R21
                                E 1E 4E19E21E31
  22462710.818   118042341.385    22462710.318    91981042.004    22462710.085  
  22462713.748    88148513.267  
  21129776.500   111037725.179    21129773.963    86522890.629    21129773.623  
                                
  20508737.570   107774143.195    20508738.178    83979851.680    20508737.427  
  20508736.552    80480687.078  
  20991159.091   110309285.758    20991158.859    85955285.456    20991158.591  
  20991159.020    82373816.128  
  23944139.451   125827302.287                    98047235.739    23944136.538  
                                
  21584621.973   113427953.968    21584621.973    88385416.678    21584621.472  
  21584621.204    84702689.563  
  23452621.507   123244358.123    23452621.901    96034563.625    23452621.293  
  23452621.239    92033122.815  
  21323658.258   113987173.612    21323660.134    88656698.313    21323660.849  
                                
  21471800.482   114577641.115    21471801.822    89115949.138    21471801.786  
                                
  21738031.680   116120663.588    21738032.824    90316075.749    21738032.735  
                                
  22121806.956   118295243.096    22121809.690    92007422.266    22121808.653  
                                
  21201558.760   113453823.220    21201558.206    88241860.773    21201558.081  
                                
  23950921.192   125862940.482                                                  
  23950922.478    93988564.331  
  24454745.335   128510554.854                                                  
  24454746.121    95965676.222  
  26412049.690   138796258.240                                                  
  26412051.512   103646562.138  
  26095790.212   137134303.642                                                  
  26095792.178   102405493.121  
  25670044.068   134896992.068                                                  
  25670046.677   100734776.963  
 21  8 31  6 18  1.0000000  0 17G 4G 7G 8G 9G16G27G30R 1R 2R12R20R21
                                E 1E 4E19E21E31
  22463342.309   118045659.894    22463341.827    91983627.848    22463341.577  
  22463345.240    88150991.374  
  21129437.775   111035945.186    21129435.237    86521503.618    21129434.880  
                                
  20508710.803   107774002.506    20508711.410    83979742.052    20508710.660  
  20508709.784    80480582.018  
  20991465.545   110310896.286    20991465.330    85956540.411    20991465.044  
  20991465.491    82375018.801  
  23944756.861   125830546.707                    98049763.857    23944753.931  
                                
  21584990.521   113429890.768    21584990.521    88386925.873    21584990.021  
  21584989.771    84704135.879  
  23452080.791   123241516.731    23452081.202    96032349.550    23452080.576  
  23452080.541    92031001.003  
  21324244.559   113990307.661    21324246.417    88659135.905    21324247.150  
                                
  21471573.474   114576429.795    21471574.814    89115007.000    21471574.796  
                                
  21737645.048   116118598.362    21737646.192    90314469.464    21737646.120  
                                
  22122084.462   118296727.033    22122087.196    92008576.434    22122086.159  
                                
  21201069.399   113451204.475    21201068.809    88239823.976    21201068.720  
                                
  23950994.526   125863325.796                                                  
  23950995.777    93988852.070  
  24454943.163   128511594.391                                                  
  24454943.949    95966452.498  
  26412629.968   138799307.669                                                  
  26412631.809   103648839.320  
  26096147.093   137136179.057                                                  
  26096149.058   102406893.587  
  25669755.698   134895476.690                                                  
  25669758.325   100733645.354  
 21  8 31  6 18  2.0000000  0 17G 4G 7G 8G 9G16G27G30R 1R 2R12R20R21
                                E 1E 4E19E21E31
  22463973.890   118048978.787    22463973.390    91986213.997    22463973.139  
  22463976.802    88153469.766  
  21129099.085   111034165.482    21129096.566    86520116.839    21129096.208  
                                
  20508684.178   107773862.600    20508684.803    83979633.037    20508684.070  
  20508683.177    80480477.537  
  20991772.177   110312507.515    20991771.927    85957795.910    20991771.659  
  20991772.106    82376221.983  
  23945374.254   125833791.212                    98052292.040    23945371.341  
                                
  21585359.231   113431828.253    21585359.231    88388435.599    21585358.730  
  21585358.444    84705582.698  
  23451540.146   123238675.508    23451540.539    96030135.607    23451539.931  
  23451539.878    92028879.295  
  21324830.966   113993442.353    21324832.825    88661573.998    21324833.557  
                                
  21471346.662   114575219.423    21471348.002    89114065.597    21471347.984  
                                
  21737258.488   116116533.341    21737259.613    90312863.342    21737259.542  
                                
  22122362.129   118298211.886    22122364.880    92009731.323    22122363.826  
                                
  21200580.145   113448586.505    21200579.591    88237787.779    21200579.466  
                                
  23951067.896   125863711.344                                                  
  23951069.147    93989139.975  
  24455141.080   128512634.459                                                  
  24455141.884    95967229.166  
  26413210.301   138802357.274                                                  
  26413212.105   103651116.627  
  26096503.991   137138054.563                                                  
  26096505.956   102408294.125  
  25669467.381   134893961.528                                                  
  25669470.008   100732513.895  
 21  8 31  6 18  3.0000000  0 17G 4G 7G 8G 9G16G27G30R 1R 2R12R20R21
                                E 1E 4E19E21E31
  22464605.488   118052297.860    22464604.988    91988800.289    22464604.738  
  22464608.401    88155948.297  
  21128760.449   111032385.868    21128757.912    86518730.125    21128757.572  
                                
  20508657.660   107773723.249    20508658.285    83979524.452    20508657.535  
  20508656.659    80480373.478  
  20992078.881   110314119.208    20992078.631    85959051.772    20992078.345  
  20992078.792    82377425.516  
  23945991.647   125837035.570                    98054820.114    23945988.716  
                                
  21585728.011   113433766.212    21585728.011    88389945.697    21585727.511  
  21585727.225    84707029.880  
  23450999.447   123235834.172    23450999.858    96027921.579    23450999.215  
  23450999.197    92026757.529  
  21325417.446   113996577.444    21325419.304    88664012.405    21325420.019  
                                
  21471119.958   114574009.789    21471121.298    89113124.772    21471121.280  
                                
  21736871.891   116114468.314    21736873.035    90311257.210    21736872.963  
                                
  22122639.938   118299697.424    22122642.672    92010886.738    22122641.636  
                                
  21200091.034   113445969.081    21200090.444    88235752.003    21200090.355  
                                
  23951141.249   125864096.890                                                  
  23951142.517    93989427.886  
  24455339.051   128513674.839                                                  
  24455339.855    95968006.079  
  26413790.615   138805406.850                                                  
  26413792.438   103653393.905  
  26096860.871   137139929.951                                                  
  26096862.818   102409694.582  
  25669179.047   134892446.355                                                  
  25669181.674   100731382.437  
 21  8 31  6 18  4.0000000  0 17G 4G 7G 8G 9G16G27G30R 1R 2R12R20R21
                                E 1E 4E19E21E31
  22465237.123   118055617.138    22465236.640    91991386.740    22465236.408  
  22465240.035    88158426.972  
  21128421.831   111030606.354    21128419.294    86517343.495    21128418.919  
                                
  20508631.268   107773584.514    20508631.875    83979416.347    20508631.125  
  20508630.249    80480269.875  
  20992385.656   110315731.391    20992385.442    85960308.019    20992385.156  
  20992385.603    82378629.416  
  23946609.003   125840279.838                    98057348.122    23946606.091  
                                
  21586096.882   113435704.688    21586096.882    88391456.196    21586096.381  
  21586096.113    84708477.439  
  23450458.766   123232992.784    23450459.159    96025707.513    23450458.534  
  23450458.498    92024635.704  
  21326004.014   113999712.974    21326005.872    88666451.160    21326006.605  
                                
  21470893.432   114572800.910    21470894.772    89112184.537    21470894.755  
                                
  21736485.313   116112403.294    21736486.457    90309651.087    21736486.385  
                                
  22122917.891   118301183.708    22122920.625    92012042.751    22122919.571  
                                
  21199602.012   113443352.228    21199601.423    88233716.675    21199601.333  
                                
  23951214.637   125864482.479                                                  
  23951215.888    93989715.822  
  24455537.093   128514715.564                                                  
  24455537.897    95968783.240  
  26414370.929   138808456.417                                                  
  26414372.770   103655671.166  
  26097217.733   137141805.246                                                  
  26097219.681   102411094.966  
  25668890.730   134890931.226                                                  
  25668893.357   100730251.003  
 21  8 31  6 18  5.0000000  0 17G 4G 7G 8G 9G16G27G30R 1R 2R12R20R21
                                E 1E 4E19E21E31
  22465868.846   118058936.812    22465868.346    91993973.494    22465868.096  
  22465871.759    88160905.947  
  21128083.249   111028827.165    21128080.712    86515957.117    21128080.372  
                                
  20508605.000   107773446.566    20508605.625    83979308.859    20508604.893  
  20508603.999    80480166.868  
  20992692.575   110317344.264    20992692.343    85961564.807    20992692.057  
  20992692.521    82379833.839  
  23947226.396   125843524.194                    98059876.184    23947223.465  
                                
  21586465.913   113437643.848    21586465.877    88392967.229    21586465.377  
  21586465.126    84709925.517  
  23449918.085   123230151.510    23449918.496    96023493.533    23449917.853  
  23449917.817    92022513.985  
  21326590.690   114002849.131    21326592.548    88668890.391    21326593.281  
                                
  21470667.050   114571592.975    21470668.390    89111245.030    21470668.372  
                                
  21736098.788   116110338.467    21736099.932    90308045.111    21736099.860  
                                
  22123196.004   118302670.917    22123198.756    92013199.472    22123197.702  
                                
  21199113.134   113440736.140    21199112.562    88231681.944    21199112.437  
                                
  23951288.043   125864868.294                                                  
  23951289.329    93990003.931  
  24455735.243   128515756.821                                                  
  24455736.047    95969560.799  
  26414951.280   138811506.148                                                  
  26414953.102   103657948.569  
  26097574.613   137143680.649                                                  
  26097576.561   102412495.431  
  25668602.431   134889416.302                                                  
  25668605.076   100729119.735  
 21  8 31  6 18  6.0000000  0 17G 4G 7G 8G 9G16G27G30R 1R 2R12R20R21
                                E 1E 4E19E21E31
  22466500.588   118062256.726    22466500.105    91996560.440    22466499.855  
  22466503.518    88163385.110  
  21127744.721   111027048.118    21127742.183    86514570.839    21127741.826  
                                
  20508578.876   107773309.272    20508579.501    83979201.877    20508578.733  
  20508577.875    80480064.346  
  20992999.600   110318957.691    20992999.368    85962822.023    20992999.082  
  20992999.547    82381038.673  
  23947843.753   125846768.490                    98062404.210    23947840.840  
                                
  21586835.033   113439583.574    21586834.997    88394478.709    21586834.533  
  21586834.247    84711374.014  
  23449377.404   123227310.242    23449377.797    96021279.558    23449377.154  
  23449377.136    92020392.263  
  21327177.473   114005985.766    21327179.331    88671329.993    21327180.064  
                                
  21470440.863   114570385.857    21470442.204    89110306.157    21470442.168  
                                
  21735712.263   116108273.718    21735713.407    90306439.192    21735713.317  
                                
  22123474.261   118304158.954    22123477.030    92014356.832    22123475.958  
                                
  21198624.362   113438120.685    21198623.808    88229647.699    21198623.683  
                                
  23951361.484   125865254.195                                                  
  23951362.753    93990292.103  
  24455933.446   128516798.483                                                  
  24455934.250    95970338.668  
  26415531.630   138814555.926                                                  
  26415533.435   103660225.997  
  26097931.475   137145556.017                                                  
  26097933.441   102413895.864  
  25668314.186   134887901.467                                                  
  25668316.813   100727988.523  
 21  8 31  6 18  7.0000000  0 17G 4G 7G 8G 9G16G27G30R 1R 2R12R20R21
                                E 1E 4E19E21E31
  22467132.418   118065577.014    22467131.936    91999147.680    22467131.704  
  22467135.367    88165864.546  
  21127406.245   111025269.349    21127403.708    86513184.774    21127403.369  
                                
  20508552.912   107773172.755    20508553.519    83979095.503    20508552.769  
  20508551.893    80479962.397  
  20993306.751   110320571.782    20993306.519    85964079.756    20993306.251  
  20993306.680    82382243.996  
  23948461.145   125850012.855                    98064932.288    23948458.215  
                                
  21587204.261   113441523.969    21587204.261    88395990.703    21587203.760  
  21587203.492    84712823.008  
  23448836.741   123224469.092    23448837.152    96019065.677    23448836.527  
  23448836.491    92018270.618  
  21327764.345   114009123.012    21327766.221    88673770.074    21327766.954  
                                
  21470214.820   114569179.656    21470216.161    89109367.997    21470216.125  
                                
  21735325.774   116106209.183    21735326.918    90304833.443    21735326.846  
                                
  22123752.714   118305647.884    22123755.448    92015514.890    22123754.411  
                                
  21198135.734   113435505.968    21198135.162    88227614.033    21198135.055  
                                
  23951434.962   125865640.292                                                  
  23951436.231    93990580.423  
  24456131.774   128517840.637                                                  
  24456132.578    95971116.896  
  26416112.016   138817605.857                                                  
  26416113.820   103662503.547  
  26098288.355   137147431.446                                                  
  26098290.303   102415296.356  
  25668025.959   134886386.819                                                  
  25668028.586   100726857.454  
 21  8 31  6 18  8.0000000  0 17G 4G 7G 8G 9G16G27G30R 1R 2R12R20R21
                                E 1E 4E19E21E31
  22467764.321   118068897.694    22467763.838    92001735.223    22467763.606  
  22467767.251    88168344.273  
  21127067.806   111023490.868    21127065.287    86511798.940    21127064.929  
                                
  20508527.073   107773037.020    20508527.681    83978989.732    20508526.948  
  20508526.073    80479861.038  
  20993614.045   110322186.564    20993613.812    85965338.026    20993613.526  
  20993613.991    82383449.836  
  23949078.556   125853257.301                    98067460.428    23949075.608  
                                
  21587573.631   113443465.046    21587573.631    88397503.232    21587573.131  
  21587572.863    84714272.519  
  23448296.114   123221628.052    23448296.507    96016851.882    23448295.899  
  23448295.864    92016149.065  
  21328351.343   114012260.868    21328353.237    88676210.624    21328353.951  
                                
  21469988.938   114567974.391    21469990.278    89108430.569    21469990.260  
                                
  21734939.321   116104144.866    21734940.464    90303227.861    21734940.411  
                                
  22124031.345   118307137.796    22124034.079    92016673.706    22124033.043  
                                
  21197647.266   113432891.999    21197646.677    88225580.946    21197646.569  
                                
  23951508.475   125866026.612                                                  
  23951509.726    93990868.911  
  24456330.210   128518883.335                                                  
  24456330.996    95971895.536  
  26416692.419   138820655.963                                                  
  26416694.260   103664781.219  
  26098645.271   137149306.993                                                  
  26098647.201   102416696.922  
  25667737.785   134884872.385                                                  
  25667740.394   100725726.544  
 21  8 31  6 18  9.0000000  0 17G 4G 7G 8G 9G16G27G30R 1R 2R12R20R21
                                E 1E 4E19E21E31
  22468396.276   118072218.624    22468395.794    92004322.965    22468395.562  
  22468399.207    88170824.192  
  21126729.403   111021712.539    21126726.865    86510413.225    21126726.526  
                                
  20508501.360   107772901.918    20508501.985    83978884.460    20508501.235  
  20508500.359    80479760.150  
  20993921.428   110323801.887    20993921.195    85966596.722    20993920.909  
  20993921.374    82384656.088  
  23949695.931   125856501.724                    98069988.555    23949693.018  
                                
  21587943.127   113445406.688    21587943.127    88399016.200    21587942.627  
  21587942.341    84715722.436  
  23447755.487   123218787.022    23447755.880    96014638.093    23447755.272  
  23447755.219    92014027.519  
  21328938.447   114015399.198    21328940.323    88678651.545    21328941.056  
                                
  21469763.234   114566769.910    21469764.575    89107493.754    21469764.557  
                                
  21734552.885   116102080.591    21734554.029    90301622.316    21734553.957  
                                
  22124310.102   118308628.428    22124312.836    92017833.089    22124311.800  
                                
  21197158.870   113430278.624    21197158.316    88223548.323    21197158.209  
                                
  23951582.006   125866413.020                                                  
  23951583.257    93991157.456  
  24456528.681   128519926.414                                                  
  24456529.485    95972674.456  
  26417272.859   138823706.114                                                  
  26417274.681   103667058.927  
  26099002.151   137151182.496                                                  
  26099004.117   102418097.458  
  25667449.594   134883358.028                                                  
  25667452.220   100724595.702  
 21  8 31  6 18 10.0000000  0 17G 4G 7G 8G 9G16G27G30R 1R 2R12R20R21
                                E 1E 4E19E21E31
  22469028.268   118075539.774    22469027.786    92006910.872    22469027.553  
  22469031.216    88173304.272  
  21126391.017   111019934.340    21126388.497    86509027.615    21126388.140  
                                
  20508475.771   107772767.426    20508476.379    83978779.662    20508475.628  
  20508474.753    80479659.720  
  20994228.918   110325417.724    20994228.685    85967855.813    20994228.417  
  20994228.846    82385862.717  
  23950313.305   125859746.033                    98072516.583    23950310.375  
                                
  21588312.712   113447348.844    21588312.712    88400529.568    21588312.212  
  21588311.926    84717172.749  
  23447214.859   123215945.942    23447215.252    96012424.268    23447214.609  
  23447214.573    92011905.938  
  21329525.623   114018537.961    21329527.482    88681092.802    21329528.232  
                                
  21469537.656   114565566.186    21469538.996    89106557.527    21469538.978  
                                
  21734166.468   116100016.322    21734167.611    90300016.776    21734167.522  
                                
  22124589.002   118310119.874    22124591.736    92018993.105    22124590.699  
                                
  21196670.617   113427665.862    21196670.045    88221516.175    21196669.956  
                                
  23951655.537   125866799.475                                                  
  23951656.806    93991446.047  
  24456727.259   128520969.854                                                  
  24456728.064    95973453.646  
  26417853.263   138826756.256                                                  
  26417855.103   103669336.640  
  26099359.049   137153057.919                                                  
  26099360.979   102419497.947  
  25667161.420   134881843.709                                                  
  25667164.064   100723464.883  
 21  8 31  6 18 11.0000000  0 17G 4G 7G 8G 9G16G27G30R 1R 2R12R20R21
                                E 1E 4E19E21E31
  22469660.313   118078861.138    22469659.831    92009498.946    22469659.581  
  22469663.244    88175784.509  
  21126052.667   111018156.258    21126050.147    86507642.099    21126049.772  
                                
  20508450.290   107772633.562    20508450.915    83978675.350    20508450.165  
  20508449.289    80479559.753  
  20994536.497   110327034.071    20994536.247    85969115.297    20994535.979  
  20994536.426    82387069.729  
  23950930.662   125862990.265                    98075044.558    23950927.732  
                                
  21588682.368   113449291.513    21588682.368    88402043.336    21588681.868  
  21588681.600    84718623.446  
  23446674.196   123213104.827    23446674.607    96010210.410    23446673.964  
  23446673.946    92009784.321  
  21330112.871   114021677.168    21330114.747    88683534.408    21330115.462  
                                
  21469312.220   114564363.203    21469313.560    89105621.874    21469313.543  
                                
