% program   : rnx2rtkp ver.2.4.3 b31
% inp file  : ngs/21_09_02_06_16_40_fmyr.obs
% inp file  : ngs/21_09_02_06_16_40_fmyr_VZ.obs
% inp file  : ngs/21_09_02_06_16_40_brdc.nav
% obs start : 2021/09/02 06:00:00.0 GPST (week2173 367200.0s)
% obs end   : 2021/09/02 06:59:59.0 GPST (week2173 370799.0s)
% ref pos   :   815484.7549  -5653659.8739   2828010.3240
%
% (x/y/z-ecef=WGS84,Q=1:fix,2:float,3:sbas,4:dgps,5:single,6:ppp,ns=# of satellites)
%  GPST              x-ecef(m)      y-ecef(m)      z-ecef(m)   Q  ns   sdx(m)   sdy(m)   sdz(m)  sdxy(m)  sdyz(m)  sdzx(m) age(s)  ratio
2173 368178.000    807700.0358  -5649861.3989   2837755.8427   1   7   0.0414   0.0675   0.0385  -0.0453  -0.0446   0.0303 -30.00   12.6
2173 368179.000    807700.0328  -5649861.3954   2837755.8418   1   7   0.0401   0.0653   0.0373  -0.0439  -0.0431   0.0293 -29.00   14.1
2173 368180.000    807700.0294  -5649861.3886   2837755.8380   1   7   0.0388   0.0632   0.0360  -0.0424  -0.0417   0.0283 -28.00   15.0
2173 368181.000    807700.0243  -5649861.3793   2837755.8328   1   7   0.0374   0.0610   0.0348  -0.0410  -0.0403   0.0273 -27.00   16.6
2173 368182.000    807700.0218  -5649861.3758   2837755.8305   1   7   0.0361   0.0589   0.0336  -0.0395  -0.0389   0.0264 -26.00   19.4
2173 368183.000    807700.0207  -5649861.3702   2837755.8302   1   7   0.0348   0.0568   0.0323  -0.0380  -0.0375   0.0254 -25.00   21.9
2173 368184.000    807700.0191  -5649861.3701   2837755.8290   1   7   0.0334   0.0547   0.0311  -0.0366  -0.0360   0.0244 -24.00   24.3
2173 368185.000    807700.0198  -5649861.3708   2837755.8320   1   7   0.0321   0.0525   0.0299  -0.0351  -0.0346   0.0234 -23.00   25.2
2173 368186.000    807700.0201  -5649861.3758   2837755.8340   1   7   0.0308   0.0504   0.0286  -0.0337  -0.0332   0.0224 -22.00   27.1
2173 368187.000    807700.0149  -5649861.3696   2837755.8297   1   7   0.0294   0.0483   0.0274  -0.0322  -0.0318   0.0215 -21.00   29.5
2173 368188.000    807700.0138  -5649861.3695   2837755.8305   1   7   0.0281   0.0462   0.0262  -0.0308  -0.0304   0.0205 -20.00   30.9
2173 368189.000    807700.0114  -5649861.3673   2837755.8286   1   7   0.0268   0.0441   0.0250  -0.0293  -0.0290   0.0195 -19.00   33.6
2173 368190.000    807700.0155  -5649861.3771   2837755.8341   1   7   0.0255   0.0420   0.0238  -0.0279  -0.0276   0.0185 -18.00   34.6
2173 368191.000    807700.0211  -5649861.3868   2837755.8411   1   7   0.0242   0.0399   0.0226  -0.0264  -0.0262   0.0176 -17.00   34.5
2173 368192.000    807700.0221  -5649861.3920   2837755.8438   1   7   0.0228   0.0378   0.0214  -0.0250  -0.0248   0.0166 -16.00   33.6
2173 368193.000    807700.0212  -5649861.3944   2837755.8448   1   7   0.0215   0.0358   0.0202  -0.0235  -0.0234   0.0156 -15.00   33.5
2173 368194.000    807700.0199  -5649861.3920   2837755.8442   1   7   0.0202   0.0337   0.0190  -0.0221  -0.0221   0.0147 -14.00   34.0
2173 368195.000    807700.0194  -5649861.3877   2837755.8432   1   7   0.0189   0.0317   0.0178  -0.0207  -0.0207   0.0137 -13.00   34.1
2173 368196.000    807700.0117  -5649861.3736   2837755.8373   1   7   0.0177   0.0297   0.0166  -0.0193  -0.0194   0.0127 -12.00   36.0
2173 368197.000    807700.0073  -5649861.3667   2837755.8325   1   7   0.0164   0.0277   0.0155  -0.0179  -0.0180   0.0118 -11.00   39.4
2173 368198.000    807700.0062  -5649861.3632   2837755.8299   1   7   0.0151   0.0257   0.0144  -0.0165  -0.0167   0.0109 -10.00   40.5
2173 368199.000    807700.0006  -5649861.3526   2837755.8218   1   7   0.0139   0.0238   0.0132  -0.0151  -0.0154   0.0099  -9.00   40.2
2173 368200.000    807700.0014  -5649861.3492   2837755.8222   1   7   0.0127   0.0219   0.0122  -0.0138  -0.0142   0.0090  -8.00   38.7
2173 368201.000    807699.9973  -5649861.3490   2837755.8205   1   7   0.0115   0.0201   0.0111  -0.0125  -0.0130   0.0081  -7.00   36.1
2173 368202.000    807700.0022  -5649861.3510   2837755.8224   1   7   0.0104   0.0184   0.0101  -0.0113  -0.0118   0.0073  -6.00   31.7
2173 368203.000    807699.9995  -5649861.3536   2837755.8222   1   7   0.0094   0.0167   0.0092  -0.0101  -0.0107   0.0064  -5.00   30.3
2173 368204.000    807700.0019  -5649861.3544   2837755.8233   1   7   0.0083   0.0152   0.0084  -0.0089  -0.0097   0.0058  -4.00   28.5
2173 368205.000    807700.0066  -5649861.3675   2837755.8295   1   7   0.0075   0.0139   0.0074  -0.0081  -0.0088   0.0048  -3.00   27.3
2173 368206.000    807700.0068  -5649861.3731   2837755.8323   1   7   0.0069   0.0128   0.0072  -0.0073  -0.0081   0.0044  -2.00   27.2
2173 368207.000    807700.0129  -5649861.3761   2837755.8343   1   7   0.0062   0.0121   0.0062  -0.0065  -0.0077   0.0040  -1.00   27.4
2173 368208.000    807700.0135  -5649861.3820   2837755.8370   1   7   0.0064   0.0119   0.0068  -0.0064  -0.0074   0.0042   0.00   28.7
2173 368209.000    807700.0165  -5649861.3782   2837755.8341   1   7   0.0063   0.0119   0.0068  -0.0065  -0.0074   0.0041   0.00   31.0
2173 368210.000    807700.0130  -5649861.3807   2837755.8351   1   7   0.0065   0.0119   0.0067  -0.0066  -0.0075   0.0040   0.00   32.8
2173 368211.000    807700.0150  -5649861.3756   2837755.8343   1   7   0.0062   0.0127   0.0067  -0.0065  -0.0079   0.0039   0.00   33.9
2173 368212.000    807700.0173  -5649861.3860   2837755.8373   1   7   0.0062   0.0119   0.0067  -0.0065  -0.0075   0.0042   0.00    8.0
2173 368213.000    807700.0192  -5649861.3852   2837755.8411   1   7   0.0061   0.0119   0.0065  -0.0064  -0.0074   0.0039   0.00   13.2
2173 368214.000    807700.0159  -5649861.3771   2837755.8356   1   7   0.0064   0.0119   0.0066  -0.0065  -0.0074   0.0039   0.00   17.7
2173 368215.000    807700.0168  -5649861.3800   2837755.8349   1   7   0.0060   0.0118   0.0061  -0.0066  -0.0076   0.0039   0.00   21.8
2173 368216.000    807700.0166  -5649861.3839   2837755.8382   1   7   0.0062   0.0119   0.0070  -0.0065  -0.0075   0.0042   0.00   23.7
2173 368217.000    807700.0147  -5649861.3859   2837755.8398   1   7   0.0063   0.0118   0.0062  -0.0065  -0.0076   0.0038   0.00   25.4
2173 368218.000    807700.0148  -5649861.3791   2837755.8344   1   7   0.0063   0.0119   0.0065  -0.0065  -0.0075   0.0040   0.00   24.6
2173 368219.000    807700.0180  -5649861.3857   2837755.8373   1   7   0.0066   0.0119   0.0065  -0.0065  -0.0075   0.0040   0.00   22.8
2173 368220.000    807700.0129  -5649861.3797   2837755.8356   1   7   0.0061   0.0119   0.0065  -0.0065  -0.0075   0.0040   0.00   22.8
2173 368221.000    807700.0142  -5649861.3868   2837755.8379   1   7   0.0063   0.0119   0.0068  -0.0065  -0.0074   0.0041   0.00   20.4
2173 368222.000    807700.0132  -5649861.3852   2837755.8376   1   7   0.0063   0.0119   0.0066  -0.0066  -0.0074   0.0040   0.00   19.4
2173 368223.000    807700.0133  -5649861.3826   2837755.8390   1   7   0.0063   0.0119   0.0068  -0.0065  -0.0074   0.0040   0.00   19.2
2173 368224.000    807700.0140  -5649861.3833   2837755.8401   1   7   0.0064   0.0119   0.0066  -0.0067  -0.0075   0.0038   0.00   19.2
2173 368225.000    807700.0164  -5649861.3858   2837755.8405   1   7   0.0062   0.0119   0.0061  -0.0066  -0.0077   0.0036   0.00   19.2
2173 368226.000    807700.0142  -5649861.3783   2837755.8333   1   7   0.0065   0.0119   0.0068  -0.0066  -0.0075   0.0042   0.00   19.1
2173 368227.000    807700.0175  -5649861.3813   2837755.8356   1   7   0.0064   0.0119   0.0066  -0.0066  -0.0075   0.0039   0.00   18.8
2173 368228.000    807700.0158  -5649861.3829   2837755.8377   1   7   0.0065   0.0119   0.0066  -0.0066  -0.0075   0.0039   0.00   18.4
2173 368229.000    807700.0127  -5649861.3763   2837755.8338   1   7   0.0063   0.0119   0.0068  -0.0067  -0.0075   0.0042   0.00   19.1
2173 368230.000    807700.0145  -5649861.3848   2837755.8369   1   7   0.0063   0.0119   0.0067  -0.0066  -0.0075   0.0041   0.00   19.2
2173 368231.000    807700.0143  -5649861.3821   2837755.8348   1   7   0.0061   0.0119   0.0070  -0.0063  -0.0074   0.0046   0.00   19.3
2173 368232.000    807700.0136  -5649861.3801   2837755.8340   1   7   0.0064   0.0119   0.0067  -0.0067  -0.0076   0.0045   0.00   19.6
2173 368233.000    807700.0180  -5649861.3865   2837755.8416   1   7   0.0062   0.0119   0.0067  -0.0065  -0.0075   0.0042   0.00   19.3
2173 368234.000    807700.0134  -5649861.3851   2837755.8392   1   7   0.0062   0.0119   0.0065  -0.0065  -0.0075   0.0040   0.00   18.9
2173 368235.000    807700.0117  -5649861.3821   2837755.8390   1   7   0.0065   0.0119   0.0063  -0.0065  -0.0075   0.0040   0.00   18.4
2173 368236.000    807700.0172  -5649861.3812   2837755.8413   1   7   0.0063   0.0119   0.0065  -0.0067  -0.0076   0.0038   0.00   18.6
2173 368237.000    807700.0112  -5649861.3772   2837755.8362   1   7   0.0063   0.0119   0.0066  -0.0065  -0.0075   0.0042   0.00   19.2
2173 368238.000    807700.0136  -5649861.3778   2837755.8356   1   7   0.0062   0.0120   0.0065  -0.0065  -0.0074   0.0040   0.00   19.8
2173 368239.000    807700.0136  -5649861.3842   2837755.8376   1   7   0.0067   0.0120   0.0065  -0.0066  -0.0075   0.0041   0.00   19.6
2173 368240.000    807700.0141  -5649861.3829   2837755.8371   1   7   0.0063   0.0119   0.0067  -0.0066  -0.0076   0.0041   0.00   19.5
2173 368241.000    807700.0136  -5649861.3848   2837755.8391   1   7   0.0064   0.0119   0.0065  -0.0066  -0.0076   0.0040   0.00   19.2
2173 368242.000    807700.0112  -5649861.3824   2837755.8356   1   7   0.0064   0.0120   0.0065  -0.0067  -0.0075   0.0039   0.00   19.4
2173 368243.000    807700.0133  -5649861.3758   2837755.8330   1   7   0.0062   0.0120   0.0065  -0.0065  -0.0075   0.0040   0.00   20.0
2173 368244.000    807700.0138  -5649861.3788   2837755.8373   1   7   0.0064   0.0120   0.0064  -0.0066  -0.0075   0.0040   0.00   20.5
2173 368245.000    807700.0150  -5649861.3808   2837755.8410   1   7   0.0062   0.0120   0.0069  -0.0065  -0.0075   0.0042   0.00   20.6
2173 368246.000    807700.0117  -5649861.3843   2837755.8410   1   7   0.0061   0.0120   0.0061  -0.0066  -0.0075   0.0036   0.00   20.6
2173 368247.000    807700.0137  -5649861.3841   2837755.8416   1   7   0.0061   0.0119   0.0060  -0.0067  -0.0076   0.0038   0.00   20.5
2173 368248.000    807700.0145  -5649861.3846   2837755.8420   1   7   0.0064   0.0119   0.0062  -0.0066  -0.0075   0.0038   0.00   20.7
2173 368249.000    807700.0160  -5649861.3823   2837755.8402   1   7   0.0064   0.0120   0.0064  -0.0066  -0.0075   0.0041   0.00   20.9
2173 368250.000    807700.0136  -5649861.3805   2837755.8374   1   7   0.0064   0.0120   0.0063  -0.0066  -0.0075   0.0039   0.00   21.3
2173 368251.000    807700.0117  -5649861.3775   2837755.8353   1   7   0.0064   0.0120   0.0065  -0.0066  -0.0076   0.0039   0.00   21.6
2173 368252.000    807700.0135  -5649861.3867   2837755.8425   1   7   0.0064   0.0120   0.0066  -0.0067  -0.0076   0.0040   0.00   21.5
2173 368253.000    807700.0154  -5649861.3899   2837755.8411   1   7   0.0062   0.0120   0.0064  -0.0065  -0.0076   0.0040   0.00   20.7
2173 368254.000    807700.0157  -5649861.3928   2837755.8432   1   7   0.0064   0.0120   0.0066  -0.0066  -0.0075   0.0041   0.00   20.0
2173 368255.000    807700.0145  -5649861.3754   2837755.8358   1   7   0.0063   0.0128   0.0065  -0.0067  -0.0080   0.0039   0.00   30.6
2173 368256.000    807700.0136  -5649861.3819   2837755.8372   1   7   0.0064   0.0120   0.0069  -0.0066  -0.0075   0.0043   0.00    3.6
2173 368257.000    807700.0126  -5649861.3743   2837755.8342   1   7   0.0065   0.0120   0.0068  -0.0066  -0.0076   0.0042   0.00    6.1
2173 368258.000    807700.0178  -5649861.3740   2837755.8347   1   7   0.0064   0.0120   0.0065  -0.0066  -0.0074   0.0044   0.00    8.9
2173 368259.000    807700.0137  -5649861.3737   2837755.8326   1   7   0.0061   0.0120   0.0068  -0.0064  -0.0074   0.0042   0.00   11.7
2173 368260.000    807700.0144  -5649861.3796   2837755.8355   1   7   0.0063   0.0120   0.0066  -0.0065  -0.0074   0.0042   0.00   14.1
2173 368261.000    807700.0101  -5649861.3785   2837755.8375   1   7   0.0063   0.0120   0.0064  -0.0065  -0.0075   0.0041   0.00   16.9
2173 368262.000    807700.0123  -5649861.3796   2837755.8374   1   7   0.0064   0.0120   0.0064  -0.0067  -0.0076   0.0040   0.00   19.7
2173 368263.000    807700.0149  -5649861.3786   2837755.8374   1   7   0.0063   0.0120   0.0064  -0.0066  -0.0076   0.0038   0.00   21.8
2173 368264.000    807700.0118  -5649861.3793   2837755.8385   1   7   0.0062   0.0120   0.0066  -0.0067  -0.0076   0.0039   0.00   23.4
2173 368265.000    807700.0130  -5649861.3874   2837755.8394   1   7   0.0062   0.0120   0.0065  -0.0064  -0.0075   0.0044   0.00   23.8
2173 368266.000    807700.0134  -5649861.3890   2837755.8394   1   7   0.0064   0.0120   0.0066  -0.0067  -0.0075   0.0043   0.00   24.0
2173 368267.000    807700.0097  -5649861.3809   2837755.8361   1   7   0.0062   0.0120   0.0068  -0.0065  -0.0076   0.0040   0.00   24.5
2173 368268.000    807700.0144  -5649861.3707   2837755.8358   1   7   0.0065   0.0129   0.0065  -0.0067  -0.0079   0.0041   0.00   39.3
2173 368269.000    807700.0150  -5649861.3697   2837755.8355   1   7   0.0062   0.0129   0.0065  -0.0066  -0.0079   0.0042   0.00   39.7
2173 368270.000    807700.0163  -5649861.3717   2837755.8334   1   7   0.0063   0.0129   0.0068  -0.0066  -0.0079   0.0041   0.00   39.7
2173 368271.000    807700.0146  -5649861.3702   2837755.8344   1   7   0.0063   0.0129   0.0067  -0.0067  -0.0079   0.0039   0.00   40.0
2173 368272.000    807700.0122  -5649861.3733   2837755.8364   1   7   0.0061   0.0129   0.0067  -0.0066  -0.0079   0.0039   0.00   40.1
2173 368273.000    807700.0134  -5649861.3729   2837755.8363   1   7   0.0065   0.0129   0.0070  -0.0067  -0.0080   0.0044   0.00   40.1
2173 368274.000    807700.0155  -5649861.3739   2837755.8366   1   7   0.0064   0.0129   0.0065  -0.0067  -0.0080   0.0040   0.00   40.1
2173 368275.000    807700.0105  -5649861.3702   2837755.8341   1   7   0.0063   0.0128   0.0067  -0.0067  -0.0079   0.0041   0.00   39.9
2173 368276.000    807700.0098  -5649861.3663   2837755.8314   1   7   0.0065   0.0129   0.0066  -0.0066  -0.0079   0.0042   0.00   40.2
2173 368277.000    807700.0145  -5649861.3719   2837755.8326   1   7   0.0063   0.0129   0.0070  -0.0067  -0.0080   0.0043   0.00   40.2
2173 368278.000    807700.0093  -5649861.3638   2837755.8331   1   7   0.0064   0.0129   0.0067  -0.0067  -0.0080   0.0039   0.00   40.3
2173 368279.000    807700.0139  -5649861.3722   2837755.8382   1   7   0.0064   0.0129   0.0066  -0.0067  -0.0080   0.0038   0.00   40.2
2173 368280.000    807700.1090  -5649861.3062   2837755.8184   2   7   0.0578   0.0970   0.0534  -0.0507  -0.0553   0.0261   0.00    2.6
2173 368281.000    807700.0103  -5649861.3677   2837755.8357   1   7   0.0064   0.0129   0.0066  -0.0067  -0.0081   0.0042   0.00    4.0
2173 368282.000    807700.0090  -5649861.3670   2837755.8338   1   7   0.0063   0.0128   0.0066  -0.0067  -0.0081   0.0041   0.00    5.6
2173 368283.000    807700.1039  -5649861.3133   2837755.8203   2   7   0.0567   0.0945   0.0521  -0.0492  -0.0536   0.0248   0.00    2.7
2173 368284.000    807700.0081  -5649861.3672   2837755.8354   1   7   0.0064   0.0129   0.0069  -0.0066  -0.0079   0.0042   0.00    4.2
2173 368285.000    807700.0072  -5649861.3670   2837755.8347   1   7   0.0065   0.0129   0.0068  -0.0067  -0.0080   0.0040   0.00    5.8
2173 368286.000    807700.0111  -5649861.3664   2837755.8341   1   7   0.0066   0.0129   0.0065  -0.0067  -0.0080   0.0041   0.00    7.3
2173 368287.000    807700.0130  -5649861.3713   2837755.8343   1   7   0.0062   0.0129   0.0070  -0.0067  -0.0080   0.0042   0.00    9.0
2173 368288.000    807700.0062  -5649861.3656   2837755.8337   1   7   0.0062   0.0129   0.0064  -0.0067  -0.0080   0.0039   0.00   10.6
2173 368289.000    807700.0097  -5649861.3691   2837755.8366   1   7   0.0063   0.0129   0.0064  -0.0066  -0.0079   0.0038   0.00   12.1
2173 368290.000    807700.0078  -5649861.3648   2837755.8371   1   7   0.0064   0.0129   0.0068  -0.0067  -0.0079   0.0040   0.00   13.6
2173 368291.000    807700.0091  -5649861.3692   2837755.8363   1   7   0.0064   0.0130   0.0067  -0.0066  -0.0080   0.0043   0.00   15.2
2173 368292.000    807700.0101  -5649861.3667   2837755.8359   1   7   0.0062   0.0129   0.0066  -0.0066  -0.0080   0.0043   0.00   16.8
2173 368293.000    807700.0071  -5649861.3692   2837755.8362   1   7   0.0065   0.0129   0.0066  -0.0066  -0.0080   0.0042   0.00   18.1
2173 368294.000    807700.0095  -5649861.3694   2837755.8356   1   7   0.0064   0.0129   0.0067  -0.0067  -0.0080   0.0039   0.00   19.5
2173 368295.000    807700.0109  -5649861.3705   2837755.8365   1   7   0.0064   0.0129   0.0066  -0.0067  -0.0080   0.0041   0.00   20.7
2173 368296.000    807700.0968  -5649861.3275   2837755.8266   2   7   0.0526   0.0850   0.0471  -0.0433  -0.0465   0.0201   0.00    2.5
2173 368297.000    807700.0088  -5649861.3644   2837755.8352   1   7   0.0062   0.0121   0.0066  -0.0067  -0.0076   0.0040   0.00    4.2
2173 368298.000    807700.0081  -5649861.3629   2837755.8357   1   7   0.0061   0.0129   0.0068  -0.0067  -0.0080   0.0042   0.00    5.5
2173 368299.000    807700.0109  -5649861.3687   2837755.8375   1   7   0.0063   0.0130   0.0068  -0.0066  -0.0080   0.0042   0.00    6.9
2173 368300.000    807700.0102  -5649861.3717   2837755.8408   1   7   0.0062   0.0130   0.0070  -0.0066  -0.0079   0.0044   0.00    8.3
2173 368301.000    807700.0064  -5649861.3656   2837755.8328   1   7   0.0064   0.0130   0.0068  -0.0067  -0.0080   0.0043   0.00    9.8
2173 368302.000    807700.0081  -5649861.3674   2837755.8334   1   7   0.0064   0.0129   0.0068  -0.0067  -0.0080   0.0040   0.00   11.4
2173 368303.000    807700.0097  -5649861.3724   2837755.8375   1   7   0.0064   0.0130   0.0069  -0.0068  -0.0079   0.0041   0.00   12.9
2173 368304.000    807700.0074  -5649861.3710   2837755.8376   1   7   0.0067   0.0130   0.0069  -0.0068  -0.0079   0.0043   0.00   14.3
2173 368305.000    807700.0862  -5649861.3070   2837755.8178   2   7   0.0503   0.0792   0.0441  -0.0397  -0.0422   0.0171   0.00    2.5
2173 368306.000    807700.0053  -5649861.3646   2837755.8348   1   7   0.0065   0.0130   0.0069  -0.0065  -0.0079   0.0042   0.00    3.9
2173 368307.000    807700.0089  -5649861.3681   2837755.8368   1   7   0.0064   0.0130   0.0065  -0.0068  -0.0080   0.0039   0.00    5.4
2173 368308.000    807700.0094  -5649861.3659   2837755.8378   1   7   0.0064   0.0129   0.0066  -0.0067  -0.0081   0.0039   0.00    6.7
2173 368309.000    807700.0107  -5649861.3690   2837755.8371   1   7   0.0062   0.0130   0.0064  -0.0066  -0.0081   0.0041   0.00    8.0
2173 368310.000    807700.0062  -5649861.3667   2837755.8384   1   7   0.0064   0.0130   0.0069  -0.0067  -0.0079   0.0043   0.00    9.2
2173 368311.000    807700.0070  -5649861.3698   2837755.8398   1   7   0.0064   0.0129   0.0064  -0.0068  -0.0081   0.0036   0.00   10.3
2173 368312.000    807700.0075  -5649861.3726   2837755.8394   1   7   0.0062   0.0130   0.0069  -0.0067  -0.0080   0.0040   0.00   11.5
2173 368313.000    807700.0073  -5649861.3753   2837755.8412   1   7   0.0065   0.0130   0.0067  -0.0067  -0.0079   0.0043   0.00   12.7
2173 368314.000    807700.0082  -5649861.3704   2837755.8387   1   7   0.0064   0.0130   0.0067  -0.0068  -0.0080   0.0042   0.00   13.7
2173 368315.000    807700.0093  -5649861.3735   2837755.8386   1   7   0.0063   0.0130   0.0068  -0.0067  -0.0079   0.0041   0.00   14.6
2173 368316.000    807700.0073  -5649861.3685   2837755.8360   1   7   0.0064   0.0130   0.0067  -0.0069  -0.0080   0.0039   0.00   15.7
2173 368317.000    807700.0110  -5649861.3728   2837755.8394   1   7   0.0063   0.0130   0.0066  -0.0068  -0.0080   0.0042   0.00   16.6
2173 368318.000    807700.0066  -5649861.3713   2837755.8369   1   7   0.0064   0.0130   0.0068  -0.0067  -0.0080   0.0043   0.00   17.5
2173 368319.000    807700.0092  -5649861.3699   2837755.8398   1   7   0.0063   0.0130   0.0066  -0.0067  -0.0081   0.0041   0.00   18.4
2173 368320.000    807700.0075  -5649861.3685   2837755.8368   1   7   0.0063   0.0130   0.0068  -0.0067  -0.0080   0.0043   0.00   19.0
2173 368321.000    807700.0101  -5649861.3718   2837755.8382   1   7   0.0061   0.0130   0.0064  -0.0068  -0.0080   0.0042   0.00   19.7
2173 368322.000    807700.0100  -5649861.3711   2837755.8366   1   7   0.0064   0.0130   0.0068  -0.0067  -0.0080   0.0042   0.00   20.4
2173 368323.000    807700.0066  -5649861.3654   2837755.8344   1   7   0.0066   0.0130   0.0065  -0.0066  -0.0080   0.0042   0.00   21.1
2173 368324.000    807700.0061  -5649861.3691   2837755.8365   1   7   0.0063   0.0130   0.0065  -0.0068  -0.0080   0.0039   0.00   21.7
2173 368325.000    807700.0073  -5649861.3663   2837755.8328   1   7   0.0064   0.0130   0.0070  -0.0068  -0.0079   0.0043   0.00   22.4
2173 368326.000    807700.0114  -5649861.3715   2837755.8402   1   7   0.0063   0.0130   0.0064  -0.0068  -0.0080   0.0042   0.00   22.9
2173 368327.000    807700.0043  -5649861.3659   2837755.8354   1   7   0.0063   0.0130   0.0065  -0.0066  -0.0080   0.0040   0.00   23.6
2173 368328.000    807700.0065  -5649861.3667   2837755.8346   1   7   0.0063   0.0130   0.0066  -0.0067  -0.0080   0.0045   0.00   24.0
2173 368329.000    807700.0058  -5649861.3678   2837755.8396   1   7   0.0063   0.0130   0.0068  -0.0068  -0.0080   0.0041   0.00   24.3
2173 368330.000    807700.0772  -5649861.3084   2837755.8250   2   7   0.0449   0.0663   0.0373  -0.0317  -0.0321   0.0089   0.00    1.8
2173 368331.000    807700.0754  -5649861.3135   2837755.8235   2   7   0.0447   0.0658   0.0370  -0.0314  -0.0317   0.0085   0.00    2.7
2173 368332.000    807700.0069  -5649861.3696   2837755.8369   1   7   0.0065   0.0131   0.0070  -0.0067  -0.0080   0.0043   0.00    3.6
2173 368333.000    807700.0063  -5649861.3666   2837755.8364   1   7   0.0064   0.0130   0.0065  -0.0067  -0.0080   0.0042   0.00    4.3
2173 368334.000    807700.0756  -5649861.3035   2837755.8221   2   7   0.0442   0.0646   0.0364  -0.0307  -0.0308   0.0074   0.00    1.9
2173 368335.000    807700.0727  -5649861.3011   2837755.8202   2   7   0.0439   0.0640   0.0362  -0.0304  -0.0304   0.0072   0.00    2.6
2173 368336.000    807700.0071  -5649861.3689   2837755.8366   1   7   0.0066   0.0131   0.0070  -0.0068  -0.0080   0.0041   0.00    3.3
2173 368337.000    807700.0044  -5649861.3668   2837755.8368   1   7   0.0064   0.0130   0.0068  -0.0067  -0.0081   0.0040   0.00    4.1
2173 368338.000    807700.0022  -5649861.3642   2837755.8336   1   7   0.0064   0.0131   0.0069  -0.0068  -0.0080   0.0040   0.00    4.8
2173 368339.000    807700.0041  -5649861.3669   2837755.8360   1   7   0.0065   0.0131   0.0066  -0.0068  -0.0080   0.0040   0.00    5.5
2173 368340.000    807700.0047  -5649861.3682   2837755.8365   1   7   0.0066   0.0131   0.0068  -0.0069  -0.0080   0.0040   0.00    6.1
2173 368341.000    807700.0057  -5649861.3709   2837755.8398   1   7   0.0066   0.0130   0.0068  -0.0069  -0.0081   0.0041   0.00    6.6
2173 368342.000    807700.0075  -5649861.3709   2837755.8370   1   7   0.0065   0.0131   0.0067  -0.0068  -0.0081   0.0040   0.00    7.2
2173 368343.000    807700.0091  -5649861.3731   2837755.8392   1   7   0.0063   0.0130   0.0063  -0.0067  -0.0082   0.0039   0.00    7.7
2173 368344.000    807700.0097  -5649861.3733   2837755.8400   1   7   0.0062   0.0130   0.0064  -0.0069  -0.0082   0.0040   0.00    8.3
2173 368345.000    807700.0067  -5649861.3722   2837755.8392   1   7   0.0064   0.0131   0.0066  -0.0068  -0.0080   0.0041   0.00    8.8
2173 368346.000    807700.0087  -5649861.3756   2837755.8425   1   7   0.0066   0.0131   0.0067  -0.0069  -0.0080   0.0045   0.00    9.3
2173 368347.000    807700.0088  -5649861.3772   2837755.8398   1   7   0.0066   0.0131   0.0063  -0.0069  -0.0081   0.0040   0.00    9.8
2173 368348.000    807700.0039  -5649861.3686   2837755.8358   1   7   0.0064   0.0131   0.0066  -0.0068  -0.0080   0.0040   0.00   10.4
2173 368349.000    807700.0085  -5649861.3740   2837755.8370   1   7   0.0065   0.0131   0.0065  -0.0068  -0.0080   0.0039   0.00   10.9
2173 368350.000    807700.0096  -5649861.3742   2837755.8390   1   7   0.0065   0.0131   0.0068  -0.0069  -0.0081   0.0039   0.00   11.3
2173 368351.000    807700.0052  -5649861.3644   2837755.8323   1   7   0.0065   0.0131   0.0069  -0.0068  -0.0080   0.0040   0.00   11.8
2173 368352.000    807700.0047  -5649861.3646   2837755.8315   1   7   0.0063   0.0130   0.0069  -0.0069  -0.0081   0.0042   0.00   12.3
2173 368353.000    807700.0077  -5649861.3732   2837755.8372   1   7   0.0065   0.0131   0.0069  -0.0068  -0.0080   0.0042   0.00   12.8
2173 368354.000    807700.0088  -5649861.3711   2837755.8400   1   7   0.0065   0.0131   0.0066  -0.0068  -0.0080   0.0042   0.00   13.2
2173 368355.000    807700.0076  -5649861.3711   2837755.8424   1   7   0.0066   0.0131   0.0071  -0.0068  -0.0080   0.0045   0.00   13.6
2173 368356.000    807700.0066  -5649861.3726   2837755.8426   1   7   0.0067   0.0131   0.0069  -0.0068  -0.0080   0.0043   0.00   13.9
2173 368357.000    807700.0043  -5649861.3730   2837755.8432   1   7   0.0064   0.0131   0.0065  -0.0069  -0.0081   0.0039   0.00   14.4
2173 368358.000    807700.0076  -5649861.3708   2837755.8442   1   7   0.0065   0.0131   0.0069  -0.0068  -0.0080   0.0044   0.00   14.8
2173 368359.000    807700.0030  -5649861.3660   2837755.8388   1   7   0.0064   0.0131   0.0066  -0.0069  -0.0080   0.0043   0.00   15.3
2173 368360.000    807700.0023  -5649861.3617   2837755.8337   1   7   0.0062   0.0131   0.0069  -0.0068  -0.0081   0.0044   0.00   15.9
2173 368361.000    807700.0621  -5649861.3154   2837755.8240   2   7   0.0400   0.0550   0.0315  -0.0247  -0.0230  -0.0073   0.00    1.7
2173 368362.000    807700.0625  -5649861.3164   2837755.8258   2   7   0.0399   0.0545   0.0313  -0.0245  -0.0226  -0.0074   0.00    2.3
2173 368363.000    807700.0027  -5649861.3687   2837755.8391   1   7   0.0067   0.0131   0.0066  -0.0068  -0.0081   0.0043   0.00    3.0
2173 368364.000    807700.0037  -5649861.3717   2837755.8419   1   7   0.0065   0.0131   0.0068  -0.0067  -0.0079   0.0044   0.00    3.7
2173 368365.000    807700.0020  -5649861.3711   2837755.8400   1   7   0.0065   0.0131   0.0065  -0.0069  -0.0081   0.0041   0.00    4.4
2173 368366.000    807700.0042  -5649861.3741   2837755.8438   1   7   0.0065   0.0131   0.0066  -0.0069  -0.0081   0.0040   0.00    5.1
2173 368367.000    807700.0039  -5649861.3676   2837755.8417   1   7   0.0066   0.0131   0.0068  -0.0069  -0.0081   0.0041   0.00    5.8
2173 368368.000    807700.0554  -5649861.3275   2837755.8333   2   7   0.0391   0.0529   0.0305  -0.0234  -0.0212  -0.0084   0.00    1.8
2173 368369.000    807700.0564  -5649861.3336   2837755.8319   2   7   0.0390   0.0524   0.0303  -0.0232  -0.0208  -0.0085   0.00    2.6
2173 368370.000    807700.0026  -5649861.3680   2837755.8413   1   7   0.0063   0.0123   0.0064  -0.0068  -0.0076   0.0040   0.00    3.3
2173 368371.000    807700.0058  -5649861.3670   2837755.8392   1   7   0.0065   0.0132   0.0070  -0.0069  -0.0080   0.0045   0.00    3.8
2173 368372.000    807700.0496  -5649861.3502   2837755.8319   2   7   0.0386   0.0518   0.0299  -0.0227  -0.0203  -0.0090   0.00    1.8
2173 368373.000    807700.0517  -5649861.3509   2837755.8343   2   7   0.0385   0.0514   0.0297  -0.0226  -0.0199  -0.0091   0.00    2.4
2173 368374.000    807700.0503  -5649861.3524   2837755.8331   2   7   0.0384   0.0513   0.0297  -0.0224  -0.0199  -0.0092   0.00    1.7
2173 368375.000    807700.0492  -5649861.3681   2837755.8387   2   7   0.0383   0.0507   0.0295  -0.0223  -0.0194  -0.0092   0.00    2.3
2173 368376.000    807700.0021  -5649861.3690   2837755.8428   1   7   0.0065   0.0132   0.0069  -0.0069  -0.0080   0.0042   0.00    3.0
2173 368377.000    807700.0050  -5649861.3675   2837755.8411   1   7   0.0065   0.0131   0.0070  -0.0069  -0.0081   0.0044   0.00    3.7
2173 368378.000    807700.0028  -5649861.3633   2837755.8383   1   7   0.0065   0.0132   0.0065  -0.0068  -0.0081   0.0041   0.00    4.4
2173 368379.000    807700.0435  -5649861.3688   2837755.8363   2   7   0.0379   0.0500   0.0289  -0.0217  -0.0188  -0.0098   0.00    1.7
2173 368380.000    807700.0422  -5649861.3733   2837755.8369   2   7   0.0377   0.0495   0.0289  -0.0215  -0.0183  -0.0097   0.00    2.4
2173 368381.000    807700.0049  -5649861.3756   2837755.8440   1   7   0.0066   0.0123   0.0070  -0.0068  -0.0075   0.0043   0.00    3.1
2173 368382.000    807700.0042  -5649861.3796   2837755.8458   1   7   0.0066   0.0123   0.0069  -0.0069  -0.0075   0.0040   0.00    3.8
2173 368383.000    807700.0010  -5649861.3728   2837755.8409   1   7   0.0067   0.0123   0.0066  -0.0070  -0.0077   0.0040   0.00    4.4
2173 368384.000    807700.0041  -5649861.3730   2837755.8411   1   7   0.0065   0.0123   0.0066  -0.0068  -0.0076   0.0040   0.00    5.0
2173 368385.000    807700.0030  -5649861.3622   2837755.8380   1   7   0.0064   0.0132   0.0066  -0.0068  -0.0081   0.0043   0.00    5.4
2173 368386.000    807700.0371  -5649861.3945   2837755.8443   2   7   0.0371   0.0483   0.0281  -0.0207  -0.0173  -0.0103   0.00    1.7
2173 368387.000    807700.0356  -5649861.3978   2837755.8408   2   7   0.0370   0.0478   0.0280  -0.0206  -0.0169  -0.0103   0.00    2.1
2173 368388.000    807700.0313  -5649861.3964   2837755.8431   2   7   0.0369   0.0476   0.0278  -0.0204  -0.0168  -0.0104   0.00    2.8
2173 368389.000    807700.0368  -5649861.3966   2837755.8448   2   7   0.0368   0.0477   0.0278  -0.0204  -0.0168  -0.0104   0.00    1.7
2173 368390.000    807700.0345  -5649861.4000   2837755.8477   2   7   0.0367   0.0473   0.0276  -0.0202  -0.0164  -0.0106   0.00    2.3
2173 368391.000    807700.0335  -5649861.3992   2837755.8472   2   7   0.0366   0.0472   0.0276  -0.0200  -0.0163  -0.0106   0.00    1.7
2173 368392.000    807700.0314  -5649861.3934   2837755.8419   2   7   0.0364   0.0468   0.0274  -0.0199  -0.0160  -0.0106   0.00    2.3
2173 368393.000    807700.0293  -5649861.3900   2837755.8409   2   7   0.0364   0.0466   0.0273  -0.0198  -0.0157  -0.0107   0.00    2.9
2173 368394.000    807699.9980  -5649861.3658   2837755.8412   1   7   0.0063   0.0132   0.0065  -0.0069  -0.0081   0.0042   0.00    3.5
2173 368395.000    807700.0012  -5649861.3639   2837755.8383   1   7   0.0065   0.0132   0.0066  -0.0070  -0.0081   0.0042   0.00    4.1
2173 368396.000    807700.0043  -5649861.3648   2837755.8412   1   7   0.0064   0.0132   0.0071  -0.0070  -0.0081   0.0042   0.00    4.7
2173 368397.000    807700.0248  -5649861.3806   2837755.8354   2   7   0.0360   0.0460   0.0270  -0.0193  -0.0152  -0.0109   0.00    1.7
2173 368398.000    807700.0224  -5649861.3801   2837755.8360   2   7   0.0359   0.0458   0.0268  -0.0192  -0.0150  -0.0110   0.00    1.6
2173 368399.000    807700.0216  -5649861.3778   2837755.8376   2   7   0.0358   0.0454   0.0266  -0.0191  -0.0147  -0.0111   0.00    2.2
2173 368400.000    807700.0232  -5649861.3781   2837755.8367   2   7   0.0357   0.0451   0.0266  -0.0189  -0.0144  -0.0110   0.00    2.7
2173 368401.000    807700.0243  -5649861.3751   2837755.8344   2   7   0.0356   0.0452   0.0265  -0.0189  -0.0146  -0.0112   0.00    1.7
2173 368402.000    807700.0229  -5649861.3706   2837755.8330   2   7   0.0355   0.0448   0.0264  -0.0187  -0.0142  -0.0112   0.00    2.1
2173 368403.000    807700.0226  -5649861.3733   2837755.8352   2   7   0.0354   0.0448   0.0263  -0.0186  -0.0142  -0.0112   0.00    1.6
2173 368404.000    807700.0247  -5649861.3725   2837755.8346   2   7   0.0354   0.0446   0.0262  -0.0185  -0.0140  -0.0112   0.00    1.6
2173 368405.000    807700.0249  -5649861.3721   2837755.8336   2   7   0.0353   0.0442   0.0261  -0.0184  -0.0137  -0.0114   0.00    2.1
2173 368406.000    807700.0229  -5649861.3706   2837755.8344   2   7   0.0352   0.0442   0.0261  -0.0183  -0.0136  -0.0113   0.00    1.6
2173 368407.000    807700.0236  -5649861.3696   2837755.8362   2   7   0.0351   0.0439   0.0260  -0.0182  -0.0133  -0.0114   0.00    2.1
2173 368408.000    807700.0231  -5649861.3660   2837755.8341   2   7   0.0350   0.0439   0.0258  -0.0181  -0.0134  -0.0116   0.00    1.6
2173 368409.000    807700.0187  -5649861.3666   2837755.8342   2   7   0.0349   0.0435   0.0257  -0.0180  -0.0129  -0.0115   0.00    2.1
2173 368410.000    807700.0192  -5649861.3664   2837755.8332   2   7   0.0348   0.0433   0.0256  -0.0178  -0.0127  -0.0115   0.00    2.6
2173 368411.000    807700.0009  -5649861.3653   2837755.8386   1   7   0.0064   0.0132   0.0067  -0.0070  -0.0081   0.0042   0.00    3.2
2173 368412.000    807700.0013  -5649861.3643   2837755.8378   1   7   0.0063   0.0133   0.0068  -0.0069  -0.0080   0.0044   0.00    3.7
2173 368413.000    807700.0070  -5649861.3714   2837755.8421   1   7   0.0063   0.0133   0.0071  -0.0069  -0.0081   0.0042   0.00    4.2
2173 368414.000    807700.0041  -5649861.3692   2837755.8397   1   7   0.0064   0.0132   0.0066  -0.0069  -0.0081   0.0045   0.00    4.7
2173 368415.000    807700.0037  -5649861.3711   2837755.8425   1   7   0.0065   0.0132   0.0067  -0.0070  -0.0081   0.0044   0.00    5.2
2173 368416.000    807700.0048  -5649861.3739   2837755.8451   1   7   0.0066   0.0133   0.0067  -0.0069  -0.0080   0.0042   0.00    5.6
2173 368417.000    807700.0021  -5649861.3704   2837755.8454   1   7   0.0067   0.0133   0.0068  -0.0070  -0.0081   0.0044   0.00    6.1
2173 368418.000    807700.0004  -5649861.3705   2837755.8408   1   7   0.0064   0.0133   0.0066  -0.0070  -0.0082   0.0041   0.00    6.5
2173 368419.000    807700.0044  -5649861.3728   2837755.8426   1   7   0.0066   0.0133   0.0069  -0.0070  -0.0081   0.0043   0.00    6.9
2173 368420.000    807700.0039  -5649861.3696   2837755.8406   1   7   0.0066   0.0133   0.0070  -0.0071  -0.0082   0.0045   0.00    7.3
2173 368421.000    807700.0024  -5649861.3660   2837755.8390   1   7   0.0065   0.0133   0.0066  -0.0070  -0.0081   0.0044   0.00    7.7
2173 368422.000    807700.0036  -5649861.3683   2837755.8396   1   7   0.0065   0.0133   0.0070  -0.0070  -0.0081   0.0042   0.00    8.1
2173 368423.000    807700.0035  -5649861.3705   2837755.8385   1   7   0.0067   0.0133   0.0070  -0.0070  -0.0081   0.0044   0.00    8.4
2173 368424.000    807700.0059  -5649861.3681   2837755.8395   1   7   0.0064   0.0132   0.0063  -0.0071  -0.0082   0.0042   0.00    8.8
2173 368425.000    807700.0204  -5649861.3490   2837755.8301   2   7   0.0336   0.0411   0.0244  -0.0164  -0.0106  -0.0118   0.00    1.5
2173 368426.000    807700.0225  -5649861.3563   2837755.8350   2   7   0.0335   0.0407   0.0243  -0.0163  -0.0102  -0.0119   0.00    1.9
2173 368427.000    807700.0234  -5649861.3543   2837755.8323   2   7   0.0334   0.0405   0.0242  -0.0162  -0.0099  -0.0120   0.00    2.3
2173 368428.000    807700.0211  -5649861.3522   2837755.8304   2   7   0.0334   0.0407   0.0242  -0.0162  -0.0102  -0.0119   0.00    1.5
2173 368429.000    807700.0182  -5649861.3533   2837755.8331   2   7   0.0333   0.0403   0.0240  -0.0161  -0.0097  -0.0120   0.00    1.9
2173 368430.000    807700.0180  -5649861.3479   2837755.8297   2   7   0.0332   0.0401   0.0239  -0.0160  -0.0095  -0.0121   0.00    2.3
2173 368431.000    807700.0198  -5649861.3505   2837755.8314   2   7   0.0332   0.0399   0.0239  -0.0159  -0.0092  -0.0120   0.00    2.7
2173 368432.000    807700.0187  -5649861.3479   2837755.8303   2   7   0.0330   0.0401   0.0239  -0.0158  -0.0095  -0.0119   0.00    1.4
2173 368433.000    807700.0167  -5649861.3424   2837755.8261   2   7   0.0330   0.0397   0.0238  -0.0158  -0.0090  -0.0119   0.00    1.9
2173 368434.000    807700.0233  -5649861.3467   2837755.8299   2   7   0.0329   0.0395   0.0237  -0.0157  -0.0088  -0.0121   0.00    2.3
2173 368435.000    807700.0215  -5649861.3513   2837755.8303   2   7   0.0329   0.0394   0.0236  -0.0155  -0.0086  -0.0120   0.00    2.7
2173 368436.000    807700.0023  -5649861.3720   2837755.8381   1   7   0.0064   0.0133   0.0067  -0.0071  -0.0082   0.0043   0.00    3.2
2173 368437.000    807700.0179  -5649861.3469   2837755.8283   2   7   0.0327   0.0394   0.0236  -0.0154  -0.0087  -0.0121   0.00    1.5
2173 368438.000    807700.0185  -5649861.3517   2837755.8319   2   7   0.0327   0.0391   0.0234  -0.0153  -0.0083  -0.0123   0.00    1.8
2173 368439.000    807700.0241  -5649861.3544   2837755.8356   2   7   0.0326   0.0389   0.0233  -0.0153  -0.0080  -0.0121   0.00    2.3
2173 368440.000    807700.0235  -5649861.3593   2837755.8371   2   7   0.0325   0.0387   0.0234  -0.0152  -0.0077  -0.0121   0.00    2.7
2173 368441.000    807700.0058  -5649861.3754   2837755.8397   1   7   0.0065   0.0133   0.0066  -0.0070  -0.0082   0.0043   0.00    3.1
2173 368442.000    807700.0048  -5649861.3769   2837755.8385   1   7   0.0065   0.0133   0.0068  -0.0070  -0.0081   0.0041   0.00    3.5
2173 368443.000    807700.0268  -5649861.3510   2837755.8337   2   7   0.0324   0.0386   0.0231  -0.0150  -0.0080  -0.0122   0.00    1.5
2173 368444.000    807700.0298  -5649861.3545   2837755.8327   2   7   0.0322   0.0383   0.0231  -0.0149  -0.0073  -0.0121   0.00    1.8
2173 368445.000    807700.0301  -5649861.3564   2837755.8360   2   7   0.0322   0.0381   0.0231  -0.0148  -0.0071  -0.0121   0.00    2.2
2173 368446.000    807700.0300  -5649861.3581   2837755.8388   2   7   0.0321   0.0379   0.0229  -0.0148  -0.0069  -0.0123   0.00    2.6
2173 368447.000    807700.0269  -5649861.3557   2837755.8383   2   7   0.0320   0.0378   0.0228  -0.0146  -0.0067  -0.0122   0.00    2.9
2173 368448.000    807700.0062  -5649861.3800   2837755.8432   1   7   0.0066   0.0133   0.0068  -0.0071  -0.0081   0.0043   0.00    3.3
2173 368449.000    807700.0052  -5649861.3758   2837755.8395   1   7   0.0066   0.0134   0.0067  -0.0070  -0.0081   0.0044   0.00    3.7
2173 368450.000    807700.0035  -5649861.3735   2837755.8354   1   7   0.0064   0.0133   0.0065  -0.0071  -0.0082   0.0042   0.00    4.0
2173 368451.000    807700.0064  -5649861.3776   2837755.8390   1   7   0.0065   0.0134   0.0063  -0.0070  -0.0083   0.0042   0.00    4.4
2173 368452.000    807700.0026  -5649861.3764   2837755.8379   1   7   0.0064   0.0134   0.0065  -0.0070  -0.0082   0.0042   0.00    4.8
2173 368453.000    807700.0047  -5649861.3773   2837755.8385   1   7   0.0065   0.0134   0.0066  -0.0071  -0.0082   0.0042   0.00    5.1
2173 368454.000    807700.0244  -5649861.3512   2837755.8363   2   7   0.0316   0.0373   0.0224  -0.0143  -0.0062  -0.0124   0.00    1.4
2173 368455.000    807700.0265  -5649861.3518   2837755.8372   2   7   0.0316   0.0370   0.0223  -0.0142  -0.0055  -0.0123   0.00    1.7
2173 368456.000    807700.0337  -5649861.3636   2837755.8435   2   7   0.0314   0.0368   0.0222  -0.0140  -0.0052  -0.0122   0.00    2.0
2173 368457.000    807700.0328  -5649861.3645   2837755.8441   2   7   0.0314   0.0366   0.0222  -0.0140  -0.0050  -0.0123   0.00    2.3
2173 368458.000    807700.0333  -5649861.3600   2837755.8440   2   7   0.0314   0.0365   0.0221  -0.0140  -0.0047  -0.0123   0.00    2.6
2173 368459.000    807700.0332  -5649861.3650   2837755.8449   2   7   0.0313   0.0364   0.0221  -0.0139  -0.0046  -0.0123   0.00    2.9
2173 368460.000    807700.0094  -5649861.3772   2837755.8400   1   7   0.0065   0.0134   0.0066  -0.0071  -0.0083   0.0042   0.00    3.1
2173 368461.000    807700.0063  -5649861.3806   2837755.8424   1   7   0.0068   0.0134   0.0065  -0.0072  -0.0082   0.0041   0.00    3.4
2173 368462.000    807700.0034  -5649861.3742   2837755.8372   1   7   0.0065   0.0134   0.0066  -0.0071  -0.0083   0.0044   0.00    3.7
2173 368463.000    807700.0336  -5649861.3590   2837755.8431   2   7   0.0311   0.0364   0.0220  -0.0137  -0.0047  -0.0122   0.00    1.3
2173 368464.000    807700.0325  -5649861.3610   2837755.8476   2   7   0.0310   0.0360   0.0218  -0.0136  -0.0042  -0.0123   0.00    1.6
2173 368465.000    807700.0295  -5649861.3620   2837755.8457   2   7   0.0310   0.0358   0.0219  -0.0135  -0.0036  -0.0123   0.00    1.9
2173 368466.000    807700.0376  -5649861.3684   2837755.8502   2   7   0.0309   0.0357   0.0217  -0.0135  -0.0031  -0.0123   0.00    2.2
2173 368467.000    807700.0371  -5649861.3737   2837755.8492   2   7   0.0308   0.0356   0.0217  -0.0134  -0.0028  -0.0123   0.00    2.4
2173 368468.000    807700.0342  -5649861.3640   2837755.8468   2   7   0.0307   0.0354   0.0216  -0.0133  -0.0026  -0.0124   0.00    2.7
2173 368469.000    807700.0339  -5649861.3638   2837755.8444   2   7   0.0307   0.0353   0.0215  -0.0133  -0.0019  -0.0122   0.00    2.9
2173 368470.000    807700.0076  -5649861.3827   2837755.8445   1   7   0.0065   0.0134   0.0067  -0.0071  -0.0082   0.0041   0.00    3.2
2173 368471.000    807700.0059  -5649861.3728   2837755.8367   1   7   0.0065   0.0134   0.0068  -0.0071  -0.0081   0.0043   0.00    3.5
2173 368472.000    807700.0396  -5649861.3643   2837755.8470   2   7   0.0305   0.0355   0.0214  -0.0132  -0.0032  -0.0124   0.00    1.4
2173 368473.000    807700.0345  -5649861.3629   2837755.8469   2   7   0.0304   0.0351   0.0214  -0.0130  -0.0016  -0.0122   0.00    1.6
2173 368474.000    807700.0372  -5649861.3689   2837755.8486   2   7   0.0304   0.0349   0.0212  -0.0131  -0.0012  -0.0123   0.00    1.9
2173 368475.000    807700.0373  -5649861.3662   2837755.8497   2   7   0.0304   0.0348   0.0213  -0.0129   0.0022  -0.0123   0.00    2.2
2173 368476.000    807700.0349  -5649861.3613   2837755.8474   2   7   0.0303   0.0347   0.0211  -0.0129   0.0021  -0.0124   0.00    2.5
2173 368477.000    807700.0345  -5649861.3644   2837755.8486   2   7   0.0303   0.0346   0.0211  -0.0129   0.0023  -0.0122   0.00    2.7
2173 368478.000    807700.0353  -5649861.3635   2837755.8493   2   7   0.0302   0.0349   0.0211  -0.0129  -0.0013  -0.0124   0.00    1.3
2173 368479.000    807700.0378  -5649861.3656   2837755.8530   2   7   0.0301   0.0345   0.0209  -0.0128   0.0019  -0.0124   0.00    1.6
2173 368480.000    807700.0345  -5649861.3646   2837755.8486   2   7   0.0301   0.0344   0.0211  -0.0128   0.0028  -0.0123   0.00    1.8
2173 368481.000    807700.0303  -5649861.3655   2837755.8476   2   7   0.0300   0.0342   0.0210  -0.0128   0.0028  -0.0123   0.00    2.1
2173 368482.000    807700.0290  -5649861.3634   2837755.8450   2   7   0.0300   0.0341   0.0209  -0.0127   0.0033  -0.0123   0.00    2.4
2173 368483.000    807700.0319  -5649861.3601   2837755.8487   2   7   0.0299   0.0340   0.0208  -0.0126   0.0035  -0.0122   0.00    2.7
2173 368484.000    807700.0274  -5649861.3601   2837755.8438   2   7   0.0299   0.0339   0.0208  -0.0125   0.0039  -0.0124   0.00    3.0
2173 368485.000    807700.0089  -5649861.3818   2837755.8431   1   7   0.0066   0.0134   0.0066  -0.0070  -0.0082   0.0042   0.00    3.2
2173 368486.000    807700.0006  -5649861.3709   2837755.8411   1   7   0.0066   0.0135   0.0064  -0.0072  -0.0082   0.0037   0.00    3.5
2173 368487.000    807700.0045  -5649861.3817   2837755.8462   1   7   0.0066   0.0135   0.0065  -0.0073  -0.0083   0.0040   0.00    3.8
2173 368488.000    807700.0030  -5649861.3750   2837755.8427   1   7   0.0067   0.0134   0.0068  -0.0071  -0.0082   0.0043   0.00    4.0
2173 368489.000    807700.0058  -5649861.3776   2837755.8451   1   7   0.0066   0.0135   0.0068  -0.0071  -0.0081   0.0044   0.00    4.2
2173 368490.000    807700.0067  -5649861.3837   2837755.8451   1   7   0.0067   0.0135   0.0065  -0.0071  -0.0082   0.0041   0.00    4.5
2173 368491.000    807700.0332  -5649861.3667   2837755.8535   2   7   0.0295   0.0338   0.0206  -0.0123   0.0033  -0.0122   0.00    1.3
2173 368492.000    807700.0277  -5649861.3658   2837755.8520   2   7   0.0295   0.0334   0.0204  -0.0122   0.0042  -0.0123   0.00    1.6
2173 368493.000    807700.0323  -5649861.3743   2837755.8536   2   7   0.0295   0.0332   0.0204  -0.0122   0.0046  -0.0123   0.00    1.8
2173 368494.000    807700.0286  -5649861.3690   2837755.8511   2   7   0.0294   0.0331   0.0203  -0.0122   0.0048  -0.0123   0.00    2.1
2173 368495.000    807700.0293  -5649861.3707   2837755.8515   2   7   0.0293   0.0330   0.0203  -0.0121   0.0050  -0.0123   0.00    2.4
2173 368496.000    807700.0298  -5649861.3720   2837755.8549   2   7   0.0292   0.0329   0.0201  -0.0121   0.0049  -0.0124   0.00    2.7
2173 368497.000    807700.0019  -5649861.3765   2837755.8436   1   7   0.0066   0.0135   0.0070  -0.0071  -0.0081   0.0043   0.00    3.0
2173 368498.000    807699.9997  -5649861.3809   2837755.8430   1   7   0.0066   0.0135   0.0064  -0.0072  -0.0082   0.0042   0.00    3.3
2173 368499.000    807700.0031  -5649861.3815   2837755.8440   1   7   0.0066   0.0135   0.0066  -0.0072  -0.0082   0.0044   0.00    3.6
2173 368500.000    807700.0028  -5649861.3776   2837755.8430   1   7   0.0066   0.0135   0.0065  -0.0072  -0.0083   0.0041   0.00    3.9
2173 368501.000    807700.0022  -5649861.3809   2837755.8430   1   7   0.0064   0.0135   0.0067  -0.0072  -0.0082   0.0040   0.00    4.2
2173 368502.000    807700.0044  -5649861.3799   2837755.8425   1   7   0.0066   0.0135   0.0066  -0.0071  -0.0083   0.0042   0.00    4.4
2173 368503.000    807700.0053  -5649861.3837   2837755.8443   1   7   0.0067   0.0135   0.0069  -0.0072  -0.0083   0.0046   0.00    4.7
2173 368504.000    807700.0006  -5649861.3790   2837755.8417   1   7   0.0063   0.0135   0.0068  -0.0072  -0.0083   0.0043   0.00    5.0
2173 368505.000    807700.0034  -5649861.3774   2837755.8416   1   7   0.0064   0.0135   0.0067  -0.0071  -0.0083   0.0040   0.00    5.3
2173 368506.000    807700.0034  -5649861.3778   2837755.8390   1   7   0.0066   0.0135   0.0064  -0.0072  -0.0083   0.0039   0.00    5.6
2173 368507.000    807700.0051  -5649861.3805   2837755.8373   1   7   0.0067   0.0135   0.0067  -0.0072  -0.0083   0.0041   0.00    5.8
2173 368508.000    807700.0073  -5649861.3776   2837755.8396   1   7   0.0066   0.0135   0.0071  -0.0072  -0.0082   0.0045   0.00    6.1
2173 368509.000    807700.0041  -5649861.3739   2837755.8376   1   7   0.0065   0.0135   0.0067  -0.0072  -0.0082   0.0045   0.00    6.3
2173 368510.000    807700.0049  -5649861.3783   2837755.8396   1   7   0.0067   0.0135   0.0070  -0.0072  -0.0082   0.0043   0.00    6.6
2173 368511.000    807700.0245  -5649861.3849   2837755.8578   2   7   0.0285   0.0323   0.0197  -0.0115   0.0052  -0.0121   0.00    1.4
2173 368512.000    807700.0264  -5649861.3908   2837755.8613   2   7   0.0286   0.0319   0.0198  -0.0115   0.0060  -0.0121   0.00    1.6
2173 368513.000    807700.0313  -5649861.3900   2837755.8617   2   7   0.0285   0.0317   0.0195  -0.0115   0.0058  -0.0122   0.00    1.9
2173 368514.000    807700.0270  -5649861.3895   2837755.8595   2   7   0.0285   0.0316   0.0196  -0.0114   0.0062  -0.0122   0.00    2.2
2173 368515.000    807700.0268  -5649861.3932   2837755.8606   2   7   0.0284   0.0315   0.0194  -0.0115   0.0061  -0.0123   0.00    2.5
2173 368516.000    807700.0326  -5649861.3979   2837755.8660   2   7   0.0283   0.0319   0.0196  -0.0114   0.0055  -0.0121   0.00    1.3
2173 368517.000    807700.0256  -5649861.3961   2837755.8600   2   7   0.0283   0.0316   0.0194  -0.0114   0.0060  -0.0123   0.00    1.6
2173 368518.000    807700.0292  -5649861.4028   2837755.8648   2   7   0.0283   0.0314   0.0194  -0.0113   0.0063  -0.0121   0.00    1.9
2173 368519.000    807700.0299  -5649861.4010   2837755.8645   2   7   0.0283   0.0313   0.0193  -0.0113   0.0063  -0.0123   0.00    2.2
2173 368520.000    807700.0287  -5649861.4061   2837755.8680   2   7   0.0282   0.0312   0.0194  -0.0112   0.0065  -0.0121   0.00    2.4
2173 368521.000    807700.0299  -5649861.4089   2837755.8695   2   7   0.0281   0.0311   0.0192  -0.0112   0.0065  -0.0121   0.00    2.7
2173 368522.000    807700.0020  -5649861.3814   2837755.8442   1   7   0.0067   0.0139   0.0072  -0.0070  -0.0087   0.0039   0.00    3.0
2173 368523.000    807700.0301  -5649861.4120   2837755.8740   2   7   0.0281   0.0312   0.0197  -0.0107   0.0053  -0.0126   0.00    1.8
2173 368524.000    807700.0247  -5649861.4033   2837755.8703   2   7   0.0281   0.0309   0.0194  -0.0109   0.0064  -0.0124   0.00    2.5
2173 368525.000    807700.0307  -5649861.4117   2837755.8739   2   7   0.0280   0.0314   0.0192  -0.0111   0.0056  -0.0124   0.00    1.3
2173 368526.000    807700.0302  -5649861.4167   2837755.8772   2   7   0.0280   0.0313   0.0193  -0.0111   0.0058  -0.0122   0.00    1.3
2173 368527.000    807700.0307  -5649861.4138   2837755.8741   2   7   0.0280   0.0309   0.0191  -0.0111   0.0065  -0.0122   0.00    1.6
2173 368528.000    807700.0292  -5649861.4088   2837755.8740   2   7   0.0279   0.0308   0.0191  -0.0111   0.0067  -0.0122   0.00    1.9
2173 368529.000    807700.0320  -5649861.4114   2837755.8758   2   7   0.0278   0.0307   0.0189  -0.0111   0.0069  -0.0121   0.00    2.1
2173 368530.000    807700.0301  -5649861.4082   2837755.8759   2   7   0.0278   0.0307   0.0189  -0.0110   0.0068  -0.0122   0.00    2.4
2173 368531.000    807700.0302  -5649861.4089   2837755.8763   2   7   0.0278   0.0306   0.0189  -0.0111   0.0068  -0.0122   0.00    2.7
2173 368532.000    807700.0270  -5649861.4086   2837755.8771   2   7   0.0277   0.0306   0.0189  -0.0111   0.0069  -0.0120   0.00    3.0
2173 368533.000    807699.9995  -5649861.3723   2837755.8407   1   7   0.0067   0.0136   0.0069  -0.0073  -0.0082   0.0044   0.00    3.2
2173 368534.000    807699.9983  -5649861.3728   2837755.8440   1   7   0.0066   0.0136   0.0064  -0.0073  -0.0084   0.0041   0.00    3.4
2173 368535.000    807700.0344  -5649861.4058   2837755.8748   2   7   0.0276   0.0310   0.0188  -0.0112   0.0061  -0.0120   0.00    1.3
2173 368536.000    807700.0324  -5649861.4050   2837755.8755   2   7   0.0276   0.0307   0.0187  -0.0112   0.0065  -0.0120   0.00    1.5
2173 368537.000    807700.0322  -5649861.4066   2837755.8741   2   7   0.0275   0.0306   0.0188  -0.0111   0.0066  -0.0119   0.00    1.8
2173 368538.000    807700.0319  -5649861.4010   2837755.8713   2   7   0.0275   0.0305   0.0185  -0.0112   0.0066  -0.0120   0.00    2.1
2173 368539.000    807700.0309  -5649861.4027   2837755.8742   2   7   0.0275   0.0304   0.0186  -0.0112   0.0066  -0.0119   0.00    2.3
2173 368540.000    807700.0338  -5649861.4105   2837755.8772   2   7   0.0274   0.0304   0.0186  -0.0112   0.0066  -0.0120   0.00    2.6
2173 368541.000    807700.0360  -5649861.4051   2837755.8716   2   7   0.0274   0.0304   0.0186  -0.0112   0.0067  -0.0119   0.00    2.8
2173 368542.000    807699.9983  -5649861.3738   2837755.8417   1   7   0.0065   0.0136   0.0067  -0.0072  -0.0083   0.0044   0.00    3.1
2173 368543.000    807699.9997  -5649861.3736   2837755.8406   1   7   0.0065   0.0136   0.0066  -0.0073  -0.0084   0.0042   0.00    3.3
2173 368544.000    807699.9968  -5649861.3736   2837755.8412   1   7   0.0065   0.0136   0.0066  -0.0071  -0.0083   0.0047   0.00    3.7
2173 368545.000    807700.0028  -5649861.3744   2837755.8416   1   7   0.0067   0.0136   0.0065  -0.0074  -0.0083   0.0045   0.00    3.9
2173 368546.000    807700.0015  -5649861.3726   2837755.8397   1   7   0.0065   0.0136   0.0066  -0.0073  -0.0083   0.0040   0.00    4.1
2173 368547.000    807700.0392  -5649861.3963   2837755.8729   2   7   0.0271   0.0308   0.0184  -0.0112   0.0056  -0.0118   0.00    1.3
2173 368548.000    807700.0376  -5649861.4008   2837755.8760   2   7   0.0271   0.0305   0.0184  -0.0112   0.0061  -0.0118   0.00    1.5
2173 368549.000    807700.0369  -5649861.3918   2837755.8701   2   7   0.0272   0.0307   0.0186  -0.0113   0.0056  -0.0118   0.00    1.3
2173 368550.000    807700.0380  -5649861.3951   2837755.8688   2   7   0.0271   0.0304   0.0184  -0.0112   0.0060  -0.0118   0.00    1.5
2173 368551.000    807700.0379  -5649861.3908   2837755.8684   2   7   0.0271   0.0303   0.0185  -0.0112   0.0062  -0.0117   0.00    1.7
2173 368552.000    807700.0388  -5649861.3965   2837755.8719   2   7   0.0269   0.0302   0.0183  -0.0112   0.0062  -0.0118   0.00    2.0
2173 368553.000    807700.0391  -5649861.3944   2837755.8703   2   7   0.0270   0.0302   0.0183  -0.0112   0.0061  -0.0117   0.00    2.2
2173 368554.000    807700.0408  -5649861.3945   2837755.8722   2   7   0.0269   0.0301   0.0183  -0.0112   0.0062  -0.0117   0.00    2.5
2173 368555.000    807700.0371  -5649861.3923   2837755.8723   2   7   0.0268   0.0306   0.0184  -0.0112   0.0053  -0.0117   0.00    1.3
2173 368556.000    807700.0355  -5649861.3902   2837755.8702   2   7   0.0269   0.0303   0.0184  -0.0112   0.0059  -0.0116   0.00    1.5
2173 368557.000    807700.0362  -5649861.3881   2837755.8699   2   7   0.0268   0.0302   0.0181  -0.0112   0.0058  -0.0117   0.00    1.8
2173 368558.000    807700.0396  -5649861.3952   2837755.8718   2   7   0.0267   0.0301   0.0182  -0.0112   0.0059  -0.0116   0.00    2.0
2173 368559.000    807700.0412  -5649861.3938   2837755.8710   2   7   0.0268   0.0301   0.0182  -0.0112   0.0061  -0.0117   0.00    2.3
2173 368560.000    807700.0405  -5649861.3907   2837755.8696   2   7   0.0267   0.0300   0.0181  -0.0111   0.0059  -0.0116   0.00    2.5
2173 368561.000    807700.0376  -5649861.3864   2837755.8662   2   7   0.0267   0.0300   0.0183  -0.0111   0.0061  -0.0116   0.00    2.7
2173 368562.000    807700.0423  -5649861.3927   2837755.8735   2   7   0.0267   0.0300   0.0181  -0.0112   0.0060  -0.0115   0.00    2.9
2173 368563.000    807700.0026  -5649861.3797   2837755.8487   1   7   0.0066   0.0137   0.0069  -0.0073  -0.0083   0.0044   0.00    3.1
2173 368564.000    807700.0029  -5649861.3769   2837755.8441   1   7   0.0066   0.0137   0.0066  -0.0073  -0.0083   0.0043   0.00    3.3
2173 368565.000    807700.0048  -5649861.3760   2837755.8434   1   7   0.0064   0.0137   0.0064  -0.0073  -0.0084   0.0043   0.00    3.5
2173 368566.000    807700.0028  -5649861.3805   2837755.8475   1   7   0.0068   0.0137   0.0062  -0.0074  -0.0084   0.0039   0.00    3.7
2173 368567.000    807700.0051  -5649861.3785   2837755.8433   1   7   0.0067   0.0137   0.0072  -0.0073  -0.0083   0.0045   0.00    3.9
2173 368568.000    807700.0064  -5649861.3789   2837755.8424   1   7   0.0067   0.0137   0.0064  -0.0073  -0.0083   0.0042   0.00    4.1
2173 368569.000    807700.0062  -5649861.3759   2837755.8425   1   7   0.0067   0.0137   0.0066  -0.0074  -0.0084   0.0044   0.00    4.3
2173 368570.000    807700.0065  -5649861.3793   2837755.8449   1   7   0.0066   0.0137   0.0064  -0.0073  -0.0083   0.0044   0.00    4.4
2173 368571.000    807700.0047  -5649861.3775   2837755.8431   1   7   0.0068   0.0137   0.0067  -0.0073  -0.0083   0.0042   0.00    4.6
2173 368572.000    807700.0055  -5649861.3783   2837755.8445   1   7   0.0066   0.0137   0.0068  -0.0074  -0.0084   0.0044   0.00    4.8
2173 368573.000    807700.0060  -5649861.3753   2837755.8419   1   7   0.0067   0.0137   0.0067  -0.0074  -0.0084   0.0042   0.00    5.0
2173 368574.000    807700.0027  -5649861.3788   2837755.8437   1   7   0.0067   0.0137   0.0063  -0.0074  -0.0084   0.0039   0.00    5.1
2173 368575.000    807700.0048  -5649861.3803   2837755.8430   1   7   0.0069   0.0137   0.0066  -0.0073  -0.0084   0.0041   0.00    5.3
2173 368576.000    807700.0436  -5649861.3941   2837755.8701   2   7   0.0261   0.0303   0.0179  -0.0113   0.0042  -0.0114   0.00    1.3
2173 368577.000    807700.0415  -5649861.3914   2837755.8702   2   7   0.0261   0.0300   0.0178  -0.0112   0.0050  -0.0114   0.00    1.5
2173 368578.000    807700.0412  -5649861.3862   2837755.8674   2   7   0.0261   0.0299   0.0177  -0.0111   0.0051  -0.0116   0.00    1.7
2173 368579.000    807700.0441  -5649861.3948   2837755.8731   2   7   0.0261   0.0298   0.0178  -0.0111   0.0052  -0.0113   0.00    1.9
2173 368580.000    807700.0414  -5649861.3932   2837755.8699   2   7   0.0260   0.0297   0.0178  -0.0111   0.0053  -0.0114   0.00    2.1
2173 368581.000    807700.0429  -5649861.3939   2837755.8704   2   7   0.0260   0.0297   0.0176  -0.0111   0.0053  -0.0113   0.00    2.3
2173 368582.000    807700.0448  -5649861.3938   2837755.8708   2   7   0.0260   0.0297   0.0178  -0.0112   0.0052  -0.0114   0.00    2.5
2173 368583.000    807700.0430  -5649861.3945   2837755.8722   2   7   0.0259   0.0297   0.0177  -0.0111   0.0053  -0.0115   0.00    2.7
2173 368584.000    807700.0437  -5649861.3938   2837755.8731   2   7   0.0259   0.0296   0.0177  -0.0110   0.0053  -0.0113   0.00    2.8
2173 368585.000    807700.0463  -5649861.3886   2837755.8690   2   7   0.0258   0.0302   0.0179  -0.0112   0.0041  -0.0112   0.00    1.3
2173 368586.000    807700.0486  -5649861.3906   2837755.8696   2   7   0.0258   0.0298   0.0175  -0.0111   0.0045  -0.0114   0.00    1.4
2173 368587.000    807700.0423  -5649861.3856   2837755.8662   2   7   0.0258   0.0297   0.0177  -0.0111   0.0050  -0.0114   0.00    1.6
2173 368588.000    807700.0458  -5649861.3904   2837755.8663   2   7   0.0258   0.0297   0.0177  -0.0111   0.0049  -0.0113   0.00    1.8
2173 368589.000    807700.0442  -5649861.3903   2837755.8700   2   7   0.0257   0.0296   0.0176  -0.0110   0.0051  -0.0112   0.00    2.0
2173 368590.000    807700.0437  -5649861.3888   2837755.8696   2   7   0.0256   0.0296   0.0175  -0.0111   0.0050  -0.0113   0.00    2.2
2173 368591.000    807700.0466  -5649861.3910   2837755.8725   2   7   0.0257   0.0301   0.0176  -0.0112   0.0036  -0.0113   0.00    1.3
2173 368592.000    807700.0440  -5649861.3964   2837755.8744   2   7   0.0256   0.0300   0.0177  -0.0111   0.0038  -0.0112   0.00    1.3
2173 368593.000    807700.0450  -5649861.3921   2837755.8735   2   7   0.0257   0.0297   0.0176  -0.0112   0.0044  -0.0113   0.00    1.4
2173 368594.000    807700.0427  -5649861.3949   2837755.8740   2   7   0.0256   0.0296   0.0174  -0.0111   0.0044  -0.0112   0.00    1.7
2173 368595.000    807700.0459  -5649861.3943   2837755.8739   2   7   0.0255   0.0300   0.0174  -0.0112   0.0035  -0.0113   0.00    1.3
2173 368596.000    807700.0453  -5649861.3913   2837755.8725   2   7   0.0255   0.0297   0.0174  -0.0111   0.0042  -0.0112   0.00    1.4
2173 368597.000    807700.0445  -5649861.3922   2837755.8743   2   7   0.0255   0.0295   0.0173  -0.0110   0.0044  -0.0112   0.00    1.7
2173 368598.000    807700.0454  -5649861.3931   2837755.8751   2   7   0.0255   0.0295   0.0175  -0.0111   0.0046  -0.0111   0.00    1.9
2173 368599.000    807700.0458  -5649861.3944   2837755.8746   2   7   0.0254   0.0299   0.0174  -0.0111   0.0034  -0.0112   0.00    1.3
2173 368600.000    807700.0440  -5649861.3873   2837755.8648   2   7   0.0254   0.0296   0.0173  -0.0111   0.0041  -0.0112   0.00    1.5
2173 368601.000    807700.0444  -5649861.3923   2837755.8708   2   7   0.0254   0.0295   0.0174  -0.0110   0.0044  -0.0110   0.00    1.7
2173 368602.000    807700.0461  -5649861.3952   2837755.8743   2   7   0.0253   0.0299   0.0173  -0.0111   0.0033  -0.0111   0.00    1.2
2173 368603.000    807700.0460  -5649861.3900   2837755.8704   2   7   0.0253   0.0296   0.0172  -0.0111   0.0041  -0.0112   0.00    1.5
2173 368604.000    807700.0425  -5649861.3860   2837755.8711   2   7   0.0253   0.0294   0.0173  -0.0112   0.0040  -0.0110   0.00    1.7
2173 368605.000    807700.0439  -5649861.3892   2837755.8728   2   7   0.0252   0.0294   0.0173  -0.0110   0.0043  -0.0110   0.00    1.9
2173 368606.000    807700.0442  -5649861.3909   2837755.8769   2   7   0.0252   0.0293   0.0172  -0.0110   0.0043  -0.0111   0.00    2.2
2173 368607.000    807700.0431  -5649861.3868   2837755.8734   2   7   0.0251   0.0298   0.0171  -0.0111   0.0027  -0.0111   0.00    1.3
2173 368608.000    807700.0439  -5649861.3864   2837755.8716   2   7   0.0251   0.0295   0.0174  -0.0110   0.0040  -0.0109   0.00    1.5
2173 368609.000    807700.0436  -5649861.3897   2837755.8729   2   7   0.0251   0.0293   0.0172  -0.0110   0.0040  -0.0111   0.00    1.7
2173 368610.000    807700.0432  -5649861.3921   2837755.8738   2   7   0.0251   0.0293   0.0171  -0.0110   0.0042  -0.0111   0.00    2.0
