% program   : rnx2rtkp ver.2.4.3 b31
% inp file  : ngs/21_08_31_02_34_39_ncrd.obs
% inp file  : ngs/21_08_31_02_34_39_ncrd_SNNC.obs
% inp file  : ngs/21_08_31_02_34_39_brdc.nav
% obs start : 2021/08/31 02:00:00.0 GPST (week2173 180000.0s)
% obs end   : 2021/08/31 02:59:59.0 GPST (week2173 183599.0s)
% ref pos   :  1025996.0589  -5078764.8687   3706952.9656
%
% (x/y/z-ecef=WGS84,Q=1:fix,2:float,3:sbas,4:dgps,5:single,6:ppp,ns=# of satellites)
%  GPST              x-ecef(m)      y-ecef(m)      z-ecef(m)   Q  ns   sdx(m)   sdy(m)   sdz(m)  sdxy(m)  sdyz(m)  sdzx(m) age(s)  ratio
2173 182056.000   1026004.4908  -5078806.2056   3706983.5352   2   8   0.4238   0.8505   0.7956  -0.3301  -0.6548   0.1883 -30.00    1.0
2173 182057.000   1026004.4642  -5078806.0874   3706983.5775   2   8   0.3016   0.6056   0.5662  -0.2341  -0.4662   0.1322 -29.00    1.0
2173 182058.000   1026004.5130  -5078806.1824   3706983.6397   2   8   0.2469   0.4959   0.4636  -0.1915  -0.3818   0.1080 -28.00    1.0
2173 182059.000   1026004.5174  -5078806.2292   3706983.6363   2   8   0.2143   0.4303   0.4023  -0.1662  -0.3313   0.0937 -27.00    1.0
2173 182060.000   1026004.5025  -5078806.2230   3706983.6115   2   8   0.1919   0.3853   0.3603  -0.1489  -0.2967   0.0840 -26.00    1.0
2173 182061.000   1026004.4778  -5078806.2145   3706983.5685   2   8   0.1754   0.3521   0.3292  -0.1361  -0.2711   0.0768 -25.00    1.0
2173 182062.000   1026004.4677  -5078806.2513   3706983.5875   2   8   0.1625   0.3262   0.3050  -0.1261  -0.2512   0.0712 -24.00    1.0
2173 182063.000   1026004.4888  -5078806.2890   3706983.6085   2   8   0.1521   0.3053   0.2855  -0.1180  -0.2351   0.0666 -23.00    1.0
2173 182064.000   1026004.5173  -5078806.2819   3706983.6303   2   8   0.1435   0.2880   0.2692  -0.1114  -0.2217   0.0628 -22.00    1.1
2173 182065.000   1026004.5262  -5078806.2766   3706983.6449   2   8   0.1362   0.2733   0.2555  -0.1057  -0.2104   0.0596 -21.00    1.1
2173 182066.000   1026004.5234  -5078806.2711   3706983.6469   2   8   0.1299   0.2606   0.2436  -0.1008  -0.2006   0.0568 -20.00    1.2
2173 182067.000   1026004.5274  -5078806.2910   3706983.6526   2   8   0.1243   0.2495   0.2332  -0.0965  -0.1921   0.0544 -19.00    1.2
2173 182068.000   1026004.5196  -5078806.2934   3706983.6578   2   8   0.1195   0.2397   0.2241  -0.0927  -0.1845   0.0522 -18.00    1.3
2173 182069.000   1026004.5159  -5078806.2917   3706983.6361   2   8   0.1151   0.2310   0.2158  -0.0893  -0.1778   0.0502 -17.00    1.4
2173 182070.000   1026004.5066  -5078806.2799   3706983.6195   2   8   0.1112   0.2231   0.2085  -0.0862  -0.1717   0.0484 -16.00    1.5
2173 182071.000   1026004.4978  -5078806.2799   3706983.6217   2   8   0.1076   0.2160   0.2017  -0.0835  -0.1662   0.0468 -15.00    1.5
2173 182072.000   1026004.5002  -5078806.2838   3706983.6267   2   8   0.1044   0.2095   0.1956  -0.0809  -0.1611   0.0453 -14.00    1.6
2173 182073.000   1026004.5065  -5078806.2908   3706983.6341   2   8   0.1014   0.2035   0.1900  -0.0786  -0.1565   0.0439 -13.00    1.7
2173 182074.000   1026004.5066  -5078806.2851   3706983.6320   2   8   0.0987   0.1980   0.1848  -0.0764  -0.1522   0.0426 -12.00    1.8
2173 182075.000   1026004.5089  -5078806.2695   3706983.6164   2   8   0.0961   0.1929   0.1800  -0.0745  -0.1483   0.0414 -11.00    1.9
2173 182076.000   1026004.5048  -5078806.2720   3706983.6301   2   8   0.0938   0.1882   0.1755  -0.0726  -0.1446   0.0403 -10.00    2.0
2173 182077.000   1026004.5012  -5078806.2633   3706983.6223   2   8   0.0916   0.1837   0.1714  -0.0709  -0.1412   0.0393  -9.00    2.1
2173 182078.000   1026004.4973  -5078806.2618   3706983.6135   2   8   0.0895   0.1796   0.1675  -0.0693  -0.1380   0.0383  -8.00    2.3
2173 182079.000   1026004.4948  -5078806.2610   3706983.6143   2   8   0.0876   0.1757   0.1638  -0.0677  -0.1349   0.0374  -7.00    2.5
2173 182080.000   1026004.4927  -5078806.2475   3706983.6056   2   8   0.0858   0.1721   0.1603  -0.0663  -0.1321   0.0365  -6.00    2.8
2173 182081.000   1026004.3812  -5078806.0664   3706983.2545   1   8   0.0060   0.0113   0.0109  -0.0051  -0.0089   0.0040  -5.00    3.3
2173 182082.000   1026004.3810  -5078806.0664   3706983.2541   1   8   0.0056   0.0105   0.0100  -0.0045  -0.0082   0.0035  -4.00    3.8
2173 182083.000   1026004.3805  -5078806.0626   3706983.2501   1   8   0.0050   0.0097   0.0092  -0.0039  -0.0076   0.0029  -3.00    4.6
2173 182084.000   1026004.3832  -5078806.0655   3706983.2525   1   8   0.0047   0.0092   0.0086  -0.0037  -0.0070   0.0022  -2.00    5.5
2173 182085.000   1026004.3832  -5078806.0667   3706983.2508   1   8   0.0043   0.0087   0.0082  -0.0032  -0.0067   0.0019  -1.00    6.5
2173 182086.000   1026004.3818  -5078806.0646   3706983.2471   1   8   0.0047   0.0087   0.0081  -0.0031  -0.0065   0.0020   0.00    7.3
2173 182087.000   1026004.3802  -5078806.0600   3706983.2441   1   8   0.0047   0.0085   0.0080  -0.0035  -0.0067   0.0017   0.00    7.9
2173 182088.000   1026004.3811  -5078806.0623   3706983.2458   1   8   0.0041   0.0085   0.0081  -0.0031  -0.0066   0.0023   0.00    8.6
2173 182089.000   1026004.3799  -5078806.0592   3706983.2398   1   8   0.0036   0.0084   0.0081  -0.0033  -0.0068   0.0020   0.00    9.3
2173 182090.000   1026004.3799  -5078806.0621   3706983.2446   1   8   0.0037   0.0086   0.0081  -0.0034  -0.0067   0.0011   0.00    9.9
2173 182091.000   1026004.3802  -5078806.0606   3706983.2423   1   8   0.0045   0.0086   0.0080  -0.0029  -0.0065   0.0019   0.00   10.6
2173 182092.000   1026004.3808  -5078806.0609   3706983.2429   1   8   0.0040   0.0086   0.0080  -0.0033  -0.0067   0.0015   0.00   11.0
2173 182093.000   1026004.3798  -5078806.0622   3706983.2430   1   8   0.0041   0.0086   0.0080  -0.0029  -0.0066   0.0020   0.00   11.6
2173 182094.000   1026004.3792  -5078806.0611   3706983.2459   1   8   0.0044   0.0086   0.0081  -0.0036  -0.0067   0.0015   0.00   12.0
2173 182095.000   1026004.3791  -5078806.0596   3706983.2425   1   8   0.0037   0.0087   0.0080  -0.0033  -0.0065   0.0016   0.00   12.3
2173 182096.000   1026004.3802  -5078806.0604   3706983.2491   1   8   0.0038   0.0086   0.0081  -0.0032  -0.0066   0.0018   0.00   12.8
2173 182097.000   1026004.3805  -5078806.0649   3706983.2495   1   8   0.0044   0.0086   0.0080  -0.0029  -0.0066   0.0017   0.00   13.2
2173 182098.000   1026004.3799  -5078806.0620   3706983.2475   1   8   0.0049   0.0086   0.0081  -0.0034  -0.0067   0.0021   0.00   13.5
2173 182099.000   1026004.3809  -5078806.0631   3706983.2456   1   8   0.0045   0.0085   0.0080  -0.0036  -0.0067   0.0017   0.00   13.8
2173 182100.000   1026004.3821  -5078806.0645   3706983.2462   1   8   0.0046   0.0086   0.0080  -0.0036  -0.0066   0.0019   0.00   14.0
2173 182101.000   1026004.3802  -5078806.0667   3706983.2486   1   8   0.0038   0.0086   0.0081  -0.0032  -0.0067   0.0017   0.00   14.2
2173 182102.000   1026004.3801  -5078806.0642   3706983.2453   1   8   0.0045   0.0086   0.0080  -0.0036  -0.0065   0.0018   0.00   14.4
2173 182103.000   1026004.3796  -5078806.0633   3706983.2504   1   8   0.0044   0.0085   0.0081  -0.0036  -0.0067   0.0021   0.00   14.8
2173 182104.000   1026004.3804  -5078806.0636   3706983.2474   1   8   0.0047   0.0086   0.0080  -0.0032  -0.0067   0.0019   0.00   14.9
2173 182105.000   1026004.3803  -5078806.0640   3706983.2473   1   8   0.0044   0.0086   0.0081  -0.0033  -0.0066   0.0016   0.00   14.9
2173 182106.000   1026004.3818  -5078806.0643   3706983.2471   1   8   0.0044   0.0085   0.0080  -0.0035  -0.0068   0.0020   0.00   15.0
2173 182107.000   1026004.3799  -5078806.0616   3706983.2479   1   8   0.0045   0.0087   0.0080  -0.0033  -0.0067   0.0018   0.00   14.9
2173 182108.000   1026004.3800  -5078806.0640   3706983.2473   1   8   0.0040   0.0085   0.0080  -0.0030  -0.0066   0.0018   0.00   15.0
2173 182109.000   1026004.3789  -5078806.0646   3706983.2489   1   8   0.0040   0.0086   0.0081  -0.0027  -0.0065   0.0023   0.00   15.0
2173 182110.000   1026004.3792  -5078806.0633   3706983.2503   1   8   0.0046   0.0086   0.0081  -0.0032  -0.0067   0.0019   0.00   15.0
2173 182111.000   1026004.3809  -5078806.0653   3706983.2491   1   8   0.0046   0.0085   0.0079  -0.0034  -0.0067   0.0021   0.00   15.3
2173 182112.000   1026004.3795  -5078806.0666   3706983.2506   1   8   0.0047   0.0088   0.0080  -0.0033  -0.0066   0.0017   0.00   15.3
2173 182113.000   1026004.3782  -5078806.0644   3706983.2493   1   8   0.0042   0.0086   0.0079  -0.0028  -0.0064   0.0013   0.00   15.4
2173 182114.000   1026004.3778  -5078806.0664   3706983.2496   1   8   0.0042   0.0086   0.0080  -0.0033  -0.0065   0.0017   0.00   15.3
2173 182115.000   1026004.3786  -5078806.0636   3706983.2482   1   8   0.0034   0.0087   0.0081  -0.0031  -0.0066   0.0012   0.00   15.4
2173 182116.000   1026004.3790  -5078806.0638   3706983.2469   1   8   0.0045   0.0086   0.0081  -0.0034  -0.0066   0.0016   0.00   15.5
2173 182117.000   1026004.3801  -5078806.0651   3706983.2475   1   8   0.0045   0.0086   0.0081  -0.0033  -0.0067   0.0019   0.00   15.6
2173 182118.000   1026004.3786  -5078806.0642   3706983.2481   1   8   0.0046   0.0087   0.0081  -0.0032  -0.0065   0.0019   0.00   15.6
2173 182119.000   1026004.3789  -5078806.0631   3706983.2483   1   8   0.0043   0.0087   0.0080  -0.0034  -0.0065   0.0020   0.00   15.8
2173 182120.000   1026004.3785  -5078806.0650   3706983.2507   1   8   0.0048   0.0086   0.0081  -0.0036  -0.0068   0.0015   0.00   15.9
2173 182121.000   1026004.3771  -5078806.0646   3706983.2485   1   8   0.0040   0.0085   0.0080  -0.0032  -0.0066   0.0015   0.00   16.0
2173 182122.000   1026004.3786  -5078806.0669   3706983.2497   1   8   0.0040   0.0086   0.0081  -0.0030  -0.0065   0.0022   0.00   16.1
2173 182123.000   1026004.3769  -5078806.0676   3706983.2514   1   8   0.0040   0.0087   0.0081  -0.0033  -0.0065   0.0015   0.00   16.0
2173 182124.000   1026004.3781  -5078806.0654   3706983.2507   1   8   0.0045   0.0086   0.0081  -0.0035  -0.0068   0.0016   0.00   16.0
2173 182125.000   1026004.3792  -5078806.0677   3706983.2497   1   8   0.0040   0.0086   0.0081  -0.0035  -0.0066   0.0016   0.00   16.0
2173 182126.000   1026004.3781  -5078806.0707   3706983.2518   1   8   0.0048   0.0086   0.0080  -0.0033  -0.0067   0.0021   0.00   15.9
2173 182127.000   1026004.3762  -5078806.0670   3706983.2512   1   8   0.0046   0.0086   0.0079  -0.0034  -0.0067   0.0013   0.00   15.8
2173 182128.000   1026004.3762  -5078806.0701   3706983.2530   1   8   0.0045   0.0086   0.0081  -0.0030  -0.0066   0.0018   0.00   15.8
2173 182129.000   1026004.3769  -5078806.0641   3706983.2505   1   8   0.0044   0.0086   0.0080  -0.0033  -0.0066   0.0017   0.00   15.8
2173 182130.000   1026004.3766  -5078806.0653   3706983.2500   1   8   0.0044   0.0086   0.0081  -0.0033  -0.0066   0.0015   0.00   15.7
2173 182131.000   1026004.3782  -5078806.0689   3706983.2534   1   8   0.0048   0.0085   0.0081  -0.0034  -0.0067   0.0017   0.00   15.8
2173 182132.000   1026004.3766  -5078806.0648   3706983.2486   1   8   0.0045   0.0087   0.0080  -0.0032  -0.0066   0.0017   0.00   15.7
2173 182133.000   1026004.3775  -5078806.0677   3706983.2489   1   8   0.0048   0.0086   0.0079  -0.0034  -0.0066   0.0017   0.00   15.7
2173 182134.000   1026004.3772  -5078806.0694   3706983.2551   1   8   0.0031   0.0085   0.0081  -0.0034  -0.0068   0.0007   0.00   15.7
2173 182135.000   1026004.3749  -5078806.0652   3706983.2516   1   8   0.0048   0.0086   0.0080  -0.0033  -0.0066   0.0020   0.00   15.7
2173 182136.000   1026004.3763  -5078806.0664   3706983.2540   1   8   0.0036   0.0087   0.0080  -0.0033  -0.0066   0.0012   0.00   15.6
2173 182137.000   1026004.3747  -5078806.0674   3706983.2521   1   8   0.0042   0.0086   0.0080  -0.0031  -0.0066   0.0018   0.00   15.7
2173 182138.000   1026004.3761  -5078806.0683   3706983.2532   1   8   0.0039   0.0086   0.0082  -0.0032  -0.0067   0.0015   0.00   15.7
2173 182139.000   1026004.3771  -5078806.0682   3706983.2545   1   8   0.0044   0.0087   0.0081  -0.0036  -0.0067   0.0016   0.00   15.5
2173 182140.000   1026004.3780  -5078806.0700   3706983.2556   1   8   0.0042   0.0086   0.0081  -0.0034  -0.0067   0.0013   0.00   15.4
2173 182141.000   1026004.3770  -5078806.0703   3706983.2541   1   8   0.0041   0.0086   0.0081  -0.0032  -0.0066   0.0019   0.00   15.3
2173 182142.000   1026004.3784  -5078806.0704   3706983.2551   1   8   0.0043   0.0087   0.0081  -0.0032  -0.0067   0.0015   0.00   15.2
2173 182143.000   1026004.3775  -5078806.0696   3706983.2554   1   8   0.0046   0.0086   0.0081  -0.0031  -0.0067   0.0021   0.00   15.1
2173 182144.000   1026004.3779  -5078806.0657   3706983.2513   1   8   0.0041   0.0086   0.0080  -0.0034  -0.0067   0.0014   0.00   15.0
2173 182145.000   1026004.3781  -5078806.0672   3706983.2514   1   8   0.0045   0.0085   0.0082  -0.0033  -0.0068   0.0021   0.00   15.0
2173 182146.000   1026004.3789  -5078806.0665   3706983.2498   1   8   0.0042   0.0086   0.0080  -0.0032  -0.0067   0.0011   0.00   14.9
2173 182147.000   1026004.3803  -5078806.0659   3706983.2500   1   8   0.0048   0.0086   0.0080  -0.0034  -0.0065   0.0016   0.00   14.9
2173 182148.000   1026004.3792  -5078806.0692   3706983.2530   1   8   0.0041   0.0085   0.0081  -0.0034  -0.0066   0.0017   0.00   14.8
2173 182149.000   1026004.3794  -5078806.0646   3706983.2463   1   8   0.0044   0.0086   0.0080  -0.0034  -0.0066   0.0011   0.00   14.7
2173 182150.000   1026004.3797  -5078806.0660   3706983.2495   1   8   0.0050   0.0086   0.0081  -0.0036  -0.0065   0.0018   0.00   14.6
2173 182151.000   1026004.3794  -5078806.0668   3706983.2482   1   8   0.0044   0.0084   0.0081  -0.0033  -0.0067   0.0018   0.00   14.5
2173 182152.000   1026004.3792  -5078806.0666   3706983.2462   1   8   0.0044   0.0086   0.0080  -0.0031  -0.0066   0.0017   0.00   14.3
2173 182153.000   1026004.3795  -5078806.0652   3706983.2473   1   8   0.0045   0.0087   0.0081  -0.0034  -0.0066   0.0018   0.00   14.2
2173 182154.000   1026004.3792  -5078806.0667   3706983.2504   1   8   0.0040   0.0086   0.0081  -0.0033  -0.0068   0.0012   0.00   14.1
2173 182155.000   1026004.3796  -5078806.0665   3706983.2480   1   8   0.0047   0.0085   0.0080  -0.0032  -0.0067   0.0018   0.00   14.0
2173 182156.000   1026004.3796  -5078806.0695   3706983.2496   1   8   0.0043   0.0086   0.0081  -0.0032  -0.0066   0.0014   0.00   13.8
2173 182157.000   1026004.3789  -5078806.0647   3706983.2448   1   8   0.0045   0.0087   0.0081  -0.0034  -0.0066   0.0014   0.00   13.6
2173 182158.000   1026004.3780  -5078806.0655   3706983.2465   1   8   0.0039   0.0086   0.0080  -0.0031  -0.0066   0.0008   0.00   13.5
2173 182159.000   1026004.3786  -5078806.0641   3706983.2462   1   8   0.0043   0.0085   0.0080  -0.0033  -0.0065   0.0017   0.00   13.4
2173 182160.000   1026004.3775  -5078806.0639   3706983.2452   1   8   0.0038   0.0086   0.0081  -0.0033  -0.0066   0.0012   0.00   13.3
2173 182161.000   1026004.3809  -5078806.0707   3706983.2471   1   8   0.0037   0.0086   0.0080  -0.0032  -0.0066   0.0013   0.00   13.2
2173 182162.000   1026004.3795  -5078806.0640   3706983.2465   1   8   0.0048   0.0085   0.0080  -0.0035  -0.0067   0.0016   0.00   13.1
2173 182163.000   1026004.3794  -5078806.0636   3706983.2437   1   8   0.0044   0.0087   0.0081  -0.0034  -0.0066   0.0017   0.00   12.9
2173 182164.000   1026004.3797  -5078806.0663   3706983.2480   1   8   0.0050   0.0086   0.0081  -0.0030  -0.0067   0.0021   0.00   12.7
2173 182165.000   1026004.3799  -5078806.0686   3706983.2470   1   8   0.0046   0.0086   0.0081  -0.0033  -0.0066   0.0018   0.00   12.6
2173 182166.000   1026004.3792  -5078806.0679   3706983.2464   1   8   0.0052   0.0086   0.0081  -0.0033  -0.0066   0.0020   0.00   12.5
2173 182167.000   1026004.3795  -5078806.0656   3706983.2449   1   8   0.0041   0.0084   0.0080  -0.0030  -0.0067   0.0017   0.00   12.3
2173 182168.000   1026004.3789  -5078806.0656   3706983.2440   1   8   0.0049   0.0086   0.0080  -0.0032  -0.0067   0.0019   0.00   12.2
2173 182169.000   1026004.3819  -5078806.0670   3706983.2492   1   8   0.0045   0.0086   0.0081  -0.0031  -0.0065   0.0019   0.00   12.0
2173 182170.000   1026004.3813  -5078806.0684   3706983.2504   1   8   0.0035   0.0087   0.0081  -0.0029  -0.0065   0.0017   0.00   11.8
2173 182171.000   1026004.3817  -5078806.0657   3706983.2492   1   8   0.0044   0.0085   0.0080  -0.0034  -0.0067   0.0017   0.00   11.7
2173 182172.000   1026004.3800  -5078806.0641   3706983.2485   1   8   0.0042   0.0086   0.0081  -0.0032  -0.0067   0.0019   0.00   11.6
2173 182173.000   1026004.3816  -5078806.0665   3706983.2470   1   8   0.0036   0.0086   0.0080  -0.0034  -0.0066   0.0012   0.00   11.5
2173 182174.000   1026004.3812  -5078806.0646   3706983.2434   1   8   0.0037   0.0086   0.0080  -0.0035  -0.0066   0.0015   0.00   11.4
2173 182175.000   1026004.3807  -5078806.0620   3706983.2426   1   8   0.0040   0.0085   0.0081  -0.0035  -0.0066   0.0009   0.00   11.3
2173 182176.000   1026004.3811  -5078806.0669   3706983.2467   1   8   0.0048   0.0085   0.0081  -0.0037  -0.0069   0.0018   0.00   11.2
2173 182177.000   1026004.3825  -5078806.0649   3706983.2443   1   8   0.0038   0.0086   0.0081  -0.0034  -0.0067   0.0017   0.00   11.0
2173 182178.000   1026004.3810  -5078806.0677   3706983.2453   1   8   0.0042   0.0086   0.0081  -0.0032  -0.0066   0.0019   0.00   10.9
2173 182179.000   1026004.3835  -5078806.0700   3706983.2491   1   8   0.0045   0.0086   0.0081  -0.0028  -0.0066   0.0021   0.00   10.9
2173 182180.000   1026004.3805  -5078806.0637   3706983.2469   1   8   0.0034   0.0084   0.0079  -0.0032  -0.0067   0.0011   0.00   10.8
2173 182181.000   1026004.3819  -5078806.0643   3706983.2434   1   8   0.0046   0.0086   0.0080  -0.0034  -0.0067   0.0015   0.00   10.7
2173 182182.000   1026004.3801  -5078806.0617   3706983.2434   1   8   0.0043   0.0085   0.0081  -0.0036  -0.0064   0.0016   0.00   10.6
2173 182183.000   1026004.3797  -5078806.0601   3706983.2443   1   8   0.0044   0.0086   0.0081  -0.0034  -0.0066   0.0017   0.00   10.6
2173 182184.000   1026004.3794  -5078806.0620   3706983.2427   1   8   0.0046   0.0085   0.0080  -0.0031  -0.0065   0.0018   0.00   10.5
2173 182185.000   1026004.3802  -5078806.0629   3706983.2437   1   8   0.0038   0.0085   0.0081  -0.0033  -0.0068   0.0013   0.00   10.5
2173 182186.000   1026004.3827  -5078806.0699   3706983.2489   1   8   0.0044   0.0087   0.0080  -0.0029  -0.0066   0.0018   0.00   10.4
2173 182187.000   1026004.3803  -5078806.0635   3706983.2451   1   8   0.0039   0.0087   0.0081  -0.0032  -0.0064   0.0021   0.00   10.4
2173 182188.000   1026004.3828  -5078806.0641   3706983.2430   1   8   0.0046   0.0086   0.0081  -0.0034  -0.0068   0.0014   0.00   10.4
2173 182189.000   1026004.3831  -5078806.0655   3706983.2444   1   8   0.0043   0.0085   0.0080  -0.0030  -0.0065   0.0019   0.00   10.3
2173 182190.000   1026004.3810  -5078806.0601   3706983.2416   1   8   0.0035   0.0086   0.0080  -0.0031  -0.0066   0.0011   0.00   10.2
2173 182191.000   1026004.3821  -5078806.0627   3706983.2441   1   8   0.0043   0.0085   0.0081  -0.0031  -0.0066   0.0017   0.00   10.2
2173 182192.000   1026004.3820  -5078806.0652   3706983.2457   1   8   0.0041   0.0086   0.0081  -0.0035  -0.0067   0.0018   0.00   10.1
2173 182193.000   1026004.3824  -5078806.0609   3706983.2401   1   8   0.0038   0.0086   0.0081  -0.0031  -0.0064   0.0013   0.00   10.1
2173 182194.000   1026004.3836  -5078806.0646   3706983.2459   1   8   0.0043   0.0086   0.0081  -0.0032  -0.0067   0.0012   0.00   10.1
2173 182195.000   1026004.3827  -5078806.0667   3706983.2485   1   8   0.0047   0.0087   0.0081  -0.0033  -0.0066   0.0015   0.00   10.0
2173 182196.000   1026004.3819  -5078806.0643   3706983.2485   1   8   0.0040   0.0085   0.0080  -0.0029  -0.0067   0.0015   0.00    9.9
2173 182197.000   1026004.3809  -5078806.0661   3706983.2484   1   8   0.0048   0.0085   0.0081  -0.0030  -0.0067   0.0019   0.00    9.9
2173 182198.000   1026004.3813  -5078806.0616   3706983.2443   1   8   0.0044   0.0086   0.0081  -0.0035  -0.0067   0.0015   0.00    9.8
2173 182199.000   1026004.3829  -5078806.0626   3706983.2402   1   8   0.0044   0.0086   0.0081  -0.0031  -0.0065   0.0020   0.00    9.8
2173 182200.000   1026004.3799  -5078806.0634   3706983.2418   1   8   0.0044   0.0087   0.0081  -0.0033  -0.0066   0.0016   0.00    9.7
2173 182201.000   1026004.3808  -5078806.0601   3706983.2406   1   8   0.0043   0.0087   0.0082  -0.0031  -0.0065   0.0023   0.00    9.7
2173 182202.000   1026004.3821  -5078806.0651   3706983.2421   1   8   0.0044   0.0085   0.0080  -0.0030  -0.0065   0.0021   0.00    9.7
2173 182203.000   1026004.3813  -5078806.0598   3706983.2374   1   8   0.0043   0.0086   0.0081  -0.0031  -0.0066   0.0023   0.00    9.7
2173 182204.000   1026004.3832  -5078806.0651   3706983.2437   1   8   0.0048   0.0086   0.0081  -0.0033  -0.0067   0.0019   0.00    9.7
2173 182205.000   1026004.3807  -5078806.0616   3706983.2420   1   8   0.0044   0.0085   0.0081  -0.0034  -0.0066   0.0018   0.00    9.6
2173 182206.000   1026004.3813  -5078806.0597   3706983.2392   1   8   0.0040   0.0086   0.0081  -0.0033  -0.0065   0.0017   0.00    9.6
2173 182207.000   1026004.3808  -5078806.0640   3706983.2438   1   8   0.0045   0.0086   0.0081  -0.0036  -0.0066   0.0017   0.00    9.6
2173 182208.000   1026004.3813  -5078806.0645   3706983.2428   1   8   0.0042   0.0086   0.0080  -0.0035  -0.0064   0.0018   0.00    9.5
2173 182209.000   1026004.3806  -5078806.0622   3706983.2428   1   8   0.0038   0.0085   0.0081  -0.0030  -0.0067   0.0019   0.00    9.6
2173 182210.000   1026004.3789  -5078806.0607   3706983.2431   1   8   0.0047   0.0085   0.0081  -0.0034  -0.0066   0.0018   0.00    9.5
2173 182211.000   1026004.3784  -5078806.0551   3706983.2387   1   8   0.0044   0.0086   0.0081  -0.0031  -0.0065   0.0018   0.00    9.5
2173 182212.000   1026004.3810  -5078806.0625   3706983.2430   1   8   0.0047   0.0085   0.0081  -0.0031  -0.0066   0.0023   0.00    9.5
2173 182213.000   1026004.3789  -5078806.0598   3706983.2425   1   8   0.0041   0.0087   0.0081  -0.0033  -0.0065   0.0015   0.00    9.5
2173 182214.000   1026004.3817  -5078806.0587   3706983.2395   1   8   0.0049   0.0086   0.0082  -0.0031  -0.0067   0.0019   0.00    9.5
2173 182215.000   1026004.3811  -5078806.0599   3706983.2400   1   8   0.0039   0.0086   0.0080  -0.0031  -0.0065   0.0013   0.00    9.4
2173 182216.000   1026004.3823  -5078806.0607   3706983.2440   1   8   0.0045   0.0086   0.0080  -0.0032  -0.0066   0.0016   0.00    9.4
2173 182217.000   1026004.3835  -5078806.0610   3706983.2411   1   8   0.0037   0.0086   0.0081  -0.0030  -0.0066   0.0014   0.00    9.4
2173 182218.000   1026004.3822  -5078806.0594   3706983.2422   1   8   0.0035   0.0085   0.0080  -0.0032  -0.0067   0.0010   0.00    9.3
2173 182219.000   1026004.3819  -5078806.0604   3706983.2386   1   8   0.0044   0.0086   0.0081  -0.0031  -0.0064   0.0019   0.00    9.3
2173 182220.000   1026004.3817  -5078806.0606   3706983.2402   1   8   0.0043   0.0086   0.0082  -0.0034  -0.0068   0.0017   0.00    9.3
2173 182221.000   1026004.3811  -5078806.0618   3706983.2440   1   8   0.0039   0.0085   0.0081  -0.0033  -0.0067   0.0017   0.00    9.2
2173 182222.000   1026004.3837  -5078806.0651   3706983.2428   1   8   0.0042   0.0086   0.0081  -0.0032  -0.0066   0.0014   0.00    9.2
2173 182223.000   1026004.3816  -5078806.0620   3706983.2410   1   8   0.0040   0.0086   0.0082  -0.0034  -0.0067   0.0016   0.00    9.2
2173 182224.000   1026004.3796  -5078806.0604   3706983.2453   1   8   0.0043   0.0086   0.0081  -0.0034  -0.0066   0.0014   0.00    9.2
2173 182225.000   1026004.3817  -5078806.0600   3706983.2446   1   8   0.0043   0.0087   0.0081  -0.0033  -0.0066   0.0015   0.00    9.1
2173 182226.000   1026004.3808  -5078806.0622   3706983.2489   1   8   0.0047   0.0086   0.0081  -0.0031  -0.0066   0.0016   0.00    9.1
2173 182227.000   1026004.3830  -5078806.0621   3706983.2462   1   8   0.0046   0.0087   0.0080  -0.0033  -0.0065   0.0009   0.00    9.1
2173 182228.000   1026004.3802  -5078806.0607   3706983.2430   1   8   0.0043   0.0087   0.0081  -0.0030  -0.0066   0.0008   0.00    9.0
2173 182229.000   1026004.3813  -5078806.0647   3706983.2463   1   8   0.0049   0.0086   0.0081  -0.0036  -0.0067   0.0017   0.00    9.0
2173 182230.000   1026004.3824  -5078806.0652   3706983.2472   1   8   0.0048   0.0086   0.0082  -0.0036  -0.0068   0.0023   0.00    9.0
2173 182231.000   1026004.3823  -5078806.0659   3706983.2461   1   8   0.0045   0.0085   0.0081  -0.0032  -0.0065   0.0018   0.00    9.0
2173 182232.000   1026004.3816  -5078806.0661   3706983.2484   1   8   0.0043   0.0086   0.0080  -0.0031  -0.0066   0.0017   0.00    9.0
2173 182233.000   1026004.3829  -5078806.0653   3706983.2469   1   8   0.0051   0.0086   0.0081  -0.0033  -0.0066   0.0015   0.00    9.0
2173 182234.000   1026004.3833  -5078806.0692   3706983.2475   1   8   0.0042   0.0085   0.0081  -0.0031  -0.0066   0.0012   0.00    9.0
2173 182235.000   1026004.3813  -5078806.0649   3706983.2485   1   8   0.0042   0.0086   0.0080  -0.0035  -0.0066   0.0011   0.00    9.1
2173 182236.000   1026004.3815  -5078806.0667   3706983.2486   1   8   0.0047   0.0086   0.0081  -0.0037  -0.0066   0.0019   0.00    9.1
2173 182237.000   1026004.3806  -5078806.0632   3706983.2480   1   8   0.0045   0.0087   0.0079  -0.0032  -0.0066   0.0010   0.00    9.1
2173 182238.000   1026004.3815  -5078806.0610   3706983.2443   1   8   0.0046   0.0086   0.0081  -0.0032  -0.0065   0.0015   0.00    9.1
2173 182239.000   1026004.3811  -5078806.0686   3706983.2503   1   8   0.0044   0.0086   0.0081  -0.0027  -0.0065   0.0020   0.00    9.1
2173 182240.000   1026004.3795  -5078806.0636   3706983.2485   1   8   0.0045   0.0086   0.0081  -0.0031  -0.0066   0.0012   0.00    9.1
2173 182241.000   1026004.3802  -5078806.0627   3706983.2484   1   8   0.0046   0.0086   0.0082  -0.0033  -0.0068   0.0017   0.00    9.1
2173 182242.000   1026004.3809  -5078806.0641   3706983.2480   1   8   0.0049   0.0085   0.0081  -0.0034  -0.0067   0.0013   0.00    9.1
2173 182243.000   1026004.3785  -5078806.0606   3706983.2469   1   8   0.0043   0.0085   0.0080  -0.0031  -0.0066   0.0018   0.00    9.1
2173 182244.000   1026004.3810  -5078806.0658   3706983.2493   1   8   0.0042   0.0085   0.0082  -0.0035  -0.0067   0.0019   0.00    9.1
2173 182245.000   1026004.3820  -5078806.0645   3706983.2468   1   8   0.0045   0.0086   0.0080  -0.0032  -0.0066   0.0018   0.00    9.1
2173 182246.000   1026004.3826  -5078806.0653   3706983.2480   1   8   0.0042   0.0084   0.0081  -0.0032  -0.0067   0.0017   0.00    9.1
2173 182247.000   1026004.3828  -5078806.0631   3706983.2456   1   8   0.0043   0.0084   0.0081  -0.0033  -0.0067   0.0014   0.00    9.1
2173 182248.000   1026004.3812  -5078806.0628   3706983.2432   1   8   0.0045   0.0086   0.0081  -0.0034  -0.0066   0.0021   0.00    9.1
2173 182249.000   1026004.3804  -5078806.0610   3706983.2436   1   8   0.0045   0.0086   0.0081  -0.0035  -0.0067   0.0020   0.00    9.1
2173 182250.000   1026004.3813  -5078806.0599   3706983.2429   1   8   0.0043   0.0085   0.0080  -0.0033  -0.0065   0.0009   0.00    9.1
2173 182251.000   1026004.3791  -5078806.0600   3706983.2442   1   8   0.0041   0.0084   0.0081  -0.0031  -0.0067   0.0021   0.00    9.0
2173 182252.000   1026004.3788  -5078806.0597   3706983.2443   1   8   0.0043   0.0086   0.0081  -0.0033  -0.0067   0.0014   0.00    9.0
2173 182253.000   1026004.3814  -5078806.0633   3706983.2460   1   8   0.0043   0.0086   0.0080  -0.0033  -0.0065   0.0013   0.00    9.0
2173 182254.000   1026004.3797  -5078806.0629   3706983.2449   1   8   0.0043   0.0087   0.0081  -0.0033  -0.0066   0.0015   0.00    9.0
2173 182255.000   1026004.3807  -5078806.0657   3706983.2465   1   8   0.0046   0.0086   0.0080  -0.0029  -0.0065   0.0012   0.00    9.0
2173 182256.000   1026004.3817  -5078806.0652   3706983.2448   1   8   0.0045   0.0085   0.0080  -0.0032  -0.0066   0.0014   0.00    9.1
2173 182257.000   1026004.3809  -5078806.0669   3706983.2475   1   8   0.0034   0.0085   0.0081  -0.0031  -0.0067   0.0011   0.00    9.1
2173 182258.000   1026004.3812  -5078806.0637   3706983.2458   1   8   0.0043   0.0086   0.0081  -0.0031  -0.0066   0.0017   0.00    9.1
2173 182259.000   1026004.3810  -5078806.0615   3706983.2464   1   8   0.0043   0.0086   0.0082  -0.0030  -0.0067   0.0020   0.00    9.1
2173 182260.000   1026004.3808  -5078806.0643   3706983.2479   1   8   0.0045   0.0086   0.0082  -0.0027  -0.0066   0.0018   0.00    9.1
2173 182261.000   1026004.3808  -5078806.0651   3706983.2472   1   8   0.0044   0.0086   0.0081  -0.0036  -0.0066   0.0006   0.00    9.1
2173 182262.000   1026004.3820  -5078806.0645   3706983.2467   1   8   0.0041   0.0085   0.0081  -0.0036  -0.0068   0.0014   0.00    9.1
2173 182263.000   1026004.3788  -5078806.0636   3706983.2489   1   8   0.0036   0.0084   0.0081  -0.0034  -0.0067   0.0015   0.00    9.1
2173 182264.000   1026004.3823  -5078806.0627   3706983.2450   1   8   0.0040   0.0086   0.0080  -0.0033  -0.0065   0.0012   0.00    9.1
2173 182265.000   1026004.3829  -5078806.0642   3706983.2456   1   8   0.0040   0.0086   0.0081  -0.0033  -0.0066   0.0014   0.00    9.2
2173 182266.000   1026004.3819  -5078806.0646   3706983.2462   1   8   0.0044   0.0087   0.0082  -0.0032  -0.0066   0.0015   0.00    9.2
2173 182267.000   1026004.3806  -5078806.0642   3706983.2449   1   8   0.0038   0.0086   0.0080  -0.0032  -0.0066  -0.0004   0.00    9.2
2173 182268.000   1026004.3824  -5078806.0623   3706983.2444   1   8   0.0048   0.0086   0.0081  -0.0032  -0.0066   0.0018   0.00    9.2
2173 182269.000   1026004.3834  -5078806.0641   3706983.2459   1   8   0.0041   0.0086   0.0081  -0.0029  -0.0065   0.0017   0.00    9.2
2173 182270.000   1026004.3820  -5078806.0660   3706983.2423   1   8   0.0045   0.0087   0.0082  -0.0029  -0.0065   0.0018   0.00    9.3
2173 182271.000   1026004.3813  -5078806.0649   3706983.2415   1   8   0.0041   0.0085   0.0081  -0.0031  -0.0067   0.0016   0.00    9.3
2173 182272.000   1026004.3820  -5078806.0634   3706983.2433   1   8   0.0046   0.0087   0.0081  -0.0033  -0.0066   0.0012   0.00    9.3
2173 182273.000   1026004.3831  -5078806.0662   3706983.2477   1   8   0.0047   0.0086   0.0081  -0.0036  -0.0067   0.0013   0.00    9.3
2173 182274.000   1026004.3822  -5078806.0645   3706983.2440   1   8   0.0043   0.0085   0.0081  -0.0035  -0.0065   0.0017   0.00    9.4
2173 182275.000   1026004.3843  -5078806.0673   3706983.2465   1   8   0.0042   0.0086   0.0080  -0.0028  -0.0066   0.0016   0.00    9.4
2173 182276.000   1026004.3833  -5078806.0681   3706983.2471   1   8   0.0046   0.0085   0.0081  -0.0032  -0.0066   0.0015   0.00    9.4
2173 182277.000   1026004.3836  -5078806.0637   3706983.2418   1   8   0.0048   0.0086   0.0081  -0.0033  -0.0066   0.0017   0.00    9.4
2173 182278.000   1026004.3841  -5078806.0663   3706983.2477   1   8   0.0048   0.0085   0.0081  -0.0037  -0.0069   0.0005   0.00    9.5
2173 182279.000   1026004.3837  -5078806.0611   3706983.2419   1   8   0.0043   0.0086   0.0080  -0.0032  -0.0067   0.0017   0.00    9.5
2173 182280.000   1026004.3856  -5078806.0621   3706983.2415   1   8   0.0038   0.0086   0.0080  -0.0032  -0.0065   0.0008   0.00    9.5
2173 182281.000   1026004.3855  -5078806.0653   3706983.2413   1   8   0.0042   0.0086   0.0082  -0.0032  -0.0066   0.0016   0.00    9.6
2173 182282.000   1026004.3833  -5078806.0627   3706983.2431   1   8   0.0045   0.0086   0.0081  -0.0030  -0.0065   0.0014   0.00    9.6
2173 182283.000   1026004.3841  -5078806.0621   3706983.2413   1   8   0.0046   0.0086   0.0082  -0.0030  -0.0066   0.0019   0.00    9.7
2173 182284.000   1026004.3831  -5078806.0615   3706983.2407   1   8   0.0048   0.0087   0.0082  -0.0031  -0.0066   0.0016   0.00    9.7
2173 182285.000   1026004.3852  -5078806.0623   3706983.2390   1   8   0.0043   0.0085   0.0081  -0.0032  -0.0066   0.0014   0.00    9.8
2173 182286.000   1026004.3836  -5078806.0637   3706983.2439   1   8   0.0039   0.0084   0.0081  -0.0030  -0.0068   0.0016   0.00    9.8
2173 182287.000   1026004.3849  -5078806.0641   3706983.2440   1   8   0.0048   0.0086   0.0082  -0.0033  -0.0066   0.0019   0.00    9.9
2173 182288.000   1026004.3834  -5078806.0605   3706983.2416   1   8   0.0050   0.0086   0.0082  -0.0034  -0.0065   0.0019   0.00    9.9
2173 182289.000   1026004.3864  -5078806.0624   3706983.2385   1   8   0.0043   0.0086   0.0082  -0.0032  -0.0065   0.0015   0.00   10.0
2173 182290.000   1026004.3858  -5078806.0637   3706983.2402   1   8   0.0038   0.0085   0.0081  -0.0032  -0.0067   0.0015   0.00   10.0
2173 182291.000   1026004.3855  -5078806.0644   3706983.2433   1   8   0.0030   0.0086   0.0081  -0.0031  -0.0066   0.0008   0.00   10.1
2173 182292.000   1026004.3868  -5078806.0641   3706983.2393   1   8   0.0042   0.0086   0.0082  -0.0030  -0.0067   0.0021   0.00   10.1
2173 182293.000   1026004.3857  -5078806.0643   3706983.2426   1   8   0.0044   0.0085   0.0081  -0.0033  -0.0066   0.0012   0.00   10.2
2173 182294.000   1026004.3861  -5078806.0663   3706983.2425   1   8   0.0038   0.0085   0.0081  -0.0032  -0.0066   0.0017   0.00   10.2
2173 182295.000   1026004.3866  -5078806.0656   3706983.2400   1   8   0.0048   0.0086   0.0081  -0.0031  -0.0067   0.0014   0.00   10.2
2173 182296.000   1026004.3880  -5078806.0676   3706983.2412   1   8   0.0043   0.0086   0.0080  -0.0034  -0.0067   0.0012   0.00   10.3
2173 182297.000   1026004.3868  -5078806.0673   3706983.2392   1   8   0.0046   0.0086   0.0082  -0.0032  -0.0067   0.0018   0.00   10.3
2173 182298.000   1026004.3871  -5078806.0664   3706983.2408   1   8   0.0039   0.0086   0.0081  -0.0032  -0.0065   0.0011   0.00   10.4
2173 182299.000   1026004.3838  -5078806.0632   3706983.2399   1   8   0.0038   0.0085   0.0080  -0.0028  -0.0066   0.0014   0.00   10.4
2173 182300.000   1026004.3856  -5078806.0691   3706983.2429   1   8   0.0039   0.0086   0.0081  -0.0030  -0.0066   0.0018   0.00   10.5
2173 182301.000   1026004.3848  -5078806.0649   3706983.2410   1   8   0.0039   0.0085   0.0081  -0.0027  -0.0065   0.0000   0.00   10.5
2173 182302.000   1026004.3871  -5078806.0697   3706983.2438   1   8   0.0043   0.0086   0.0080  -0.0031  -0.0066   0.0011   0.00   10.5
2173 182303.000   1026004.3862  -5078806.0685   3706983.2444   1   8   0.0046   0.0086   0.0080  -0.0031  -0.0067   0.0014   0.00   10.6
2173 182304.000   1026004.3857  -5078806.0637   3706983.2393   1   8   0.0047   0.0086   0.0081  -0.0034  -0.0066   0.0010   0.00   10.7
2173 182305.000   1026004.3849  -5078806.0676   3706983.2422   1   8   0.0043   0.0086   0.0082  -0.0031  -0.0066   0.0018   0.00   10.7
2173 182306.000   1026004.3856  -5078806.0693   3706983.2445   1   8   0.0051   0.0086   0.0081  -0.0032  -0.0067   0.0015   0.00   10.7
2173 182307.000   1026004.3853  -5078806.0665   3706983.2439   1   8   0.0045   0.0087   0.0081  -0.0036  -0.0066   0.0015   0.00   10.8
2173 182308.000   1026004.3854  -5078806.0699   3706983.2442   1   8   0.0051   0.0086   0.0081  -0.0035  -0.0066   0.0016   0.00   10.8
2173 182309.000   1026004.3851  -5078806.0730   3706983.2497   1   8   0.0049   0.0086   0.0081  -0.0033  -0.0066   0.0018   0.00   10.9
2173 182310.000   1026004.3867  -5078806.0724   3706983.2472   1   8   0.0046   0.0086   0.0080  -0.0032  -0.0066   0.0016   0.00   10.9
2173 182311.000   1026004.3877  -5078806.0675   3706983.2424   1   8   0.0044   0.0086   0.0082  -0.0033  -0.0064   0.0017   0.00   11.0
2173 182312.000   1026004.3855  -5078806.0657   3706983.2451   1   8   0.0045   0.0086   0.0081  -0.0032  -0.0066   0.0018   0.00   11.0
2173 182313.000   1026004.3877  -5078806.0686   3706983.2432   1   8   0.0052   0.0086   0.0080  -0.0036  -0.0066   0.0016   0.00   11.1
2173 182314.000   1026004.3865  -5078806.0712   3706983.2479   1   8   0.0046   0.0086   0.0081  -0.0034  -0.0066   0.0017   0.00   11.2
2173 182315.000   1026004.3849  -5078806.0695   3706983.2463   1   8   0.0045   0.0085   0.0081  -0.0031  -0.0067   0.0013   0.00   11.2
2173 182316.000   1026004.3859  -5078806.0687   3706983.2437   1   8   0.0042   0.0086   0.0081  -0.0030  -0.0066   0.0015   0.00   11.3
2173 182317.000   1026004.3846  -5078806.0684   3706983.2449   1   8   0.0047   0.0087   0.0081  -0.0033  -0.0066   0.0016   0.00   11.3
2173 182318.000   1026004.3857  -5078806.0676   3706983.2421   1   8   0.0041   0.0086   0.0082  -0.0033  -0.0066   0.0014   0.00   11.4
2173 182319.000   1026004.3852  -5078806.0719   3706983.2458   1   8   0.0041   0.0085   0.0082  -0.0031  -0.0067   0.0019   0.00   11.4
2173 182320.000   1026004.3874  -5078806.0726   3706983.2486   1   8   0.0045   0.0085   0.0081  -0.0033  -0.0067   0.0015   0.00   11.5
2173 182321.000   1026004.3866  -5078806.0770   3706983.2517   1   8   0.0043   0.0086   0.0081  -0.0032  -0.0066   0.0008   0.00   11.5
2173 182322.000   1026004.3874  -5078806.0719   3706983.2483   1   8   0.0046   0.0086   0.0081  -0.0032  -0.0066   0.0018   0.00   11.6
2173 182323.000   1026004.3863  -5078806.0726   3706983.2510   1   8   0.0048   0.0086   0.0081  -0.0032  -0.0066   0.0020   0.00   11.6
2173 182324.000   1026004.3861  -5078806.0739   3706983.2493   1   8   0.0047   0.0086   0.0082  -0.0032  -0.0066   0.0012   0.00   11.7
2173 182325.000   1026004.3843  -5078806.0708   3706983.2476   1   8   0.0045   0.0087   0.0081  -0.0032  -0.0066   0.0014   0.00   11.7
2173 182326.000   1026004.3849  -5078806.0724   3706983.2444   1   8   0.0043   0.0085   0.0082  -0.0033  -0.0066   0.0013   0.00   11.8
2173 182327.000   1026004.3847  -5078806.0743   3706983.2475   1   8   0.0041   0.0086   0.0082  -0.0034  -0.0067   0.0012   0.00   11.9
2173 182328.000   1026004.3855  -5078806.0745   3706983.2469   1   8   0.0046   0.0085   0.0081  -0.0032  -0.0067   0.0017   0.00   11.9
2173 182329.000   1026004.3860  -5078806.0711   3706983.2451   1   8   0.0039   0.0086   0.0081  -0.0032  -0.0065   0.0007   0.00   11.9
2173 182330.000   1026004.3853  -5078806.0740   3706983.2491   1   8   0.0044   0.0086   0.0083  -0.0032  -0.0066   0.0018   0.00   12.0
2173 182331.000   1026004.3861  -5078806.0740   3706983.2489   1   8   0.0047   0.0086   0.0082  -0.0029  -0.0066   0.0016   0.00   12.1
2173 182332.000   1026004.3848  -5078806.0717   3706983.2490   1   8   0.0040   0.0085   0.0080  -0.0034  -0.0066   0.0011   0.00   12.2
2173 182333.000   1026004.3844  -5078806.0744   3706983.2470   1   8   0.0042   0.0086   0.0080  -0.0032  -0.0066   0.0007   0.00   12.3
2173 182334.000   1026004.3853  -5078806.0770   3706983.2517   1   8   0.0052   0.0085   0.0081  -0.0035  -0.0066   0.0020   0.00   12.3
2173 182335.000   1026004.3857  -5078806.0746   3706983.2509   1   8   0.0039   0.0085   0.0081  -0.0033  -0.0067   0.0010   0.00   12.4
2173 182336.000   1026004.3853  -5078806.0747   3706983.2498   1   8   0.0035   0.0086   0.0082  -0.0032  -0.0067   0.0018   0.00   12.4
2173 182337.000   1026004.3852  -5078806.0744   3706983.2498   1   8   0.0035   0.0087   0.0081  -0.0031  -0.0066   0.0012   0.00   12.5
2173 182338.000   1026004.3844  -5078806.0726   3706983.2480   1   8   0.0042   0.0086   0.0082  -0.0033  -0.0067   0.0019   0.00   12.6
2173 182339.000   1026004.3868  -5078806.0775   3706983.2531   1   8   0.0052   0.0085   0.0081  -0.0034  -0.0067   0.0018   0.00   12.6
2173 182340.000   1026004.3846  -5078806.0741   3706983.2486   1   8   0.0041   0.0086   0.0081  -0.0032  -0.0066   0.0018   0.00   12.7
2173 182341.000   1026004.3873  -5078806.0771   3706983.2543   1   8   0.0043   0.0086   0.0082  -0.0027  -0.0064   0.0016   0.00   12.7
2173 182342.000   1026004.3850  -5078806.0751   3706983.2522   1   8   0.0043   0.0085   0.0080  -0.0029  -0.0067   0.0008   0.00   12.8
2173 182343.000   1026004.3873  -5078806.0784   3706983.2511   1   8   0.0043   0.0087   0.0081  -0.0032  -0.0065   0.0014   0.00   12.9
2173 182344.000   1026004.3851  -5078806.0786   3706983.2529   1   8   0.0042   0.0086   0.0081  -0.0033  -0.0066   0.0013   0.00   12.9
2173 182345.000   1026004.3853  -5078806.0798   3706983.2541   1   8   0.0042   0.0086   0.0081  -0.0034  -0.0067  -0.0010   0.00   13.0
2173 182346.000   1026004.3861  -5078806.0782   3706983.2526   1   8   0.0045   0.0086   0.0082  -0.0026  -0.0066   0.0021   0.00   13.1
2173 182347.000   1026004.3850  -5078806.0802   3706983.2554   1   8   0.0043   0.0086   0.0082  -0.0032  -0.0066   0.0020   0.00   13.2
2173 182348.000   1026004.3857  -5078806.0812   3706983.2529   1   8   0.0043   0.0085   0.0081  -0.0029  -0.0067   0.0016   0.00   13.2
2173 182349.000   1026004.3827  -5078806.0727   3706983.2499   1   8   0.0050   0.0086   0.0081  -0.0036  -0.0067   0.0012   0.00   13.3
2173 182350.000   1026004.3858  -5078806.0769   3706983.2498   1   8   0.0044   0.0086   0.0080  -0.0031  -0.0066   0.0017   0.00   13.4
2173 182351.000   1026004.3843  -5078806.0764   3706983.2514   1   8   0.0045   0.0086   0.0081  -0.0035  -0.0066   0.0013   0.00   13.5
2173 182352.000   1026004.3862  -5078806.0762   3706983.2496   1   8   0.0043   0.0086   0.0081  -0.0032  -0.0066   0.0009   0.00   13.5
2173 182353.000   1026004.3869  -5078806.0769   3706983.2509   1   8   0.0042   0.0085   0.0081  -0.0031  -0.0066   0.0014   0.00   13.6
2173 182354.000   1026004.3847  -5078806.0780   3706983.2537   1   8   0.0047   0.0086   0.0081  -0.0033  -0.0067   0.0018   0.00   13.7
2173 182355.000   1026004.3845  -5078806.0789   3706983.2531   1   8   0.0047   0.0085   0.0081  -0.0034  -0.0067   0.0015   0.00   13.8
2173 182356.000   1026004.3844  -5078806.0818   3706983.2549   1   8   0.0039   0.0085   0.0080  -0.0031  -0.0066   0.0010   0.00   13.9
2173 182357.000   1026004.3848  -5078806.0792   3706983.2537   1   8   0.0043   0.0086   0.0082  -0.0030  -0.0065   0.0020   0.00   14.0
2173 182358.000   1026004.3837  -5078806.0783   3706983.2530   1   8   0.0045   0.0085   0.0081  -0.0032  -0.0066   0.0017   0.00   14.1
2173 182359.000   1026004.3850  -5078806.0803   3706983.2496   1   8   0.0033   0.0086   0.0081  -0.0031  -0.0066   0.0008   0.00   14.2
2173 182360.000   1026004.3847  -5078806.0806   3706983.2526   1   8   0.0047   0.0086   0.0081  -0.0034  -0.0068   0.0010   0.00   14.2
2173 182361.000   1026004.3853  -5078806.0826   3706983.2547   1   8   0.0041   0.0085   0.0081  -0.0035  -0.0066   0.0009   0.00   14.3
2173 182362.000   1026004.3852  -5078806.0787   3706983.2490   1   8   0.0046   0.0085   0.0081  -0.0035  -0.0067   0.0016   0.00   14.4
2173 182363.000   1026004.3858  -5078806.0778   3706983.2513   1   8   0.0043   0.0087   0.0081  -0.0032  -0.0066  -0.0007   0.00   14.5
2173 182364.000   1026004.3869  -5078806.0814   3706983.2519   1   8   0.0051   0.0086   0.0082  -0.0032  -0.0066   0.0017   0.00   14.6
2173 182365.000   1026004.3866  -5078806.0781   3706983.2497   1   8   0.0035   0.0085   0.0081  -0.0033  -0.0066   0.0008   0.00   14.7
2173 182366.000   1026004.3866  -5078806.0796   3706983.2467   1   8   0.0040   0.0085   0.0081  -0.0031  -0.0066   0.0016   0.00   14.7
2173 182367.000   1026004.3867  -5078806.0794   3706983.2492   1   8   0.0047   0.0087   0.0081  -0.0034  -0.0066   0.0013   0.00   14.8
2173 182368.000   1026004.3858  -5078806.0788   3706983.2508   1   8   0.0041   0.0086   0.0081  -0.0034  -0.0066   0.0012   0.00   14.9
2173 182369.000   1026004.3867  -5078806.0807   3706983.2486   1   8   0.0045   0.0086   0.0081  -0.0032  -0.0066   0.0013   0.00   15.0
2173 182370.000   1026004.3884  -5078806.0784   3706983.2476   1   8   0.0045   0.0085   0.0081  -0.0037  -0.0067   0.0019   0.00   15.1
2173 182371.000   1026004.3883  -5078806.0786   3706983.2454   1   8   0.0045   0.0085   0.0081  -0.0030  -0.0066   0.0016   0.00   15.2
2173 182372.000   1026004.3899  -5078806.0835   3706983.2519   1   8   0.0046   0.0086   0.0082  -0.0033  -0.0065   0.0015   0.00   15.2
2173 182373.000   1026004.3890  -5078806.0817   3706983.2497   1   8   0.0047   0.0085   0.0081  -0.0031  -0.0067   0.0015   0.00   15.3
2173 182374.000   1026004.3870  -5078806.0825   3706983.2514   1   8   0.0046   0.0086   0.0082  -0.0034  -0.0067   0.0012   0.00   15.4
2173 182375.000   1026004.3886  -5078806.0792   3706983.2486   1   8   0.0045   0.0085   0.0082  -0.0034  -0.0066   0.0019   0.00   15.5
2173 182376.000   1026004.3867  -5078806.0795   3706983.2490   1   8   0.0043   0.0086   0.0081  -0.0035  -0.0067   0.0012   0.00   15.5
2173 182377.000   1026004.3867  -5078806.0790   3706983.2488   1   8   0.0042   0.0086   0.0081  -0.0031  -0.0066   0.0012   0.00   15.6
2173 182378.000   1026004.3867  -5078806.0786   3706983.2490   1   8   0.0044   0.0086   0.0081  -0.0034  -0.0066   0.0005   0.00   15.7
2173 182379.000   1026004.3870  -5078806.0854   3706983.2531   1   8   0.0038   0.0085   0.0082  -0.0032  -0.0066   0.0015   0.00   15.7
2173 182380.000   1026004.3862  -5078806.0855   3706983.2521   1   8   0.0041   0.0086   0.0081  -0.0032  -0.0066   0.0009   0.00   15.9
2173 182381.000   1026004.3867  -5078806.0833   3706983.2490   1   8   0.0039   0.0085   0.0081  -0.0032  -0.0067   0.0002   0.00   16.0
2173 182382.000   1026004.3864  -5078806.0862   3706983.2530   1   8   0.0041   0.0086   0.0081  -0.0031  -0.0066  -0.0008   0.00   16.1
2173 182383.000   1026004.3873  -5078806.0841   3706983.2516   1   8   0.0048   0.0086   0.0081  -0.0035  -0.0066   0.0010   0.00   16.1
2173 182384.000   1026004.3856  -5078806.0827   3706983.2468   1   8   0.0047   0.0086   0.0081  -0.0032  -0.0066   0.0017   0.00   16.2
2173 182385.000   1026004.3857  -5078806.0819   3706983.2496   1   8   0.0039   0.0085   0.0081  -0.0031  -0.0067   0.0014   0.00   16.3
2173 182386.000   1026004.3855  -5078806.0837   3706983.2480   1   8   0.0041   0.0086   0.0081  -0.0032  -0.0066   0.0011   0.00   16.4
2173 182387.000   1026004.3857  -5078806.0842   3706983.2491   1   8   0.0048   0.0086   0.0081  -0.0033  -0.0066   0.0016   0.00   16.5
2173 182388.000   1026004.3871  -5078806.0813   3706983.2480   1   8   0.0041   0.0086   0.0081  -0.0032  -0.0066  -0.0006   0.00   16.6
2173 182389.000   1026004.3876  -5078806.0826   3706983.2473   1   8   0.0045   0.0086   0.0081  -0.0032  -0.0066   0.0014   0.00   16.6
2173 182390.000   1026004.3875  -5078806.0853   3706983.2492   1   8   0.0045   0.0085   0.0082  -0.0027  -0.0066   0.0017   0.00   16.7
2173 182391.000   1026004.3874  -5078806.0869   3706983.2481   1   8   0.0043   0.0087   0.0081  -0.0034  -0.0066   0.0003   0.00   16.8
2173 182392.000   1026004.3883  -5078806.0851   3706983.2463   1   8   0.0038   0.0085   0.0080  -0.0031  -0.0067   0.0012   0.00   16.8
2173 182393.000   1026004.3885  -5078806.0813   3706983.2451   1   8   0.0045   0.0084   0.0081  -0.0031  -0.0067   0.0016   0.00   16.9
2173 182394.000   1026004.3888  -5078806.0874   3706983.2494   1   8   0.0047   0.0086   0.0081  -0.0036  -0.0066   0.0005   0.00   16.9
2173 182395.000   1026004.3875  -5078806.0848   3706983.2478   1   8   0.0043   0.0086   0.0080  -0.0032  -0.0066   0.0008   0.00   17.0
2173 182396.000   1026004.3874  -5078806.0851   3706983.2473   1   8   0.0044   0.0086   0.0081  -0.0026  -0.0066   0.0014   0.00   17.0
2173 182397.000   1026004.3882  -5078806.0862   3706983.2464   1   8   0.0046   0.0085   0.0081  -0.0032  -0.0066   0.0017   0.00   17.1
2173 182398.000   1026004.3871  -5078806.0857   3706983.2464   1   8   0.0042   0.0085   0.0081  -0.0032  -0.0067   0.0008   0.00   17.1
2173 182399.000   1026004.3888  -5078806.0834   3706983.2476   1   8   0.0047   0.0085   0.0080  -0.0032  -0.0067   0.0008   0.00   17.2
2173 182400.000   1026004.3881  -5078806.0815   3706983.2476   1   8   0.0044   0.0085   0.0081  -0.0034  -0.0066   0.0018   0.00   17.2
2173 182401.000   1026004.3882  -5078806.0849   3706983.2485   1   8   0.0038   0.0086   0.0081  -0.0031  -0.0065   0.0015   0.00   17.3
2173 182402.000   1026004.3893  -5078806.0809   3706983.2445   1   8   0.0045   0.0084   0.0082  -0.0034  -0.0067   0.0018   0.00   17.3
2173 182403.000   1026004.3896  -5078806.0845   3706983.2477   1   8   0.0042   0.0086   0.0081  -0.0033  -0.0066   0.0012   0.00   17.4
2173 182404.000   1026004.3867  -5078806.0801   3706983.2427   1   8   0.0044   0.0084   0.0080  -0.0031  -0.0068   0.0013   0.00   17.4
2173 182405.000   1026004.3854  -5078806.0826   3706983.2456   1   8   0.0039   0.0086   0.0082  -0.0034  -0.0067   0.0010   0.00   17.4
2173 182406.000   1026004.3877  -5078806.0792   3706983.2424   1   8   0.0045   0.0085   0.0082  -0.0029  -0.0066   0.0017   0.00   17.5
2173 182407.000   1026004.3869  -5078806.0826   3706983.2451   1   8   0.0045   0.0086   0.0082  -0.0032  -0.0067   0.0011   0.00   17.5
2173 182408.000   1026004.3851  -5078806.0846   3706983.2479   1   8   0.0040   0.0085   0.0082  -0.0032  -0.0066   0.0011   0.00   17.5
2173 182409.000   1026004.3874  -5078806.0795   3706983.2437   1   8   0.0036   0.0086   0.0081  -0.0036  -0.0067  -0.0004   0.00   17.6
2173 182410.000   1026004.3890  -5078806.0849   3706983.2454   1   8   0.0038   0.0086   0.0081  -0.0032  -0.0066   0.0013   0.00   17.6
2173 182411.000   1026004.3910  -5078806.0805   3706983.2417   1   8   0.0053   0.0086   0.0082  -0.0035  -0.0066   0.0018   0.00   17.7
2173 182412.000   1026004.3884  -5078806.0812   3706983.2426   1   8   0.0046   0.0086   0.0082  -0.0032  -0.0067   0.0012   0.00   17.7
2173 182413.000   1026004.3910  -5078806.0830   3706983.2417   1   8   0.0043   0.0086   0.0081  -0.0031  -0.0067   0.0014   0.00   17.8
2173 182414.000   1026004.3899  -5078806.0862   3706983.2478   1   8   0.0046   0.0086   0.0082  -0.0031  -0.0065   0.0012   0.00   17.8
2173 182415.000   1026004.3876  -5078806.0832   3706983.2472   1   8   0.0040   0.0086   0.0081  -0.0031  -0.0066   0.0014   0.00   17.9
2173 182416.000   1026004.3895  -5078806.0833   3706983.2474   1   8   0.0045   0.0086   0.0081  -0.0030  -0.0066   0.0011   0.00   17.9
2173 182417.000   1026004.3900  -5078806.0848   3706983.2462   1   8   0.0035   0.0086   0.0080  -0.0032  -0.0067  -0.0011   0.00   17.9
2173 182418.000   1026004.3894  -5078806.0802   3706983.2422   1   8   0.0049   0.0086   0.0081  -0.0033  -0.0066   0.0012   0.00   18.0
2173 182419.000   1026004.3892  -5078806.0850   3706983.2467   1   8   0.0040   0.0086   0.0081  -0.0033  -0.0067   0.0010   0.00   18.0
2173 182420.000   1026004.3902  -5078806.0867   3706983.2489   1   8   0.0044   0.0086   0.0081  -0.0030  -0.0067   0.0010   0.00   18.0
2173 182421.000   1026004.3907  -5078806.0838   3706983.2443   1   8   0.0045   0.0085   0.0081  -0.0032  -0.0066   0.0013   0.00   18.1
2173 182422.000   1026004.3884  -5078806.0841   3706983.2478   1   8   0.0049   0.0087   0.0082  -0.0034  -0.0066   0.0017   0.00   18.2
2173 182423.000   1026004.3901  -5078806.0849   3706983.2466   1   8   0.0045   0.0086   0.0081  -0.0032  -0.0067   0.0008   0.00   18.2
2173 182424.000   1026004.3876  -5078806.0818   3706983.2442   1   8   0.0042   0.0087   0.0081  -0.0032  -0.0065   0.0012   0.00   18.3
2173 182425.000   1026004.3878  -5078806.0831   3706983.2463   1   8   0.0042   0.0085   0.0081  -0.0030  -0.0066   0.0008   0.00   18.3
2173 182426.000   1026004.3880  -5078806.0798   3706983.2455   1   8   0.0040   0.0085   0.0082  -0.0031  -0.0067   0.0005   0.00   18.3
2173 182427.000   1026004.3889  -5078806.0816   3706983.2424   1   8   0.0041   0.0085   0.0081  -0.0030  -0.0067   0.0013   0.00   18.3
2173 182428.000   1026004.3875  -5078806.0770   3706983.2421   1   8   0.0047   0.0085   0.0082  -0.0032  -0.0066   0.0015   0.00   18.4
2173 182429.000   1026004.3883  -5078806.0821   3706983.2412   1   8   0.0044   0.0086   0.0081  -0.0034  -0.0065   0.0011   0.00   18.4
2173 182430.000   1026004.3888  -5078806.0830   3706983.2421   1   8   0.0045   0.0085   0.0082  -0.0032  -0.0065   0.0017   0.00   18.4
2173 182431.000   1026004.3885  -5078806.0806   3706983.2415   1   8   0.0051   0.0086   0.0082  -0.0033  -0.0067   0.0022   0.00   18.5
2173 182432.000   1026004.3891  -5078806.0807   3706983.2419   1   8   0.0038   0.0086   0.0081  -0.0033  -0.0067   0.0014   0.00   18.5
2173 182433.000   1026004.3897  -5078806.0795   3706983.2412   1   8   0.0049   0.0086   0.0082  -0.0031  -0.0066   0.0017   0.00   18.5
2173 182434.000   1026004.3887  -5078806.0835   3706983.2418   1   8   0.0047   0.0086   0.0082  -0.0031  -0.0066   0.0011   0.00   18.6
2173 182435.000   1026004.3897  -5078806.0853   3706983.2413   1   8   0.0038   0.0085   0.0081  -0.0032  -0.0067   0.0007   0.00   18.6
2173 182436.000   1026004.3890  -5078806.0818   3706983.2392   1   8   0.0045   0.0086   0.0082  -0.0037  -0.0068   0.0016   0.00   18.6
2173 182437.000   1026004.3897  -5078806.0836   3706983.2443   1   8   0.0052   0.0086   0.0083  -0.0033  -0.0066   0.0019   0.00   18.7
2173 182438.000   1026004.3871  -5078806.0823   3706983.2409   1   8   0.0043   0.0085   0.0082  -0.0031  -0.0066   0.0014   0.00   18.7
2173 182439.000   1026004.3913  -5078806.0805   3706983.2410   1   8   0.0052   0.0086   0.0082  -0.0032  -0.0067   0.0016   0.00   18.7
2173 182440.000   1026004.3895  -5078806.0843   3706983.2428   1   8   0.0045   0.0086   0.0082  -0.0031  -0.0066   0.0012   0.00   18.8
2173 182441.000   1026004.3885  -5078806.0842   3706983.2447   1   8   0.0045   0.0086   0.0081  -0.0032  -0.0065  -0.0002   0.00   18.8
2173 182442.000   1026004.3915  -5078806.0836   3706983.2422   1   8   0.0045   0.0086   0.0081  -0.0032  -0.0066   0.0010   0.00   18.8
2173 182443.000   1026004.3889  -5078806.0843   3706983.2427   1   8   0.0039   0.0085   0.0082  -0.0030  -0.0067  -0.0004   0.00   18.8
2173 182444.000   1026004.3872  -5078806.0785   3706983.2418   1   8   0.0046   0.0085   0.0081  -0.0027  -0.0066   0.0010   0.00   18.8
2173 182445.000   1026004.3882  -5078806.0830   3706983.2440   1   8   0.0038   0.0085   0.0081  -0.0031  -0.0065   0.0012   0.00   18.8
2173 182446.000   1026004.3868  -5078806.0801   3706983.2401   1   8   0.0041   0.0085   0.0081  -0.0033  -0.0066  -0.0006   0.00   18.8
2173 182447.000   1026004.3888  -5078806.0804   3706983.2437   1   8   0.0042   0.0087   0.0082  -0.0031  -0.0067   0.0018   0.00   18.8
2173 182448.000   1026004.3898  -5078806.0838   3706983.2430   1   8   0.0043   0.0086   0.0082  -0.0035  -0.0066   0.0011   0.00   18.9
2173 182449.000   1026004.3861  -5078806.0820   3706983.2446   1   8   0.0050   0.0086   0.0082  -0.0031  -0.0067   0.0017   0.00   18.9
2173 182450.000   1026004.3873  -5078806.0808   3706983.2436   1   8   0.0046   0.0085   0.0082  -0.0033  -0.0066   0.0015   0.00   18.9
2173 182451.000   1026004.3865  -5078806.0773   3706983.2415   1   8   0.0044   0.0086   0.0081  -0.0033  -0.0067  -0.0007   0.00   18.9
2173 182452.000   1026004.3857  -5078806.0800   3706983.2411   1   8   0.0043   0.0085   0.0082  -0.0029  -0.0067   0.0010   0.00   18.9
2173 182453.000   1026004.3893  -5078806.0800   3706983.2419   1   8   0.0042   0.0086   0.0082  -0.0033  -0.0067   0.0010   0.00   18.9
2173 182454.000   1026004.3884  -5078806.0833   3706983.2426   1   8   0.0041   0.0086   0.0082  -0.0035  -0.0066   0.0014   0.00   18.9
2173 182455.000   1026004.3890  -5078806.0810   3706983.2418   1   8   0.0039   0.0085   0.0081  -0.0032  -0.0067   0.0010   0.00   19.0
2173 182456.000   1026004.3888  -5078806.0798   3706983.2416   1   8   0.0049   0.0085   0.0081  -0.0032  -0.0065   0.0014   0.00   19.0
2173 182457.000   1026004.3876  -5078806.0817   3706983.2416   1   8   0.0046   0.0086   0.0081  -0.0032  -0.0066   0.0020   0.00   19.0
2173 182458.000   1026004.3906  -5078806.0786   3706983.2375   1   8   0.0039   0.0086   0.0081  -0.0031  -0.0064   0.0005   0.00   19.0
2173 182459.000   1026004.3903  -5078806.0839   3706983.2428   1   8   0.0038   0.0086   0.0082  -0.0031  -0.0066   0.0011   0.00   19.0
2173 182460.000   1026004.3891  -5078806.0830   3706983.2438   1   8   0.0045   0.0086   0.0081  -0.0033  -0.0066   0.0010   0.00   19.0
2173 182461.000   1026004.3874  -5078806.0813   3706983.2427   1   8   0.0043   0.0087   0.0082  -0.0031  -0.0065  -0.0003   0.00   19.0
2173 182462.000   1026004.3870  -5078806.0766   3706983.2386   1   8   0.0041   0.0086   0.0082  -0.0033  -0.0067   0.0011   0.00   19.0
2173 182463.000   1026004.3881  -5078806.0794   3706983.2408   1   8   0.0045   0.0086   0.0081  -0.0033  -0.0066   0.0013   0.00   19.0
2173 182464.000   1026004.3884  -5078806.0797   3706983.2426   1   8   0.0039   0.0085   0.0082  -0.0030  -0.0067   0.0017   0.00   19.0
2173 182465.000   1026004.3888  -5078806.0823   3706983.2450   1   8   0.0037   0.0086   0.0081  -0.0031  -0.0065  -0.0009   0.00   19.1
2173 182466.000   1026004.3888  -5078806.0799   3706983.2415   1   8   0.0042   0.0086   0.0082  -0.0031  -0.0066   0.0007   0.00   19.1
2173 182467.000   1026004.3880  -5078806.0779   3706983.2450   1   8   0.0042   0.0086   0.0082  -0.0035  -0.0066   0.0014   0.00   19.1
2173 182468.000   1026004.3900  -5078806.0836   3706983.2445   1   8   0.0039   0.0086   0.0082  -0.0030  -0.0067  -0.0006   0.00   19.1
2173 182469.000   1026004.3885  -5078806.0822   3706983.2424   1   8   0.0044   0.0085   0.0081  -0.0035  -0.0066   0.0019   0.00   19.2
2173 182470.000   1026004.3882  -5078806.0816   3706983.2439   1   8   0.0044   0.0085   0.0081  -0.0033  -0.0066   0.0014   0.00   19.2
2173 182471.000   1026004.3878  -5078806.0804   3706983.2423   1   8   0.0044   0.0084   0.0082  -0.0033  -0.0067   0.0009   0.00   19.2
2173 182472.000   1026004.3870  -5078806.0772   3706983.2434   1   8   0.0045   0.0086   0.0082  -0.0035  -0.0067   0.0013   0.00   19.3
2173 182473.000   1026004.3882  -5078806.0771   3706983.2423   1   8   0.0051   0.0086   0.0082  -0.0031  -0.0066   0.0020   0.00   19.3
2173 182474.000   1026004.3888  -5078806.0772   3706983.2390   1   8   0.0042   0.0085   0.0081  -0.0032  -0.0067  -0.0009   0.00   19.3
2173 182475.000   1026004.3883  -5078806.0808   3706983.2422   1   8   0.0049   0.0086   0.0082  -0.0032  -0.0066   0.0014   0.00   19.3
2173 182476.000   1026004.3883  -5078806.0786   3706983.2435   1   8   0.0045   0.0085   0.0082  -0.0034  -0.0067   0.0015   0.00   19.4
2173 182477.000   1026004.3900  -5078806.0812   3706983.2432   1   8   0.0044   0.0085   0.0082  -0.0030  -0.0067   0.0015   0.00   19.4
2173 182478.000   1026004.3886  -5078806.0812   3706983.2441   1   8   0.0041   0.0086   0.0081  -0.0034  -0.0067  -0.0009   0.00   19.5
2173 182479.000   1026004.3879  -5078806.0813   3706983.2446   1   8   0.0047   0.0086   0.0082  -0.0031  -0.0067   0.0019   0.00   19.5
2173 182480.000   1026004.3902  -5078806.0804   3706983.2461   1   8   0.0038   0.0085   0.0081  -0.0030  -0.0067   0.0010   0.00   19.5
2173 182481.000   1026004.3857  -5078806.0773   3706983.2443   1   8   0.0046   0.0085   0.0082  -0.0034  -0.0067   0.0015   0.00   19.5
2173 182482.000   1026004.3884  -5078806.0827   3706983.2446   1   8   0.0042   0.0085   0.0082  -0.0030  -0.0067   0.0020   0.00   19.5
2173 182483.000   1026004.3876  -5078806.0788   3706983.2433   1   8   0.0044   0.0086   0.0082  -0.0031  -0.0066   0.0006   0.00   19.6
2173 182484.000   1026004.3863  -5078806.0805   3706983.2453   1   8   0.0042   0.0085   0.0082  -0.0032  -0.0067   0.0010   0.00   19.6
2173 182485.000   1026004.3868  -5078806.0784   3706983.2412   1   8   0.0050   0.0085   0.0082  -0.0030  -0.0067   0.0019   0.00   19.6
2173 182486.000   1026004.3871  -5078806.0808   3706983.2426   1   8   0.0042   0.0086   0.0081  -0.0035  -0.0066  -0.0008   0.00   19.6
2173 182487.000   1026004.3865  -5078806.0779   3706983.2435   1   8   0.0032   0.0086   0.0082  -0.0029  -0.0066  -0.0001   0.00   19.6
2173 182488.000   1026004.3881  -5078806.0789   3706983.2423   1   8   0.0045   0.0087   0.0082  -0.0032  -0.0067   0.0013   0.00   19.6
