% program   : rnx2rtkp ver.2.4.3 b31
% inp file  : ngs/21_09_01_08_12_03_ohlc.obs
% inp file  : ngs/21_09_01_08_12_03_ohlc_SW.obs
% inp file  : ngs/21_09_01_08_12_03_brdc.nav
% obs start : 2021/09/01 08:00:00.0 GPST (week2173 288000.0s)
% obs end   : 2021/09/01 08:59:59.0 GPST (week2173 291599.0s)
% ref pos   :   544965.1059  -4802677.2300   4147584.0683
%
% (x/y/z-ecef=WGS84,Q=1:fix,2:float,3:sbas,4:dgps,5:single,6:ppp,ns=# of satellites)
%  GPST              x-ecef(m)      y-ecef(m)      z-ecef(m)   Q  ns   sdx(m)   sdy(m)   sdz(m)  sdxy(m)  sdyz(m)  sdzx(m) age(s)  ratio
2173 288698.000    537554.0926  -4737373.3665   4222644.7083   2   8   0.3687   0.8711   0.9259  -0.1932  -0.7421   0.2737 -30.00    1.0
2173 288699.000    537554.1554  -4737373.1308   4222644.8072   2   8   0.2623   0.6196   0.6586  -0.1383  -0.5279   0.1953 -29.00    1.0
2173 288700.000    537554.1642  -4737373.1597   4222644.8229   2   8   0.2147   0.5073   0.5393  -0.1134  -0.4323   0.1599 -28.00    1.0
2173 288701.000    537554.1896  -4737373.0769   4222644.7127   2   8   0.1863   0.4401   0.4680  -0.0984  -0.3751   0.1387 -27.00    1.0
2173 288702.000    537554.1616  -4737373.0214   4222644.5588   2   8   0.1668   0.3942   0.4193  -0.0881  -0.3360   0.1242 -26.00    1.0
2173 288703.000    537554.1548  -4737372.9669   4222644.5220   2   8   0.1525   0.3603   0.3832  -0.0805  -0.3071   0.1135 -25.00    1.0
2173 288704.000    537554.1387  -4737372.9274   4222644.4541   2   8   0.1413   0.3338   0.3551  -0.0746  -0.2846   0.1051 -24.00    1.0
2173 288705.000    537554.1325  -4737372.8760   4222644.3438   2   8   0.1322   0.3124   0.3325  -0.0698  -0.2665   0.0984 -23.00    1.0
2173 288706.000    537554.1232  -4737372.9090   4222644.3370   2   8   0.1247   0.2947   0.3136  -0.0658  -0.2514   0.0928 -22.00    1.0
2173 288707.000    537554.0980  -4737372.8843   4222644.2698   2   8   0.1183   0.2797   0.2977  -0.0625  -0.2386   0.0881 -21.00    1.0
2173 288708.000    537554.0869  -4737372.8508   4222644.2076   2   8   0.1129   0.2667   0.2839  -0.0597  -0.2275   0.0840 -20.00    1.0
2173 288709.000    537554.0770  -4737372.8247   4222644.1492   2   8   0.1081   0.2554   0.2719  -0.0572  -0.2179   0.0805 -19.00    1.0
2173 288710.000    537554.0803  -4737372.7999   4222644.1012   2   8   0.1038   0.2453   0.2613  -0.0550  -0.2094   0.0773 -18.00    1.0
2173 288711.000    537554.0707  -4737372.7915   4222644.0663   2   8   0.1000   0.2364   0.2518  -0.0530  -0.2017   0.0745 -17.00    1.1
2173 288712.000    537554.0637  -4737372.7833   4222644.0438   2   8   0.0966   0.2283   0.2432  -0.0513  -0.1949   0.0720 -16.00    1.1
2173 288713.000    537554.0609  -4737372.7836   4222644.0160   2   8   0.0935   0.2210   0.2354  -0.0497  -0.1886   0.0698 -15.00    1.1
2173 288714.000    537554.0669  -4737372.7825   4222644.0280   2   8   0.0907   0.2143   0.2284  -0.0483  -0.1829   0.0677 -14.00    1.1
2173 288715.000    537554.0683  -4737372.7507   4222644.0000   2   8   0.0881   0.2082   0.2219  -0.0470  -0.1777   0.0658 -13.00    1.1
2173 288716.000    537554.0541  -4737372.7577   4222643.9924   2   8   0.0857   0.2025   0.2159  -0.0458  -0.1729   0.0641 -12.00    1.1
2173 288717.000    537554.0457  -4737372.7332   4222643.9611   2   8   0.0835   0.1973   0.2103  -0.0446  -0.1685   0.0624 -11.00    1.1
2173 288718.000    537554.0442  -4737372.7446   4222643.9566   2   8   0.0815   0.1925   0.2051  -0.0436  -0.1643   0.0609 -10.00    1.1
2173 288719.000    537554.0468  -4737372.7721   4222643.9583   2   8   0.0796   0.1879   0.2003  -0.0426  -0.1604   0.0595  -9.00    1.1
2173 288720.000    537554.0443  -4737372.7849   4222643.9566   2   8   0.0778   0.1837   0.1958  -0.0417  -0.1568   0.0582  -8.00    1.1
2173 288721.000    537554.0370  -4737372.7783   4222643.9650   2   8   0.0761   0.1797   0.1916  -0.0409  -0.1534   0.0570  -7.00    1.1
2173 288722.000    537554.0316  -4737372.7804   4222643.9688   2   8   0.0746   0.1760   0.1876  -0.0401  -0.1502   0.0559  -6.00    1.1
2173 288723.000    537554.0345  -4737372.7749   4222643.9700   2   8   0.0731   0.1725   0.1838  -0.0394  -0.1472   0.0548  -5.00    1.1
2173 288724.000    537554.0373  -4737372.7630   4222643.9788   2   8   0.0717   0.1692   0.1803  -0.0386  -0.1444   0.0537  -4.00    1.0
2173 288725.000    537554.0391  -4737372.7516   4222643.9625   2   8   0.0704   0.1660   0.1769  -0.0379  -0.1417   0.0527  -3.00    1.0
2173 288726.000    537554.0411  -4737372.7529   4222643.9635   2   8   0.0691   0.1631   0.1738  -0.0373  -0.1391   0.0518  -2.00    1.1
2173 288727.000    537554.0493  -4737372.7465   4222643.9499   2   8   0.0680   0.1603   0.1707  -0.0367  -0.1367   0.0509  -1.00    1.1
2173 288728.000    537554.0547  -4737372.7422   4222643.9504   2   8   0.0669   0.1576   0.1679  -0.0361  -0.1344   0.0500   0.00    1.0
2173 288729.000    537554.0613  -4737372.7545   4222643.9510   2   8   0.0658   0.1551   0.1652  -0.0355  -0.1323   0.0493   0.00    1.0
2173 288730.000    537554.0602  -4737372.7562   4222643.9285   2   8   0.0648   0.1527   0.1626  -0.0350  -0.1302   0.0485   0.00    1.0
2173 288731.000    537554.0652  -4737372.7493   4222643.9253   2   8   0.0638   0.1504   0.1601  -0.0345  -0.1282   0.0478   0.00    1.0
2173 288732.000    537554.0688  -4737372.7568   4222643.9365   2   8   0.0629   0.1482   0.1577  -0.0340  -0.1263   0.0470   0.00    1.0
2173 288733.000    537554.0719  -4737372.7515   4222643.9318   2   8   0.0621   0.1460   0.1554  -0.0335  -0.1244   0.0463   0.00    1.0
2173 288734.000    537554.0747  -4737372.7314   4222643.9196   2   8   0.0612   0.1440   0.1532  -0.0330  -0.1227   0.0457   0.00    1.0
2173 288735.000    537554.0802  -4737372.7307   4222643.9143   2   8   0.0604   0.1420   0.1511  -0.0325  -0.1210   0.0450   0.00    1.0
2173 288736.000    537554.0808  -4737372.7173   4222643.9055   2   8   0.0596   0.1401   0.1490  -0.0322  -0.1193   0.0444   0.00    1.0
2173 288737.000    537554.0881  -4737372.7237   4222643.9240   2   8   0.0588   0.1383   0.1470  -0.0317  -0.1177   0.0438   0.00    1.0
2173 288738.000    537554.0893  -4737372.7292   4222643.9448   2   8   0.0582   0.1366   0.1451  -0.0313  -0.1162   0.0432   0.00    1.0
2173 288739.000    537554.0975  -4737372.7348   4222643.9611   2   8   0.0574   0.1349   0.1432  -0.0309  -0.1147   0.0427   0.00    1.0
2173 288740.000    537554.1009  -4737372.7418   4222643.9779   2   8   0.0567   0.1332   0.1414  -0.0306  -0.1132   0.0422   0.00    1.0
2173 288741.000    537554.1058  -4737372.7448   4222643.9928   2   8   0.0561   0.1316   0.1396  -0.0302  -0.1118   0.0416   0.00    1.0
2173 288742.000    537554.1090  -4737372.7403   4222643.9986   2   8   0.0555   0.1301   0.1379  -0.0298  -0.1104   0.0411   0.00    1.0
2173 288743.000    537554.1139  -4737372.7428   4222644.0076   2   8   0.0548   0.1285   0.1362  -0.0295  -0.1091   0.0406   0.00    1.0
2173 288744.000    537554.1175  -4737372.7552   4222644.0117   2   8   0.0543   0.1271   0.1346  -0.0291  -0.1078   0.0401   0.00    1.0
2173 288745.000    537554.1186  -4737372.7520   4222644.0109   2   8   0.0537   0.1257   0.1330  -0.0288  -0.1065   0.0396   0.00    1.0
2173 288746.000    537554.1192  -4737372.7428   4222644.0038   2   8   0.0531   0.1243   0.1314  -0.0284  -0.1052   0.0392   0.00    1.0
2173 288747.000    537554.1201  -4737372.7324   4222643.9977   2   8   0.0526   0.1229   0.1299  -0.0281  -0.1040   0.0387   0.00    1.0
2173 288748.000    537554.1199  -4737372.7235   4222643.9944   2   8   0.0521   0.1216   0.1284  -0.0278  -0.1028   0.0383   0.00    1.0
2173 288749.000    537554.1171  -4737372.7122   4222643.9743   2   8   0.0516   0.1203   0.1269  -0.0275  -0.1017   0.0378   0.00    1.0
2173 288750.000    537554.1164  -4737372.7052   4222643.9729   2   8   0.0511   0.1191   0.1255  -0.0272  -0.1005   0.0374   0.00    1.0
2173 288751.000    537554.1180  -4737372.6951   4222643.9649   2   8   0.0506   0.1178   0.1241  -0.0269  -0.0994   0.0369   0.00    1.0
2173 288752.000    537554.1098  -4737372.6842   4222643.9501   2   8   0.0502   0.1166   0.1227  -0.0266  -0.0983   0.0365   0.00    1.0
2173 288753.000    537554.1085  -4737372.6809   4222643.9343   2   8   0.0496   0.1155   0.1213  -0.0263  -0.0972   0.0361   0.00    1.0
2173 288754.000    537554.1103  -4737372.6659   4222643.9268   2   8   0.0492   0.1143   0.1200  -0.0260  -0.0961   0.0357   0.00    1.0
2173 288755.000    537554.1098  -4737372.6504   4222643.9058   2   8   0.0488   0.1132   0.1187  -0.0257  -0.0951   0.0353   0.00    1.0
2173 288756.000    537554.1052  -4737372.6359   4222643.8840   2   8   0.0483   0.1121   0.1174  -0.0255  -0.0941   0.0350   0.00    1.0
2173 288757.000    537554.1072  -4737372.6183   4222643.8672   2   8   0.0479   0.1110   0.1161  -0.0252  -0.0931   0.0346   0.00    1.0
2173 288758.000    537554.1056  -4737372.6114   4222643.8510   2   8   0.0475   0.1100   0.1149  -0.0249  -0.0921   0.0342   0.00    1.0
2173 288759.000    537554.1033  -4737372.6061   4222643.8431   2   8   0.0471   0.1090   0.1136  -0.0247  -0.0911   0.0339   0.00    1.0
2173 288760.000    537554.1021  -4737372.6020   4222643.8232   2   8   0.0467   0.1080   0.1124  -0.0244  -0.0901   0.0334   0.00    1.0
2173 288761.000    537554.1023  -4737372.6047   4222643.8223   2   8   0.0464   0.1070   0.1113  -0.0242  -0.0892   0.0330   0.00    1.0
2173 288762.000    537554.1016  -4737372.6041   4222643.8097   2   8   0.0460   0.1060   0.1101  -0.0240  -0.0882   0.0327   0.00    1.0
2173 288763.000    537554.1022  -4737372.6095   4222643.8171   2   8   0.0457   0.1050   0.1089  -0.0237  -0.0873   0.0323   0.00    1.0
2173 288764.000    537554.1040  -4737372.6175   4222643.8279   2   8   0.0453   0.1041   0.1078  -0.0234  -0.0864   0.0320   0.00    1.0
2173 288765.000    537554.1056  -4737372.6352   4222643.8451   2   8   0.0450   0.1032   0.1066  -0.0232  -0.0855   0.0317   0.00    1.0
2173 288766.000    537554.1063  -4737372.6466   4222643.8639   2   8   0.0447   0.1023   0.1056  -0.0231  -0.0846   0.0314   0.00    1.0
2173 288767.000    537554.1104  -4737372.6578   4222643.8797   2   8   0.0443   0.1014   0.1045  -0.0227  -0.0838   0.0310   0.00    1.0
2173 288768.000    537554.1172  -4737372.6662   4222643.8946   2   8   0.0440   0.1005   0.1034  -0.0225  -0.0829   0.0307   0.00    1.0
2173 288769.000    537554.1183  -4737372.6715   4222643.9061   2   8   0.0437   0.0996   0.1023  -0.0223  -0.0821   0.0303   0.00    1.0
2173 288770.000    537554.1211  -4737372.6682   4222643.9034   2   8   0.0434   0.0988   0.1013  -0.0221  -0.0812   0.0300   0.00    1.0
2173 288771.000    537554.1232  -4737372.6772   4222643.9122   2   8   0.0430   0.0980   0.1002  -0.0219  -0.0804   0.0298   0.00    1.0
2173 288772.000    537554.1217  -4737372.6792   4222643.9146   2   8   0.0427   0.0972   0.0992  -0.0216  -0.0796   0.0294   0.00    1.0
2173 288773.000    537554.1199  -4737372.6909   4222643.9281   2   8   0.0425   0.0963   0.0982  -0.0214  -0.0788   0.0291   0.00    1.0
2173 288774.000    537554.1202  -4737372.7014   4222643.9397   2   8   0.0422   0.0956   0.0972  -0.0212  -0.0780   0.0288   0.00    1.0
2173 288775.000    537554.1223  -4737372.7076   4222643.9500   2   8   0.0420   0.0948   0.0962  -0.0210  -0.0772   0.0285   0.00    1.0
2173 288776.000    537554.1232  -4737372.7123   4222643.9565   2   8   0.0416   0.0940   0.0953  -0.0208  -0.0765   0.0282   0.00    1.0
2173 288777.000    537554.1201  -4737372.7062   4222643.9525   2   8   0.0413   0.0932   0.0943  -0.0207  -0.0757   0.0280   0.00    1.0
2173 288778.000    537554.1200  -4737372.7050   4222643.9495   2   8   0.0411   0.0925   0.0934  -0.0204  -0.0750   0.0277   0.00    1.0
2173 288779.000    537554.1196  -4737372.6971   4222643.9443   2   8   0.0408   0.0918   0.0924  -0.0202  -0.0742   0.0274   0.00    1.0
2173 288780.000    537554.1171  -4737372.7033   4222643.9464   2   8   0.0405   0.0910   0.0915  -0.0200  -0.0735   0.0271   0.00    1.0
2173 288781.000    537554.1185  -4737372.7026   4222643.9486   2   8   0.0403   0.0903   0.0906  -0.0198  -0.0728   0.0268   0.00    1.0
2173 288782.000    537554.1161  -4737372.7135   4222643.9574   2   8   0.0401   0.0896   0.0897  -0.0196  -0.0720   0.0265   0.00    1.0
2173 288783.000    537554.1164  -4737372.7223   4222643.9640   2   8   0.0399   0.0889   0.0888  -0.0194  -0.0713   0.0262   0.00    1.0
2173 288784.000    537554.1165  -4737372.7383   4222643.9764   2   8   0.0396   0.0883   0.0879  -0.0192  -0.0706   0.0259   0.00    1.0
2173 288785.000    537554.1143  -4737372.7380   4222643.9751   2   8   0.0394   0.0876   0.0871  -0.0191  -0.0700   0.0257   0.00    1.0
2173 288786.000    537554.1131  -4737372.7405   4222643.9687   2   8   0.0391   0.0869   0.0862  -0.0189  -0.0693   0.0254   0.00    1.0
2173 288787.000    537554.1128  -4737372.7472   4222643.9626   2   8   0.0389   0.0863   0.0854  -0.0188  -0.0686   0.0252   0.00    1.0
2173 288788.000    537554.1054  -4737372.7469   4222643.9600   2   8   0.0386   0.0856   0.0845  -0.0186  -0.0679   0.0250   0.00    1.0
2173 288789.000    537554.1034  -4737372.7406   4222643.9369   2   8   0.0385   0.0850   0.0837  -0.0184  -0.0673   0.0247   0.00    1.0
2173 288790.000    537554.1006  -4737372.7213   4222643.9069   2   8   0.0381   0.0844   0.0829  -0.0183  -0.0666   0.0245   0.00    1.0
2173 288791.000    537554.0991  -4737372.7041   4222643.8842   2   8   0.0380   0.0837   0.0821  -0.0181  -0.0660   0.0242   0.00    1.0
2173 288792.000    537554.0993  -4737372.6881   4222643.8713   2   8   0.0378   0.0831   0.0813  -0.0179  -0.0654   0.0239   0.00    1.0
2173 288793.000    537554.1013  -4737372.6694   4222643.8467   2   8   0.0376   0.0825   0.0805  -0.0177  -0.0648   0.0237   0.00    1.0
2173 288794.000    537554.0980  -4737372.6651   4222643.8407   2   8   0.0374   0.0819   0.0797  -0.0175  -0.0641   0.0235   0.00    1.0
2173 288795.000    537554.0960  -4737372.6561   4222643.8307   2   8   0.0372   0.0814   0.0790  -0.0174  -0.0635   0.0232   0.00    1.0
2173 288796.000    537554.0947  -4737372.6373   4222643.8038   2   8   0.0370   0.0808   0.0782  -0.0172  -0.0629   0.0230   0.00    1.0
2173 288797.000    537554.0956  -4737372.6311   4222643.7949   2   8   0.0368   0.0802   0.0775  -0.0171  -0.0623   0.0228   0.00    1.0
2173 288798.000    537554.0978  -4737372.6355   4222643.8001   2   8   0.0366   0.0796   0.0767  -0.0170  -0.0618   0.0226   0.00    1.0
2173 288799.000    537554.0966  -4737372.6201   4222643.7772   2   8   0.0364   0.0791   0.0760  -0.0168  -0.0612   0.0224   0.00    1.0
2173 288800.000    537554.0936  -4737372.6091   4222643.7468   2   8   0.0362   0.0785   0.0753  -0.0167  -0.0606   0.0221   0.00    1.0
2173 288801.000    537554.0916  -4737372.6040   4222643.7312   2   8   0.0360   0.0780   0.0745  -0.0165  -0.0600   0.0220   0.00    1.0
2173 288802.000    537554.0904  -4737372.5915   4222643.7093   2   8   0.0359   0.0775   0.0739  -0.0164  -0.0595   0.0217   0.00    1.0
2173 288803.000    537554.0874  -4737372.5696   4222643.6766   2   8   0.0357   0.0769   0.0731  -0.0162  -0.0589   0.0215   0.00    1.0
2173 288804.000    537554.0865  -4737372.5564   4222643.6537   2   8   0.0354   0.0764   0.0724  -0.0160  -0.0584   0.0212   0.00    1.0
2173 288805.000    537554.0852  -4737372.5525   4222643.6429   2   8   0.0353   0.0759   0.0718  -0.0158  -0.0578   0.0211   0.00    1.0
2173 288806.000    537554.0805  -4737372.5392   4222643.6239   2   8   0.0351   0.0754   0.0711  -0.0159  -0.0573   0.0208   0.00    1.0
2173 288807.000    537554.0795  -4737372.5210   4222643.6072   2   8   0.0349   0.0749   0.0705  -0.0157  -0.0568   0.0207   0.00    1.0
2173 288808.000    537554.0751  -4737372.5123   4222643.5960   2   8   0.0347   0.0744   0.0698  -0.0155  -0.0563   0.0205   0.00    1.0
2173 288809.000    537554.0706  -4737372.4948   4222643.5727   2   8   0.0346   0.0739   0.0692  -0.0154  -0.0558   0.0202   0.00    1.0
2173 288810.000    537554.0687  -4737372.4833   4222643.5513   2   8   0.0344   0.0734   0.0685  -0.0153  -0.0552   0.0200   0.00    1.0
2173 288811.000    537554.0677  -4737372.4672   4222643.5322   2   8   0.0343   0.0730   0.0679  -0.0152  -0.0548   0.0198   0.00    1.0
2173 288812.000    537554.0627  -4737372.4605   4222643.5129   2   8   0.0341   0.0725   0.0673  -0.0151  -0.0543   0.0197   0.00    1.0
2173 288813.000    537554.0633  -4737372.4518   4222643.4986   2   8   0.0340   0.0720   0.0667  -0.0150  -0.0538   0.0194   0.00    1.0
2173 288814.000    537554.0635  -4737372.4426   4222643.4899   2   8   0.0338   0.0716   0.0660  -0.0148  -0.0533   0.0193   0.00    1.0
2173 288815.000    537554.0631  -4737372.4334   4222643.4773   2   8   0.0336   0.0711   0.0655  -0.0148  -0.0528   0.0191   0.00    1.0
2173 288816.000    537554.0619  -4737372.4150   4222643.4530   2   8   0.0336   0.0707   0.0649  -0.0146  -0.0524   0.0189   0.00    1.0
2173 288817.000    537554.0621  -4737372.4024   4222643.4388   2   8   0.0333   0.0702   0.0643  -0.0146  -0.0519   0.0188   0.00    1.1
2173 288818.000    537554.0604  -4737372.3864   4222643.4174   2   8   0.0332   0.0698   0.0637  -0.0145  -0.0514   0.0186   0.00    1.1
2173 288819.000    537554.0591  -4737372.3832   4222643.4060   2   8   0.0330   0.0694   0.0631  -0.0144  -0.0510   0.0184   0.00    1.1
2173 288820.000    537554.0573  -4737372.3750   4222643.3890   2   8   0.0330   0.0689   0.0626  -0.0142  -0.0505   0.0182   0.00    1.1
2173 288821.000    537554.0554  -4737372.3707   4222643.3812   2   8   0.0328   0.0685   0.0620  -0.0142  -0.0501   0.0179   0.00    1.1
2173 288822.000    537554.0527  -4737372.3579   4222643.3646   2   8   0.0327   0.0681   0.0615  -0.0140  -0.0497   0.0180   0.00    1.1
2173 288823.000    537554.0511  -4737372.3538   4222643.3563   2   8   0.0325   0.0677   0.0609  -0.0140  -0.0492   0.0177   0.00    1.1
2173 288824.000    537554.0477  -4737372.3410   4222643.3492   2   8   0.0323   0.0673   0.0604  -0.0139  -0.0488   0.0175   0.00    1.1
2173 288825.000    537554.0454  -4737372.3299   4222643.3292   2   8   0.0323   0.0669   0.0598  -0.0137  -0.0484   0.0174   0.00    1.1
2173 288826.000    537554.0418  -4737372.3336   4222643.3179   2   8   0.0321   0.0665   0.0593  -0.0137  -0.0480   0.0172   0.00    1.1
2173 288827.000    537554.0393  -4737372.3307   4222643.3098   2   8   0.0320   0.0661   0.0588  -0.0136  -0.0476   0.0170   0.00    1.1
2173 288828.000    537554.0353  -4737372.3332   4222643.3058   2   8   0.0318   0.0657   0.0583  -0.0135  -0.0472   0.0170   0.00    1.1
2173 288829.000    537554.0339  -4737372.3384   4222643.3089   2   8   0.0317   0.0653   0.0578  -0.0133  -0.0468   0.0168   0.00    1.1
2173 288830.000    537554.0327  -4737372.3435   4222643.3135   2   8   0.0316   0.0650   0.0573  -0.0133  -0.0464   0.0166   0.00    1.1
2173 288831.000    537554.0321  -4737372.3426   4222643.3106   2   8   0.0315   0.0646   0.0568  -0.0132  -0.0460   0.0164   0.00    1.1
2173 288832.000    537554.0332  -4737372.3428   4222643.3053   2   8   0.0313   0.0642   0.0563  -0.0131  -0.0456   0.0163   0.00    1.1
2173 288833.000    537554.0283  -4737372.3520   4222643.3092   2   8   0.0311   0.0638   0.0558  -0.0130  -0.0452   0.0162   0.00    1.1
2173 288834.000    537554.0294  -4737372.3530   4222643.3093   2   8   0.0310   0.0635   0.0554  -0.0129  -0.0448   0.0160   0.00    1.1
2173 288835.000    537554.0268  -4737372.3531   4222643.3080   2   8   0.0309   0.0631   0.0549  -0.0128  -0.0445   0.0158   0.00    1.1
2173 288836.000    537554.0255  -4737372.3648   4222643.3149   2   8   0.0309   0.0628   0.0545  -0.0128  -0.0441   0.0156   0.00    1.1
2173 288837.000    537554.0191  -4737372.3642   4222643.3118   2   8   0.0308   0.0624   0.0540  -0.0128  -0.0438   0.0155   0.00    1.1
2173 288838.000    537554.0203  -4737372.3668   4222643.3085   2   8   0.0306   0.0621   0.0536  -0.0127  -0.0434   0.0153   0.00    1.1
2173 288839.000    537554.0152  -4737372.3671   4222643.3118   2   8   0.0305   0.0617   0.0531  -0.0126  -0.0430   0.0153   0.00    1.1
2173 288840.000    537554.0357  -4737372.3306   4222643.3053   2   8   0.0303   0.0614   0.0527  -0.0125  -0.0427   0.0150   0.00    1.1
2173 288841.000    537554.0399  -4737372.3418   4222643.3318   2   8   0.0303   0.0611   0.0522  -0.0123  -0.0423   0.0150   0.00    1.1
2173 288842.000    537554.0391  -4737372.3514   4222643.3489   2   8   0.0300   0.0607   0.0518  -0.0123  -0.0420   0.0150   0.00    1.1
2173 288843.000    537554.0437  -4737372.3590   4222643.3733   2   8   0.0300   0.0604   0.0513  -0.0123  -0.0417   0.0148   0.00    1.1
2173 288844.000    537554.0470  -4737372.3653   4222643.3836   2   8   0.0299   0.0600   0.0510  -0.0123  -0.0414   0.0145   0.00    1.1
2173 288845.000    537554.0497  -4737372.3738   4222643.4102   2   8   0.0297   0.0597   0.0505  -0.0122  -0.0410   0.0146   0.00    1.1
2173 288846.000    537554.0527  -4737372.3852   4222643.4192   2   8   0.0296   0.0594   0.0501  -0.0120  -0.0407   0.0145   0.00    1.1
2173 288847.000    537554.0589  -4737372.3826   4222643.4266   2   8   0.0295   0.0591   0.0497  -0.0119  -0.0404   0.0142   0.00    1.1
2173 288848.000    537554.0569  -4737372.3879   4222643.4521   2   8   0.0295   0.0588   0.0493  -0.0120  -0.0401   0.0142   0.00    1.1
2173 288849.000    537554.0611  -4737372.3919   4222643.4652   2   8   0.0293   0.0585   0.0489  -0.0118  -0.0398   0.0140   0.00    1.2
2173 288850.000    537554.0639  -4737372.3980   4222643.4784   2   8   0.0291   0.0582   0.0485  -0.0119  -0.0395   0.0140   0.00    1.2
2173 288851.000    537554.0660  -4737372.3956   4222643.4822   2   8   0.0291   0.0579   0.0482  -0.0118  -0.0391   0.0137   0.00    1.2
2173 288852.000    537554.0678  -4737372.4066   4222643.4991   2   8   0.0291   0.0576   0.0478  -0.0118  -0.0388   0.0136   0.00    1.2
2173 288853.000    537554.0690  -4737372.4166   4222643.5139   2   8   0.0288   0.0573   0.0474  -0.0116  -0.0386   0.0135   0.00    1.2
2173 288854.000    537554.0694  -4737372.4261   4222643.5308   2   8   0.0289   0.0570   0.0471  -0.0116  -0.0383   0.0134   0.00    1.2
2173 288855.000    537554.0720  -4737372.4365   4222643.5495   2   8   0.0287   0.0567   0.0467  -0.0116  -0.0380   0.0132   0.00    1.2
2173 288856.000    537554.0763  -4737372.4436   4222643.5676   2   8   0.0286   0.0564   0.0463  -0.0114  -0.0377   0.0132   0.00    1.2
2173 288857.000    537554.0776  -4737372.4467   4222643.5776   2   8   0.0285   0.0562   0.0460  -0.0114  -0.0374   0.0131   0.00    1.2
2173 288858.000    537554.0870  -4737372.4462   4222643.6003   2   8   0.0284   0.0559   0.0456  -0.0115  -0.0371   0.0130   0.00    1.2
2173 288859.000    537554.0881  -4737372.4420   4222643.5929   2   8   0.0284   0.0556   0.0453  -0.0114  -0.0369   0.0128   0.00    1.2
2173 288860.000    537554.0863  -4737372.4414   4222643.5939   2   8   0.0282   0.0553   0.0449  -0.0113  -0.0366   0.0128   0.00    1.2
2173 288861.000    537554.0869  -4737372.4299   4222643.5834   2   8   0.0281   0.0551   0.0446  -0.0113  -0.0363   0.0127   0.00    1.2
2173 288862.000    537554.0870  -4737372.4200   4222643.5825   2   8   0.0280   0.0548   0.0442  -0.0113  -0.0360   0.0125   0.00    1.2
2173 288863.000    537554.0878  -4737372.4068   4222643.5676   2   8   0.0279   0.0545   0.0439  -0.0112  -0.0358   0.0125   0.00    1.2
2173 288864.000    537554.0867  -4737372.4118   4222643.5713   2   8   0.0279   0.0543   0.0436  -0.0111  -0.0356   0.0123   0.00    1.1
2173 288865.000    537554.0840  -4737372.4175   4222643.5687   2   8   0.0278   0.0540   0.0433  -0.0111  -0.0353   0.0121   0.00    1.1
2173 288866.000    537554.0786  -4737372.4171   4222643.5587   2   8   0.0277   0.0537   0.0430  -0.0110  -0.0350   0.0120   0.00    1.1
2173 288867.000    537554.0826  -4737372.4236   4222643.5690   2   8   0.0276   0.0535   0.0426  -0.0110  -0.0348   0.0120   0.00    1.1
2173 288868.000    537554.0825  -4737372.4309   4222643.5714   2   8   0.0275   0.0532   0.0423  -0.0109  -0.0345   0.0120   0.00    1.1
2173 288869.000    537554.0844  -4737372.4293   4222643.5750   2   8   0.0274   0.0530   0.0420  -0.0109  -0.0343   0.0119   0.00    1.1
2173 288870.000    537554.0873  -4737372.4326   4222643.5804   2   8   0.0273   0.0527   0.0417  -0.0110  -0.0340   0.0117   0.00    1.1
2173 288871.000    537554.0879  -4737372.4220   4222643.5811   2   8   0.0273   0.0525   0.0414  -0.0108  -0.0338   0.0116   0.00    1.1
2173 288872.000    537554.0931  -4737372.4261   4222643.5845   2   8   0.0271   0.0522   0.0411  -0.0109  -0.0336   0.0116   0.00    1.1
2173 288873.000    537554.0926  -4737372.4296   4222643.5879   2   8   0.0271   0.0520   0.0408  -0.0107  -0.0333   0.0115   0.00    1.1
2173 288874.000    537554.0907  -4737372.4339   4222643.5892   2   8   0.0270   0.0517   0.0406  -0.0109  -0.0331   0.0112   0.00    1.1
2173 288875.000    537554.0886  -4737372.4299   4222643.5846   2   8   0.0269   0.0515   0.0403  -0.0107  -0.0329   0.0113   0.00    1.1
2173 288876.000    537554.0877  -4737372.4320   4222643.5808   2   8   0.0269   0.0513   0.0399  -0.0108  -0.0326   0.0111   0.00    1.1
2173 288877.000    537554.0888  -4737372.4286   4222643.5824   2   8   0.0267   0.0510   0.0397  -0.0106  -0.0324   0.0110   0.00    1.1
2173 288878.000    537554.0873  -4737372.4276   4222643.5828   2   8   0.0266   0.0508   0.0394  -0.0106  -0.0322   0.0110   0.00    1.1
2173 288879.000    537554.0879  -4737372.4254   4222643.5812   2   8   0.0265   0.0506   0.0391  -0.0105  -0.0320   0.0110   0.00    1.1
2173 288880.000    537554.0890  -4737372.4131   4222643.5690   2   8   0.0265   0.0504   0.0389  -0.0105  -0.0318   0.0108   0.00    1.1
2173 288881.000    537554.0901  -4737372.4057   4222643.5664   2   8   0.0265   0.0501   0.0386  -0.0105  -0.0316   0.0106   0.00    1.1
2173 288882.000    537554.0912  -4737372.4097   4222643.5701   2   8   0.0262   0.0499   0.0383  -0.0105  -0.0314   0.0107   0.00    1.1
2173 288883.000    537554.0894  -4737372.3989   4222643.5572   2   8   0.0262   0.0497   0.0381  -0.0106  -0.0312   0.0107   0.00    1.1
2173 288884.000    537554.0916  -4737372.3967   4222643.5562   2   8   0.0261   0.0495   0.0378  -0.0105  -0.0310   0.0106   0.00    1.1
2173 288885.000    537554.0944  -4737372.3856   4222643.5551   2   8   0.0261   0.0493   0.0375  -0.0103  -0.0308   0.0105   0.00    1.0
2173 288886.000    537554.0910  -4737372.3812   4222643.5462   2   8   0.0259   0.0490   0.0373  -0.0105  -0.0306   0.0104   0.00    1.0
2173 288887.000    537554.0914  -4737372.3766   4222643.5444   2   8   0.0259   0.0488   0.0371  -0.0104  -0.0304   0.0102   0.00    1.0
2173 288888.000    537554.0906  -4737372.3702   4222643.5390   2   8   0.0258   0.0486   0.0368  -0.0104  -0.0302   0.0102   0.00    1.0
2173 288889.000    537554.0921  -4737372.3711   4222643.5387   2   8   0.0257   0.0484   0.0366  -0.0104  -0.0300   0.0103   0.00    1.0
2173 288890.000    537554.0901  -4737372.3690   4222643.5340   2   8   0.0256   0.0482   0.0363  -0.0102  -0.0298   0.0100   0.00    1.0
2173 288891.000    537554.0902  -4737372.3664   4222643.5338   2   8   0.0257   0.0480   0.0361  -0.0104  -0.0296   0.0100   0.00    1.0
2173 288892.000    537554.0879  -4737372.3694   4222643.5396   2   8   0.0255   0.0478   0.0359  -0.0104  -0.0294   0.0100   0.00    1.0
2173 288893.000    537554.0890  -4737372.3725   4222643.5399   2   8   0.0255   0.0476   0.0356  -0.0103  -0.0292   0.0098   0.00    1.0
2173 288894.000    537554.0879  -4737372.3742   4222643.5423   2   8   0.0254   0.0474   0.0354  -0.0102  -0.0291   0.0099   0.00    1.0
2173 288895.000    537554.0887  -4737372.3700   4222643.5442   2   8   0.0254   0.0472   0.0351  -0.0102  -0.0289   0.0097   0.00    1.0
2173 288896.000    537554.0895  -4737372.3712   4222643.5456   2   8   0.0253   0.0470   0.0349  -0.0101  -0.0287   0.0097   0.00    1.0
2173 288897.000    537554.0886  -4737372.3703   4222643.5456   2   8   0.0252   0.0468   0.0347  -0.0103  -0.0285   0.0096   0.00    1.0
2173 288898.000    537554.0850  -4737372.3736   4222643.5526   2   8   0.0252   0.0466   0.0345  -0.0102  -0.0283   0.0094   0.00    1.0
2173 288899.000    537554.0895  -4737372.3800   4222643.5637   2   8   0.0250   0.0464   0.0343  -0.0101  -0.0282   0.0095   0.00    1.0
2173 288900.000    537554.0883  -4737372.3754   4222643.5558   2   8   0.0248   0.0462   0.0340  -0.0101  -0.0280   0.0095   0.00    1.0
2173 288901.000    537554.0881  -4737372.3714   4222643.5613   2   8   0.0249   0.0460   0.0339  -0.0101  -0.0278   0.0092   0.00    1.0
2173 288902.000    537554.0922  -4737372.3705   4222643.5598   2   8   0.0247   0.0458   0.0336  -0.0100  -0.0276   0.0094   0.00    1.0
2173 288903.000    537554.0951  -4737372.3668   4222643.5632   2   8   0.0248   0.0457   0.0334  -0.0099  -0.0275   0.0092   0.00    1.0
2173 288904.000    537554.0971  -4737372.3593   4222643.5577   2   8   0.0246   0.0455   0.0332  -0.0100  -0.0273   0.0091   0.00    1.0
2173 288905.000    537554.0986  -4737372.3568   4222643.5610   2   8   0.0246   0.0453   0.0330  -0.0101  -0.0272   0.0092   0.00    1.0
2173 288906.000    537554.1037  -4737372.3464   4222643.5564   2   8   0.0245   0.0451   0.0328  -0.0101  -0.0270   0.0091   0.00    1.0
2173 288907.000    537554.1055  -4737372.3430   4222643.5581   2   8   0.0244   0.0449   0.0326  -0.0099  -0.0269   0.0090   0.00    1.0
2173 288908.000    537554.1047  -4737372.3427   4222643.5625   2   8   0.0243   0.0447   0.0324  -0.0100  -0.0267   0.0089   0.00    1.0
2173 288909.000    537554.1066  -4737372.3358   4222643.5629   2   8   0.0242   0.0446   0.0322  -0.0100  -0.0266   0.0089   0.00    1.0
2173 288910.000    537554.1077  -4737372.3375   4222643.5612   2   8   0.0244   0.0444   0.0321  -0.0097  -0.0264   0.0086   0.00    1.0
2173 288911.000    537554.1085  -4737372.3357   4222643.5563   2   8   0.0243   0.0442   0.0319  -0.0100  -0.0262   0.0085   0.00    1.0
2173 288912.000    537554.1091  -4737372.3456   4222643.5652   2   8   0.0242   0.0440   0.0317  -0.0098  -0.0261   0.0085   0.00    1.0
2173 288913.000    537554.1102  -4737372.3460   4222643.5659   2   8   0.0241   0.0439   0.0315  -0.0100  -0.0259   0.0086   0.00    1.0
2173 288914.000    537554.1111  -4737372.3487   4222643.5688   2   8   0.0241   0.0437   0.0313  -0.0099  -0.0258   0.0085   0.00    1.1
2173 288915.000    537554.1123  -4737372.3552   4222643.5737   2   8   0.0238   0.0435   0.0311  -0.0099  -0.0257   0.0083   0.00    1.1
2173 288916.000    537554.1155  -4737372.3523   4222643.5794   2   8   0.0239   0.0433   0.0310  -0.0100  -0.0255   0.0084   0.00    1.1
2173 288917.000    537554.1203  -4737372.3537   4222643.5834   2   8   0.0238   0.0432   0.0308  -0.0098  -0.0254   0.0084   0.00    1.1
2173 288918.000    537554.1141  -4737372.3755   4222643.6068   2   8   0.0236   0.0430   0.0306  -0.0099  -0.0252   0.0083   0.00    1.1
2173 288919.000    537554.1137  -4737372.3884   4222643.6174   2   8   0.0238   0.0429   0.0304  -0.0097  -0.0251   0.0082   0.00    1.1
2173 288920.000    537554.1159  -4737372.3986   4222643.6295   2   8   0.0237   0.0427   0.0302  -0.0098  -0.0249   0.0081   0.00    1.1
2173 288921.000    537554.1151  -4737372.4085   4222643.6387   2   8   0.0237   0.0425   0.0301  -0.0099  -0.0249   0.0079   0.00    1.1
2173 288922.000    537554.1185  -4737372.4140   4222643.6509   2   8   0.0235   0.0424   0.0299  -0.0099  -0.0247   0.0084   0.00    1.1
2173 288923.000    537554.1199  -4737372.4280   4222643.6650   2   8   0.0234   0.0422   0.0297  -0.0098  -0.0246   0.0078   0.00    1.1
2173 288924.000    537554.1207  -4737372.4351   4222643.6727   2   8   0.0234   0.0421   0.0296  -0.0097  -0.0244   0.0079   0.00    1.1
2173 288925.000    537554.1198  -4737372.4473   4222643.6910   2   8   0.0233   0.0419   0.0295  -0.0097  -0.0243   0.0077   0.00    1.1
2173 288926.000    537554.1192  -4737372.4541   4222643.6920   2   8   0.0234   0.0418   0.0292  -0.0097  -0.0241   0.0078   0.00    1.1
2173 288927.000    537554.1215  -4737372.4610   4222643.6990   2   8   0.0233   0.0416   0.0291  -0.0097  -0.0241   0.0078   0.00    1.1
2173 288928.000    537554.1217  -4737372.4683   4222643.7079   2   8   0.0231   0.0414   0.0290  -0.0097  -0.0239   0.0077   0.00    1.1
2173 288929.000    537554.1216  -4737372.4677   4222643.7144   2   8   0.0231   0.0413   0.0288  -0.0098  -0.0238   0.0078   0.00    1.1
2173 288930.000    537554.1223  -4737372.4801   4222643.7234   2   8   0.0231   0.0411   0.0286  -0.0097  -0.0237   0.0078   0.00    1.1
2173 288931.000    537554.1214  -4737372.4785   4222643.7241   2   8   0.0230   0.0410   0.0285  -0.0097  -0.0236   0.0078   0.00    1.1
2173 288932.000    537554.1243  -4737372.4893   4222643.7385   2   8   0.0229   0.0409   0.0284  -0.0095  -0.0234   0.0075   0.00    1.1
2173 288933.000    537554.1240  -4737372.5017   4222643.7475   2   8   0.0228   0.0407   0.0282  -0.0096  -0.0233   0.0075   0.00    1.1
2173 288934.000    537554.1254  -4737372.5106   4222643.7583   2   8   0.0229   0.0405   0.0280  -0.0096  -0.0232   0.0074   0.00    1.2
2173 288935.000    537554.1254  -4737372.5147   4222643.7633   2   8   0.0228   0.0404   0.0279  -0.0096  -0.0231   0.0072   0.00    1.2
2173 288936.000    537554.1248  -4737372.5245   4222643.7693   2   8   0.0227   0.0402   0.0278  -0.0095  -0.0230   0.0073   0.00    1.2
2173 288937.000    537554.1258  -4737372.5241   4222643.7618   2   8   0.0228   0.0401   0.0276  -0.0097  -0.0228   0.0070   0.00    1.2
2173 288938.000    537554.1274  -4737372.5337   4222643.7731   2   8   0.0226   0.0400   0.0275  -0.0097  -0.0227   0.0071   0.00    1.2
2173 288939.000    537554.1265  -4737372.5437   4222643.7743   2   8   0.0226   0.0398   0.0273  -0.0095  -0.0226   0.0071   0.00    1.2
2173 288940.000    537554.1258  -4737372.5480   4222643.7755   2   8   0.0225   0.0397   0.0272  -0.0096  -0.0225   0.0073   0.00    1.2
2173 288941.000    537554.1276  -4737372.5548   4222643.7833   2   8   0.0226   0.0396   0.0270  -0.0096  -0.0224   0.0069   0.00    1.2
2173 288942.000    537554.1278  -4737372.5510   4222643.7764   2   8   0.0224   0.0394   0.0269  -0.0096  -0.0223   0.0070   0.00    1.2
2173 288943.000    537554.1287  -4737372.5594   4222643.7793   2   8   0.0224   0.0393   0.0268  -0.0095  -0.0222   0.0070   0.00    1.2
2173 288944.000    537554.1284  -4737372.5664   4222643.7819   2   8   0.0221   0.0391   0.0266  -0.0095  -0.0221   0.0070   0.00    1.2
2173 288945.000    537554.1273  -4737372.5654   4222643.7752   2   8   0.0223   0.0390   0.0265  -0.0096  -0.0220   0.0069   0.00    1.2
2173 288946.000    537554.1284  -4737372.5752   4222643.7758   2   8   0.0222   0.0389   0.0264  -0.0094  -0.0219   0.0070   0.00    1.2
2173 288947.000    537554.1278  -4737372.5799   4222643.7752   2   8   0.0222   0.0387   0.0263  -0.0095  -0.0217   0.0066   0.00    1.2
2173 288948.000    537554.1281  -4737372.5810   4222643.7799   2   8   0.0221   0.0386   0.0261  -0.0095  -0.0217   0.0068   0.00    1.2
2173 288949.000    537554.1322  -4737372.5836   4222643.7794   2   8   0.0219   0.0385   0.0260  -0.0096  -0.0216   0.0068   0.00    1.2
2173 288950.000    537554.1312  -4737372.5858   4222643.7775   2   8   0.0219   0.0383   0.0258  -0.0095  -0.0215   0.0069   0.00    1.2
2173 288951.000    537554.1311  -4737372.5951   4222643.7768   2   8   0.0219   0.0382   0.0258  -0.0095  -0.0214   0.0067   0.00    1.2
2173 288952.000    537554.1326  -4737372.6011   4222643.7762   2   8   0.0219   0.0380   0.0256  -0.0095  -0.0213   0.0069   0.00    1.2
2173 288953.000    537554.1323  -4737372.6106   4222643.7795   2   8   0.0219   0.0379   0.0255  -0.0096  -0.0211   0.0064   0.00    1.2
2173 288954.000    537554.1316  -4737372.6150   4222643.7819   2   8   0.0218   0.0378   0.0254  -0.0094  -0.0211   0.0065   0.00    1.2
2173 288955.000    537554.1313  -4737372.6223   4222643.7796   2   8   0.0217   0.0377   0.0252  -0.0096  -0.0210   0.0067   0.00    1.3
2173 288956.000    537554.1273  -4737372.6306   4222643.7809   2   8   0.0215   0.0375   0.0251  -0.0094  -0.0209   0.0065   0.00    1.3
2173 288957.000    537554.1269  -4737372.6289   4222643.7766   2   8   0.0216   0.0374   0.0250  -0.0095  -0.0208   0.0066   0.00    1.3
2173 288958.000    537554.1289  -4737372.6385   4222643.7790   2   8   0.0215   0.0373   0.0249  -0.0094  -0.0207   0.0066   0.00    1.3
2173 288959.000    537554.1275  -4737372.6485   4222643.7924   2   8   0.0215   0.0372   0.0248  -0.0095  -0.0206   0.0064   0.00    1.3
2173 288960.000    537554.1292  -4737372.6514   4222643.7959   2   8   0.0216   0.0371   0.0248  -0.0095  -0.0205   0.0062   0.00    1.3
2173 288961.000    537554.1250  -4737372.6568   4222643.7937   2   8   0.0214   0.0369   0.0246  -0.0095  -0.0204   0.0062   0.00    1.3
2173 288962.000    537554.1271  -4737372.6605   4222643.7951   2   8   0.0212   0.0368   0.0245  -0.0094  -0.0203   0.0066   0.00    1.3
2173 288963.000    537554.1299  -4737372.6728   4222643.8025   2   8   0.0215   0.0367   0.0244  -0.0096  -0.0202   0.0060   0.00    1.3
2173 288964.000    537554.1311  -4737372.6785   4222643.8049   2   8   0.0213   0.0366   0.0242  -0.0094  -0.0202   0.0064   0.00    1.3
2173 288965.000    537554.1297  -4737372.6882   4222643.8065   2   8   0.0212   0.0365   0.0241  -0.0094  -0.0201   0.0059   0.00    1.3
2173 288966.000    537554.1287  -4737372.6781   4222643.7971   2   8   0.0210   0.0364   0.0240  -0.0094  -0.0200   0.0063   0.00    1.3
2173 288967.000    537554.1280  -4737372.6739   4222643.7951   2   8   0.0211   0.0362   0.0239  -0.0093  -0.0199   0.0064   0.00    1.3
2173 288968.000    537554.1300  -4737372.6824   4222643.8013   2   8   0.0211   0.0361   0.0239  -0.0094  -0.0198   0.0058   0.00    1.3
2173 288969.000    537554.1292  -4737372.6821   4222643.7918   2   8   0.0211   0.0360   0.0237  -0.0093  -0.0197   0.0062   0.00    1.3
2173 288970.000    537554.1268  -4737372.6831   4222643.7873   2   8   0.0211   0.0359   0.0236  -0.0094  -0.0197   0.0061   0.00    1.3
2173 288971.000    537554.1287  -4737372.6933   4222643.7940   2   8   0.0208   0.0358   0.0235  -0.0094  -0.0196   0.0062   0.00    1.3
2173 288972.000    537554.1263  -4737372.6959   4222643.7893   2   8   0.0211   0.0357   0.0235  -0.0093  -0.0195   0.0057   0.00    1.3
2173 288973.000    537554.1294  -4737372.6951   4222643.7948   2   8   0.0209   0.0355   0.0233  -0.0093  -0.0194   0.0060   0.00    1.3
2173 288974.000    537554.1293  -4737372.6974   4222643.7881   2   8   0.0207   0.0354   0.0232  -0.0092  -0.0193   0.0060   0.00    1.3
2173 288975.000    537554.1288  -4737372.6903   4222643.7896   2   8   0.0209   0.0353   0.0232  -0.0094  -0.0193   0.0057   0.00    1.3
2173 288976.000    537554.1431  -4737372.6861   4222643.7551   2   8   0.0208   0.0352   0.0230  -0.0093  -0.0192   0.0057   0.00    1.3
2173 288977.000    537554.1438  -4737372.6793   4222643.7451   2   8   0.0205   0.0351   0.0229  -0.0093  -0.0191   0.0059   0.00    1.3
2173 288978.000    537554.1428  -4737372.6837   4222643.7479   2   8   0.0207   0.0350   0.0228  -0.0094  -0.0190   0.0057   0.00    1.3
2173 288979.000    537554.1403  -4737372.6887   4222643.7472   2   8   0.0207   0.0349   0.0227  -0.0093  -0.0190   0.0055   0.00    1.3
2173 288980.000    537554.1391  -4737372.6984   4222643.7492   2   8   0.0205   0.0347   0.0226  -0.0093  -0.0189   0.0059   0.00    1.4
2173 288981.000    537554.1390  -4737372.7083   4222643.7472   2   8   0.0204   0.0347   0.0225  -0.0093  -0.0188   0.0057   0.00    1.4
2173 288982.000    537554.1367  -4737372.7156   4222643.7466   2   8   0.0205   0.0345   0.0225  -0.0094  -0.0187   0.0058   0.00    1.4
2173 288983.000    537554.1356  -4737372.7288   4222643.7467   2   8   0.0204   0.0345   0.0224  -0.0092  -0.0186   0.0055   0.00    1.4
2173 288984.000    537554.1374  -4737372.7378   4222643.7545   2   8   0.0205   0.0343   0.0223  -0.0093  -0.0186   0.0054   0.00    1.4
2173 288985.000    537554.1394  -4737372.7404   4222643.7506   2   8   0.0204   0.0342   0.0222  -0.0092  -0.0185   0.0055   0.00    1.4
2173 288986.000    537554.1391  -4737372.7485   4222643.7533   2   8   0.0203   0.0341   0.0221  -0.0094  -0.0185   0.0055   0.00    1.4
2173 288987.000    537554.1415  -4737372.7571   4222643.7584   2   8   0.0203   0.0340   0.0220  -0.0093  -0.0184   0.0055   0.00    1.4
2173 288988.000    537554.1437  -4737372.7579   4222643.7538   2   8   0.0203   0.0339   0.0220  -0.0093  -0.0183   0.0052   0.00    1.4
2173 288989.000    537554.1459  -4737372.7680   4222643.7588   2   8   0.0203   0.0338   0.0219  -0.0093  -0.0182   0.0054   0.00    1.4
2173 288990.000    537554.1467  -4737372.7739   4222643.7563   2   8   0.0203   0.0337   0.0218  -0.0093  -0.0182   0.0052   0.00    1.4
2173 288991.000    537554.1477  -4737372.7720   4222643.7502   2   8   0.0200   0.0336   0.0217  -0.0093  -0.0181   0.0058   0.00    1.4
2173 288992.000    537554.1499  -4737372.7763   4222643.7489   2   8   0.0201   0.0335   0.0216  -0.0094  -0.0181   0.0054   0.00    1.4
2173 288993.000    537554.1493  -4737372.7827   4222643.7486   2   8   0.0200   0.0334   0.0215  -0.0093  -0.0179   0.0054   0.00    1.4
2173 288994.000    537554.1477  -4737372.7831   4222643.7395   2   8   0.0200   0.0333   0.0215  -0.0093  -0.0179   0.0052   0.00    1.4
2173 288995.000    537554.1473  -4737372.7911   4222643.7357   2   8   0.0199   0.0332   0.0214  -0.0092  -0.0179   0.0051   0.00    1.4
2173 288996.000    537554.1471  -4737372.7961   4222643.7373   2   8   0.0199   0.0331   0.0213  -0.0092  -0.0178   0.0055   0.00    1.4
2173 288997.000    537554.1478  -4737372.8129   4222643.7351   2   8   0.0198   0.0330   0.0212  -0.0093  -0.0177   0.0054   0.00    1.4
2173 288998.000    537554.1451  -4737372.8126   4222643.7279   2   8   0.0199   0.0329   0.0211  -0.0093  -0.0176   0.0048   0.00    1.4
2173 288999.000    537554.1453  -4737372.8226   4222643.7251   2   8   0.0199   0.0328   0.0211  -0.0091  -0.0176   0.0050   0.00    1.4
2173 289000.000    537554.1451  -4737372.8277   4222643.7233   2   8   0.0198   0.0327   0.0210  -0.0091  -0.0175   0.0052   0.00    1.4
2173 289001.000    537554.1448  -4737372.8330   4222643.7210   2   8   0.0197   0.0326   0.0209  -0.0093  -0.0174   0.0052   0.00    1.4
2173 289002.000    537554.1424  -4737372.8357   4222643.7230   2   8   0.0195   0.0325   0.0208  -0.0092  -0.0174   0.0055   0.00    1.4
2173 289003.000    537554.1441  -4737372.8392   4222643.7149   2   8   0.0197   0.0324   0.0208  -0.0092  -0.0173   0.0046   0.00    1.4
2173 289004.000    537554.1433  -4737372.8419   4222643.7134   2   8   0.0195   0.0324   0.0207  -0.0092  -0.0173   0.0051   0.00    1.4
2173 289005.000    537554.1412  -4737372.8482   4222643.7078   2   8   0.0193   0.0322   0.0205  -0.0093  -0.0172   0.0052   0.00    1.4
2173 289006.000    537554.1392  -4737372.8553   4222643.7087   2   8   0.0194   0.0322   0.0205  -0.0091  -0.0171   0.0052   0.00    1.4
2173 289007.000    537554.1392  -4737372.8654   4222643.7146   2   8   0.0195   0.0321   0.0205  -0.0091  -0.0171   0.0052   0.00    1.4
2173 289008.000    537554.1313  -4737372.7915   4222643.6347   2   8   0.0193   0.0320   0.0204  -0.0092  -0.0171   0.0051   0.00    1.4
2173 289009.000    537554.1345  -4737372.7957   4222643.6400   2   8   0.0195   0.0319   0.0203  -0.0091  -0.0170   0.0050   0.00    1.4
2173 289010.000    537554.1365  -4737372.8020   4222643.6495   2   8   0.0193   0.0318   0.0202  -0.0091  -0.0169   0.0048   0.00    1.4
2173 289011.000    537554.1402  -4737372.8127   4222643.6602   2   8   0.0193   0.0317   0.0202  -0.0092  -0.0169   0.0048   0.00    1.4
2173 289012.000    537554.1428  -4737372.8119   4222643.6650   2   8   0.0193   0.0316   0.0201  -0.0092  -0.0168   0.0049   0.00    1.4
2173 289013.000    537554.1474  -4737372.8102   4222643.6727   2   8   0.0191   0.0315   0.0200  -0.0093  -0.0168   0.0050   0.00    1.4
2173 289014.000    537554.1502  -4737372.8150   4222643.6807   2   8   0.0191   0.0314   0.0199  -0.0091  -0.0167   0.0051   0.00    1.4
2173 289015.000    537554.1499  -4737372.8273   4222643.6959   2   8   0.0190   0.0314   0.0199  -0.0091  -0.0166   0.0049   0.00    1.4
2173 289016.000    537554.1522  -4737372.8337   4222643.7033   2   8   0.0192   0.0313   0.0198  -0.0092  -0.0166   0.0046   0.00    1.4
2173 289017.000    537554.1509  -4737372.8427   4222643.7137   2   8   0.0193   0.0312   0.0198  -0.0092  -0.0165   0.0047   0.00    1.4
2173 289018.000    537554.1523  -4737372.8493   4222643.7229   2   8   0.0191   0.0311   0.0197  -0.0092  -0.0165   0.0042   0.00    1.4
2173 289019.000    537554.1553  -4737372.8593   4222643.7330   2   8   0.0190   0.0310   0.0196  -0.0092  -0.0164   0.0048   0.00    1.3
2173 289020.000    537554.1541  -4737372.8716   4222643.7461   2   8   0.0188   0.0309   0.0195  -0.0092  -0.0164   0.0050   0.00    1.3
2173 289021.000    537554.1559  -4737372.8757   4222643.7509   2   8   0.0191   0.0309   0.0195  -0.0091  -0.0163   0.0044   0.00    1.3
2173 289022.000    537554.1564  -4737372.8859   4222643.7676   2   8   0.0189   0.0308   0.0195  -0.0089  -0.0163   0.0048   0.00    1.3
2173 289023.000    537554.1585  -4737372.8873   4222643.7745   2   8   0.0188   0.0307   0.0194  -0.0091  -0.0162   0.0047   0.00    1.3
2173 289024.000    537554.1612  -4737372.8968   4222643.7836   2   8   0.0188   0.0306   0.0193  -0.0091  -0.0162   0.0047   0.00    1.3
2173 289025.000    537554.1609  -4737372.9044   4222643.7909   2   8   0.0187   0.0305   0.0193  -0.0090  -0.0161   0.0045   0.00    1.3
2173 289026.000    537554.1654  -4737372.9107   4222643.7992   2   8   0.0188   0.0304   0.0192  -0.0091  -0.0161   0.0044   0.00    1.3
2173 289027.000    537554.1652  -4737372.9157   4222643.7974   2   8   0.0186   0.0303   0.0192  -0.0092  -0.0160   0.0048   0.00    1.3
2173 289028.000    537554.1654  -4737372.9249   4222643.8087   2   8   0.0187   0.0302   0.0191  -0.0092  -0.0160   0.0041   0.00    1.3
2173 289029.000    537554.1635  -4737372.9293   4222643.8110   2   8   0.0187   0.0302   0.0190  -0.0090  -0.0159   0.0044   0.00    1.3
2173 289030.000    537554.1636  -4737372.9271   4222643.8077   2   8   0.0187   0.0301   0.0190  -0.0090  -0.0159   0.0042   0.00    1.2
2173 289031.000    537554.1622  -4737372.9354   4222643.8194   2   8   0.0186   0.0300   0.0189  -0.0090  -0.0158   0.0044   0.00    1.2
2173 289032.000    537554.1644  -4737372.9371   4222643.8271   2   8   0.0185   0.0299   0.0188  -0.0091  -0.0158   0.0046   0.00    1.2
2173 289033.000    537554.1665  -4737372.9447   4222643.8392   2   8   0.0186   0.0299   0.0188  -0.0090  -0.0157   0.0042   0.00    1.2
2173 289034.000    537554.1666  -4737372.9443   4222643.8369   2   8   0.0185   0.0298   0.0188  -0.0092  -0.0156   0.0042   0.00    1.2
2173 289035.000    537554.1671  -4737372.9471   4222643.8469   2   8   0.0185   0.0297   0.0187  -0.0090  -0.0157   0.0044   0.00    1.2
2173 289036.000    537554.1685  -4737372.9497   4222643.8446   2   8   0.0184   0.0296   0.0186  -0.0091  -0.0156   0.0045   0.00    1.2
2173 289037.000    537554.1696  -4737372.9583   4222643.8570   2   8   0.0183   0.0295   0.0186  -0.0090  -0.0156   0.0046   0.00    1.2
2173 289038.000    537554.1710  -4737372.9586   4222643.8650   2   8   0.0184   0.0295   0.0186  -0.0091  -0.0155   0.0041   0.00    1.2
2173 289039.000    537554.1743  -4737372.9623   4222643.8764   2   8   0.0182   0.0294   0.0184  -0.0091  -0.0154   0.0047   0.00    1.2
2173 289040.000    537554.1767  -4737372.9591   4222643.8821   2   8   0.0184   0.0293   0.0184  -0.0091  -0.0154   0.0041   0.00    1.2
2173 289041.000    537554.1804  -4737372.9645   4222643.8950   2   8   0.0184   0.0292   0.0183  -0.0090  -0.0153   0.0044   0.00    1.2
2173 289042.000    537554.1821  -4737372.9645   4222643.9034   2   8   0.0181   0.0292   0.0183  -0.0091  -0.0154   0.0042   0.00    1.2
2173 289043.000    537554.1834  -4737372.9689   4222643.9109   2   8   0.0181   0.0291   0.0182  -0.0091  -0.0153   0.0046   0.00    1.1
2173 289044.000    537554.1843  -4737372.9743   4222643.9149   2   8   0.0181   0.0290   0.0182  -0.0090  -0.0153   0.0042   0.00    1.1
2173 289045.000    537554.1853  -4737372.9829   4222643.9265   2   8   0.0180   0.0289   0.0181  -0.0090  -0.0152   0.0043   0.00    1.1
2173 289046.000    537554.1844  -4737372.9826   4222643.9293   2   8   0.0180   0.0289   0.0181  -0.0089  -0.0152   0.0042   0.00    1.1
2173 289047.000    537554.1851  -4737372.9867   4222643.9353   2   8   0.0181   0.0288   0.0181  -0.0090  -0.0151   0.0038   0.00    1.1
2173 289048.000    537554.1879  -4737372.9925   4222643.9449   2   8   0.0178   0.0287   0.0179  -0.0089  -0.0151   0.0042   0.00    1.1
2173 289049.000    537554.1886  -4737372.9946   4222643.9534   2   8   0.0180   0.0286   0.0179  -0.0091  -0.0150   0.0043   0.00    1.1
2173 289050.000    537554.1909  -4737372.9944   4222643.9571   2   8   0.0179   0.0286   0.0180  -0.0090  -0.0150   0.0038   0.00    1.1
2173 289051.000    537554.1942  -4737372.9990   4222643.9635   2   8   0.0180   0.0285   0.0179  -0.0090  -0.0150   0.0041   0.00    1.1
2173 289052.000    537554.1962  -4737373.0083   4222643.9755   2   8   0.0180   0.0284   0.0178  -0.0089  -0.0149   0.0041   0.00    1.1
2173 289053.000    537554.1974  -4737373.0052   4222643.9768   2   8   0.0178   0.0284   0.0177  -0.0090  -0.0149   0.0044   0.00    1.1
2173 289054.000    537554.1998  -4737372.9997   4222643.9733   2   8   0.0178   0.0283   0.0177  -0.0089  -0.0149   0.0040   0.00    1.1
2173 289055.000    537554.2014  -4737373.0033   4222643.9836   2   8   0.0179   0.0282   0.0177  -0.0089  -0.0148   0.0039   0.00    1.1
2173 289056.000    537554.2042  -4737373.0070   4222643.9874   2   8   0.0176   0.0281   0.0176  -0.0090  -0.0148   0.0043   0.00    1.0
2173 289057.000    537554.2057  -4737373.0117   4222643.9905   2   8   0.0178   0.0281   0.0176  -0.0090  -0.0147   0.0039   0.00    1.0
2173 289058.000    537554.2048  -4737373.0135   4222643.9928   2   8   0.0177   0.0280   0.0175  -0.0091  -0.0147   0.0042   0.00    1.0
2173 289059.000    537554.2034  -4737373.0239   4222644.0007   2   8   0.0176   0.0279   0.0174  -0.0088  -0.0147   0.0041   0.00    1.0
2173 289060.000    537554.2040  -4737373.0249   4222644.0040   2   8   0.0177   0.0279   0.0174  -0.0089  -0.0146   0.0037   0.00    1.0
2173 289061.000    537554.2026  -4737373.0315   4222644.0026   2   8   0.0176   0.0278   0.0174  -0.0089  -0.0145   0.0037   0.00    1.0
2173 289062.000    537554.2048  -4737373.0347   4222644.0064   2   8   0.0175   0.0277   0.0173  -0.0089  -0.0145   0.0042   0.00    1.0
2173 289063.000    537554.2012  -4737373.0369   4222644.0140   2   8   0.0174   0.0277   0.0173  -0.0089  -0.0145   0.0039   0.00    1.0
2173 289064.000    537554.2030  -4737373.0557   4222644.0255   2   8   0.0175   0.0276   0.0172  -0.0090  -0.0144   0.0040   0.00    1.0
2173 289065.000    537554.2035  -4737373.0704   4222644.0400   2   8   0.0173   0.0275   0.0172  -0.0089  -0.0144   0.0042   0.00    1.0
2173 289066.000    537554.2025  -4737373.0751   4222644.0409   2   8   0.0175   0.0275   0.0172  -0.0090  -0.0144   0.0037   0.00    1.0
2173 289067.000    537554.2022  -4737373.0733   4222644.0434   2   8   0.0174   0.0274   0.0171  -0.0088  -0.0143   0.0038   0.00    1.0
2173 289068.000    537554.2064  -4737373.0786   4222644.0554   2   8   0.0174   0.0273   0.0171  -0.0088  -0.0143   0.0039   0.00    1.0
2173 289069.000    537554.2075  -4737373.0748   4222644.0567   2   8   0.0174   0.0273   0.0171  -0.0089  -0.0142   0.0040   0.00    1.0
2173 289070.000    537554.2122  -4737373.0784   4222644.0599   2   8   0.0173   0.0272   0.0170  -0.0090  -0.0142   0.0036   0.00    1.0
2173 289071.000    537554.2162  -4737373.0744   4222644.0653   2   8   0.0172   0.0272   0.0169  -0.0090  -0.0142   0.0040   0.00    1.0
2173 289072.000    537554.2166  -4737373.0703   4222644.0574   2   8   0.0173   0.0271   0.0169  -0.0088  -0.0142   0.0040   0.00    1.1
2173 289073.000    537554.2193  -4737373.0773   4222644.0657   2   8   0.0172   0.0270   0.0169  -0.0087  -0.0141   0.0039   0.00    1.1
2173 289074.000    537554.2213  -4737373.0783   4222644.0667   2   8   0.0170   0.0269   0.0168  -0.0090  -0.0142   0.0042   0.00    1.1
2173 289075.000    537554.2246  -4737373.0859   4222644.0762   2   8   0.0172   0.0269   0.0168  -0.0088  -0.0141   0.0037   0.00    1.1
2173 289076.000    537554.2236  -4737373.0878   4222644.0776   2   8   0.0172   0.0268   0.0168  -0.0087  -0.0140   0.0037   0.00    1.1
2173 289077.000    537554.2267  -4737373.0841   4222644.0775   2   8   0.0173   0.0268   0.0167  -0.0088  -0.0140   0.0036   0.00    1.1
2173 289078.000    537554.2262  -4737373.0933   4222644.0845   2   8   0.0170   0.0267   0.0166  -0.0088  -0.0140   0.0042   0.00    1.1
2173 289079.000    537554.2311  -4737373.0902   4222644.0838   2   8   0.0168   0.0266   0.0167  -0.0089  -0.0140   0.0041   0.00    1.1
2173 289080.000    537554.2311  -4737373.0944   4222644.0885   2   8   0.0169   0.0266   0.0166  -0.0088  -0.0139   0.0038   0.00    1.1
2173 289081.000    537554.2302  -4737373.0926   4222644.0885   2   8   0.0171   0.0265   0.0166  -0.0088  -0.0139   0.0037   0.00    1.0
2173 289082.000    537554.2334  -4737373.0975   4222644.0965   2   8   0.0169   0.0265   0.0164  -0.0086  -0.0139   0.0040   0.00    1.0
2173 289083.000    537554.2351  -4737373.1001   4222644.0983   2   8   0.0168   0.0265   0.0165  -0.0086  -0.0138   0.0042   0.00    1.0
2173 289084.000    537554.2358  -4737373.0952   4222644.0966   2   8   0.0168   0.0264   0.0164  -0.0087  -0.0138   0.0040   0.00    1.0
2173 289085.000    537554.2365  -4737373.1054   4222644.1059   2   8   0.0169   0.0263   0.0164  -0.0088  -0.0138   0.0037   0.00    1.0
2173 289086.000    537554.2382  -4737373.1065   4222644.1054   2   8   0.0167   0.0262   0.0163  -0.0088  -0.0138   0.0040   0.00    1.0
2173 289087.000    537554.2463  -4737373.1092   4222644.1086   2   8   0.0165   0.0261   0.0163  -0.0088  -0.0137   0.0041   0.00    1.0
2173 289088.000    537554.2403  -4737373.1059   4222644.1052   2   8   0.0168   0.0261   0.0163  -0.0088  -0.0136   0.0036   0.00    1.0
2173 289089.000    537554.2399  -4737373.1099   4222644.1013   2   8   0.0167   0.0261   0.0163  -0.0088  -0.0136   0.0039   0.00    1.0
2173 289090.000    537554.2420  -4737373.1124   4222644.1097   2   8   0.0167   0.0260   0.0162  -0.0086  -0.0136   0.0037   0.00    1.0
2173 289091.000    537554.2418  -4737373.1134   4222644.1094   2   8   0.0167   0.0259   0.0163  -0.0088  -0.0136   0.0035   0.00    1.0
2173 289092.000    537554.2451  -4737373.1127   4222644.1084   2   8   0.0168   0.0258   0.0162  -0.0088  -0.0136   0.0033   0.00    1.0
2173 289093.000    537554.2475  -4737373.1190   4222644.1125   2   8   0.0165   0.0258   0.0161  -0.0087  -0.0135   0.0038   0.00    1.0
2173 289094.000    537554.2503  -4737373.1169   4222644.1081   2   8   0.0166   0.0257   0.0161  -0.0088  -0.0135   0.0036   0.00    1.0
2173 289095.000    537554.2521  -4737373.1212   4222644.1121   2   8   0.0165   0.0256   0.0160  -0.0090  -0.0135   0.0036   0.00    1.0
2173 289096.000    537554.2492  -4737373.1122   4222644.1234   2   8   0.0166   0.0256   0.0160  -0.0087  -0.0135   0.0032   0.00    1.0
2173 289097.000    537554.2513  -4737373.1096   4222644.1232   2   8   0.0166   0.0256   0.0160  -0.0086  -0.0134   0.0039   0.00    1.0
2173 289098.000    537554.2517  -4737373.0966   4222644.1199   2   8   0.0166   0.0255   0.0160  -0.0087  -0.0134   0.0036   0.00    1.0
2173 289099.000    537554.2561  -4737373.0890   4222644.1189   2   8   0.0165   0.0254   0.0160  -0.0088  -0.0134   0.0033   0.00    1.0
2173 289100.000    537554.2559  -4737373.0797   4222644.1143   2   8   0.0164   0.0254   0.0159  -0.0088  -0.0133   0.0036   0.00    1.0
2173 289101.000    537554.2574  -4737373.0747   4222644.1063   2   8   0.0165   0.0254   0.0159  -0.0086  -0.0133   0.0033   0.00    1.0
2173 289102.000    537554.2606  -4737373.0790   4222644.1116   2   8   0.0165   0.0253   0.0159  -0.0087  -0.0132   0.0032   0.00    1.0
2173 289103.000    537554.2611  -4737373.0733   4222644.1064   2   8   0.0164   0.0252   0.0158  -0.0087  -0.0133   0.0039   0.00    1.0
2173 289104.000    537554.2650  -4737373.0726   4222644.1080   2   8   0.0164   0.0251   0.0158  -0.0089  -0.0132   0.0037   0.00    1.0
2173 289105.000    537554.2650  -4737373.0700   4222644.1090   2   8   0.0164   0.0251   0.0158  -0.0087  -0.0132   0.0031   0.00    1.0
2173 289106.000    537554.2672  -4737373.0636   4222644.1034   2   8   0.0163   0.0251   0.0157  -0.0088  -0.0131   0.0035   0.00    1.0
2173 289107.000    537554.2714  -4737373.0594   4222644.0969   2   8   0.0162   0.0250   0.0156  -0.0088  -0.0131   0.0036   0.00    1.0
2173 289108.000    537554.2757  -4737373.0518   4222644.1001   2   8   0.0162   0.0250   0.0157  -0.0088  -0.0131   0.0037   0.00    1.0
2173 289109.000    537554.2761  -4737373.0469   4222644.0962   2   8   0.0160   0.0249   0.0156  -0.0088  -0.0130   0.0040   0.00    1.0
2173 289110.000    537554.2775  -4737373.0438   4222644.0972   2   8   0.0164   0.0249   0.0156  -0.0086  -0.0131   0.0033   0.00    1.0
2173 289111.000    537554.2811  -4737373.0408   4222644.0991   2   8   0.0161   0.0248   0.0155  -0.0086  -0.0130   0.0037   0.00    1.0
2173 289112.000    537554.2823  -4737373.0348   4222644.0959   2   8   0.0161   0.0248   0.0155  -0.0085  -0.0130   0.0034   0.00    1.0
2173 289113.000    537554.2858  -4737373.0335   4222644.1013   2   8   0.0163   0.0247   0.0156  -0.0087  -0.0130   0.0027   0.00    1.0
2173 289114.000    537554.2868  -4737373.0256   4222644.0998   2   8   0.0160   0.0247   0.0154  -0.0085  -0.0130   0.0037   0.00    1.0
2173 289115.000    537554.2888  -4737373.0274   4222644.1051   2   8   0.0163   0.0246   0.0155  -0.0087  -0.0129   0.0026   0.00    1.0
2173 289116.000    537554.2870  -4737373.0164   4222644.0963   2   8   0.0159   0.0245   0.0154  -0.0086  -0.0129   0.0035   0.00    1.0
2173 289117.000    537554.2881  -4737373.0234   4222644.1037   2   8   0.0161   0.0245   0.0154  -0.0086  -0.0128   0.0036   0.00    1.0
2173 289118.000    537554.2861  -4737373.0132   4222644.0969   2   8   0.0160   0.0244   0.0153  -0.0086  -0.0129   0.0036   0.00    1.0
2173 289119.000    537554.2864  -4737373.0111   4222644.0939   2   8   0.0159   0.0244   0.0153  -0.0087  -0.0128   0.0034   0.00    1.0
2173 289120.000    537554.2854  -4737372.9705   4222644.1009   2   8   0.0159   0.0243   0.0152  -0.0086  -0.0129   0.0037   0.00    1.0
2173 289121.000    537554.2876  -4737372.9679   4222644.1072   2   8   0.0158   0.0243   0.0153  -0.0088  -0.0128   0.0033   0.00    1.0
2173 289122.000    537554.2904  -4737372.9581   4222644.1083   2   8   0.0158   0.0243   0.0152  -0.0086  -0.0128   0.0037   0.00    1.0
2173 289123.000    537554.2898  -4737372.9599   4222644.1059   2   8   0.0160   0.0242   0.0152  -0.0084  -0.0128   0.0033   0.00    1.0
2173 289124.000    537554.2934  -4737372.9463   4222644.1036   2   8   0.0158   0.0241   0.0152  -0.0087  -0.0127   0.0032   0.00    1.0
2173 289125.000    537554.2931  -4737372.9381   4222644.0998   2   8   0.0158   0.0241   0.0152  -0.0086  -0.0127   0.0031   0.00    1.0
2173 289126.000    537554.2991  -4737372.9305   4222644.0993   2   8   0.0159   0.0240   0.0151  -0.0087  -0.0127   0.0033   0.00    1.0
2173 289127.000    537554.2986  -4737372.9182   4222644.0919   2   8   0.0157   0.0240   0.0150  -0.0086  -0.0127   0.0037   0.00    1.0
2173 289128.000    537554.3035  -4737372.9097   4222644.0989   2   8   0.0160   0.0239   0.0152  -0.0088  -0.0126   0.0025   0.00    1.0
2173 289129.000    537554.3041  -4737372.8867   4222644.0878   2   8   0.0157   0.0239   0.0150  -0.0085  -0.0126   0.0033   0.00    1.0
2173 289130.000    537554.3046  -4737372.8688   4222644.0825   2   8   0.0156   0.0239   0.0150  -0.0086  -0.0127   0.0037   0.00    1.0
