% program   : rnx2rtkp ver.2.4.3 b31
% inp file  : ngs/21_09_01_08_12_01_ohlc.obs
% inp file  : ngs/21_09_01_08_12_01_ohlc_SNOH.obs
% inp file  : ngs/21_09_01_08_12_01_brdc.nav
% obs start : 2021/09/01 08:00:00.0 GPST (week2173 288000.0s)
% obs end   : 2021/09/01 08:59:59.0 GPST (week2173 291599.0s)
% ref pos   :   537542.3150  -4737261.5393   4222542.9088
%
% (x/y/z-ecef=WGS84,Q=1:fix,2:float,3:sbas,4:dgps,5:single,6:ppp,ns=# of satellites)
%  GPST              x-ecef(m)      y-ecef(m)      z-ecef(m)   Q  ns   sdx(m)   sdy(m)   sdz(m)  sdxy(m)  sdyz(m)  sdzx(m) age(s)  ratio
2173 288698.000    537555.1309  -4737374.2122   4222644.0837   1   8   0.0199   0.0492   0.0528   0.0108  -0.0435  -0.0033 -30.00    3.7
2173 288699.000    537555.1311  -4737374.2132   4222644.0810   1   8   0.0192   0.0476   0.0511   0.0104  -0.0421  -0.0031 -29.00    3.3
2173 288700.000    537555.1313  -4737374.2100   4222644.0763   1   8   0.0186   0.0461   0.0494   0.0100  -0.0407  -0.0029 -28.00    3.5
2173 288701.000    537555.1290  -4737374.2076   4222644.0745   1   8   0.0180   0.0445   0.0477   0.0096  -0.0393  -0.0027 -27.00    3.8
2173 288702.000    537555.1283  -4737374.2105   4222644.0712   1   8   0.0173   0.0429   0.0461   0.0092  -0.0379  -0.0024 -26.00    4.5
2173 288703.000    537555.1275  -4737374.2062   4222644.0665   1   8   0.0167   0.0414   0.0444   0.0088  -0.0365  -0.0022 -25.00    4.7
2173 288704.000    537555.1277  -4737374.2058   4222644.0679   1   8   0.0161   0.0398   0.0427   0.0085  -0.0351  -0.0019 -24.00    5.2
2173 288705.000    537555.1260  -4737374.2096   4222644.0625   1   8   0.0154   0.0383   0.0410   0.0081  -0.0338  -0.0016 -23.00    5.7
2173 288706.000    537555.1231  -4737374.2121   4222644.0621   1   8   0.0148   0.0367   0.0394   0.0077  -0.0324  -0.0013 -22.00    6.0
2173 288707.000    537555.1228  -4737374.2157   4222644.0579   1   8   0.0142   0.0352   0.0377   0.0073  -0.0310  -0.0009 -21.00    6.4
2173 288708.000    537555.1221  -4737374.2076   4222644.0537   1   8   0.0136   0.0336   0.0360   0.0069  -0.0296   0.0006 -20.00    6.5
2173 288709.000    537555.1202  -4737374.2113   4222644.0544   1   8   0.0129   0.0321   0.0344   0.0065  -0.0283   0.0011 -19.00    6.5
2173 288710.000    537555.1200  -4737374.2104   4222644.0497   1   8   0.0123   0.0306   0.0327   0.0061  -0.0269   0.0014 -18.00    6.7
2173 288711.000    537555.1183  -4737374.2071   4222644.0490   1   8   0.0117   0.0290   0.0311   0.0057  -0.0256   0.0017 -17.00    6.8
2173 288712.000    537555.1175  -4737374.2075   4222644.0497   1   8   0.0111   0.0275   0.0294   0.0053  -0.0242   0.0018 -16.00    7.0
2173 288713.000    537555.1194  -4737374.2045   4222644.0506   1   8   0.0105   0.0260   0.0278   0.0049  -0.0229   0.0021 -15.00    7.2
2173 288714.000    537555.1187  -4737374.2109   4222644.0544   1   8   0.0099   0.0245   0.0262   0.0045  -0.0215   0.0021 -14.00    7.8
2173 288715.000    537555.1198  -4737374.2087   4222644.0497   1   8   0.0093   0.0230   0.0246   0.0040  -0.0202   0.0023 -13.00    8.0
2173 288716.000    537555.1167  -4737374.2095   4222644.0565   1   8   0.0087   0.0216   0.0230   0.0036  -0.0189   0.0025 -12.00    8.5
2173 288717.000    537555.1169  -4737374.2023   4222644.0479   1   8   0.0081   0.0201   0.0214   0.0032  -0.0176   0.0025 -11.00    8.9
2173 288718.000    537555.1156  -4737374.2084   4222644.0526   1   8   0.0075   0.0187   0.0199   0.0026  -0.0163   0.0026 -10.00    9.7
2173 288719.000    537555.1152  -4737374.2075   4222644.0487   1   8   0.0070   0.0173   0.0184   0.0022  -0.0151   0.0026  -9.00   10.7
2173 288720.000    537555.1145  -4737374.2121   4222644.0456   1   8   0.0064   0.0159   0.0169   0.0016  -0.0139   0.0026  -8.00   11.6
2173 288721.000    537555.1134  -4737374.2082   4222644.0445   1   8   0.0059   0.0146   0.0155   0.0010  -0.0127   0.0028  -7.00   12.5
2173 288722.000    537555.1121  -4737374.2024   4222644.0360   1   8   0.0056   0.0134   0.0142  -0.0011  -0.0115   0.0025  -6.00   13.4
2173 288723.000    537555.1139  -4737374.2046   4222644.0370   1   8   0.0050   0.0122   0.0129  -0.0015  -0.0105   0.0026  -5.00   14.7
2173 288724.000    537555.1130  -4737374.2042   4222644.0397   1   8   0.0044   0.0112   0.0118  -0.0014  -0.0096   0.0029  -4.00   16.8
2173 288725.000    537555.1145  -4737374.2022   4222644.0350   1   8   0.0045   0.0102   0.0109  -0.0024  -0.0086   0.0026  -3.00   17.5
2173 288726.000    537555.1131  -4737374.2035   4222644.0351   1   8   0.0037   0.0095   0.0100  -0.0013  -0.0082   0.0030  -2.00   17.9
2173 288727.000    537555.1125  -4737374.2041   4222644.0311   1   8   0.0038   0.0090   0.0095  -0.0021  -0.0076   0.0023  -1.00   17.8
2173 288728.000    537555.1110  -4737374.2077   4222644.0367   1   8   0.0036   0.0088   0.0095  -0.0014  -0.0076   0.0022   0.00   17.4
2173 288729.000    537555.1118  -4737374.2061   4222644.0285   1   8   0.0040   0.0089   0.0094  -0.0011  -0.0075   0.0025   0.00   18.8
2173 288730.000    537555.1104  -4737374.2050   4222644.0284   1   8   0.0034   0.0088   0.0094  -0.0025  -0.0075   0.0028   0.00   19.2
2173 288731.000    537555.1097  -4737374.2004   4222644.0233   1   8   0.0040   0.0088   0.0094  -0.0024  -0.0075   0.0029   0.00   19.4
2173 288732.000    537555.1118  -4737374.2050   4222644.0316   1   8   0.0041   0.0088   0.0095  -0.0023  -0.0075   0.0026   0.00   18.7
2173 288733.000    537555.1121  -4737374.2037   4222644.0271   1   8   0.0041   0.0088   0.0093  -0.0017  -0.0075   0.0025   0.00   18.7
2173 288734.000    537555.1092  -4737374.2051   4222644.0286   1   8   0.0037   0.0087   0.0093  -0.0024  -0.0075   0.0033   0.00   18.5
2173 288735.000    537555.1101  -4737374.2052   4222644.0303   1   8   0.0042   0.0087   0.0095  -0.0022  -0.0075   0.0026   0.00   18.3
2173 288736.000    537555.1126  -4737374.2067   4222644.0275   1   8   0.0044   0.0088   0.0094  -0.0022  -0.0075   0.0025   0.00   18.3
2173 288737.000    537555.1104  -4737374.2049   4222644.0302   1   8   0.0040   0.0088   0.0094  -0.0021  -0.0075   0.0028   0.00   17.9
2173 288738.000    537555.1106  -4737374.1964   4222644.0240   1   8   0.0025   0.0088   0.0092  -0.0016  -0.0075   0.0033   0.00   18.2
2173 288739.000    537555.1112  -4737374.2048   4222644.0291   1   8   0.0044   0.0088   0.0095  -0.0024  -0.0075   0.0023   0.00   18.0
2173 288740.000    537555.1101  -4737374.1998   4222644.0258   1   8   0.0030   0.0088   0.0093  -0.0025  -0.0075   0.0028   0.00   17.7
2173 288741.000    537555.1119  -4737374.2034   4222644.0299   1   8   0.0040   0.0089   0.0095  -0.0018  -0.0075   0.0023   0.00   17.3
2173 288742.000    537555.1100  -4737374.1999   4222644.0261   1   8   0.0035   0.0087   0.0093  -0.0019  -0.0076   0.0028   0.00   17.0
2173 288743.000    537555.1122  -4737374.2041   4222644.0303   1   8   0.0037   0.0089   0.0094  -0.0014  -0.0075   0.0022   0.00   16.9
2173 288744.000    537555.1100  -4737374.1985   4222644.0277   1   8   0.0038   0.0088   0.0093  -0.0018  -0.0076   0.0035   0.00   16.6
2173 288745.000    537555.1105  -4737374.2019   4222644.0303   1   8   0.0036   0.0088   0.0094  -0.0023  -0.0075   0.0030   0.00   16.4
2173 288746.000    537555.1108  -4737374.2003   4222644.0293   1   8   0.0030   0.0088   0.0092  -0.0018  -0.0075   0.0035   0.00   15.9
2173 288747.000    537555.1126  -4737374.2017   4222644.0314   1   8   0.0048   0.0087   0.0096  -0.0027  -0.0075   0.0021   0.00   15.5
2173 288748.000    537555.1123  -4737374.2063   4222644.0343   1   8   0.0034   0.0088   0.0094  -0.0022  -0.0075   0.0025   0.00   15.1
2173 288749.000    537555.1087  -4737374.2005   4222644.0262   1   8   0.0033   0.0087   0.0094  -0.0025  -0.0076   0.0037   0.00   14.9
2173 288750.000    537555.1089  -4737374.1997   4222644.0308   1   8   0.0040   0.0088   0.0095  -0.0023  -0.0075   0.0024   0.00   14.7
2173 288751.000    537555.1107  -4737374.2033   4222644.0314   1   8   0.0031   0.0088   0.0094  -0.0018  -0.0076   0.0031   0.00   14.4
2173 288752.000    537555.1066  -4737374.1985   4222644.0256   1   8   0.0033   0.0087   0.0094  -0.0026  -0.0075   0.0032   0.00   14.2
2173 288753.000    537555.1079  -4737374.2015   4222644.0255   1   8   0.0036   0.0088   0.0094  -0.0025  -0.0075   0.0031   0.00   14.0
2173 288754.000    537555.1092  -4737374.2001   4222644.0257   1   8   0.0035   0.0088   0.0094  -0.0015  -0.0076   0.0030   0.00   13.9
2173 288755.000    537555.1101  -4737374.2017   4222644.0270   1   8   0.0041   0.0087   0.0095  -0.0021  -0.0076   0.0026   0.00   13.6
2173 288756.000    537555.1078  -4737374.1983   4222644.0256   1   8   0.0032   0.0088   0.0094  -0.0021  -0.0075   0.0028   0.00   13.3
2173 288757.000    537555.1085  -4737374.1981   4222644.0255   1   8   0.0038   0.0087   0.0095  -0.0030  -0.0075   0.0030   0.00   13.1
2173 288758.000    537555.1100  -4737374.2028   4222644.0268   1   8   0.0036   0.0088   0.0094  -0.0024  -0.0075   0.0031   0.00   13.0
2173 288759.000    537555.1071  -4737374.1993   4222644.0269   1   8   0.0040   0.0088   0.0094  -0.0022  -0.0075   0.0027   0.00   13.0
2173 288760.000    537555.1100  -4737374.2032   4222644.0263   1   8   0.0038   0.0088   0.0096  -0.0020  -0.0076   0.0025   0.00   12.9
2173 288761.000    537555.1098  -4737374.2003   4222644.0300   1   8   0.0030   0.0088   0.0094  -0.0018  -0.0076   0.0033   0.00   12.8
2173 288762.000    537555.1110  -4737374.2015   4222644.0269   1   8   0.0039   0.0088   0.0096  -0.0025  -0.0075   0.0028   0.00   12.8
2173 288763.000    537555.1089  -4737374.2055   4222644.0320   1   8   0.0039   0.0087   0.0094  -0.0020  -0.0076   0.0028   0.00   12.9
2173 288764.000    537555.1105  -4737374.2005   4222644.0313   1   8   0.0038   0.0088   0.0093  -0.0016  -0.0075   0.0024   0.00   12.8
2173 288765.000    537555.1104  -4737374.2024   4222644.0320   1   8   0.0039   0.0087   0.0095  -0.0029  -0.0075   0.0028   0.00   12.9
2173 288766.000    537555.1096  -4737374.2025   4222644.0325   1   8   0.0034   0.0087   0.0094  -0.0023  -0.0076   0.0029   0.00   12.8
2173 288767.000    537555.1101  -4737374.2010   4222644.0267   1   8   0.0040   0.0088   0.0094  -0.0021  -0.0075   0.0027   0.00   12.7
2173 288768.000    537555.1108  -4737374.2049   4222644.0319   1   8   0.0040   0.0087   0.0094  -0.0026  -0.0076   0.0034   0.00   12.6
2173 288769.000    537555.1107  -4737374.2032   4222644.0293   1   8   0.0038   0.0088   0.0095  -0.0024  -0.0075   0.0031   0.00   12.5
2173 288770.000    537555.1121  -4737374.1981   4222644.0253   1   8   0.0037   0.0088   0.0095  -0.0026  -0.0076   0.0027   0.00   12.5
2173 288771.000    537555.1132  -4737374.2073   4222644.0322   1   8   0.0038   0.0088   0.0094  -0.0021  -0.0076   0.0027   0.00   12.5
2173 288772.000    537555.1128  -4737374.2041   4222644.0296   1   8   0.0037   0.0087   0.0094  -0.0022  -0.0076   0.0030   0.00   12.5
2173 288773.000    537555.1125  -4737374.2017   4222644.0273   1   8   0.0037   0.0088   0.0095  -0.0014  -0.0076   0.0026   0.00   12.6
2173 288774.000    537555.1123  -4737374.2058   4222644.0271   1   8   0.0033   0.0088   0.0095  -0.0021  -0.0076   0.0030   0.00   12.7
2173 288775.000    537555.1126  -4737374.2002   4222644.0230   1   8   0.0042   0.0088   0.0095  -0.0021  -0.0076   0.0023   0.00   12.7
2173 288776.000    537555.1110  -4737374.2020   4222644.0271   1   8   0.0034   0.0088   0.0095  -0.0020  -0.0076   0.0029   0.00   12.8
2173 288777.000    537555.1098  -4737374.2014   4222644.0247   1   8   0.0042   0.0089   0.0095  -0.0017  -0.0075   0.0023   0.00   12.7
2173 288778.000    537555.1123  -4737374.2028   4222644.0256   1   8   0.0044   0.0088   0.0096  -0.0023  -0.0075   0.0017   0.00   12.7
2173 288779.000    537555.1114  -4737374.1976   4222644.0239   1   8   0.0038   0.0088   0.0095  -0.0019  -0.0076   0.0032   0.00   12.6
2173 288780.000    537555.1101  -4737374.2042   4222644.0275   1   8   0.0034   0.0088   0.0095  -0.0023  -0.0075   0.0024   0.00   12.6
2173 288781.000    537555.1101  -4737374.1958   4222644.0203   1   8   0.0045   0.0088   0.0095  -0.0019  -0.0076   0.0026   0.00   12.8
2173 288782.000    537555.1120  -4737374.2033   4222644.0278   1   8   0.0035   0.0088   0.0096  -0.0023  -0.0075   0.0025   0.00   12.8
2173 288783.000    537555.1119  -4737374.2049   4222644.0255   1   8   0.0038   0.0088   0.0094  -0.0026  -0.0075   0.0032   0.00   12.9
2173 288784.000    537555.1121  -4737374.2032   4222644.0277   1   8   0.0041   0.0088   0.0095  -0.0020  -0.0076   0.0028   0.00   12.9
2173 288785.000    537555.1122  -4737374.1973   4222644.0248   1   8   0.0033   0.0088   0.0094  -0.0022  -0.0076   0.0032   0.00   13.0
2173 288786.000    537555.1104  -4737374.1993   4222644.0233   1   8   0.0040   0.0088   0.0095  -0.0024  -0.0076   0.0029   0.00   13.0
2173 288787.000    537555.1100  -4737374.1996   4222644.0218   1   8   0.0038   0.0087   0.0095  -0.0025  -0.0075   0.0028   0.00   12.9
2173 288788.000    537555.1100  -4737374.2026   4222644.0274   1   8   0.0035   0.0089   0.0094  -0.0015  -0.0075   0.0027   0.00   13.0
2173 288789.000    537555.1099  -4737374.2039   4222644.0286   1   8   0.0042   0.0088   0.0095  -0.0022  -0.0076   0.0019   0.00   13.0
2173 288790.000    537555.1117  -4737374.2002   4222644.0213   1   8   0.0031   0.0088   0.0095  -0.0015  -0.0077   0.0030   0.00   13.0
2173 288791.000    537555.1121  -4737374.1975   4222644.0205   1   8   0.0043   0.0088   0.0095  -0.0021  -0.0076   0.0030   0.00   13.1
2173 288792.000    537555.1113  -4737374.2001   4222644.0248   1   8   0.0034   0.0089   0.0095  -0.0014  -0.0076   0.0032   0.00   13.1
2173 288793.000    537555.1134  -4737374.2008   4222644.0254   1   8   0.0037   0.0089   0.0096  -0.0017  -0.0076   0.0024   0.00   13.2
2173 288794.000    537555.1119  -4737374.2027   4222644.0268   1   8   0.0026   0.0088   0.0094  -0.0022  -0.0076   0.0032   0.00   13.2
2173 288795.000    537555.1109  -4737374.2019   4222644.0238   1   8   0.0034   0.0089   0.0095  -0.0021  -0.0075   0.0031   0.00   13.4
2173 288796.000    537555.1108  -4737374.1993   4222644.0235   1   8   0.0036   0.0088   0.0095  -0.0022  -0.0076   0.0028   0.00   13.5
2173 288797.000    537555.1090  -4737374.1994   4222644.0200   1   8   0.0030   0.0088   0.0094  -0.0018  -0.0076   0.0033   0.00   13.5
2173 288798.000    537555.1101  -4737374.2018   4222644.0237   1   8   0.0034   0.0088   0.0094  -0.0014  -0.0076   0.0027   0.00   13.6
2173 288799.000    537555.1106  -4737374.2003   4222644.0240   1   8   0.0042   0.0088   0.0096  -0.0022  -0.0076   0.0022   0.00   13.6
2173 288800.000    537555.1099  -4737374.1995   4222644.0186   1   8   0.0035   0.0088   0.0095  -0.0025  -0.0076   0.0031   0.00   13.7
2173 288801.000    537555.1101  -4737374.2000   4222644.0208   1   8   0.0037   0.0089   0.0095  -0.0015  -0.0076   0.0026   0.00   13.8
2173 288802.000    537555.1097  -4737374.2033   4222644.0229   1   8   0.0033   0.0088   0.0095  -0.0023  -0.0076   0.0031   0.00   13.9
2173 288803.000    537555.1108  -4737374.1997   4222644.0250   1   8   0.0044   0.0088   0.0096  -0.0023  -0.0076   0.0023   0.00   13.9
2173 288804.000    537555.1111  -4737374.1969   4222644.0171   1   8   0.0036   0.0089   0.0095  -0.0014  -0.0077   0.0029   0.00   14.0
2173 288805.000    537555.1114  -4737374.2037   4222644.0243   1   8   0.0025   0.0087   0.0094  -0.0024  -0.0077   0.0034   0.00   14.2
2173 288806.000    537555.1093  -4737374.1982   4222644.0186   1   8   0.0037   0.0088   0.0094  -0.0017  -0.0075   0.0026   0.00   14.2
2173 288807.000    537555.1126  -4737374.2027   4222644.0276   1   8   0.0040   0.0088   0.0096  -0.0022  -0.0076   0.0025   0.00   14.2
2173 288808.000    537555.1122  -4737374.2014   4222644.0239   1   8   0.0034   0.0089   0.0095  -0.0012  -0.0076   0.0031   0.00   14.4
2173 288809.000    537555.1131  -4737374.1999   4222644.0213   1   8   0.0040   0.0088   0.0094  -0.0021  -0.0076   0.0031   0.00   14.5
2173 288810.000    537555.1127  -4737374.2019   4222644.0187   1   8   0.0042   0.0088   0.0096  -0.0022  -0.0076   0.0026   0.00   14.6
2173 288811.000    537555.1129  -4737374.2008   4222644.0233   1   8   0.0033   0.0088   0.0095  -0.0022  -0.0076   0.0034   0.00   14.6
2173 288812.000    537555.1101  -4737374.1988   4222644.0172   1   8   0.0040   0.0089   0.0096  -0.0020  -0.0076   0.0020   0.00   14.7
2173 288813.000    537555.1103  -4737374.1975   4222644.0124   1   8   0.0046   0.0087   0.0095  -0.0025  -0.0077   0.0031   0.00   14.8
2173 288814.000    537555.1105  -4737374.1949   4222644.0177   1   8   0.0030   0.0087   0.0096  -0.0025  -0.0076   0.0027   0.00   14.9
2173 288815.000    537555.1114  -4737374.1975   4222644.0210   1   8   0.0030   0.0088   0.0095  -0.0022  -0.0076   0.0030   0.00   14.9
2173 288816.000    537555.1130  -4737374.1963   4222644.0175   1   8   0.0038   0.0088   0.0097  -0.0021  -0.0077   0.0021   0.00   14.8
2173 288817.000    537555.1114  -4737374.2022   4222644.0204   1   8   0.0043   0.0088   0.0095  -0.0022  -0.0076   0.0027   0.00   14.9
2173 288818.000    537555.1110  -4737374.1932   4222644.0159   1   8   0.0040   0.0088   0.0096  -0.0022  -0.0076   0.0027   0.00   14.9
2173 288819.000    537555.1127  -4737374.1987   4222644.0226   1   8   0.0035   0.0087   0.0096  -0.0020  -0.0077   0.0027   0.00   15.0
2173 288820.000    537555.1122  -4737374.1992   4222644.0193   1   8   0.0037   0.0088   0.0096  -0.0020  -0.0076   0.0029   0.00   15.1
2173 288821.000    537555.1115  -4737374.2031   4222644.0249   1   8   0.0039   0.0089   0.0095  -0.0010  -0.0077   0.0029   0.00   15.2
2173 288822.000    537555.1116  -4737374.1978   4222644.0210   1   8   0.0046   0.0087   0.0097  -0.0025  -0.0077   0.0022   0.00   15.3
2173 288823.000    537555.1108  -4737374.2019   4222644.0228   1   8   0.0038   0.0088   0.0096  -0.0023  -0.0077   0.0031   0.00   15.4
2173 288824.000    537555.1106  -4737374.1983   4222644.0249   1   8   0.0039   0.0087   0.0095  -0.0025  -0.0076   0.0032   0.00   15.6
2173 288825.000    537555.1112  -4737374.1992   4222644.0198   1   8   0.0035   0.0087   0.0095  -0.0026  -0.0077   0.0032   0.00   15.7
2173 288826.000    537555.1107  -4737374.2004   4222644.0185   1   8   0.0043   0.0088   0.0096  -0.0018  -0.0077   0.0020   0.00   15.7
2173 288827.000    537555.1117  -4737374.1981   4222644.0192   1   8   0.0031   0.0087   0.0094  -0.0023  -0.0077   0.0035   0.00   15.8
2173 288828.000    537555.1091  -4737374.1993   4222644.0203   1   8   0.0040   0.0088   0.0096  -0.0019  -0.0077   0.0034   0.00   15.8
2173 288829.000    537555.1118  -4737374.2049   4222644.0244   1   8   0.0046   0.0089   0.0097  -0.0018  -0.0077   0.0033   0.00   15.9
2173 288830.000    537555.1122  -4737374.2017   4222644.0223   1   8   0.0024   0.0088   0.0094  -0.0023  -0.0076   0.0032   0.00   16.0
2173 288831.000    537555.1111  -4737374.1972   4222644.0204   1   8   0.0039   0.0088   0.0095  -0.0019  -0.0076   0.0032   0.00   16.2
2173 288832.000    537555.1128  -4737374.1934   4222644.0150   1   8   0.0033   0.0089   0.0094  -0.0020  -0.0076   0.0037   0.00   16.3
2173 288833.000    537555.1116  -4737374.2022   4222644.0210   1   8   0.0039   0.0089   0.0095  -0.0024  -0.0076   0.0029   0.00   16.4
2173 288834.000    537555.1117  -4737374.1942   4222644.0176   1   8   0.0038   0.0088   0.0095  -0.0023  -0.0076   0.0029   0.00   16.5
2173 288835.000    537555.1095  -4737374.1929   4222644.0193   1   8   0.0037   0.0089   0.0097  -0.0019  -0.0076   0.0018   0.00   16.6
2173 288836.000    537555.1095  -4737374.1931   4222644.0177   1   8   0.0034   0.0087   0.0096  -0.0026  -0.0077   0.0028   0.00   16.8
2173 288837.000    537555.1082  -4737374.1936   4222644.0183   1   8   0.0029   0.0087   0.0094  -0.0025  -0.0077   0.0030   0.00   16.9
2173 288838.000    537555.1117  -4737374.1935   4222644.0160   1   8   0.0039   0.0089   0.0096  -0.0016  -0.0077   0.0025   0.00   17.0
2173 288839.000    537555.1094  -4737374.1956   4222644.0161   1   8   0.0033   0.0088   0.0095  -0.0017  -0.0078   0.0031   0.00   17.1
2173 288840.000    537555.1121  -4737374.1920   4222644.0149   1   8   0.0039   0.0089   0.0096  -0.0020  -0.0077   0.0028   0.00   17.2
2173 288841.000    537555.1114  -4737374.1954   4222644.0170   1   8   0.0038   0.0088   0.0095  -0.0017  -0.0077   0.0029   0.00   17.2
2173 288842.000    537555.1103  -4737374.1980   4222644.0215   1   8   0.0025   0.0089   0.0094  -0.0017  -0.0077   0.0035   0.00   17.3
2173 288843.000    537555.1107  -4737374.1978   4222644.0198   1   8   0.0037   0.0088   0.0095  -0.0020  -0.0077   0.0028   0.00   17.3
2173 288844.000    537555.1092  -4737374.1941   4222644.0151   1   8   0.0029   0.0088   0.0095  -0.0023  -0.0077   0.0033   0.00   17.4
2173 288845.000    537555.1107  -4737374.1968   4222644.0205   1   8   0.0047   0.0087   0.0097  -0.0028  -0.0077   0.0017   0.00   17.5
2173 288846.000    537555.1093  -4737374.1978   4222644.0168   1   8   0.0040   0.0088   0.0096  -0.0025  -0.0077   0.0011   0.00   17.6
2173 288847.000    537555.1094  -4737374.1934   4222644.0122   1   8   0.0028   0.0088   0.0095  -0.0027  -0.0076   0.0031   0.00   17.5
2173 288848.000    537555.1083  -4737374.1931   4222644.0155   1   8   0.0032   0.0089   0.0095  -0.0019  -0.0076   0.0034   0.00   17.6
2173 288849.000    537555.1100  -4737374.1965   4222644.0170   1   8   0.0041   0.0088   0.0096  -0.0022  -0.0077   0.0031   0.00   17.6
2173 288850.000    537555.1091  -4737374.2009   4222644.0226   1   8   0.0033   0.0088   0.0096  -0.0027  -0.0077   0.0030   0.00   17.7
2173 288851.000    537555.1083  -4737374.1949   4222644.0151   1   8   0.0037   0.0088   0.0096  -0.0020  -0.0077   0.0025   0.00   17.7
2173 288852.000    537555.1086  -4737374.2000   4222644.0166   1   8   0.0035   0.0089   0.0095  -0.0021  -0.0076   0.0029   0.00   17.7
2173 288853.000    537555.1088  -4737374.2014   4222644.0192   1   8   0.0037   0.0088   0.0095  -0.0020  -0.0077   0.0033   0.00   17.8
2173 288854.000    537555.1086  -4737374.1989   4222644.0187   1   8   0.0034   0.0088   0.0097  -0.0020  -0.0077   0.0027   0.00   17.8
2173 288855.000    537555.1086  -4737374.2005   4222644.0191   1   8   0.0037   0.0090   0.0095  -0.0012  -0.0077   0.0027   0.00   17.8
2173 288856.000    537555.1090  -4737374.2022   4222644.0256   1   8   0.0030   0.0088   0.0096  -0.0023  -0.0076   0.0031   0.00   17.9
2173 288857.000    537555.1090  -4737374.1974   4222644.0231   1   8   0.0044   0.0088   0.0097  -0.0026  -0.0076   0.0026   0.00   17.9
2173 288858.000    537555.1107  -4737374.1971   4222644.0201   1   8   0.0048   0.0088   0.0097  -0.0022  -0.0076   0.0020   0.00   18.0
2173 288859.000    537555.1125  -4737374.2002   4222644.0217   1   8   0.0030   0.0089   0.0096  -0.0019  -0.0077   0.0027   0.00   18.0
2173 288860.000    537555.1112  -4737374.1997   4222644.0204   1   8   0.0036   0.0087   0.0096  -0.0026  -0.0077   0.0034   0.00   18.1
2173 288861.000    537555.1123  -4737374.1961   4222644.0140   1   8   0.0034   0.0089   0.0096  -0.0020  -0.0077   0.0030   0.00   18.1
2173 288862.000    537555.1110  -4737374.2006   4222644.0240   1   8   0.0039   0.0088   0.0096  -0.0023  -0.0076   0.0030   0.00   18.3
2173 288863.000    537555.1125  -4737374.1909   4222644.0155   1   8   0.0031   0.0088   0.0096  -0.0021  -0.0078   0.0033   0.00   18.3
2173 288864.000    537555.1128  -4737374.1978   4222644.0243   1   8   0.0038   0.0089   0.0096  -0.0012  -0.0077   0.0030   0.00   18.4
2173 288865.000    537555.1111  -4737374.2027   4222644.0256   1   8   0.0033   0.0088   0.0096  -0.0017  -0.0077   0.0027   0.00   18.5
2173 288866.000    537555.1083  -4737374.1937   4222644.0110   1   8   0.0039   0.0089   0.0096  -0.0021  -0.0077   0.0029   0.00   18.6
2173 288867.000    537555.1127  -4737374.1922   4222644.0172   1   8   0.0037   0.0089   0.0096  -0.0021  -0.0077   0.0029   0.00   18.7
2173 288868.000    537555.1106  -4737374.1971   4222644.0153   1   8   0.0046   0.0088   0.0097  -0.0024  -0.0077   0.0029   0.00   18.8
2173 288869.000    537555.1129  -4737374.1958   4222644.0169   1   8   0.0038   0.0087   0.0096  -0.0024  -0.0077   0.0032   0.00   18.9
2173 288870.000    537555.1139  -4737374.2011   4222644.0250   1   8   0.0039   0.0088   0.0097  -0.0025  -0.0077   0.0020   0.00   19.0
2173 288871.000    537555.1134  -4737374.1945   4222644.0189   1   8   0.0041   0.0089   0.0097  -0.0023  -0.0077   0.0025   0.00   19.0
2173 288872.000    537555.1155  -4737374.2037   4222644.0279   1   8   0.0033   0.0088   0.0096  -0.0020  -0.0077   0.0028   0.00   19.1
2173 288873.000    537555.1145  -4737374.2038   4222644.0281   1   8   0.0037   0.0088   0.0096  -0.0025  -0.0076   0.0030   0.00   19.3
2173 288874.000    537555.1139  -4737374.2024   4222644.0227   1   8   0.0033   0.0089   0.0095  -0.0017  -0.0077   0.0030   0.00   19.4
2173 288875.000    537555.1099  -4737374.1960   4222644.0166   1   8   0.0040   0.0087   0.0098  -0.0024  -0.0077   0.0024   0.00   19.3
2173 288876.000    537555.1116  -4737374.1948   4222644.0135   1   8   0.0037   0.0088   0.0097  -0.0025  -0.0077   0.0027   0.00   19.4
2173 288877.000    537555.1129  -4737374.1942   4222644.0191   1   8   0.0041   0.0088   0.0097  -0.0024  -0.0077   0.0028   0.00   19.5
2173 288878.000    537555.1109  -4737374.1971   4222644.0226   1   8   0.0034   0.0090   0.0095  -0.0018  -0.0078   0.0032   0.00   19.5
2173 288879.000    537555.1121  -4737374.2019   4222644.0262   1   8   0.0031   0.0089   0.0096  -0.0015  -0.0077   0.0030   0.00   19.6
2173 288880.000    537555.1132  -4737374.1969   4222644.0193   1   8   0.0035   0.0087   0.0097  -0.0023  -0.0078   0.0030   0.00   19.8
2173 288881.000    537555.1133  -4737374.1972   4222644.0214   1   8   0.0036   0.0089   0.0096  -0.0018  -0.0077   0.0031   0.00   19.9
2173 288882.000    537555.1136  -4737374.2062   4222644.0288   1   8   0.0041   0.0088   0.0097  -0.0024  -0.0077   0.0022   0.00   20.0
2173 288883.000    537555.1107  -4737374.2013   4222644.0206   1   8   0.0044   0.0089   0.0097  -0.0015  -0.0078   0.0026   0.00   20.1
2173 288884.000    537555.1125  -4737374.2033   4222644.0246   1   8   0.0037   0.0089   0.0095  -0.0021  -0.0077   0.0029   0.00   20.3
2173 288885.000    537555.1122  -4737374.1972   4222644.0221   1   8   0.0028   0.0088   0.0096  -0.0026  -0.0078   0.0033   0.00   20.3
2173 288886.000    537555.1114  -4737374.1955   4222644.0205   1   8   0.0040   0.0088   0.0096  -0.0022  -0.0078   0.0024   0.00   20.2
2173 288887.000    537555.1121  -4737374.1985   4222644.0214   1   8   0.0041   0.0089   0.0095  -0.0018  -0.0077   0.0032   0.00   20.1
2173 288888.000    537555.1109  -4737374.1986   4222644.0249   1   8   0.0037   0.0089   0.0096  -0.0023  -0.0077   0.0033   0.00   20.1
2173 288889.000    537555.1119  -4737374.2042   4222644.0245   1   8   0.0037   0.0089   0.0096  -0.0020  -0.0077   0.0030   0.00   20.0
2173 288890.000    537555.1121  -4737374.1957   4222644.0208   1   8   0.0028   0.0088   0.0096  -0.0023  -0.0078   0.0032   0.00   20.0
2173 288891.000    537555.1104  -4737374.1971   4222644.0213   1   8   0.0039   0.0089   0.0097  -0.0021  -0.0077   0.0029   0.00   20.0
2173 288892.000    537555.1099  -4737374.1983   4222644.0219   1   8   0.0023   0.0089   0.0094  -0.0003  -0.0078   0.0035   0.00   19.9
2173 288893.000    537555.1099  -4737374.2011   4222644.0188   1   8   0.0036   0.0088   0.0097  -0.0020  -0.0078   0.0029   0.00   19.8
2173 288894.000    537555.1122  -4737374.2001   4222644.0237   1   8   0.0037   0.0089   0.0097  -0.0020  -0.0077   0.0028   0.00   19.8
2173 288895.000    537555.1129  -4737374.2000   4222644.0221   1   8   0.0036   0.0088   0.0097  -0.0027  -0.0077   0.0025   0.00   19.7
2173 288896.000    537555.1124  -4737374.1972   4222644.0206   1   8   0.0037   0.0089   0.0096  -0.0023  -0.0077   0.0028   0.00   19.7
2173 288897.000    537555.1135  -4737374.1999   4222644.0229   1   8   0.0037   0.0089   0.0098  -0.0018  -0.0077   0.0016   0.00   19.6
2173 288898.000    537555.1100  -4737374.2000   4222644.0246   1   8   0.0041   0.0088   0.0098  -0.0023  -0.0078   0.0027   0.00   19.6
2173 288899.000    537555.1123  -4737374.2069   4222644.0334   1   8   0.0036   0.0088   0.0096  -0.0023  -0.0077   0.0030   0.00   19.6
2173 288900.000    537555.1107  -4737374.1991   4222644.0185   1   8   0.0032   0.0089   0.0096  -0.0024  -0.0077   0.0029   0.00   19.5
2173 288901.000    537555.1095  -4737374.2008   4222644.0229   1   8   0.0033   0.0088   0.0097  -0.0020  -0.0078   0.0027   0.00   19.5
2173 288902.000    537555.1113  -4737374.2039   4222644.0265   1   8   0.0035   0.0089   0.0096  -0.0016  -0.0077   0.0032   0.00   19.4
2173 288903.000    537555.1125  -4737374.2021   4222644.0250   1   8   0.0030   0.0089   0.0096  -0.0013  -0.0078   0.0036   0.00   19.4
2173 288904.000    537555.1118  -4737374.2005   4222644.0257   1   8   0.0041   0.0087   0.0099  -0.0026  -0.0077   0.0027   0.00   19.3
2173 288905.000    537555.1115  -4737374.2032   4222644.0271   1   8   0.0035   0.0087   0.0096  -0.0030  -0.0077   0.0031   0.00   19.3
2173 288906.000    537555.1112  -4737374.1955   4222644.0205   1   8   0.0044   0.0088   0.0096  -0.0021  -0.0077   0.0031   0.00   19.3
2173 288907.000    537555.1127  -4737374.2008   4222644.0260   1   8   0.0043   0.0089   0.0097  -0.0019  -0.0077   0.0031   0.00   19.2
2173 288908.000    537555.1094  -4737374.2023   4222644.0244   1   8   0.0035   0.0088   0.0097  -0.0023  -0.0077   0.0027   0.00   19.2
2173 288909.000    537555.1120  -4737374.2003   4222644.0243   1   8   0.0042   0.0089   0.0098  -0.0022  -0.0078   0.0021   0.00   19.1
2173 288910.000    537555.1130  -4737374.2052   4222644.0279   1   8   0.0032   0.0089   0.0096  -0.0020  -0.0078   0.0030   0.00   19.1
2173 288911.000    537555.1128  -4737374.1969   4222644.0189   1   8   0.0031   0.0089   0.0096  -0.0022  -0.0077   0.0034   0.00   19.1
2173 288912.000    537555.1122  -4737374.2033   4222644.0249   1   8   0.0041   0.0088   0.0098  -0.0020  -0.0077   0.0024   0.00   19.1
2173 288913.000    537555.1126  -4737374.1943   4222644.0201   1   8   0.0037   0.0089   0.0097  -0.0021  -0.0077   0.0032   0.00   19.1
2173 288914.000    537555.1121  -4737374.2028   4222644.0211   1   8   0.0042   0.0088   0.0098  -0.0027  -0.0077   0.0028   0.00   19.2
2173 288915.000    537555.1113  -4737374.2047   4222644.0248   1   8   0.0036   0.0089   0.0097  -0.0023  -0.0077   0.0027   0.00   19.2
2173 288916.000    537555.1121  -4737374.2002   4222644.0257   1   8   0.0039   0.0089   0.0097  -0.0021  -0.0078   0.0029   0.00   19.3
2173 288917.000    537555.1137  -4737374.2071   4222644.0253   1   8   0.0038   0.0089   0.0098  -0.0021  -0.0078   0.0030   0.00   19.3
2173 288918.000    537555.1137  -4737374.2024   4222644.0238   1   8   0.0037   0.0089   0.0096  -0.0017  -0.0078   0.0032   0.00   19.3
2173 288919.000    537555.1119  -4737374.1956   4222644.0194   1   8   0.0034   0.0088   0.0097  -0.0023  -0.0078   0.0032   0.00   19.3
2173 288920.000    537555.1124  -4737374.1977   4222644.0205   1   8   0.0035   0.0088   0.0097  -0.0025  -0.0078   0.0029   0.00   19.4
2173 288921.000    537555.1110  -4737374.1961   4222644.0174   1   8   0.0038   0.0089   0.0097  -0.0024  -0.0077   0.0027   0.00   19.4
2173 288922.000    537555.1123  -4737374.1921   4222644.0177   1   8   0.0035   0.0089   0.0096  -0.0018  -0.0078   0.0035   0.00   19.4
2173 288923.000    537555.1124  -4737374.1977   4222644.0214   1   8   0.0039   0.0089   0.0097  -0.0023  -0.0077   0.0029   0.00   19.4
2173 288924.000    537555.1144  -4737374.2014   4222644.0248   1   8   0.0039   0.0089   0.0097  -0.0013  -0.0078   0.0030   0.00   19.4
2173 288925.000    537555.1123  -4737374.2017   4222644.0274   1   8   0.0045   0.0090   0.0098  -0.0022  -0.0077   0.0023   0.00   19.3
2173 288926.000    537555.1133  -4737374.1981   4222644.0227   1   8   0.0039   0.0089   0.0098  -0.0024  -0.0077   0.0023   0.00   19.3
2173 288927.000    537555.1144  -4737374.2059   4222644.0273   1   8   0.0034   0.0089   0.0097  -0.0023  -0.0078   0.0034   0.00   19.3
2173 288928.000    537555.1135  -4737374.2025   4222644.0266   1   8   0.0032   0.0087   0.0097  -0.0022  -0.0078   0.0030   0.00   19.2
2173 288929.000    537555.1133  -4737374.1925   4222644.0230   1   8   0.0037   0.0088   0.0096  -0.0023  -0.0078   0.0030   0.00   19.2
2173 288930.000    537555.1116  -4737374.2035   4222644.0258   1   8   0.0030   0.0088   0.0097  -0.0026  -0.0078   0.0029   0.00   19.2
2173 288931.000    537555.1120  -4737374.1967   4222644.0195   1   8   0.0041   0.0089   0.0097  -0.0018  -0.0077   0.0028   0.00   19.2
2173 288932.000    537555.1123  -4737374.1977   4222644.0207   1   8   0.0038   0.0089   0.0098  -0.0018  -0.0078   0.0026   0.00   19.2
2173 288933.000    537555.1107  -4737374.2036   4222644.0238   1   8   0.0036   0.0088   0.0097  -0.0021  -0.0077   0.0028   0.00   19.3
2173 288934.000    537555.1131  -4737374.2047   4222644.0278   1   8   0.0039   0.0088   0.0096  -0.0022  -0.0078   0.0028   0.00   19.3
2173 288935.000    537555.1132  -4737374.2006   4222644.0270   1   8   0.0030   0.0089   0.0096  -0.0021  -0.0079   0.0031   0.00   19.4
2173 288936.000    537555.1114  -4737374.1984   4222644.0216   1   8   0.0039   0.0088   0.0098  -0.0020  -0.0077   0.0023   0.00   19.4
2173 288937.000    537555.1126  -4737374.1950   4222644.0185   1   8   0.0038   0.0089   0.0098  -0.0020  -0.0078   0.0030   0.00   19.3
2173 288938.000    537555.1137  -4737374.2016   4222644.0284   1   8   0.0036   0.0089   0.0097  -0.0026  -0.0078   0.0031   0.00   19.4
2173 288939.000    537555.1116  -4737374.2004   4222644.0228   1   8   0.0037   0.0089   0.0098  -0.0018  -0.0078   0.0024   0.00   19.4
2173 288940.000    537555.1130  -4737374.2008   4222644.0207   1   8   0.0039   0.0089   0.0097  -0.0025  -0.0077   0.0028   0.00   19.4
2173 288941.000    537555.1129  -4737374.2040   4222644.0282   1   8   0.0043   0.0088   0.0098  -0.0024  -0.0077   0.0025   0.00   19.5
2173 288942.000    537555.1119  -4737374.1978   4222644.0177   1   8   0.0034   0.0089   0.0098  -0.0018  -0.0078   0.0029   0.00   19.5
2173 288943.000    537555.1131  -4737374.2022   4222644.0223   1   8   0.0040   0.0089   0.0098  -0.0020  -0.0077   0.0028   0.00   19.6
2173 288944.000    537555.1120  -4737374.2043   4222644.0285   1   8   0.0033   0.0089   0.0097  -0.0023  -0.0078   0.0034   0.00   19.7
2173 288945.000    537555.1112  -4737374.2001   4222644.0208   1   8   0.0034   0.0089   0.0098  -0.0017  -0.0078   0.0029   0.00   19.8
2173 288946.000    537555.1123  -4737374.1958   4222644.0197   1   8   0.0037   0.0088   0.0098  -0.0024  -0.0078   0.0026   0.00   19.9
2173 288947.000    537555.1108  -4737374.1978   4222644.0166   1   8   0.0042   0.0088   0.0097  -0.0023  -0.0079   0.0028   0.00   19.9
2173 288948.000    537555.1098  -4737374.1959   4222644.0193   1   8   0.0036   0.0089   0.0097  -0.0021  -0.0078   0.0032   0.00   20.0
2173 288949.000    537555.1141  -4737374.1947   4222644.0194   1   8   0.0040   0.0089   0.0097  -0.0020  -0.0078   0.0028   0.00   20.1
2173 288950.000    537555.1116  -4737374.1977   4222644.0220   1   8   0.0039   0.0089   0.0098  -0.0021  -0.0078   0.0031   0.00   20.2
2173 288951.000    537555.1125  -4737374.2015   4222644.0220   1   8   0.0039   0.0088   0.0098  -0.0028  -0.0078   0.0027   0.00   20.3
2173 288952.000    537555.1125  -4737374.1946   4222644.0142   1   8   0.0038   0.0088   0.0098  -0.0023  -0.0079   0.0027   0.00   20.3
2173 288953.000    537555.1122  -4737374.2017   4222644.0235   1   8   0.0044   0.0089   0.0098  -0.0025  -0.0077   0.0027   0.00   20.4
2173 288954.000    537555.1121  -4737374.1969   4222644.0227   1   8   0.0042   0.0089   0.0098  -0.0021  -0.0078   0.0030   0.00   20.4
2173 288955.000    537555.1127  -4737374.1963   4222644.0189   1   8   0.0036   0.0088   0.0097  -0.0027  -0.0078   0.0030   0.00   20.5
2173 288956.000    537555.1112  -4737374.2016   4222644.0232   1   8   0.0037   0.0089   0.0097  -0.0019  -0.0078   0.0034   0.00   20.6
2173 288957.000    537555.1120  -4737374.1949   4222644.0148   1   8   0.0037   0.0090   0.0098  -0.0023  -0.0077   0.0028   0.00   20.7
2173 288958.000    537555.1124  -4737374.1967   4222644.0136   1   8   0.0034   0.0088   0.0098  -0.0021  -0.0078   0.0034   0.00   20.7
2173 288959.000    537555.1113  -4737374.2030   4222644.0230   1   8   0.0039   0.0088   0.0098  -0.0025  -0.0078   0.0029   0.00   20.8
2173 288960.000    537555.1126  -4737374.1965   4222644.0214   1   8   0.0039   0.0089   0.0098  -0.0020  -0.0078   0.0029   0.00   20.9
2173 288961.000    537555.1093  -4737374.1961   4222644.0158   1   8   0.0039   0.0089   0.0098  -0.0028  -0.0078   0.0024   0.00   21.0
2173 288962.000    537555.1091  -4737374.1945   4222644.0178   1   8   0.0042   0.0088   0.0098  -0.0032  -0.0078   0.0030   0.00   21.1
2173 288963.000    537555.1136  -4737374.1976   4222644.0201   1   8   0.0035   0.0089   0.0097  -0.0025  -0.0078   0.0033   0.00   21.2
2173 288964.000    537555.1132  -4737374.1976   4222644.0184   1   8   0.0036   0.0088   0.0098  -0.0016  -0.0079   0.0028   0.00   21.3
2173 288965.000    537555.1111  -4737374.1987   4222644.0144   1   8   0.0034   0.0089   0.0097  -0.0027  -0.0078   0.0031   0.00   21.4
2173 288966.000    537555.1090  -4737374.1945   4222644.0138   1   8   0.0034   0.0088   0.0097  -0.0022  -0.0079   0.0027   0.00   21.5
2173 288967.000    537555.1087  -4737374.1888   4222644.0100   1   8   0.0034   0.0089   0.0098  -0.0017  -0.0078   0.0028   0.00   21.5
2173 288968.000    537555.1102  -4737374.1963   4222644.0174   1   8   0.0048   0.0088   0.0098  -0.0024  -0.0078   0.0027   0.00   21.6
2173 288969.000    537555.1118  -4737374.1951   4222644.0149   1   8   0.0042   0.0090   0.0099  -0.0019  -0.0078   0.0027   0.00   21.6
2173 288970.000    537555.1116  -4737374.1938   4222644.0118   1   8   0.0034   0.0089   0.0097  -0.0021  -0.0078   0.0034   0.00   21.8
2173 288971.000    537555.1143  -4737374.1981   4222644.0207   1   8   0.0048   0.0088   0.0099  -0.0026  -0.0078   0.0026   0.00   21.9
2173 288972.000    537555.1112  -4737374.1974   4222644.0153   1   8   0.0035   0.0089   0.0099  -0.0023  -0.0078   0.0027   0.00   22.0
2173 288973.000    537555.1135  -4737374.1972   4222644.0194   1   8   0.0028   0.0089   0.0098  -0.0022  -0.0078   0.0033   0.00   22.2
2173 288974.000    537555.1130  -4737374.2007   4222644.0188   1   8   0.0043   0.0089   0.0099  -0.0015  -0.0078   0.0022   0.00   22.3
2173 288975.000    537555.1095  -4737374.1949   4222644.0165   1   8   0.0033   0.0090   0.0098  -0.0023  -0.0078   0.0033   0.00   22.4
2173 288976.000    537555.1114  -4737374.2035   4222644.0230   1   8   0.0036   0.0089   0.0098  -0.0024  -0.0078   0.0031   0.00   22.5
2173 288977.000    537555.1099  -4737374.1974   4222644.0152   1   8   0.0033   0.0088   0.0099  -0.0025  -0.0079   0.0027   0.00   22.6
2173 288978.000    537555.1102  -4737374.1998   4222644.0182   1   8   0.0039   0.0089   0.0098  -0.0019  -0.0079   0.0028   0.00   22.8
2173 288979.000    537555.1105  -4737374.1933   4222644.0181   1   8   0.0039   0.0089   0.0098  -0.0020  -0.0078   0.0026   0.00   22.9
2173 288980.000    537555.1109  -4737374.1945   4222644.0170   1   8   0.0031   0.0088   0.0099  -0.0021  -0.0078   0.0033   0.00   23.0
2173 288981.000    537555.1117  -4737374.1986   4222644.0182   1   8   0.0035   0.0089   0.0099  -0.0021  -0.0078   0.0030   0.00   23.2
2173 288982.000    537555.1096  -4737374.1937   4222644.0141   1   8   0.0035   0.0089   0.0098  -0.0024  -0.0078   0.0030   0.00   23.3
2173 288983.000    537555.1099  -4737374.1914   4222644.0120   1   8   0.0040   0.0088   0.0098  -0.0018  -0.0079   0.0033   0.00   23.5
2173 288984.000    537555.1094  -4737374.1967   4222644.0177   1   8   0.0037   0.0089   0.0099  -0.0028  -0.0079   0.0031   0.00   23.6
2173 288985.000    537555.1105  -4737374.1963   4222644.0179   1   8   0.0036   0.0089   0.0098  -0.0022  -0.0078   0.0031   0.00   23.7
2173 288986.000    537555.1099  -4737374.1930   4222644.0161   1   8   0.0040   0.0088   0.0099  -0.0031  -0.0078   0.0024   0.00   23.9
2173 288987.000    537555.1095  -4737374.1974   4222644.0177   1   8   0.0045   0.0089   0.0099  -0.0023  -0.0078   0.0026   0.00   24.0
2173 288988.000    537555.1099  -4737374.1939   4222644.0174   1   8   0.0046   0.0089   0.0099  -0.0018  -0.0078   0.0026   0.00   24.1
2173 288989.000    537555.1105  -4737374.1961   4222644.0185   1   8   0.0030   0.0089   0.0098  -0.0027  -0.0079   0.0034   0.00   24.3
2173 288990.000    537555.1090  -4737374.1945   4222644.0138   1   8   0.0037   0.0089   0.0099  -0.0022  -0.0078   0.0027   0.00   24.5
2173 288991.000    537555.1091  -4737374.1910   4222644.0133   1   8   0.0043   0.0089   0.0099  -0.0022  -0.0078   0.0022   0.00   24.7
2173 288992.000    537555.1092  -4737374.1929   4222644.0123   1   8   0.0045   0.0089   0.0100  -0.0026  -0.0078   0.0024   0.00   24.9
2173 288993.000    537555.1090  -4737374.1943   4222644.0172   1   8   0.0038   0.0089   0.0099  -0.0020  -0.0079   0.0031   0.00   25.1
2173 288994.000    537555.1078  -4737374.1881   4222644.0051   1   8   0.0039   0.0089   0.0099  -0.0022  -0.0078   0.0026   0.00   25.2
2173 288995.000    537555.1071  -4737374.1879   4222644.0059   1   8   0.0041   0.0088   0.0099  -0.0027  -0.0079   0.0032   0.00   25.5
2173 288996.000    537555.1075  -4737374.1889   4222644.0116   1   8   0.0030   0.0089   0.0097  -0.0023  -0.0078   0.0036   0.00   25.7
2173 288997.000    537555.1093  -4737374.1950   4222644.0138   1   8   0.0032   0.0089   0.0098  -0.0023  -0.0079   0.0030   0.00   25.9
2173 288998.000    537555.1080  -4737374.1878   4222644.0055   1   8   0.0044   0.0090   0.0100  -0.0021  -0.0078   0.0025   0.00   26.0
2173 288999.000    537555.1087  -4737374.1897   4222644.0079   1   8   0.0036   0.0089   0.0098  -0.0021  -0.0079   0.0031   0.00   26.1
2173 289000.000    537555.1095  -4737374.1920   4222644.0127   1   8   0.0037   0.0089   0.0098  -0.0022  -0.0079   0.0027   0.00   26.3
2173 289001.000    537555.1079  -4737374.1904   4222644.0101   1   8   0.0044   0.0090   0.0098  -0.0019  -0.0079   0.0033   0.00   26.5
2173 289002.000    537555.1069  -4737374.1918   4222644.0122   1   8   0.0037   0.0089   0.0099  -0.0020  -0.0079   0.0025   0.00   26.6
2173 289003.000    537555.1075  -4737374.1867   4222644.0054   1   8   0.0037   0.0089   0.0099  -0.0021  -0.0078   0.0029   0.00   26.8
2173 289004.000    537555.1085  -4737374.1897   4222644.0100   1   8   0.0042   0.0089   0.0099  -0.0022  -0.0079   0.0028   0.00   27.0
2173 289005.000    537555.1079  -4737374.1891   4222644.0084   1   8   0.0032   0.0088   0.0098  -0.0022  -0.0079   0.0032   0.00   27.2
2173 289006.000    537555.1079  -4737374.1882   4222644.0036   1   8   0.0039   0.0089   0.0099  -0.0023  -0.0078   0.0027   0.00   27.5
2173 289007.000    537555.1080  -4737374.1966   4222644.0131   1   8   0.0039   0.0088   0.0099  -0.0026  -0.0079   0.0026   0.00   27.6
2173 289008.000    537555.1069  -4737374.1913   4222644.0117   1   8   0.0035   0.0088   0.0099  -0.0026  -0.0079   0.0032   0.00   27.7
2173 289009.000    537555.1084  -4737374.1874   4222644.0059   1   8   0.0032   0.0089   0.0099  -0.0025  -0.0079   0.0029   0.00   27.8
2173 289010.000    537555.1079  -4737374.1882   4222644.0098   1   8   0.0023   0.0090   0.0098  -0.0021  -0.0078   0.0032   0.00   28.0
2173 289011.000    537555.1098  -4737374.1910   4222644.0115   1   8   0.0039   0.0088   0.0099  -0.0027  -0.0079   0.0025   0.00   28.1
2173 289012.000    537555.1088  -4737374.1911   4222644.0124   1   8   0.0037   0.0090   0.0098  -0.0024  -0.0078   0.0030   0.00   28.3
2173 289013.000    537555.1096  -4737374.1898   4222644.0133   1   8   0.0040   0.0089   0.0100  -0.0024  -0.0078   0.0022   0.00   28.4
2173 289014.000    537555.1102  -4737374.1935   4222644.0149   1   8   0.0028   0.0088   0.0097  -0.0023  -0.0079   0.0035   0.00   28.5
2173 289015.000    537555.1093  -4737374.1924   4222644.0124   1   8   0.0039   0.0089   0.0099  -0.0017  -0.0079   0.0033   0.00   28.7
2173 289016.000    537555.1089  -4737374.1955   4222644.0167   1   8   0.0026   0.0089   0.0099  -0.0024  -0.0079   0.0037   0.00   28.9
2173 289017.000    537555.1084  -4737374.1935   4222644.0152   1   8   0.0025   0.0088   0.0097  -0.0026  -0.0079   0.0035   0.00   29.0
2173 289018.000    537555.1082  -4737374.1878   4222644.0116   1   8   0.0038   0.0088   0.0099  -0.0023  -0.0079   0.0027   0.00   29.1
2173 289019.000    537555.1081  -4737374.1929   4222644.0155   1   8   0.0041   0.0089   0.0099  -0.0025  -0.0079   0.0025   0.00   29.3
2173 289020.000    537555.1059  -4737374.1950   4222644.0170   1   8   0.0043   0.0090   0.0100  -0.0022  -0.0079   0.0020   0.00   29.4
2173 289021.000    537555.1082  -4737374.1915   4222644.0174   1   8   0.0037   0.0089   0.0100  -0.0021  -0.0078   0.0025   0.00   29.5
2173 289022.000    537555.1083  -4737374.1963   4222644.0217   1   8   0.0039   0.0090   0.0100  -0.0023  -0.0079   0.0026   0.00   29.5
2173 289023.000    537555.1072  -4737374.1914   4222644.0181   1   8   0.0037   0.0088   0.0098  -0.0023  -0.0080   0.0026   0.00   29.6
2173 289024.000    537555.1077  -4737374.1926   4222644.0177   1   8   0.0045   0.0090   0.0099  -0.0019  -0.0079   0.0028   0.00   29.6
2173 289025.000    537555.1076  -4737374.1945   4222644.0213   1   8   0.0040   0.0088   0.0100  -0.0024  -0.0079   0.0029   0.00   29.7
2173 289026.000    537555.1093  -4737374.1931   4222644.0221   1   8   0.0028   0.0088   0.0099  -0.0024  -0.0079   0.0031   0.00   29.8
2173 289027.000    537555.1079  -4737374.1936   4222644.0153   1   8   0.0037   0.0091   0.0099  -0.0012  -0.0078   0.0026   0.00   29.8
2173 289028.000    537555.1090  -4737374.1947   4222644.0193   1   8   0.0043   0.0089   0.0100  -0.0024  -0.0079   0.0022   0.00   29.9
2173 289029.000    537555.1074  -4737374.1963   4222644.0213   1   8   0.0041   0.0090   0.0099  -0.0018  -0.0079   0.0027   0.00   29.9
2173 289030.000    537555.1073  -4737374.1879   4222644.0136   1   8   0.0041   0.0089   0.0100  -0.0019  -0.0079   0.0027   0.00   29.9
2173 289031.000    537555.1072  -4737374.1906   4222644.0169   1   8   0.0036   0.0089   0.0098  -0.0025  -0.0079   0.0031   0.00   30.0
2173 289032.000    537555.1083  -4737374.1895   4222644.0182   1   8   0.0032   0.0089   0.0100  -0.0024  -0.0079   0.0029   0.00   30.1
2173 289033.000    537555.1074  -4737374.1917   4222644.0218   1   8   0.0042   0.0089   0.0100  -0.0024  -0.0078   0.0028   0.00   30.0
2173 289034.000    537555.1079  -4737374.1918   4222644.0112   1   8   0.0032   0.0089   0.0099  -0.0024  -0.0079   0.0028   0.00   30.1
2173 289035.000    537555.1071  -4737374.1908   4222644.0149   1   8   0.0030   0.0089   0.0099  -0.0018  -0.0079   0.0032   0.00   30.0
2173 289036.000    537555.1088  -4737374.1880   4222644.0114   1   8   0.0047   0.0090   0.0099  -0.0019  -0.0078   0.0027   0.00   30.1
2173 289037.000    537555.1078  -4737374.1921   4222644.0142   1   8   0.0033   0.0089   0.0099  -0.0022  -0.0079   0.0034   0.00   30.1
2173 289038.000    537555.1092  -4737374.1879   4222644.0080   1   8   0.0037   0.0088   0.0099  -0.0026  -0.0079   0.0028   0.00   30.2
2173 289039.000    537555.1066  -4737374.1928   4222644.0142   1   8   0.0036   0.0089   0.0099  -0.0022  -0.0080   0.0026   0.00   30.3
2173 289040.000    537555.1067  -4737374.1887   4222644.0126   1   8   0.0039   0.0089   0.0099  -0.0026  -0.0078   0.0029   0.00   30.3
2173 289041.000    537555.1064  -4737374.1945   4222644.0165   1   8   0.0036   0.0089   0.0099  -0.0020  -0.0080   0.0032   0.00   30.4
2173 289042.000    537555.1059  -4737374.1929   4222644.0159   1   8   0.0039   0.0088   0.0099  -0.0023  -0.0080   0.0028   0.00   30.5
2173 289043.000    537555.1069  -4737374.1926   4222644.0179   1   8   0.0039   0.0090   0.0099  -0.0018  -0.0079   0.0030   0.00   30.6
2173 289044.000    537555.1071  -4737374.1924   4222644.0107   1   8   0.0042   0.0089   0.0100  -0.0027  -0.0079   0.0027   0.00   30.7
2173 289045.000    537555.1073  -4737374.1937   4222644.0122   1   8   0.0026   0.0088   0.0099  -0.0027  -0.0080   0.0033   0.00   30.7
2173 289046.000    537555.1057  -4737374.1869   4222644.0105   1   8   0.0039   0.0089   0.0100  -0.0026  -0.0079   0.0030   0.00   30.8
2173 289047.000    537555.1058  -4737374.1865   4222644.0056   1   8   0.0034   0.0089   0.0100  -0.0024  -0.0079   0.0032   0.00   30.9
2173 289048.000    537555.1058  -4737374.1884   4222644.0111   1   8   0.0030   0.0089   0.0099  -0.0025  -0.0079   0.0032   0.00   31.0
2173 289049.000    537555.1051  -4737374.1937   4222644.0152   1   8   0.0031   0.0090   0.0098  -0.0019  -0.0079   0.0032   0.00   31.1
2173 289050.000    537555.1053  -4737374.1893   4222644.0107   1   8   0.0033   0.0088   0.0100  -0.0022  -0.0079   0.0026   0.00   31.1
2173 289051.000    537555.1063  -4737374.1931   4222644.0137   1   8   0.0031   0.0089   0.0099  -0.0020  -0.0079   0.0031   0.00   31.2
2173 289052.000    537555.1080  -4737374.1949   4222644.0177   1   8   0.0037   0.0089   0.0100  -0.0026  -0.0079   0.0031   0.00   31.2
2173 289053.000    537555.1057  -4737374.1899   4222644.0095   1   8   0.0038   0.0088   0.0099  -0.0024  -0.0080   0.0028   0.00   31.2
2173 289054.000    537555.1067  -4737374.1855   4222644.0076   1   8   0.0032   0.0089   0.0099  -0.0021  -0.0080   0.0032   0.00   31.3
2173 289055.000    537555.1064  -4737374.1842   4222644.0047   1   8   0.0041   0.0090   0.0100  -0.0021  -0.0079   0.0026   0.00   31.4
2173 289056.000    537555.1078  -4737374.1855   4222644.0081   1   8   0.0033   0.0090   0.0099  -0.0019  -0.0079   0.0028   0.00   31.4
2173 289057.000    537555.1090  -4737374.1857   4222644.0075   1   8   0.0040   0.0088   0.0099  -0.0024  -0.0080   0.0032   0.00   31.5
2173 289058.000    537555.1083  -4737374.1848   4222644.0080   1   8   0.0040   0.0090   0.0101  -0.0024  -0.0079   0.0029   0.00   31.5
2173 289059.000    537555.1050  -4737374.1916   4222644.0127   1   8   0.0041   0.0090   0.0100  -0.0024  -0.0080   0.0025   0.00   31.6
2173 289060.000    537555.1068  -4737374.1870   4222644.0068   1   8   0.0043   0.0089   0.0101  -0.0023  -0.0080   0.0024   0.00   31.6
2173 289061.000    537555.1062  -4737374.1925   4222644.0062   1   8   0.0028   0.0089   0.0099  -0.0023  -0.0080   0.0032   0.00   31.7
2173 289062.000    537555.1070  -4737374.1878   4222644.0047   1   8   0.0034   0.0088   0.0100  -0.0022  -0.0080   0.0033   0.00   31.7
2173 289063.000    537555.1047  -4737374.1835   4222644.0035   1   8   0.0034   0.0089   0.0099  -0.0025  -0.0079   0.0032   0.00   31.7
2173 289064.000    537555.1065  -4737374.1838   4222644.0012   1   8   0.0028   0.0089   0.0100  -0.0025  -0.0079   0.0025   0.00   31.8
2173 289065.000    537555.1073  -4737374.1925   4222644.0136   1   8   0.0042   0.0089   0.0100  -0.0021  -0.0080   0.0030   0.00   31.8
2173 289066.000    537555.1068  -4737374.1906   4222644.0099   1   8   0.0036   0.0090   0.0100  -0.0019  -0.0080   0.0028   0.00   31.8
2173 289067.000    537555.1059  -4737374.1898   4222644.0106   1   8   0.0035   0.0088   0.0100  -0.0030  -0.0080   0.0033   0.00   31.8
2173 289068.000    537555.1080  -4737374.1900   4222644.0132   1   8   0.0034   0.0089   0.0100  -0.0021  -0.0079   0.0033   0.00   31.9
2173 289069.000    537555.1052  -4737374.1880   4222644.0138   1   8   0.0030   0.0088   0.0100  -0.0027  -0.0080   0.0031   0.00   31.8
2173 289070.000    537555.1068  -4737374.1915   4222644.0117   1   8   0.0030   0.0088   0.0099  -0.0028  -0.0080   0.0033   0.00   31.8
2173 289071.000    537555.1086  -4737374.1935   4222644.0208   1   8   0.0041   0.0089   0.0099  -0.0017  -0.0080   0.0031   0.00   31.9
2173 289072.000    537555.1053  -4737374.1897   4222644.0083   1   8   0.0035   0.0089   0.0100  -0.0021  -0.0079   0.0026   0.00   31.9
2173 289073.000    537555.1071  -4737374.1915   4222644.0146   1   8   0.0028   0.0090   0.0099  -0.0022  -0.0080   0.0034   0.00   31.9
2173 289074.000    537555.1080  -4737374.1880   4222644.0123   1   8   0.0036   0.0089   0.0100  -0.0024  -0.0080   0.0029   0.00   32.0
2173 289075.000    537555.1093  -4737374.1967   4222644.0178   1   8   0.0039   0.0089   0.0100  -0.0023  -0.0079   0.0027   0.00   32.2
2173 289076.000    537555.1061  -4737374.1955   4222644.0152   1   8   0.0037   0.0088   0.0099  -0.0026  -0.0080   0.0031   0.00   32.3
2173 289077.000    537555.1089  -4737374.1885   4222644.0111   1   8   0.0029   0.0089   0.0099  -0.0023  -0.0080   0.0031   0.00   32.4
2173 289078.000    537555.1074  -4737374.1944   4222644.0141   1   8   0.0043   0.0089   0.0100  -0.0016  -0.0079   0.0022   0.00   32.5
2173 289079.000    537555.1105  -4737374.1935   4222644.0146   1   8   0.0037   0.0089   0.0101  -0.0022  -0.0080   0.0030   0.00   32.5
2173 289080.000    537555.1091  -4737374.1925   4222644.0150   1   8   0.0032   0.0090   0.0100  -0.0016  -0.0079   0.0037   0.00   32.6
2173 289081.000    537555.1071  -4737374.1883   4222644.0131   1   8   0.0031   0.0088   0.0098  -0.0024  -0.0080   0.0035   0.00   32.7
2173 289082.000    537555.1085  -4737374.1894   4222644.0144   1   8   0.0038   0.0090   0.0100  -0.0021  -0.0080   0.0026   0.00   32.8
2173 289083.000    537555.1083  -4737374.1935   4222644.0135   1   8   0.0039   0.0089   0.0099  -0.0024  -0.0079   0.0024   0.00   32.9
2173 289084.000    537555.1079  -4737374.1814   4222644.0057   1   8   0.0039   0.0089   0.0100  -0.0026  -0.0080   0.0026   0.00   33.0
2173 289085.000    537555.1079  -4737374.1886   4222644.0100   1   8   0.0040   0.0089   0.0100  -0.0023  -0.0080   0.0028   0.00   33.1
2173 289086.000    537555.1064  -4737374.1872   4222644.0099   1   8   0.0043   0.0090   0.0101  -0.0021  -0.0079   0.0029   0.00   33.3
2173 289087.000    537555.1108  -4737374.1869   4222644.0078   1   8   0.0034   0.0090   0.0099  -0.0025  -0.0079   0.0033   0.00   33.4
2173 289088.000    537555.1097  -4737374.1891   4222644.0102   1   8   0.0028   0.0090   0.0099  -0.0021  -0.0079   0.0036   0.00   33.4
2173 289089.000    537555.1076  -4737374.1886   4222644.0066   1   8   0.0044   0.0089   0.0100  -0.0025  -0.0080   0.0025   0.00   33.5
2173 289090.000    537555.1092  -4737374.1930   4222644.0102   1   8   0.0040   0.0089   0.0101  -0.0025  -0.0080   0.0026   0.00   33.6
2173 289091.000    537555.1088  -4737374.1874   4222644.0103   1   8   0.0034   0.0089   0.0099  -0.0026  -0.0080   0.0031   0.00   33.7
2173 289092.000    537555.1090  -4737374.1867   4222644.0111   1   8   0.0039   0.0089   0.0100  -0.0021  -0.0080   0.0028   0.00   33.8
2173 289093.000    537555.1076  -4737374.1892   4222644.0092   1   8   0.0038   0.0089   0.0100  -0.0021  -0.0080   0.0029   0.00   33.9
2173 289094.000    537555.1073  -4737374.1874   4222644.0068   1   8   0.0036   0.0089   0.0100  -0.0025  -0.0080   0.0027   0.00   33.9
2173 289095.000    537555.1088  -4737374.1881   4222644.0084   1   8   0.0033   0.0090   0.0100  -0.0019  -0.0080   0.0032   0.00   34.1
2173 289096.000    537555.1086  -4737374.1869   4222644.0039   1   8   0.0035   0.0090   0.0100  -0.0021  -0.0079   0.0031   0.00   34.2
2173 289097.000    537555.1067  -4737374.1887   4222644.0063   1   8   0.0044   0.0090   0.0101  -0.0025  -0.0079   0.0023   0.00   34.2
2173 289098.000    537555.1054  -4737374.1917   4222644.0087   1   8   0.0042   0.0089   0.0100  -0.0023  -0.0080   0.0026   0.00   34.3
2173 289099.000    537555.1078  -4737374.1849   4222644.0040   1   8   0.0045   0.0089   0.0100  -0.0020  -0.0080   0.0027   0.00   34.3
2173 289100.000    537555.1065  -4737374.1846   4222644.0086   1   8   0.0034   0.0089   0.0101  -0.0026  -0.0080   0.0030   0.00   34.4
2173 289101.000    537555.1055  -4737374.1824   4222644.0019   1   8   0.0041   0.0090   0.0100  -0.0023  -0.0080   0.0029   0.00   34.4
2173 289102.000    537555.1078  -4737374.1901   4222644.0089   1   8   0.0040   0.0091   0.0100  -0.0018  -0.0080   0.0028   0.00   34.5
2173 289103.000    537555.1059  -4737374.1801   4222644.0002   1   8   0.0041   0.0089   0.0100  -0.0024  -0.0080   0.0029   0.00   34.6
2173 289104.000    537555.1086  -4737374.1905   4222644.0081   1   8   0.0037   0.0090   0.0100  -0.0019  -0.0081   0.0031   0.00   34.6
2173 289105.000    537555.1060  -4737374.1900   4222644.0088   1   8   0.0036   0.0089   0.0102  -0.0027  -0.0080   0.0027   0.00   34.7
2173 289106.000    537555.1072  -4737374.1905   4222644.0097   1   8   0.0031   0.0090   0.0100  -0.0023  -0.0080   0.0031   0.00   34.8
2173 289107.000    537555.1079  -4737374.1920   4222644.0054   1   8   0.0032   0.0090   0.0100  -0.0023  -0.0080   0.0035   0.00   34.8
2173 289108.000    537555.1092  -4737374.1926   4222644.0118   1   8   0.0031   0.0090   0.0102  -0.0024  -0.0080   0.0029   0.00   34.9
2173 289109.000    537555.1075  -4737374.1927   4222644.0109   1   8   0.0038   0.0090   0.0100  -0.0022  -0.0080   0.0030   0.00   34.9
2173 289110.000    537555.1064  -4737374.1914   4222644.0106   1   8   0.0037   0.0090   0.0101  -0.0021  -0.0080   0.0030   0.00   34.9
2173 289111.000    537555.1066  -4737374.1895   4222644.0096   1   8   0.0030   0.0091   0.0101  -0.0016  -0.0080   0.0031   0.00   34.9
2173 289112.000    537555.1052  -4737374.1909   4222644.0084   1   8   0.0036   0.0090   0.0100  -0.0023  -0.0080   0.0030   0.00   34.9
2173 289113.000    537555.1071  -4737374.1975   4222644.0147   1   8   0.0033   0.0089   0.0100  -0.0021  -0.0080   0.0031   0.00   34.8
2173 289114.000    537555.1072  -4737374.1910   4222644.0108   1   8   0.0036   0.0090   0.0100  -0.0022  -0.0080   0.0033   0.00   34.8
2173 289115.000    537555.1074  -4737374.1927   4222644.0092   1   8   0.0034   0.0088   0.0101  -0.0026  -0.0080   0.0031   0.00   34.7
2173 289116.000    537555.1086  -4737374.1864   4222644.0084   1   8   0.0038   0.0089   0.0100  -0.0022  -0.0081   0.0030   0.00   34.6
2173 289117.000    537555.1081  -4737374.1966   4222644.0177   1   8   0.0045   0.0090   0.0101  -0.0025  -0.0080   0.0027   0.00   34.6
2173 289118.000    537555.1065  -4737374.1899   4222644.0086   1   8   0.0033   0.0090   0.0101  -0.0020  -0.0080   0.0031   0.00   34.5
2173 289119.000    537555.1071  -4737374.1892   4222644.0066   1   8   0.0045   0.0091   0.0101  -0.0023  -0.0080   0.0026   0.00   34.4
2173 289120.000    537555.1062  -4737374.1802   4222644.0005   1   8   0.0035   0.0090   0.0101  -0.0018  -0.0080   0.0028   0.00   34.3
2173 289121.000    537555.1087  -4737374.1879   4222644.0105   1   8   0.0033   0.0089   0.0101  -0.0021  -0.0081   0.0028   0.00   34.3
2173 289122.000    537555.1094  -4737374.1864   4222644.0109   1   8   0.0042   0.0090   0.0101  -0.0027  -0.0080   0.0025   0.00   34.2
2173 289123.000    537555.1073  -4737374.1968   4222644.0138   1   8   0.0036   0.0090   0.0100  -0.0019  -0.0081   0.0034   0.00   34.2
2173 289124.000    537555.1082  -4737374.1850   4222644.0061   1   8   0.0036   0.0091   0.0100  -0.0015  -0.0080   0.0028   0.00   34.1
2173 289125.000    537555.1058  -4737374.1846   4222644.0031   1   8   0.0041   0.0089   0.0101  -0.0028  -0.0080   0.0026   0.00   34.1
2173 289126.000    537555.1106  -4737374.1880   4222644.0096   1   8   0.0038   0.0089   0.0100  -0.0026  -0.0081   0.0028   0.00   34.0
2173 289127.000    537555.1077  -4737374.1885   4222644.0081   1   8   0.0037   0.0088   0.0101  -0.0025  -0.0081   0.0033   0.00   34.0
2173 289128.000    537555.1102  -4737374.1907   4222644.0127   1   8   0.0039   0.0090   0.0101  -0.0023  -0.0078   0.0030   0.00   33.9
2173 289129.000    537555.1087  -4737374.1873   4222644.0055   1   8   0.0037   0.0090   0.0101  -0.0020  -0.0080   0.0029   0.00   33.9
2173 289130.000    537555.1082  -4737374.1878   4222644.0079   1   8   0.0029   0.0089   0.0100  -0.0021  -0.0081   0.0034   0.00   33.8
