% program   : rnx2rtkp ver.2.4.3 b31
% inp file  : ngs/21_08_31_03_04_50_tn31.obs
% inp file  : ngs/21_08_31_03_04_50_tn31_P1.obs
% inp file  : ngs/21_08_31_03_04_50_brdc.nav
% obs start : 2021/08/31 03:00:00.0 GPST (week2173 183600.0s)
% obs end   : 2021/08/31 03:59:59.0 GPST (week2173 187199.0s)
% ref pos   :   321678.7610  -5165406.0440   3715461.1780
%
% (x/y/z-ecef=WGS84,Q=1:fix,2:float,3:sbas,4:dgps,5:single,6:ppp,ns=# of satellites)
%  GPST              x-ecef(m)      y-ecef(m)      z-ecef(m)   Q  ns   sdx(m)   sdy(m)   sdz(m)  sdxy(m)  sdyz(m)  sdzx(m) age(s)  ratio
2173 183864.000    281408.4226  -5147270.4951   3743527.4164   2   6   0.5047   1.2193   1.1304   0.2444  -1.0349  -0.4469 -30.00    1.7
2173 183865.000    281408.5144  -5147270.4061   3743527.2728   2   6   0.3588   0.8665   0.8033   0.1740  -0.7354  -0.3178 -29.00    1.6
2173 183866.000    281408.5601  -5147270.6369   3743527.4368   2   6   0.2937   0.7093   0.6573   0.1421  -0.6018  -0.2600 -28.00    1.7
2173 183867.000    281408.5758  -5147270.7266   3743527.4521   2   6   0.2549   0.6153   0.5701   0.1229  -0.5219  -0.2255 -27.00    1.5
2173 183868.000    281408.6033  -5147270.6841   3743527.4706   2   6   0.2283   0.5510   0.5104   0.1098  -0.4673  -0.2018 -26.00    1.6
2173 183869.000    281408.6203  -5147270.6186   3743527.4258   2   6   0.2086   0.5035   0.4663   0.1000  -0.4269  -0.1844 -25.00    1.7
2173 183870.000    281408.6203  -5147270.5914   3743527.4259   2   6   0.1933   0.4664   0.4319   0.0924  -0.3954  -0.1707 -24.00    1.7
2173 183871.000    281408.6183  -5147270.5941   3743527.4384   2   6   0.1809   0.4365   0.4041   0.0863  -0.3700  -0.1597 -23.00    1.7
2173 183872.000    281408.6278  -5147270.6313   3743527.4362   2   6   0.1707   0.4117   0.3810   0.0812  -0.3488  -0.1506 -22.00    1.6
2173 183873.000    281408.6491  -5147270.6366   3743527.4357   2   6   0.1620   0.3906   0.3614   0.0769  -0.3309  -0.1429 -21.00    1.6
2173 183874.000    281408.6451  -5147270.6504   3743527.4495   2   6   0.1545   0.3724   0.3445   0.0732  -0.3154  -0.1362 -20.00    1.5
2173 183875.000    281408.6514  -5147270.6419   3743527.4569   2   6   0.1479   0.3565   0.3297   0.0700  -0.3018  -0.1303 -19.00    1.5
2173 183876.000    281408.6597  -5147270.6350   3743527.4471   2   6   0.1421   0.3424   0.3166   0.0671  -0.2898  -0.1252 -18.00    1.5
2173 183877.000    281408.6419  -5147270.6807   3743527.4884   2   6   0.1369   0.3298   0.3049   0.0646  -0.2791  -0.1206 -17.00    1.4
2173 183878.000    281408.6317  -5147270.6856   3743527.4999   2   6   0.1322   0.3184   0.2944   0.0623  -0.2695  -0.1164 -16.00    1.3
2173 183879.000    281408.6250  -5147270.6917   3743527.5028   2   6   0.1280   0.3081   0.2848   0.0602  -0.2607  -0.1127 -15.00    1.3
2173 183880.000    281408.6195  -5147270.6831   3743527.4743   2   6   0.1241   0.2987   0.2761   0.0583  -0.2527  -0.1092 -14.00    1.2
2173 183881.000    281408.6183  -5147270.7016   3743527.4853   2   6   0.1206   0.2900   0.2680   0.0566  -0.2453  -0.1061 -13.00    1.1
2173 183882.000    281408.6221  -5147270.7077   3743527.4868   2   6   0.1173   0.2821   0.2606   0.0550  -0.2385  -0.1032 -12.00    1.0
2173 183883.000    281408.6124  -5147270.7009   3743527.4900   2   6   0.1143   0.2747   0.2537   0.0535  -0.2322  -0.1005 -11.00    1.1
2173 183884.000    281408.6092  -5147270.7055   3743527.5016   2   6   0.1114   0.2678   0.2474   0.0521  -0.2264  -0.0980 -10.00    1.2
2173 183885.000    281408.5965  -5147270.7098   3743527.5312   2   6   0.1088   0.2614   0.2414   0.0509  -0.2209  -0.0956  -9.00    1.3
2173 183886.000    281408.5885  -5147270.7236   3743527.5418   2   6   0.1064   0.2554   0.2358   0.0496  -0.2158  -0.0935  -8.00    1.4
2173 183887.000    281408.5888  -5147270.7139   3743527.5303   2   6   0.1041   0.2498   0.2306   0.0485  -0.2109  -0.0914  -7.00    1.5
2173 183888.000    281408.5801  -5147270.7263   3743527.5493   2   6   0.1019   0.2445   0.2256   0.0474  -0.2064  -0.0895  -6.00    1.7
2173 183889.000    281408.5699  -5147270.7123   3743527.5464   2   6   0.0999   0.2395   0.2210   0.0464  -0.2021  -0.0877  -5.00    1.9
2173 183890.000    281408.5794  -5147270.7149   3743527.5407   2   6   0.0980   0.2348   0.2166   0.0454  -0.1981  -0.0859  -4.00    2.1
2173 183891.000    281408.5807  -5147270.7170   3743527.5381   2   6   0.0962   0.2303   0.2124   0.0445  -0.1942  -0.0843  -3.00    2.4
2173 183892.000    281408.5791  -5147270.7096   3743527.5338   2   6   0.0945   0.2261   0.2085   0.0435  -0.1906  -0.0828  -2.00    2.7
2173 183893.000    281408.9047  -5147272.4688   3743528.8520   1   6   0.0053   0.0125   0.0115   0.0023  -0.0105  -0.0047  -1.00    3.0
2173 183894.000    281408.9055  -5147272.4749   3743528.8544   1   6   0.0052   0.0122   0.0113   0.0027  -0.0103  -0.0043   0.00    3.2
2173 183895.000    281408.2581  -5147270.5833   3743527.6106   2   6   0.5041   1.2110   1.1171   0.2331  -1.0225  -0.4419   0.00    2.8
2173 183896.000    281408.3316  -5147271.0133   3743527.7422   2   6   0.5041   1.2108   1.1167   0.2327  -1.0221  -0.4417   0.00    2.6
2173 183897.000    281408.9049  -5147272.4728   3743528.8555   1   6   0.0051   0.0122   0.0113   0.0024  -0.0103  -0.0045   0.00    3.9
2173 183898.000    281408.4968  -5147270.5659   3743527.0873   2   6   0.5041   1.2104   1.1160   0.2320  -1.0214  -0.4414   0.00    2.9
2173 183899.000    281408.5371  -5147270.3072   3743527.2113   2   6   0.5041   1.2102   1.1156   0.2316  -1.0211  -0.4413   0.00    3.0
2173 183900.000    281408.4950  -5147270.2668   3743527.2106   2   6   0.5042   1.2100   1.1153   0.2312  -1.0208  -0.4411   0.00    2.9
2173 183901.000    281408.3329  -5147270.6581   3743527.4591   2   6   0.5042   1.2098   1.1149   0.2308  -1.0204  -0.4410   0.00    2.5
2173 183902.000    281408.4609  -5147270.4807   3743527.2909   2   6   0.5042   1.2096   1.1145   0.2304  -1.0201  -0.4408   0.00    2.9
2173 183903.000    281408.3640  -5147270.6260   3743527.6649   2   6   0.5042   1.2094   1.1142   0.2300  -1.0197  -0.4407   0.00    2.6
2173 183904.000    281408.8996  -5147272.4818   3743528.8635   1   6   0.0051   0.0122   0.0112   0.0024  -0.0103  -0.0045   0.00    4.2
2173 183905.000    281408.9040  -5147272.4782   3743528.8564   1   6   0.0051   0.0122   0.0112   0.0023  -0.0103  -0.0045   0.00    3.4
2173 183906.000    281408.9031  -5147272.4739   3743528.8544   1   6   0.0051   0.0122   0.0112   0.0023  -0.0103  -0.0044   0.00    3.2
2173 183907.000    281408.9039  -5147272.4717   3743528.8538   1   6   0.0051   0.0122   0.0112   0.0023  -0.0103  -0.0044   0.00    3.5
2173 183908.000    281408.2524  -5147271.4740   3743528.2662   2   6   0.5042   1.2085   1.1124   0.2281  -1.0180  -0.4400   0.00    2.7
2173 183909.000    281408.9023  -5147272.4769   3743528.8585   1   6   0.0051   0.0122   0.0112   0.0023  -0.0103  -0.0044   0.00    3.3
2173 183910.000    281408.9025  -5147272.4799   3743528.8605   1   6   0.0051   0.0122   0.0112   0.0023  -0.0103  -0.0044   0.00    3.5
2173 183911.000    281408.9040  -5147272.4771   3743528.8571   1   6   0.0051   0.0122   0.0112   0.0023  -0.0103  -0.0044   0.00    3.5
2173 183912.000    281408.9048  -5147272.4751   3743528.8551   1   6   0.0051   0.0122   0.0112   0.0023  -0.0103  -0.0044   0.00    3.2
2173 183913.000    281408.9048  -5147272.4713   3743528.8536   1   6   0.0051   0.0122   0.0112   0.0023  -0.0103  -0.0044   0.00    3.7
2173 183914.000    281408.9055  -5147272.4737   3743528.8529   1   6   0.0051   0.0122   0.0112   0.0023  -0.0102  -0.0044   0.00    3.5
2173 183915.000    281408.9054  -5147272.4731   3743528.8569   1   6   0.0051   0.0122   0.0112   0.0023  -0.0102  -0.0044   0.00    3.8
2173 183916.000    281408.5257  -5147270.2368   3743527.1263   2   6   0.5043   1.2070   1.1095   0.2249  -1.0153  -0.4388   0.00    2.8
2173 183917.000    281408.9066  -5147272.4737   3743528.8549   1   6   0.0051   0.0122   0.0112   0.0023  -0.0102  -0.0044   0.00    4.8
2173 183918.000    281408.9045  -5147272.4718   3743528.8551   1   6   0.0051   0.0122   0.0112   0.0023  -0.0102  -0.0044   0.00    3.7
2173 183919.000    281408.9026  -5147272.4651   3743528.8490   1   6   0.0051   0.0122   0.0112   0.0023  -0.0102  -0.0044   0.00    3.3
2173 183920.000    281408.9038  -5147272.4712   3743528.8496   1   6   0.0051   0.0122   0.0112   0.0023  -0.0102  -0.0044   0.00    3.0
2173 183921.000    281408.5803  -5147271.3876   3743527.6818   2   6   0.5044   1.2061   1.1077   0.2229  -1.0136  -0.4381   0.00    2.5
2173 183922.000    281408.4001  -5147270.9841   3743527.5316   2   6   0.5044   1.2059   1.1073   0.2225  -1.0133  -0.4380   0.00    2.5
2173 183923.000    281408.5325  -5147271.2938   3743527.5331   2   6   0.5044   1.2057   1.1070   0.2221  -1.0130  -0.4378   0.00    2.5
2173 183924.000    281408.9076  -5147272.4730   3743528.8510   1   6   0.0051   0.0122   0.0112   0.0023  -0.0102  -0.0044   0.00    3.4
2173 183925.000    281408.4329  -5147271.4860   3743528.0058   2   6   0.5044   1.2053   1.1062   0.2213  -1.0123  -0.4375   0.00    2.3
2173 183926.000    281408.3535  -5147271.4154   3743528.0616   2   6   0.5044   1.2051   1.1059   0.2209  -1.0120  -0.4374   0.00    2.2
2173 183927.000    281408.4402  -5147271.4376   3743527.9655   2   6   0.5044   1.2049   1.1055   0.2205  -1.0116  -0.4372   0.00    1.9
2173 183928.000    281408.4248  -5147271.0659   3743527.6770   2   6   0.5044   1.2048   1.1052   0.2201  -1.0113  -0.4371   0.00    2.6
2173 183929.000    281408.4337  -5147271.1229   3743527.7084   2   6   0.5045   1.2046   1.1048   0.2197  -1.0110  -0.4369   0.00    1.9
2173 183930.000    281408.3644  -5147271.3395   3743527.8065   2   6   0.5045   1.2044   1.1044   0.2193  -1.0106  -0.4368   0.00    2.2
2173 183931.000    281408.3235  -5147271.0085   3743527.6329   2   6   0.5045   1.2042   1.1041   0.2189  -1.0103  -0.4367   0.00    1.6
2173 183932.000    281408.4105  -5147271.2490   3743527.8653   2   6   0.5045   1.2040   1.1037   0.2185  -1.0099  -0.4365   0.00    2.1
2173 183933.000    281408.1340  -5147271.2918   3743528.1201   2   6   0.5045   1.2038   1.1034   0.2181  -1.0096  -0.4364   0.00    2.0
2173 183934.000    281408.4284  -5147270.9055   3743527.4382   2   6   0.5045   1.2037   1.1030   0.2177  -1.0093  -0.4362   0.00    2.1
2173 183935.000    281408.4843  -5147271.1653   3743527.4776   2   6   0.5045   1.2035   1.1027   0.2173  -1.0089  -0.4361   0.00    1.4
2173 183936.000    281408.3915  -5147270.9673   3743527.5036   2   6   0.5045   1.2033   1.1023   0.2168  -1.0086  -0.4359   0.00    1.8
2173 183937.000    281408.5184  -5147271.2813   3743527.7321   2   6   0.5045   1.2031   1.1019   0.2164  -1.0083  -0.4358   0.00    2.3
2173 183938.000    281408.3566  -5147271.5345   3743527.9741   2   6   0.5046   1.2029   1.1016   0.2160  -1.0079  -0.4357   0.00    1.4
2173 183939.000    281408.1757  -5147271.2918   3743528.0500   2   6   0.5046   1.2027   1.1012   0.2156  -1.0076  -0.4355   0.00    1.5
2173 183940.000    281408.3105  -5147271.3848   3743527.5235   2   6   0.5046   1.2026   1.1009   0.2152  -1.0073  -0.4354   0.00    1.2
2173 183941.000    281408.2977  -5147271.5298   3743527.7727   2   6   0.5046   1.2024   1.1005   0.2148  -1.0069  -0.4352   0.00    1.4
2173 183942.000    281408.3133  -5147272.0793   3743528.3679   2   6   0.5046   1.2022   1.1002   0.2144  -1.0066  -0.4351   0.00    1.6
2173 183943.000    281408.1539  -5147272.1058   3743528.5608   2   6   0.5046   1.2020   1.0998   0.2140  -1.0063  -0.4349   0.00    1.2
2173 183944.000    281408.2759  -5147271.9248   3743527.9433   2   6   0.5046   1.2018   1.0994   0.2135  -1.0059  -0.4348   0.00    1.1
2173 183945.000    281408.1135  -5147271.8953   3743527.9612   2   6   0.5046   1.2016   1.0991   0.2131  -1.0056  -0.4347   0.00    1.2
2173 183946.000    281408.2113  -5147271.8674   3743528.2766   2   6   0.5047   1.2015   1.0987   0.2127  -1.0053  -0.4345   0.00    1.2
2173 183947.000    281408.2448  -5147271.7285   3743528.3234   2   6   0.5047   1.2013   1.0984   0.2123  -1.0049  -0.4344   0.00    1.4
2173 183948.000    281408.2058  -5147272.0180   3743528.5336   2   6   0.5047   1.2011   1.0980   0.2119  -1.0046  -0.4342   0.00    1.7
2173 183949.000    281408.2216  -5147272.3604   3743528.6886   2   6   0.5047   1.2009   1.0977   0.2115  -1.0043  -0.4341   0.00    1.2
2173 183950.000    281408.4644  -5147272.0519   3743528.1483   2   6   0.5047   1.2007   1.0973   0.2110  -1.0039  -0.4339   0.00    1.2
2173 183951.000    281408.4158  -5147272.0074   3743528.0286   2   6   0.5047   1.2006   1.0970   0.2106  -1.0036  -0.4338   0.00    1.6
2173 183952.000    281408.3546  -5147271.9570   3743528.0892   2   6   0.5047   1.2004   1.0966   0.2102  -1.0033  -0.4337   0.00    1.1
2173 183953.000    281408.3020  -5147272.2608   3743528.4358   2   6   0.5047   1.2002   1.0963   0.2098  -1.0029  -0.4335   0.00    1.3
2173 183954.000    281408.4425  -5147272.0027   3743528.0831   2   6   0.5047   1.2000   1.0959   0.2094  -1.0026  -0.4334   0.00    1.2
2173 183955.000    281408.3111  -5147272.5234   3743528.4031   2   6   0.5048   1.1999   1.0955   0.2089  -1.0023  -0.4332   0.00    1.2
2173 183956.000    281408.3702  -5147272.2212   3743528.1599   2   6   0.5048   1.1997   1.0952   0.2085  -1.0019  -0.4331   0.00    1.2
2173 183957.000    281408.4121  -5147272.4803   3743528.3543   2   6   0.5048   1.1995   1.0948   0.2081  -1.0016  -0.4330   0.00    1.5
2173 183958.000    281408.3096  -5147272.5876   3743528.5764   2   6   0.5048   1.1993   1.0945   0.2077  -1.0013  -0.4328   0.00    1.6
2173 183959.000    281408.2282  -5147272.1332   3743528.1747   2   6   0.5048   1.1991   1.0941   0.2072  -1.0010  -0.4327   0.00    1.1
2173 183960.000    281408.3791  -5147272.2260   3743528.2539   2   6   0.5048   1.1990   1.0938   0.2068  -1.0006  -0.4325   0.00    1.3
2173 183961.000    281408.3087  -5147271.8679   3743528.2093   2   6   0.5048   1.1988   1.0934   0.2064  -1.0003  -0.4324   0.00    1.3
2173 183962.000    281408.2647  -5147272.0164   3743528.1894   2   6   0.5048   1.1986   1.0931   0.2060  -1.0000  -0.4322   0.00    1.2
2173 183963.000    281408.3737  -5147271.8640   3743528.0308   2   6   0.5049   1.1984   1.0927   0.2055  -0.9996  -0.4321   0.00    1.2
2173 183964.000    281408.3745  -5147271.9632   3743528.0836   2   6   0.5049   1.1982   1.0924   0.2051  -0.9993  -0.4320   0.00    1.6
2173 183965.000    281408.5164  -5147272.4079   3743528.2590   2   6   0.5049   1.1981   1.0920   0.2047  -0.9990  -0.4318   0.00    1.4
2173 183966.000    281408.4618  -5147271.9636   3743528.1658   2   6   0.5049   1.1979   1.0917   0.2042  -0.9986  -0.4317   0.00    1.7
2173 183967.000    281408.4894  -5147271.9229   3743527.8888   2   6   0.5049   1.1977   1.0913   0.2038  -0.9983  -0.4315   0.00    1.2
2173 183968.000    281408.3959  -5147272.0809   3743528.0988   2   6   0.5049   1.1975   1.0910   0.2034  -0.9980  -0.4314   0.00    1.4
2173 183969.000    281408.3815  -5147272.1203   3743528.3496   2   6   0.5049   1.1974   1.0906   0.2029  -0.9977  -0.4313   0.00    1.8
2173 183970.000    281408.2703  -5147271.9069   3743528.1792   2   6   0.5050   1.1972   1.0903   0.2025  -0.9973  -0.4311   0.00    1.5
2173 183971.000    281408.3182  -5147272.1014   3743528.2369   2   6   0.5050   1.1970   1.0899   0.2021  -0.9970  -0.4310   0.00    1.9
2173 183972.000    281408.1844  -5147272.0734   3743528.3398   2   6   0.5050   1.1968   1.0896   0.2016  -0.9967  -0.4308   0.00    1.6
2173 183973.000    281408.3930  -5147271.5963   3743527.8714   2   6   0.5050   1.1967   1.0892   0.2012  -0.9963  -0.4307   0.00    1.5
2173 183974.000    281408.3375  -5147271.7080   3743527.9256   2   6   0.5050   1.1965   1.0888   0.2008  -0.9960  -0.4306   0.00    1.2
2173 183975.000    281408.3069  -5147271.5916   3743527.9193   2   6   0.5050   1.1963   1.0885   0.2003  -0.9957  -0.4304   0.00    1.6
2173 183976.000    281408.1660  -5147271.5439   3743527.7830   2   6   0.5050   1.1961   1.0881   0.1999  -0.9954  -0.4303   0.00    1.3
2173 183977.000    281408.2499  -5147271.5887   3743527.9799   2   6   0.5050   1.1960   1.0878   0.1994  -0.9950  -0.4301   0.00    1.3
2173 183978.000    281408.3429  -5147271.8286   3743528.0288   2   6   0.5051   1.1958   1.0874   0.1990  -0.9947  -0.4300   0.00    1.6
2173 183979.000    281408.2979  -5147271.8020   3743527.8253   2   6   0.5051   1.1956   1.0871   0.1986  -0.9944  -0.4299   0.00    1.3
2173 183980.000    281408.1072  -5147271.6025   3743527.8210   2   6   0.5051   1.1954   1.0867   0.1981  -0.9940  -0.4297   0.00    1.0
2173 183981.000    281408.3248  -5147271.6242   3743527.7116   2   6   0.5051   1.1953   1.0864   0.1977  -0.9937  -0.4296   0.00    1.2
2173 183982.000    281408.3617  -5147271.4532   3743527.6214   2   6   0.5051   1.1951   1.0860   0.1972  -0.9934  -0.4294   0.00    1.0
2173 183983.000    281408.1370  -5147271.7055   3743527.8834   2   6   0.5051   1.1949   1.0857   0.1968  -0.9931  -0.4293   0.00    1.1
2173 183984.000    281408.1712  -5147272.0206   3743528.2159   2   6   0.5051   1.1948   1.0854   0.1963  -0.9927  -0.4292   0.00    1.1
2173 183985.000    281408.3863  -5147271.4591   3743527.4513   2   6   0.5052   1.1946   1.0850   0.1959  -0.9924  -0.4290   0.00    1.0
2173 183986.000    281408.3640  -5147271.1896   3743527.4666   2   6   0.5052   1.1944   1.0847   0.1954  -0.9921  -0.4289   0.00    1.1
2173 183987.000    281408.4452  -5147271.4047   3743527.7331   2   6   0.5052   1.1942   1.0843   0.1950  -0.9918  -0.4287   0.00    1.1
2173 183988.000    281408.4382  -5147271.5409   3743527.5557   2   6   0.5052   1.1941   1.0840   0.1945  -0.9914  -0.4286   0.00    1.1
2173 183989.000    281408.4733  -5147271.7210   3743527.8588   2   6   0.5052   1.1939   1.0836   0.1941  -0.9911  -0.4285   0.00    1.5
2173 183990.000    281408.3997  -5147271.3155   3743527.7332   2   6   0.5052   1.1937   1.0833   0.1936  -0.9908  -0.4283   0.00    1.3
2173 183991.000    281408.2399  -5147271.8992   3743528.6526   2   6   0.5052   1.1936   1.0829   0.1932  -0.9904  -0.4282   0.00    1.6
2173 183992.000    281408.7460  -5147271.6300   3743527.6540   2   6   0.5052   1.1934   1.0826   0.1927  -0.9901  -0.4280   0.00    1.6
2173 183993.000    281408.4725  -5147271.3216   3743527.6934   2   6   0.5053   1.1932   1.0822   0.1923  -0.9898  -0.4279   0.00    1.3
2173 183994.000    281408.4498  -5147271.3381   3743527.6419   2   6   0.5053   1.1930   1.0819   0.1918  -0.9895  -0.4278   0.00    1.5
2173 183995.000    281408.3695  -5147271.3574   3743527.8373   2   6   0.5053   1.1929   1.0815   0.1914  -0.9891  -0.4276   0.00    1.2
2173 183996.000    281408.3489  -5147271.2307   3743527.7562   2   6   0.5053   1.1927   1.0812   0.1909  -0.9888  -0.4275   0.00    1.3
2173 183997.000    281408.2079  -5147271.5891   3743527.8556   2   6   0.5053   1.1925   1.0808   0.1904  -0.9885  -0.4273   0.00    1.1
2173 183998.000    281408.4283  -5147271.4577   3743527.8350   2   6   0.5053   1.1924   1.0805   0.1900  -0.9882  -0.4272   0.00    1.4
2173 183999.000    281408.4066  -5147271.4935   3743527.8210   2   6   0.5053   1.1922   1.0801   0.1895  -0.9878  -0.4271   0.00    1.3
2173 184000.000    281408.3735  -5147271.4874   3743527.7749   2   6   0.5054   1.1920   1.0798   0.1891  -0.9875  -0.4269   0.00    1.1
2173 184001.000    281408.2901  -5147271.6039   3743527.6728   2   6   0.5054   1.1919   1.0794   0.1886  -0.9872  -0.4268   0.00    1.2
2173 184002.000    281408.3981  -5147271.4665   3743527.6442   2   6   0.5054   1.1917   1.0791   0.1881  -0.9869  -0.4266   0.00    1.2
2173 184003.000    281408.4409  -5147271.8013   3743528.3067   2   6   0.5054   1.1915   1.0788   0.1877  -0.9866  -0.4265   0.00    1.1
2173 184004.000    281408.5597  -5147271.8629   3743527.9973   2   6   0.5054   1.1913   1.0784   0.1872  -0.9862  -0.4264   0.00    1.0
2173 184005.000    281408.5113  -5147271.8684   3743528.0249   2   6   0.3587   0.8451   0.7650   0.1339  -0.6996  -0.3028   1.00    1.0
2173 184007.000    281408.4208  -5147271.8238   3743528.2062   2   6   0.5055   1.1908   1.0774   0.1858  -0.9853  -0.4260   0.00    1.1
2173 184008.000    281408.4104  -5147272.2312   3743528.3103   2   6   0.5055   1.1907   1.0770   0.1853  -0.9849  -0.4258   0.00    1.0
2173 184009.000    281408.2789  -5147271.9178   3743528.2697   2   6   0.5055   1.1905   1.0767   0.1848  -0.9846  -0.4257   0.00    1.1
2173 184010.000    281408.4670  -5147271.9262   3743528.3909   2   6   0.5055   1.1903   1.0763   0.1844  -0.9843  -0.4255   0.00    1.2
2173 184011.000    281408.3350  -5147271.9112   3743528.3913   2   6   0.5055   1.1902   1.0760   0.1839  -0.9840  -0.4254   0.00    1.2
2173 184012.000    281408.2917  -5147272.0479   3743528.3984   2   6   0.3588   0.8443   0.7633   0.1316  -0.6980  -0.3021   1.00    1.1
2173 184013.000    281408.3292  -5147271.9805   3743528.3753   2   6   0.2933   0.6899   0.6237   0.1076  -0.5702  -0.2470   2.00    1.1
2173 184014.000    281408.3980  -5147271.9191   3743528.3067   2   6   0.2542   0.5977   0.5402   0.0930  -0.4939  -0.2140   3.00    1.1
2173 184015.000    281408.4176  -5147272.0196   3743528.3132   2   6   0.2275   0.5346   0.4831   0.0830  -0.4416  -0.1914   4.00    1.0
2173 184016.000    281408.4279  -5147272.0061   3743528.1613   2   6   0.5056   1.1893   1.0743   0.1815  -0.9824  -0.4247   0.00    1.3
2173 184017.000    281408.3586  -5147272.5287   3743528.9067   2   6   0.5056   1.1892   1.0739   0.1810  -0.9820  -0.4246   0.00    1.0
2173 184018.000    281408.3133  -5147271.8316   3743528.3200   2   6   0.5056   1.1890   1.0736   0.1805  -0.9817  -0.4244   0.00    1.2
2173 184019.000    281408.2453  -5147271.9185   3743528.5921   2   6   0.5056   1.1889   1.0732   0.1801  -0.9814  -0.4243   0.00    1.1
2173 184020.000    281408.1611  -5147272.2698   3743529.0302   2   6   0.5057   1.1887   1.0729   0.1796  -0.9811  -0.4242   0.00    1.2
2173 184021.000    281408.3606  -5147272.2263   3743528.8464   2   6   0.5057   1.1885   1.0726   0.1791  -0.9807  -0.4240   0.00    1.2
2173 184022.000    281408.3135  -5147272.5850   3743529.1123   2   6   0.5057   1.1884   1.0722   0.1786  -0.9804  -0.4239   0.00    1.1
2173 184023.000    281408.2566  -5147272.5500   3743529.1009   2   6   0.5057   1.1882   1.0719   0.1781  -0.9801  -0.4238   0.00    1.2
2173 184024.000    281408.1810  -5147272.4069   3743528.9809   2   6   0.5057   1.1880   1.0715   0.1776  -0.9798  -0.4236   0.00    1.2
2173 184025.000    281408.2040  -5147272.3251   3743528.8754   2   6   0.5057   1.1879   1.0712   0.1771  -0.9795  -0.4235   0.00    1.2
2173 184026.000    281408.3903  -5147271.8678   3743528.6679   2   6   0.5057   1.1877   1.0708   0.1766  -0.9791  -0.4233   0.00    1.4
2173 184027.000    281408.4574  -5147272.4723   3743528.8839   2   6   0.5058   1.1875   1.0705   0.1762  -0.9788  -0.4232   0.00    1.1
2173 184028.000    281408.1393  -5147272.2659   3743529.0193   2   6   0.5058   1.1874   1.0702   0.1757  -0.9785  -0.4231   0.00    1.4
2173 184029.000    281408.2144  -5147272.1283   3743528.9966   2   6   0.5058   1.1872   1.0698   0.1752  -0.9782  -0.4229   0.00    1.3
2173 184030.000    281408.1803  -5147272.2922   3743529.2185   2   6   0.5058   1.1870   1.0695   0.1747  -0.9779  -0.4228   0.00    1.1
2173 184031.000    281408.2566  -5147272.3768   3743528.9430   2   6   0.5058   1.1869   1.0691   0.1742  -0.9775  -0.4227   0.00    1.1
2173 184032.000    281408.1075  -5147272.1638   3743528.9755   2   6   0.5058   1.1867   1.0688   0.1737  -0.9772  -0.4225   0.00    1.1
2173 184033.000    281408.2281  -5147272.1480   3743528.9341   2   6   0.5059   1.1866   1.0685   0.1732  -0.9769  -0.4224   0.00    1.0
2173 184034.000    281408.4516  -5147272.3137   3743528.8346   2   6   0.5059   1.1864   1.0681   0.1727  -0.9766  -0.4222   0.00    1.1
2173 184035.000    281408.2744  -5147272.6542   3743529.2197   2   6   0.5059   1.1862   1.0678   0.1722  -0.9763  -0.4221   0.00    1.0
2173 184036.000    281408.1874  -5147272.7101   3743529.3653   2   6   0.5059   1.1861   1.0674   0.1717  -0.9760  -0.4220   0.00    1.3
2173 184037.000    281408.0565  -5147272.3172   3743529.1006   2   6   0.5059   1.1859   1.0671   0.1712  -0.9756  -0.4218   0.00    1.2
2173 184038.000    281408.2614  -5147272.2606   3743529.0837   2   6   0.5059   1.1858   1.0668   0.1706  -0.9753  -0.4217   0.00    1.2
2173 184039.000    281408.2619  -5147272.3889   3743528.9612   2   6   0.5060   1.1856   1.0664   0.1701  -0.9750  -0.4216   0.00    1.3
2173 184040.000    281408.2727  -5147272.3824   3743528.9588   2   6   0.3591   0.8410   0.7565   0.1219  -0.6916  -0.2994   1.00    1.5
2173 184041.000    281408.3711  -5147272.5273   3743528.8451   2   6   0.5060   1.1853   1.0657   0.1691  -0.9744  -0.4213   0.00    1.5
2173 184042.000    281408.2640  -5147272.5568   3743529.1928   2   6   0.5060   1.1851   1.0654   0.1686  -0.9740  -0.4212   0.00    1.7
2173 184043.000    281408.3797  -5147272.0619   3743528.7606   2   6   0.5060   1.1850   1.0651   0.1681  -0.9737  -0.4210   0.00    1.4
2173 184044.000    281408.4416  -5147271.9020   3743528.2753   2   6   0.5060   1.1848   1.0647   0.1676  -0.9734  -0.4209   0.00    1.5
2173 184045.000    281408.3504  -5147271.8090   3743528.2524   2   6   0.5061   1.1846   1.0644   0.1671  -0.9731  -0.4207   0.00    1.5
2173 184046.000    281408.1727  -5147271.7124   3743528.4129   2   6   0.5061   1.1845   1.0641   0.1665  -0.9728  -0.4206   0.00    1.2
2173 184047.000    281408.1878  -5147272.1424   3743528.4856   2   6   0.5061   1.1843   1.0637   0.1660  -0.9725  -0.4205   0.00    1.5
2173 184048.000    281408.1477  -5147271.9598   3743528.5931   2   6   0.5061   1.1842   1.0634   0.1655  -0.9721  -0.4203   0.00    1.4
2173 184049.000    281408.3252  -5147272.4018   3743528.7721   2   6   0.5061   1.1840   1.0630   0.1650  -0.9718  -0.4202   0.00    1.8
2173 184050.000    281408.3606  -5147271.7509   3743528.4949   2   6   0.5061   1.1838   1.0627   0.1644  -0.9715  -0.4201   0.00    1.3
2173 184051.000    281408.3759  -5147271.9163   3743528.4363   2   6   0.5062   1.1837   1.0624   0.1639  -0.9712  -0.4199   0.00    1.1
2173 184052.000    281408.2092  -5147272.2943   3743529.0781   2   6   0.5062   1.1835   1.0620   0.1634  -0.9709  -0.4198   0.00    1.3
2173 184053.000    281408.2919  -5147272.2463   3743528.8843   2   6   0.5062   1.1834   1.0617   0.1629  -0.9706  -0.4197   0.00    1.5
2173 184054.000    281408.2841  -5147271.8221   3743528.3707   2   6   0.5062   1.1832   1.0614   0.1623  -0.9702  -0.4195   0.00    1.1
2173 184055.000    281408.3497  -5147272.1022   3743528.4092   2   6   0.5062   1.1831   1.0610   0.1618  -0.9699  -0.4194   0.00    1.3
2173 184056.000    281408.2919  -5147272.5502   3743528.8476   2   6   0.5062   1.1829   1.0607   0.1613  -0.9696  -0.4193   0.00    1.6
2173 184057.000    281408.3228  -5147272.6536   3743529.1466   2   6   0.5063   1.1827   1.0603   0.1607  -0.9693  -0.4191   0.00    1.4
2173 184058.000    281408.3181  -5147272.1190   3743528.8901   2   6   0.5063   1.1826   1.0600   0.1602  -0.9690  -0.4190   0.00    1.5
2173 184059.000    281408.2368  -5147272.4277   3743529.0680   2   6   0.5063   1.1824   1.0597   0.1596  -0.9687  -0.4189   0.00    1.5
2173 184060.000    281408.3162  -5147272.5625   3743528.8907   2   6   0.5063   1.1823   1.0593   0.1591  -0.9684  -0.4187   0.00    1.2
2173 184061.000    281408.2968  -5147272.7103   3743529.0431   2   6   0.5063   1.1821   1.0590   0.1586  -0.9680  -0.4186   0.00    1.3
2173 184062.000    281408.3228  -5147272.1588   3743528.6260   2   6   0.5063   1.1820   1.0587   0.1580  -0.9677  -0.4185   0.00    1.4
2173 184063.000    281408.4521  -5147272.3272   3743528.9086   2   6   0.5064   1.1818   1.0583   0.1575  -0.9674  -0.4183   0.00    1.7
2173 184064.000    281408.4439  -5147272.0971   3743528.6548   2   6   0.5064   1.1816   1.0580   0.1569  -0.9671  -0.4182   0.00    1.6
2173 184065.000    281408.3722  -5147272.6252   3743528.9198   2   6   0.5064   1.1815   1.0577   0.1564  -0.9668  -0.4181   0.00    1.2
2173 184066.000    281408.3555  -5147272.6601   3743528.9584   2   6   0.5064   1.1813   1.0573   0.1558  -0.9665  -0.4179   0.00    1.0
2173 184067.000    281408.2953  -5147272.0197   3743528.5469   2   6   0.5064   1.1812   1.0570   0.1552  -0.9662  -0.4178   0.00    1.2
2173 184068.000    281408.1426  -5147272.4608   3743529.0537   2   6   0.5064   1.1810   1.0567   0.1547  -0.9658  -0.4176   0.00    1.3
2173 184069.000    281408.2670  -5147272.8503   3743528.9152   2   6   0.5065   1.1809   1.0563   0.1541  -0.9655  -0.4175   0.00    1.2
2173 184070.000    281408.4969  -5147272.7783   3743528.9132   2   6   0.5065   1.1807   1.0560   0.1536  -0.9652  -0.4174   0.00    1.3
2173 184071.000    281408.3772  -5147272.4220   3743529.0732   2   6   0.5065   1.1806   1.0557   0.1530  -0.9649  -0.4172   0.00    1.6
2173 184072.000    281408.4429  -5147271.8775   3743528.6438   2   6   0.5065   1.1804   1.0553   0.1524  -0.9646  -0.4171   0.00    1.5
2173 184073.000    281408.4297  -5147272.1551   3743528.5102   2   6   0.5065   1.1803   1.0550   0.1519  -0.9643  -0.4170   0.00    1.4
2173 184074.000    281408.2813  -5147272.6269   3743528.9096   2   6   0.5066   1.1801   1.0547   0.1513  -0.9640  -0.4168   0.00    1.2
2173 184075.000    281408.4390  -5147272.2473   3743528.8222   2   6   0.5066   1.1800   1.0543   0.1507  -0.9637  -0.4167   0.00    1.4
2173 184076.000    281408.3850  -5147272.2165   3743528.5580   2   6   0.5066   1.1798   1.0540   0.1502  -0.9633  -0.4166   0.00    1.4
2173 184077.000    281408.3751  -5147272.4416   3743528.9907   2   6   0.5066   1.1797   1.0537   0.1496  -0.9630  -0.4164   0.00    1.3
2173 184078.000    281408.2544  -5147272.3387   3743528.8165   2   6   0.5066   1.1795   1.0533   0.1490  -0.9627  -0.4163   0.00    1.1
2173 184079.000    281408.3400  -5147272.7276   3743529.2786   2   6   0.5066   1.1793   1.0530   0.1484  -0.9624  -0.4162   0.00    1.4
2173 184080.000    281407.9760  -5147272.7289   3743529.5836   2   6   0.5067   1.1792   1.0527   0.1479  -0.9621  -0.4160   0.00    1.3
2173 184081.000    281407.9603  -5147272.7620   3743529.7799   2   6   0.5067   1.1790   1.0523   0.1473  -0.9618  -0.4159   0.00    1.1
2173 184082.000    281408.2361  -5147272.3867   3743529.2409   2   6   0.5067   1.1789   1.0520   0.1467  -0.9615  -0.4158   0.00    1.5
2173 184083.000    281408.1346  -5147272.5876   3743529.1958   2   6   0.5067   1.1787   1.0517   0.1461  -0.9612  -0.4156   0.00    1.3
2173 184084.000    281408.1687  -5147271.8439   3743528.5054   2   6   0.5067   1.1786   1.0513   0.1455  -0.9608  -0.4155   0.00    1.3
2173 184085.000    281408.1823  -5147272.0841   3743528.7890   2   6   0.5067   1.1784   1.0510   0.1449  -0.9605  -0.4154   0.00    1.5
2173 184086.000    281408.2480  -5147272.2643   3743528.8162   2   6   0.5068   1.1783   1.0507   0.1443  -0.9602  -0.4152   0.00    1.5
2173 184087.000    281408.5661  -5147272.3844   3743528.7482   2   6   0.5068   1.1781   1.0503   0.1437  -0.9599  -0.4151   0.00    1.6
2173 184088.000    281408.3284  -5147272.3235   3743528.6815   2   6   0.5068   1.1780   1.0500   0.1431  -0.9596  -0.4150   0.00    1.3
2173 184089.000    281408.1663  -5147272.1214   3743528.9342   2   6   0.5068   1.1778   1.0497   0.1425  -0.9593  -0.4149   0.00    1.2
2173 184090.000    281408.1008  -5147272.2233   3743529.1086   2   6   0.5068   1.1777   1.0493   0.1419  -0.9590  -0.4147   0.00    1.3
2173 184091.000    281408.2406  -5147272.0372   3743528.8318   2   6   0.5069   1.1775   1.0490   0.1413  -0.9587  -0.4146   0.00    1.3
2173 184092.000    281408.2382  -5147271.8890   3743528.8544   2   6   0.5069   1.1774   1.0487   0.1407  -0.9584  -0.4145   0.00    1.2
2173 184093.000    281408.5584  -5147271.7987   3743528.5874   2   6   0.5069   1.1772   1.0484   0.1401  -0.9581  -0.4143   0.00    1.5
2173 184094.000    281408.2884  -5147272.1233   3743528.8888   2   6   0.5069   1.1771   1.0480   0.1395  -0.9577  -0.4142   0.00    1.1
2173 184095.000    281408.1933  -5147272.0917   3743528.8777   2   6   0.5069   1.1769   1.0477   0.1389  -0.9574  -0.4141   0.00    1.2
2173 184096.000    281408.2582  -5147272.2006   3743528.9246   2   6   0.5070   1.1768   1.0474   0.1383  -0.9571  -0.4139   0.00    1.1
2173 184097.000    281408.1191  -5147271.9384   3743529.0403   2   6   0.5070   1.1766   1.0470   0.1376  -0.9568  -0.4138   0.00    1.2
2173 184098.000    281408.2472  -5147271.5104   3743528.6805   2   6   0.5070   1.1765   1.0467   0.1370  -0.9565  -0.4137   0.00    1.5
2173 184099.000    281408.2578  -5147272.0074   3743528.7774   2   6   0.5070   1.1764   1.0464   0.1364  -0.9562  -0.4135   0.00    1.2
2173 184100.000    281408.2005  -5147271.7561   3743528.4862   2   6   0.5070   1.1762   1.0461   0.1357  -0.9559  -0.4134   0.00    1.1
2173 184101.000    281408.1344  -5147271.9712   3743528.8547   2   6   0.5070   1.1761   1.0457   0.1351  -0.9556  -0.4133   0.00    1.1
2173 184102.000    281407.9043  -5147272.5780   3743529.3809   2   6   0.5071   1.1759   1.0454   0.1345  -0.9553  -0.4131   0.00    1.0
2173 184103.000    281407.8839  -5147272.1623   3743529.4072   2   6   0.5071   1.1758   1.0451   0.1338  -0.9550  -0.4130   0.00    1.0
2173 184104.000    281408.1050  -5147272.2832   3743529.2622   2   6   0.5071   1.1756   1.0447   0.1332  -0.9547  -0.4129   0.00    1.0
2173 184105.000    281407.9526  -5147272.0353   3743529.0246   2   6   0.5071   1.1755   1.0444   0.1326  -0.9544  -0.4127   0.00    1.2
2173 184106.000    281407.8743  -5147271.3652   3743528.5867   2   6   0.5071   1.1753   1.0441   0.1319  -0.9540  -0.4126   0.00    1.0
2173 184107.000    281407.7337  -5147271.8079   3743528.8964   2   6   0.5072   1.1752   1.0438   0.1313  -0.9537  -0.4125   0.00    1.0
2173 184108.000    281407.9807  -5147271.8364   3743529.0020   2   6   0.5072   1.1750   1.0434   0.1306  -0.9534  -0.4123   0.00    1.1
2173 184109.000    281407.8767  -5147271.7414   3743529.0661   2   6   0.5072   1.1749   1.0431   0.1299  -0.9531  -0.4122   0.00    1.1
2173 184110.000    281407.8311  -5147271.7754   3743529.1329   2   6   0.5072   1.1747   1.0428   0.1293  -0.9528  -0.4121   0.00    1.0
2173 184111.000    281407.9194  -5147271.8524   3743529.2334   2   6   0.5072   1.1746   1.0425   0.1286  -0.9525  -0.4120   0.00    1.2
2173 184112.000    281408.0536  -5147271.6337   3743528.8433   2   6   0.5073   1.1745   1.0421   0.1280  -0.9522  -0.4118   0.00    1.2
2173 184113.000    281408.0294  -5147271.9272   3743528.9105   2   6   0.5073   1.1743   1.0418   0.1273  -0.9519  -0.4117   0.00    1.3
2173 184114.000    281407.8951  -5147271.3131   3743528.6936   2   6   0.5073   1.1742   1.0415   0.1266  -0.9516  -0.4116   0.00    1.1
2173 184115.000    281408.1017  -5147271.5856   3743529.1297   2   6   0.5073   1.1740   1.0411   0.1259  -0.9513  -0.4114   0.00    1.2
2173 184116.000    281407.9198  -5147271.7781   3743529.3255   2   6   0.5073   1.1739   1.0408   0.1253  -0.9510  -0.4113   0.00    1.2
2173 184117.000    281408.1645  -5147271.8447   3743528.9646   2   6   0.5074   1.1737   1.0405   0.1246  -0.9507  -0.4112   0.00    1.3
2173 184118.000    281407.9139  -5147271.6230   3743529.0062   2   6   0.5074   1.1736   1.0402   0.1239  -0.9504  -0.4110   0.00    1.0
2173 184119.000    281407.9142  -5147271.8006   3743529.1721   2   6   0.5074   1.1734   1.0398   0.1232  -0.9501  -0.4109   0.00    1.2
2173 184120.000    281408.0431  -5147272.0193   3743529.2901   2   6   0.5074   1.1733   1.0395   0.1225  -0.9498  -0.4108   0.00    1.2
2173 184121.000    281408.1057  -5147271.9386   3743528.8789   2   6   0.5074   1.1732   1.0392   0.1218  -0.9495  -0.4106   0.00    1.3
2173 184122.000    281407.8485  -5147272.1160   3743529.2588   2   6   0.5075   1.1730   1.0389   0.1211  -0.9491  -0.4105   0.00    1.1
2173 184123.000    281408.0213  -5147271.7301   3743528.9111   2   6   0.5075   1.1729   1.0385   0.1204  -0.9488  -0.4104   0.00    1.3
2173 184124.000    281407.7515  -5147271.7313   3743529.0437   2   6   0.5075   1.1727   1.0382   0.1197  -0.9485  -0.4103   0.00    1.0
2173 184125.000    281407.9799  -5147271.5911   3743528.6377   2   6   0.5075   1.1726   1.0379   0.1190  -0.9482  -0.4101   0.00    1.1
2173 184126.000    281408.0127  -5147271.7943   3743528.9249   2   6   0.5075   1.1725   1.0376   0.1182  -0.9479  -0.4100   0.00    1.2
2173 184127.000    281408.1604  -5147271.6207   3743528.3447   2   6   0.5076   1.1723   1.0372   0.1175  -0.9476  -0.4099   0.00    1.1
2173 184128.000    281407.9738  -5147271.9656   3743529.2601   2   6   0.5076   1.1722   1.0369   0.1168  -0.9473  -0.4097   0.00    1.2
2173 184129.000    281408.1451  -5147271.6810   3743528.6604   2   6   0.5076   1.1720   1.0366   0.1160  -0.9470  -0.4096   0.00    1.3
2173 184130.000    281407.9434  -5147271.7368   3743528.8310   2   6   0.5076   1.1719   1.0363   0.1153  -0.9467  -0.4095   0.00    1.1
2173 184131.000    281408.0219  -5147271.8025   3743528.8788   2   6   0.5076   1.1717   1.0360   0.1146  -0.9464  -0.4093   0.00    1.3
2173 184132.000    281408.1491  -5147271.5726   3743528.2584   2   6   0.5077   1.1716   1.0356   0.1138  -0.9461  -0.4092   0.00    1.2
2173 184133.000    281408.3342  -5147272.1829   3743528.7806   2   6   0.5077   1.1715   1.0353   0.1131  -0.9458  -0.4091   0.00    1.2
2173 184134.000    281408.1480  -5147271.8660   3743528.7271   2   6   0.5077   1.1713   1.0350   0.1123  -0.9455  -0.4090   0.00    1.2
2173 184135.000    281407.9228  -5147271.6250   3743528.6432   2   6   0.5077   1.1712   1.0347   0.1116  -0.9452  -0.4088   0.00    1.1
2173 184136.000    281408.1888  -5147271.7073   3743528.4911   2   6   0.5077   1.1710   1.0343   0.1108  -0.9449  -0.4087   0.00    1.3
2173 184137.000    281408.0555  -5147271.6274   3743528.4249   2   6   0.5078   1.1709   1.0340   0.1100  -0.9446  -0.4086   0.00    1.2
2173 184138.000    281408.0010  -5147271.4682   3743528.3914   2   6   0.5078   1.1708   1.0337   0.1092  -0.9443  -0.4084   0.00    1.0
2173 184139.000    281407.9051  -5147271.1892   3743528.3236   2   6   0.5078   1.1706   1.0334   0.1085  -0.9440  -0.4083   0.00    1.1
2173 184140.000    281408.0180  -5147271.4425   3743528.5070   2   6   0.5078   1.1705   1.0331   0.1077  -0.9437  -0.4082   0.00    1.2
2173 184141.000    281407.9851  -5147271.7218   3743528.5662   2   6   0.5078   1.1704   1.0327   0.1069  -0.9434  -0.4081   0.00    1.1
2173 184142.000    281408.0410  -5147271.7765   3743528.8993   2   6   0.5079   1.1702   1.0324   0.1061  -0.9431  -0.4079   0.00    1.3
2173 184143.000    281408.0816  -5147271.5925   3743528.2128   2   6   0.5079   1.1701   1.0321   0.1053  -0.9428  -0.4078   0.00    1.2
2173 184144.000    281408.0400  -5147271.5932   3743528.6240   2   6   0.5079   1.1699   1.0318   0.1045  -0.9425  -0.4077   0.00    1.4
2173 184145.000    281408.0319  -5147271.8058   3743528.4814   2   6   0.5079   1.1698   1.0315   0.1036  -0.9422  -0.4075   0.00    1.0
2173 184146.000    281407.9776  -5147271.3830   3743528.6624   2   6   0.5080   1.1697   1.0311   0.1028  -0.9419  -0.4074   0.00    1.2
2173 184147.000    281407.9548  -5147271.4252   3743528.4840   2   6   0.5080   1.1695   1.0308   0.1020  -0.9416  -0.4073   0.00    1.2
2173 184148.000    281408.1083  -5147271.9006   3743528.7857   2   6   0.5080   1.1694   1.0305   0.1011  -0.9413  -0.4072   0.00    1.3
2173 184149.000    281407.8842  -5147271.9841   3743528.9232   2   6   0.5080   1.1693   1.0302   0.1003  -0.9410  -0.4070   0.00    1.1
2173 184150.000    281408.1596  -5147271.6018   3743528.3043   2   6   0.5080   1.1691   1.0299   0.0995  -0.9407  -0.4069   0.00    1.2
2173 184151.000    281408.1956  -5147272.0698   3743528.7204   2   6   0.5081   1.1690   1.0295   0.0986  -0.9404  -0.4068   0.00    1.3
2173 184152.000    281408.0758  -5147271.7530   3743528.5695   2   6   0.5081   1.1688   1.0292   0.0977  -0.9401  -0.4066   0.00    1.3
2173 184153.000    281408.0505  -5147272.0068   3743528.7695   2   6   0.5081   1.1687   1.0289   0.0969  -0.9398  -0.4065   0.00    1.3
2173 184154.000    281408.0973  -5147272.2371   3743529.0111   2   6   0.5081   1.1686   1.0286   0.0960  -0.9395  -0.4064   0.00    1.2
2173 184155.000    281408.1042  -5147272.2966   3743528.6596   2   6   0.5081   1.1684   1.0283   0.0951  -0.9392  -0.4063   0.00    1.3
2173 184156.000    281408.2421  -5147272.0175   3743528.4728   2   6   0.5082   1.1683   1.0279   0.0942  -0.9389  -0.4061   0.00    1.1
2173 184157.000    281408.2905  -5147271.5795   3743528.2425   2   6   0.5082   1.1682   1.0276   0.0933  -0.9386  -0.4060   0.00    1.2
2173 184158.000    281407.9510  -5147271.8946   3743528.9169   2   6   0.5082   1.1680   1.0273   0.0924  -0.9383  -0.4059   0.00    1.2
2173 184159.000    281408.1989  -5147271.9232   3743528.2339   2   6   0.5082   1.1679   1.0270   0.0914  -0.9380  -0.4057   0.00    1.2
2173 184160.000    281408.0639  -5147271.8668   3743528.3686   2   6   0.5083   1.1678   1.0267   0.0905  -0.9377  -0.4056   0.00    1.2
2173 184161.000    281408.1871  -5147271.8277   3743528.4449   2   6   0.5083   1.1676   1.0263   0.0896  -0.9374  -0.4055   0.00    1.3
2173 184162.000    281408.2225  -5147271.6995   3743528.4323   2   6   0.5083   1.1675   1.0260   0.0886  -0.9371  -0.4054   0.00    1.6
2173 184163.000    281408.1942  -5147271.7619   3743528.3170   2   6   0.5083   1.1674   1.0257   0.0876  -0.9368  -0.4052   0.00    1.4
2173 184164.000    281408.2501  -5147272.2615   3743528.4712   2   6   0.5083   1.1672   1.0254   0.0867  -0.9365  -0.4051   0.00    1.2
2173 184165.000    281408.2924  -5147272.1030   3743528.4900   2   6   0.5084   1.1671   1.0251   0.0857  -0.9362  -0.4050   0.00    1.2
2173 184166.000    281408.1626  -5147272.2902   3743528.6588   2   6   0.5084   1.1670   1.0248   0.0847  -0.9359  -0.4049   0.00    1.4
2173 184167.000    281408.0815  -5147272.3445   3743528.4540   2   6   0.5084   1.1668   1.0244   0.0837  -0.9356  -0.4047   0.00    1.0
2173 184168.000    281408.2417  -5147272.1924   3743528.2575   2   6   0.5084   1.1667   1.0241   0.0827  -0.9353  -0.4046   0.00    1.0
2173 184169.000    281408.3234  -5147272.6898   3743528.7625   2   6   0.5085   1.1666   1.0238   0.0816  -0.9350  -0.4045   0.00    1.8
2173 184170.000    281408.2989  -5147272.3053   3743528.6386   2   6   0.5085   1.1664   1.0235   0.0806  -0.9347  -0.4044   0.00    1.6
2173 184171.000    281408.3317  -5147271.9167   3743528.3337   2   6   0.5085   1.1663   1.0232   0.0795  -0.9344  -0.4042   0.00    1.7
2173 184172.000    281408.3382  -5147272.5082   3743528.5653   2   6   0.5085   1.1662   1.0229   0.0785  -0.9341  -0.4041   0.00    1.4
2173 184173.000    281408.2145  -5147272.6418   3743528.7529   2   6   0.5085   1.1660   1.0225   0.0774  -0.9338  -0.4040   0.00    1.6
2173 184174.000    281408.0841  -5147272.0065   3743528.5908   2   6   0.5086   1.1659   1.0222   0.0763  -0.9335  -0.4038   0.00    1.6
2173 184175.000    281408.1855  -5147271.5591   3743528.3766   2   6   0.5086   1.1658   1.0219   0.0751  -0.9332  -0.4037   0.00    1.7
2173 184176.000    281408.1168  -5147272.1040   3743528.4870   2   6   0.5086   1.1656   1.0216   0.0740  -0.9329  -0.4036   0.00    1.2
2173 184177.000    281408.6127  -5147272.4720   3743528.7361   2   6   0.5086   1.1655   1.0213   0.0729  -0.9326  -0.4035   0.00    1.6
2173 184178.000    281408.7236  -5147272.6858   3743528.4564   2   6   0.5087   1.1654   1.0210   0.0717  -0.9323  -0.4033   0.00    1.9
2173 184179.000    281408.4512  -5147272.3135   3743528.4563   2   6   0.5087   1.1652   1.0207   0.0705  -0.9320  -0.4032   0.00    1.8
2173 184180.000    281408.3680  -5147272.1573   3743528.2254   2   6   0.5087   1.1651   1.0203   0.0693  -0.9317  -0.4031   0.00    1.6
2173 184181.000    281408.4831  -5147272.7111   3743528.5332   2   6   0.5087   1.1650   1.0200   0.0680  -0.9314  -0.4030   0.00    2.0
2173 184182.000    281408.2760  -5147272.6301   3743528.6111   2   6   0.5087   1.1649   1.0197   0.0668  -0.9311  -0.4028   0.00    1.9
2173 184183.000    281408.2376  -5147272.2251   3743528.4677   2   6   0.5088   1.1647   1.0194   0.0655  -0.9309  -0.4027   0.00    1.7
2173 184184.000    281408.4843  -5147272.6765   3743528.4999   2   6   0.5088   1.1646   1.0191   0.0642  -0.9306  -0.4026   0.00    1.8
2173 184185.000    281408.3960  -5147272.5090   3743528.6152   2   6   0.5088   1.1645   1.0188   0.0629  -0.9303  -0.4025   0.00    1.6
2173 184186.000    281408.5480  -5147272.7551   3743528.4660   2   6   0.5088   1.1643   1.0185   0.0615  -0.9300  -0.4023   0.00    1.7
2173 184187.000    281408.5409  -5147272.6221   3743528.4692   2   6   0.5089   1.1642   1.0181   0.0601  -0.9297  -0.4022   0.00    1.7
2173 184188.000    281408.5219  -5147272.5459   3743528.7545   2   6   0.5089   1.1641   1.0178   0.0587  -0.9294  -0.4021   0.00    1.9
2173 184189.000    281408.4196  -5147272.6908   3743528.7174   2   6   0.5089   1.1640   1.0175   0.0572  -0.9291  -0.4020   0.00    1.7
2173 184190.000    281408.3200  -5147272.7551   3743528.7304   2   6   0.5089   1.1638   1.0172   0.0557  -0.9288  -0.4018   0.00    1.7
2173 184191.000    281408.1321  -5147272.4212   3743528.7029   2   6   0.5090   1.1637   1.0169   0.0542  -0.9285  -0.4017   0.00    1.6
2173 184192.000    281408.4502  -5147272.5009   3743528.5505   2   6   0.5090   1.1636   1.0166   0.0526  -0.9282  -0.4016   0.00    1.8
2173 184193.000    281408.3982  -5147272.7039   3743528.8869   2   6   0.5090   1.1634   1.0163   0.0510  -0.9279  -0.4015   0.00    1.9
2173 184194.000    281408.4769  -5147272.7526   3743528.8570   2   6   0.5090   1.1633   1.0160   0.0493  -0.9276  -0.4013   0.00    1.9
2173 184195.000    281408.4446  -5147272.7046   3743528.8257   2   6   0.5091   1.1632   1.0156   0.0476  -0.9273  -0.4012   0.00    2.0
2173 184196.000    281408.6792  -5147272.4135   3743528.3698   2   6   0.5091   1.1631   1.0153   0.0458  -0.9270  -0.4011   0.00    1.7
2173 184197.000    281408.6345  -5147272.9912   3743528.6195   2   6   0.5091   1.1629   1.0150   0.0439  -0.9267  -0.4010   0.00    2.0
2173 184198.000    281408.6148  -5147273.2642   3743528.9174   2   6   0.5091   1.1628   1.0147   0.0419  -0.9264  -0.4008   0.00    1.9
2173 184199.000    281408.6077  -5147272.5210   3743528.7007   2   6   0.5091   1.1627   1.0144   0.0398  -0.9262  -0.4007   0.00    1.7
2173 184200.000    281408.4574  -5147272.6251   3743528.6133   2   6   0.5092   1.1626   1.0141   0.0377  -0.9259  -0.4006   0.00    1.6
2173 184201.000    281408.6427  -5147272.2933   3743528.1732   2   6   0.5092   1.1624   1.0138   0.0353  -0.9256  -0.4005   0.00    1.5
2173 184202.000    281408.3484  -5147272.3285   3743528.6228   2   6   0.5092   1.1623   1.0135   0.0329  -0.9253  -0.4003   0.00    1.9
2173 184203.000    281408.4096  -5147272.4699   3743528.8741   2   6   0.5092   1.1622   1.0132   0.0302  -0.9250  -0.4002   0.00    2.0
2173 184204.000    281408.4829  -5147272.7078   3743528.7930   2   6   0.5093   1.1621   1.0129   0.0273  -0.9247  -0.4001   0.00    1.8
2173 184205.000    281408.5542  -5147272.4551   3743528.9418   2   6   0.5093   1.1619   1.0125   0.0240  -0.9244  -0.4000   0.00    2.1
2173 184206.000    281408.3922  -5147272.7090   3743528.9754   2   6   0.5093   1.1618   1.0122   0.0201  -0.9241  -0.3998   0.00    2.3
2173 184207.000    281408.3457  -5147272.9335   3743529.0424   2   6   0.5093   1.1617   1.0119   0.0154  -0.9238  -0.3997   0.00    2.1
2173 184208.000    281408.3354  -5147272.9130   3743529.0655   2   6   0.5094   1.1616   1.0116   0.0082  -0.9235  -0.3996   0.00    1.9
2173 184209.000    281408.1672  -5147272.8396   3743529.2323   2   6   0.5094   1.1614   1.0113  -0.0101  -0.9232  -0.3995   0.00    1.9
2173 184210.000    281408.3847  -5147272.5850   3743528.7204   2   6   0.5094   1.1613   1.0110  -0.0164  -0.9229  -0.3993   0.00    1.8
2173 184211.000    281408.2295  -5147272.3459   3743528.4479   2   6   0.5094   1.1612   1.0107  -0.0209  -0.9227  -0.3992   0.00    1.6
2173 184212.000    281408.3887  -5147272.3162   3743528.5663   2   6   0.5095   1.1611   1.0104  -0.0246  -0.9224  -0.3991   0.00    1.7
2173 184213.000    281408.3900  -5147272.6796   3743528.5827   2   6   0.5095   1.1609   1.0101  -0.0279  -0.9221  -0.3990   0.00    1.7
2173 184214.000    281408.5131  -5147273.1253   3743529.1282   2   6   0.5095   1.1608   1.0098  -0.0307  -0.9218  -0.3988   0.00    1.9
2173 184215.000    281408.4899  -5147272.8031   3743528.6640   2   6   0.5095   1.1607   1.0095  -0.0334  -0.9215  -0.3987   0.00    2.1
2173 184216.000    281408.2669  -5147273.0066   3743529.0439   2   6   0.5096   1.1606   1.0091  -0.0358  -0.9212  -0.3986   0.00    1.8
2173 184217.000    281408.2320  -5147272.7480   3743528.8210   2   6   0.5096   1.1605   1.0088  -0.0381  -0.9209  -0.3985   0.00    1.7
2173 184218.000    281408.4534  -5147272.9328   3743528.9105   2   6   0.5096   1.1603   1.0085  -0.0402  -0.9206  -0.3984   0.00    2.0
2173 184219.000    281408.4990  -5147272.5892   3743528.6611   2   6   0.5096   1.1602   1.0082  -0.0423  -0.9203  -0.3982   0.00    2.1
2173 184220.000    281408.4137  -5147272.4758   3743528.5780   2   6   0.5097   1.1601   1.0079  -0.0442  -0.9200  -0.3981   0.00    2.2
2173 184221.000    281408.5294  -5147272.8841   3743528.6896   2   6   0.5097   1.1600   1.0076  -0.0461  -0.9198  -0.3980   0.00    1.7
2173 184222.000    281408.3477  -5147272.9381   3743529.0136   2   6   0.5097   1.1598   1.0073  -0.0479  -0.9195  -0.3979   0.00    2.0
2173 184223.000    281408.5027  -5147272.7675   3743528.7327   2   6   0.5097   1.1597   1.0070  -0.0496  -0.9192  -0.3977   0.00    2.1
2173 184224.000    281408.4101  -5147272.8932   3743529.0063   2   6   0.5098   1.1596   1.0067  -0.0513  -0.9189  -0.3976   0.00    2.4
2173 184225.000    281408.3797  -5147273.1225   3743529.1439   2   6   0.5098   1.1595   1.0064  -0.0529  -0.9186  -0.3975   0.00    2.0
2173 184226.000    281408.4248  -5147272.7705   3743528.9905   2   6   0.5098   1.1594   1.0061  -0.0545  -0.9183  -0.3974   0.00    1.8
2173 184227.000    281408.4765  -5147272.9606   3743529.0957   2   6   0.5098   1.1592   1.0058  -0.0560  -0.9180  -0.3972   0.00    2.1
2173 184228.000    281408.4989  -5147272.7841   3743529.0803   2   6   0.5099   1.1591   1.0055  -0.0575  -0.9177  -0.3971   0.00    2.2
2173 184229.000    281408.6376  -5147273.0645   3743529.0383   2   6   0.5099   1.1590   1.0052  -0.0589  -0.9174  -0.3970   0.00    2.1
2173 184230.000    281408.6697  -5147272.8465   3743528.7803   2   6   0.5099   1.1589   1.0048  -0.0603  -0.9172  -0.3969   0.00    2.3
2173 184231.000    281408.2928  -5147272.8755   3743529.1361   2   6   0.5099   1.1588   1.0045  -0.0617  -0.9169  -0.3968   0.00    2.4
2173 184232.000    281408.4232  -5147273.0160   3743529.1965   2   6   0.5100   1.1586   1.0042  -0.0631  -0.9166  -0.3966   0.00    1.9
2173 184233.000    281408.4537  -5147272.8036   3743529.1407   2   6   0.5100   1.1585   1.0039  -0.0644  -0.9163  -0.3965   0.00    1.9
2173 184234.000    281408.2950  -5147272.9264   3743529.1477   2   6   0.5100   1.1584   1.0036  -0.0657  -0.9160  -0.3964   0.00    2.1
2173 184235.000    281408.2343  -5147273.1593   3743529.3885   2   6   0.5100   1.1583   1.0033  -0.0669  -0.9157  -0.3963   0.00    1.9
2173 184236.000    281408.2270  -5147272.9745   3743529.3276   2   6   0.5101   1.1582   1.0030  -0.0682  -0.9154  -0.3961   0.00    1.9
2173 184237.000    281408.3935  -5147272.9020   3743529.0710   2   6   0.5101   1.1581   1.0027  -0.0694  -0.9151  -0.3960   0.00    2.2
2173 184238.000    281408.3863  -5147272.8803   3743528.9070   2   6   0.5101   1.1579   1.0024  -0.0706  -0.9149  -0.3959   0.00    2.3
2173 184239.000    281408.4886  -5147273.3917   3743529.3030   2   6   0.5101   1.1578   1.0021  -0.0718  -0.9146  -0.3958   0.00    2.3
2173 184240.000    281408.3567  -5147273.5119   3743529.3297   2   6   0.5102   1.1577   1.0018  -0.0730  -0.9143  -0.3957   0.00    1.8
2173 184241.000    281408.4126  -5147272.6656   3743528.7388   2   6   0.5102   1.1576   1.0015  -0.0741  -0.9140  -0.3955   0.00    2.6
2173 184242.000    281408.3965  -5147273.0759   3743528.8307   2   6   0.5102   1.1575   1.0012  -0.0752  -0.9137  -0.3954   0.00    2.1
2173 184243.000    281408.3473  -5147273.4620   3743529.1358   2   6   0.5102   1.1574   1.0009  -0.0763  -0.9134  -0.3953   0.00    2.5
2173 184244.000    281408.3704  -5147273.3137   3743529.1988   2   6   0.5103   1.1572   1.0006  -0.0774  -0.9131  -0.3952   0.00    2.0
2173 184245.000    281408.2421  -5147273.0110   3743529.1974   2   6   0.5103   1.1571   1.0003  -0.0785  -0.9129  -0.3951   0.00    2.3
2173 184246.000    281408.1821  -5147273.3311   3743529.3905   2   6   0.5103   1.1570   1.0000  -0.0796  -0.9126  -0.3949   0.00    1.7
2173 184247.000    281408.3876  -5147274.0707   3743529.8473   2   6   0.5103   1.1569   0.9997  -0.0806  -0.9123  -0.3948   0.00    1.7
2173 184248.000    281408.3358  -5147273.9054   3743529.8390   2   6   0.5104   1.1568   0.9994  -0.0817  -0.9120  -0.3947   0.00    1.9
2173 184249.000    281408.4646  -5147273.0709   3743529.0336   2   6   0.5104   1.1567   0.9991  -0.0827  -0.9117  -0.3946   0.00    1.9
2173 184250.000    281408.3937  -5147273.5227   3743529.4380   2   6   0.5104   1.1565   0.9988  -0.0837  -0.9114  -0.3944   0.00    1.8
2173 184251.000    281408.2993  -5147273.3584   3743529.1110   2   6   0.5104   1.1564   0.9985  -0.0847  -0.9111  -0.3943   0.00    1.8
2173 184252.000    281408.2732  -5147273.3865   3743528.9776   2   6   0.5105   1.1563   0.9982  -0.0857  -0.9109  -0.3942   0.00    1.9
2173 184253.000    281408.4804  -5147273.1394   3743528.9874   2   6   0.5105   1.1562   0.9979  -0.0866  -0.9106  -0.3941   0.00    2.2
2173 184254.000    281408.3619  -5147273.5845   3743529.3304   2   6   0.5105   1.1561   0.9976  -0.0876  -0.9103  -0.3940   0.00    1.7
2173 184255.000    281408.2105  -5147273.6045   3743529.5666   2   6   0.5106   1.1560   0.9973  -0.0886  -0.9100  -0.3938   0.00    1.6
2173 184256.000    281408.3070  -5147273.1455   3743529.2194   2   6   0.5106   1.1559   0.9970  -0.0895  -0.9097  -0.3937   0.00    1.7
2173 184257.000    281408.3657  -5147273.0306   3743529.0129   2   6   0.5106   1.1557   0.9967  -0.0904  -0.9094  -0.3936   0.00    2.0
2173 184258.000    281408.3067  -5147273.4291   3743529.5126   2   6   0.5106   1.1556   0.9964  -0.0914  -0.9092  -0.3935   0.00    1.8
2173 184259.000    281408.2659  -5147274.0526   3743529.6801   2   6   0.5107   1.1555   0.9961  -0.0923  -0.9089  -0.3934   0.00    1.6
2173 184260.000    281408.3181  -5147273.3654   3743529.2927   2   6   0.5107   1.1554   0.9958  -0.0932  -0.9086  -0.3932   0.00    1.6
2173 184261.000    281408.2581  -5147273.0402   3743528.9587   2   6   0.5107   1.1553   0.9955  -0.0941  -0.9083  -0.3931   0.00    1.5
2173 184262.000    281408.1634  -5147273.0081   3743529.0224   2   6   0.5107   1.1552   0.9952  -0.0950  -0.9080  -0.3930   0.00    1.4
2173 184263.000    281408.1727  -5147273.0092   3743529.1354   2   6   0.5108   1.1551   0.9949  -0.0958  -0.9077  -0.3929   0.00    1.5
2173 184264.000    281408.0475  -5147273.1114   3743529.3478   2   6   0.5108   1.1550   0.9946  -0.0967  -0.9075  -0.3928   0.00    1.1
2173 184265.000    281407.9414  -5147273.2013   3743529.3133   2   6   0.5108   1.1548   0.9943  -0.0976  -0.9072  -0.3926   0.00    1.1
2173 184266.000    281408.2662  -5147273.0711   3743529.2237   2   6   0.5108   1.1547   0.9940  -0.0984  -0.9069  -0.3925   0.00    1.3
2173 184267.000    281408.1768  -5147273.2553   3743529.3700   2   6   0.5109   1.1546   0.9937  -0.0993  -0.9066  -0.3924   0.00    1.2
2173 184268.000    281408.1886  -5147273.3019   3743529.5528   2   6   0.5109   1.1545   0.9934  -0.1001  -0.9063  -0.3923   0.00    1.3
2173 184269.000    281408.1937  -5147273.5713   3743529.7494   2   6   0.5109   1.1544   0.9931  -0.1010  -0.9061  -0.3922   0.00    1.2
2173 184270.000    281408.2815  -5147273.8619   3743529.8271   2   6   0.5110   1.1543   0.9928  -0.1018  -0.9058  -0.3920   0.00    1.2
2173 184271.000    281408.1433  -5147273.6364   3743529.8021   2   6   0.5110   1.1542   0.9925  -0.1026  -0.9055  -0.3919   0.00    1.0
2173 184272.000    281407.9069  -5147273.4306   3743529.7496   2   6   0.5110   1.1541   0.9922  -0.1034  -0.9052  -0.3918   0.00    1.0
2173 184273.000    281408.1510  -5147273.4028   3743529.4970   2   6   0.5110   1.1540   0.9919  -0.1042  -0.9049  -0.3917   0.00    1.0
2173 184274.000    281408.1915  -5147273.7898   3743529.7087   2   6   0.5111   1.1538   0.9916  -0.1050  -0.9046  -0.3916   0.00    1.1
2173 184275.000    281408.1376  -5147273.6467   3743529.9151   2   6   0.5111   1.1537   0.9913  -0.1058  -0.9044  -0.3914   0.00    1.1
2173 184276.000    281408.3781  -5147273.7041   3743529.6516   2   6   0.5111   1.1536   0.9910  -0.1066  -0.9041  -0.3913   0.00    1.3
2173 184277.000    281408.2554  -5147273.4288   3743529.1875   2   6   0.5112   1.1535   0.9907  -0.1074  -0.9038  -0.3912   0.00    1.1
2173 184278.000    281408.0267  -5147273.4399   3743529.5608   2   6   0.5112   1.1534   0.9904  -0.1082  -0.9035  -0.3911   0.00    1.2
2173 184279.000    281408.1798  -5147273.4336   3743529.5265   2   6   0.5112   1.1533   0.9901  -0.1089  -0.9032  -0.3910   0.00    1.1
2173 184280.000    281408.3002  -5147273.2393   3743529.1315   2   6   0.5112   1.1532   0.9898  -0.1097  -0.9030  -0.3908   0.00    1.0
2173 184281.000    281408.0963  -5147273.5015   3743529.3583   2   6   0.5113   1.1531   0.9895  -0.1105  -0.9027  -0.3907   0.00    1.2
2173 184282.000    281408.2430  -5147273.6346   3743529.3887   2   6   0.5113   1.1530   0.9892  -0.1112  -0.9024  -0.3906   0.00    1.0
2173 184283.000    281408.5542  -5147273.2936   3743529.1390   2   6   0.5113   1.1529   0.9889  -0.1120  -0.9021  -0.3905   0.00    1.2
2173 184284.000    281408.3850  -5147273.4926   3743529.2410   2   6   0.5113   1.1528   0.9886  -0.1127  -0.9018  -0.3904   0.00    1.1
2173 184285.000    281408.0074  -5147273.1490   3743529.3566   2   6   0.5114   1.1527   0.9883  -0.1135  -0.9016  -0.3903   0.00    1.0
2173 184286.000    281408.0879  -5147273.0556   3743529.4170   2   6   0.5114   1.1525   0.9880  -0.1142  -0.9013  -0.3901   0.00    1.1
2173 184287.000    281408.2952  -5147272.9982   3743529.1982   2   6   0.5114   1.1524   0.9877  -0.1149  -0.9010  -0.3900   0.00    1.2
2173 184288.000    281408.2195  -5147273.3966   3743529.5289   2   6   0.5115   1.1523   0.9874  -0.1157  -0.9007  -0.3899   0.00    1.1
2173 184289.000    281408.1886  -5147273.0847   3743529.3505   2   6   0.5115   1.1522   0.9871  -0.1164  -0.9004  -0.3898   0.00    1.2
2173 184290.000    281408.2246  -5147272.9399   3743529.2926   2   6   0.5115   1.1521   0.9868  -0.1171  -0.9002  -0.3897   0.00    1.0
2173 184291.000    281408.2054  -5147272.6967   3743529.2639   2   6   0.5115   1.1520   0.9865  -0.1178  -0.8999  -0.3895   0.00    1.2
2173 184292.000    281408.2630  -5147273.0890   3743529.5392   2   6   0.5116   1.1519   0.9862  -0.1185  -0.8996  -0.3894   0.00    1.0
2173 184293.000    281408.2805  -5147272.5191   3743529.2478   2   6   0.5116   1.1518   0.9860  -0.1192  -0.8993  -0.3893   0.00    1.2
2173 184294.000    281408.2335  -5147272.5137   3743529.2764   2   6   0.5116   1.1517   0.9857  -0.1199  -0.8991  -0.3892   0.00    1.2
2173 184295.000    281408.2275  -5147272.6662   3743529.1298   2   6   0.5117   1.1516   0.9854  -0.1206  -0.8988  -0.3891   0.00    1.1
2173 184296.000    281408.4712  -5147272.6155   3743528.9226   2   6   0.5117   1.1515   0.9851  -0.1213  -0.8985  -0.3890   0.00    1.0
2173 184297.000    281408.3185  -5147273.2060   3743529.6419   2   6   0.5117   1.1514   0.9848  -0.1220  -0.8982  -0.3888   0.00    1.0
