% program   : rnx2rtkp ver.2.4.3 b31
% inp file  : ngs/21_08_31_06_47_47_al50.obs
% inp file  : ngs/21_08_31_06_47_47_al50_P1.obs
% inp file  : ngs/21_08_31_06_47_47_brdc.nav
% obs start : 2021/08/31 06:00:00.0 GPST (week2173 194400.0s)
% obs end   : 2021/08/31 06:59:59.0 GPST (week2173 197999.0s)
% ref pos   :   230898.8110  -5329862.0950   3484128.4910
%
% (x/y/z-ecef=WGS84,Q=1:fix,2:float,3:sbas,4:dgps,5:single,6:ppp,ns=# of satellites)
%  GPST              x-ecef(m)      y-ecef(m)      z-ecef(m)   Q  ns   sdx(m)   sdy(m)   sdz(m)  sdxy(m)  sdyz(m)  sdzx(m) age(s)  ratio
2173 197242.000    232978.0600  -5339307.7081   3469620.8136   2   8   0.4576   1.0051   0.5858  -0.0906  -0.6229  -0.0830 -30.00    1.1
2173 197243.000    232978.0575  -5339307.7098   3469620.8164   2   8   0.3260   0.7151   0.4167  -0.0680  -0.4431  -0.0583 -29.00    1.1
2173 197244.000    232978.0613  -5339307.7048   3469620.8118   2   8   0.2669   0.5855   0.3412  -0.0563  -0.3628  -0.0476 -28.00    1.1
2173 197245.000    232978.0643  -5339307.7109   3469620.8116   2   8   0.2316   0.5080   0.2960  -0.0490  -0.3148  -0.0412 -27.00    1.1
2173 197246.000    232978.0685  -5339307.7187   3469620.8151   2   8   0.2074   0.4549   0.2651  -0.0440  -0.2819  -0.0369 -26.00    1.1
2173 197247.000    232978.0680  -5339307.7227   3469620.8124   2   8   0.1895   0.4157   0.2422  -0.0402  -0.2576  -0.0337 -25.00    1.0
2173 197248.000    232978.0704  -5339307.7268   3469620.8134   2   8   0.1756   0.3852   0.2244  -0.0372  -0.2387  -0.0312 -24.00    1.0
2173 197249.000    232978.0736  -5339307.7307   3469620.8138   2   8   0.1643   0.3605   0.2100  -0.0349  -0.2234  -0.0292 -23.00    1.0
2173 197250.000    232978.0765  -5339307.7416   3469620.8172   2   8   0.1550   0.3401   0.1981  -0.0329  -0.2107  -0.0276 -22.00    1.0
2173 197251.000    232978.0800  -5339307.7395   3469620.8156   2   8   0.1471   0.3227   0.1880  -0.0313  -0.1999  -0.0261 -21.00    1.0
2173 197252.000    232978.0814  -5339307.7440   3469620.8174   2   8   0.1403   0.3077   0.1792  -0.0299  -0.1907  -0.0249 -20.00    1.0
2173 197253.000    232978.0841  -5339307.7482   3469620.8172   2   8   0.1343   0.2947   0.1716  -0.0287  -0.1826  -0.0238 -19.00    1.0
2173 197254.000    232978.0870  -5339307.7443   3469620.8145   2   8   0.1290   0.2831   0.1649  -0.0277  -0.1754  -0.0229 -18.00    1.0
2173 197255.000    232978.0892  -5339307.7435   3469620.8150   2   8   0.1243   0.2727   0.1588  -0.0268  -0.1690  -0.0220 -17.00    1.0
2173 197256.000    232978.0923  -5339307.7403   3469620.8135   2   8   0.1201   0.2634   0.1534  -0.0260  -0.1632  -0.0212 -16.00    1.0
2173 197257.000    232978.0927  -5339307.7438   3469620.8145   2   8   0.1163   0.2550   0.1485  -0.0253  -0.1580  -0.0205 -15.00    1.1
2173 197258.000    232978.0958  -5339307.7363   3469620.8109   2   8   0.1128   0.2473   0.1440  -0.0247  -0.1532  -0.0199 -14.00    1.1
2173 197259.000    232978.0959  -5339307.7336   3469620.8081   2   8   0.1096   0.2402   0.1399  -0.0241  -0.1488  -0.0193 -13.00    1.1
2173 197260.000    232978.0989  -5339307.7318   3469620.8051   2   8   0.1066   0.2337   0.1361  -0.0235  -0.1447  -0.0188 -12.00    1.1
2173 197261.000    232978.1009  -5339307.7258   3469620.8013   2   8   0.1039   0.2276   0.1326  -0.0230  -0.1410  -0.0183 -11.00    1.1
2173 197262.000    232978.1011  -5339307.7185   3469620.7943   2   8   0.1014   0.2220   0.1293  -0.0226  -0.1375  -0.0178 -10.00    1.1
2173 197263.000    232978.1018  -5339307.7128   3469620.7917   2   8   0.0990   0.2168   0.1262  -0.0222  -0.1342  -0.0174  -9.00    1.1
2173 197264.000    232978.1060  -5339307.7122   3469620.7884   2   8   0.0968   0.2119   0.1234  -0.0217  -0.1312  -0.0170  -8.00    1.1
2173 197265.000    232978.1062  -5339307.7081   3469620.7852   2   8   0.0948   0.2072   0.1207  -0.0213  -0.1283  -0.0166  -7.00    1.1
2173 197266.000    232978.1074  -5339307.7024   3469620.7813   2   8   0.0928   0.2029   0.1182  -0.0210  -0.1256  -0.0163  -6.00    1.1
2173 197267.000    232978.1059  -5339307.6950   3469620.7750   2   8   0.0910   0.1988   0.1158  -0.0206  -0.1230  -0.0160  -5.00    1.0
2173 197268.000    232978.1059  -5339307.6915   3469620.7704   2   8   0.0893   0.1949   0.1135  -0.0203  -0.1206  -0.0157  -4.00    1.0
2173 197269.000    232978.1053  -5339307.6828   3469620.7639   2   8   0.0876   0.1913   0.1114  -0.0199  -0.1183  -0.0155  -3.00    1.1
2173 197270.000    232978.1068  -5339307.6727   3469620.7574   2   8   0.0861   0.1878   0.1094  -0.0195  -0.1161  -0.0152  -2.00    1.1
2173 197271.000    232978.1046  -5339307.6676   3469620.7519   2   8   0.0846   0.1845   0.1075  -0.0192  -0.1141  -0.0149  -1.00    1.2
2173 197272.000    232978.1038  -5339307.6606   3469620.7477   2   8   0.0832   0.1814   0.1057  -0.0189  -0.1121  -0.0147   0.00    1.2
2173 197273.000    232978.1054  -5339307.7004   3469620.6896   2   8   0.4564   1.0045   0.5842  -0.0934  -0.6217  -0.0818   0.00    1.1
2173 197274.000    232978.0152  -5339307.8398   3469620.7733   2   8   0.4564   1.0045   0.5842  -0.0935  -0.6217  -0.0818   0.00    1.2
2173 197275.000    232977.9926  -5339307.7761   3469620.6964   2   8   0.4564   1.0045   0.5842  -0.0936  -0.6217  -0.0818   0.00    1.0
2173 197276.000    232977.8972  -5339307.8646   3469620.7996   2   8   0.4564   1.0046   0.5842  -0.0937  -0.6217  -0.0817   0.00    1.1
2173 197277.000    232977.8588  -5339307.7611   3469620.7470   2   8   0.4563   1.0046   0.5842  -0.0937  -0.6216  -0.0817   0.00    1.2
2173 197278.000    232977.8033  -5339307.9051   3469620.8376   2   8   0.4563   1.0046   0.5841  -0.0938  -0.6216  -0.0816   0.00    1.2
2173 197279.000    232977.7760  -5339308.2696   3469620.9842   2   8   0.4563   1.0046   0.5841  -0.0939  -0.6216  -0.0816   0.00    1.1
2173 197280.000    232977.8042  -5339308.2234   3469620.9793   2   8   0.4563   1.0047   0.5841  -0.0940  -0.6216  -0.0816   0.00    1.1
2173 197281.000    232977.7809  -5339308.1472   3469620.9790   2   8   0.4563   1.0047   0.5841  -0.0940  -0.6216  -0.0815   0.00    1.1
2173 197282.000    232977.7712  -5339308.1742   3469621.0346   2   8   0.4563   1.0047   0.5841  -0.0941  -0.6216  -0.0815   0.00    1.1
2173 197283.000    232977.7441  -5339308.1868   3469621.0733   2   8   0.4562   1.0048   0.5840  -0.0942  -0.6216  -0.0814   0.00    1.0
2173 197284.000    232977.7216  -5339308.1995   3469621.1035   2   8   0.4562   1.0048   0.5840  -0.0943  -0.6216  -0.0814   0.00    1.1
2173 197285.000    232977.6100  -5339308.0989   3469621.0906   2   8   0.4562   1.0048   0.5840  -0.0943  -0.6216  -0.0814   0.00    1.0
2173 197286.000    232977.6398  -5339308.0589   3469621.1153   2   8   0.4562   1.0048   0.5840  -0.0944  -0.6216  -0.0813   0.00    1.0
2173 197287.000    232977.6756  -5339308.0765   3469621.1849   2   8   0.4562   1.0049   0.5839  -0.0945  -0.6216  -0.0813   0.00    1.1
2173 197288.000    232977.7213  -5339308.2334   3469621.1915   2   8   0.4561   1.0049   0.5839  -0.0946  -0.6215  -0.0812   0.00    1.1
2173 197289.000    232977.7493  -5339308.2629   3469621.1706   2   8   0.4561   1.0049   0.5839  -0.0946  -0.6215  -0.0812   0.00    1.1
2173 197290.000    232977.7702  -5339308.2020   3469621.1951   2   8   0.4561   1.0049   0.5839  -0.0947  -0.6215  -0.0812   0.00    1.1
2173 197291.000    232977.7220  -5339308.1580   3469621.1947   2   8   0.4561   1.0050   0.5839  -0.0948  -0.6215  -0.0811   0.00    1.0
2173 197292.000    232977.6656  -5339308.0034   3469621.1696   2   8   0.4561   1.0050   0.5838  -0.0948  -0.6215  -0.0811   0.00    1.0
2173 197293.000    232977.6312  -5339308.0662   3469621.2321   2   8   0.4561   1.0050   0.5838  -0.0949  -0.6215  -0.0810   0.00    1.1
2173 197294.000    232977.5911  -5339308.0523   3469621.2090   2   8   0.4560   1.0051   0.5838  -0.0950  -0.6215  -0.0810   0.00    1.1
2173 197295.000    232977.5912  -5339307.9336   3469621.1529   2   8   0.4560   1.0051   0.5838  -0.0951  -0.6215  -0.0810   0.00    1.0
2173 197296.000    232977.5558  -5339307.9866   3469621.1897   2   8   0.4560   1.0051   0.5838  -0.0951  -0.6215  -0.0809   0.00    1.0
2173 197297.000    232977.6199  -5339308.0688   3469621.2887   2   8   0.4560   1.0051   0.5837  -0.0952  -0.6215  -0.0809   0.00    1.0
2173 197298.000    232977.5949  -5339308.2055   3469621.4089   2   8   0.4560   1.0052   0.5837  -0.0953  -0.6215  -0.0808   0.00    1.0
2173 197299.000    232977.6433  -5339308.3116   3469621.5014   2   8   0.4559   1.0052   0.5837  -0.0954  -0.6214  -0.0808   0.00    1.0
2173 197300.000    232977.6065  -5339308.3499   3469621.5600   2   8   0.4559   1.0052   0.5837  -0.0954  -0.6214  -0.0808   0.00    1.0
2173 197301.000    232977.6037  -5339308.3524   3469621.5568   2   8   0.3245   0.7142   0.4147  -0.0717  -0.4414  -0.0565   1.00    1.0
2173 197302.000    232977.5205  -5339308.2836   3469621.6530   2   8   0.4559   1.0053   0.5836  -0.0956  -0.6214  -0.0807   0.00    1.0
2173 197303.000    232977.4892  -5339308.1455   3469621.5772   2   8   0.4559   1.0053   0.5836  -0.0956  -0.6214  -0.0807   0.00    1.0
2173 197304.000    232977.4995  -5339308.0886   3469621.5767   2   8   0.4559   1.0053   0.5836  -0.0957  -0.6214  -0.0806   0.00    1.0
2173 197305.000    232977.4805  -5339308.1470   3469621.6772   2   8   0.4558   1.0054   0.5836  -0.0958  -0.6214  -0.0806   0.00    1.0
2173 197306.000    232977.4190  -5339308.0092   3469621.7131   2   8   0.4558   1.0054   0.5836  -0.0959  -0.6214  -0.0805   0.00    1.1
2173 197307.000    232977.3819  -5339307.9479   3469621.7035   2   8   0.4558   1.0054   0.5835  -0.0959  -0.6214  -0.0805   0.00    1.0
2173 197308.000    232977.2972  -5339307.9689   3469621.7572   2   8   0.4558   1.0055   0.5835  -0.0960  -0.6214  -0.0805   0.00    1.2
2173 197309.000    232977.2501  -5339308.0207   3469621.7158   2   8   0.4558   1.0055   0.5835  -0.0961  -0.6214  -0.0804   0.00    1.2
2173 197310.000    232977.2035  -5339308.0247   3469621.7516   2   8   0.4558   1.0055   0.5835  -0.0961  -0.6213  -0.0804   0.00    1.0
2173 197311.000    232977.1355  -5339308.0477   3469621.7996   2   8   0.4557   1.0055   0.5835  -0.0962  -0.6213  -0.0803   0.00    1.1
2173 197312.000    232977.1506  -5339308.1020   3469621.8508   2   8   0.4557   1.0056   0.5835  -0.0963  -0.6213  -0.0803   0.00    1.0
2173 197313.000    232977.1189  -5339308.0804   3469621.8839   2   8   0.4557   1.0056   0.5834  -0.0963  -0.6213  -0.0803   0.00    1.1
2173 197314.000    232977.1100  -5339307.9885   3469621.8066   2   8   0.4557   1.0056   0.5834  -0.0964  -0.6213  -0.0802   0.00    1.1
2173 197315.000    232977.0623  -5339307.8381   3469621.7667   2   8   0.4557   1.0057   0.5834  -0.0965  -0.6213  -0.0802   0.00    1.1
2173 197316.000    232977.0254  -5339307.7191   3469621.6914   2   8   0.4556   1.0057   0.5834  -0.0966  -0.6213  -0.0801   0.00    1.2
2173 197317.000    232977.0155  -5339307.7500   3469621.6735   2   8   0.4556   1.0057   0.5834  -0.0966  -0.6213  -0.0801   0.00    1.2
2173 197318.000    232977.0900  -5339307.7647   3469621.6429   2   8   0.4556   1.0057   0.5833  -0.0967  -0.6213  -0.0801   0.00    1.2
2173 197319.000    232977.0625  -5339307.8073   3469621.7095   2   8   0.4556   1.0058   0.5833  -0.0968  -0.6213  -0.0800   0.00    1.2
2173 197320.000    232977.1389  -5339307.8408   3469621.7420   2   8   0.4556   1.0058   0.5833  -0.0968  -0.6213  -0.0800   0.00    1.3
2173 197321.000    232977.1485  -5339307.8216   3469621.6947   2   8   0.4556   1.0058   0.5833  -0.0969  -0.6213  -0.0799   0.00    1.3
2173 197322.000    232977.1329  -5339307.7067   3469621.6323   2   8   0.4555   1.0058   0.5833  -0.0970  -0.6212  -0.0799   0.00    1.1
2173 197323.000    232977.0742  -5339307.6253   3469621.6675   2   8   0.4555   1.0059   0.5832  -0.0970  -0.6212  -0.0799   0.00    1.0
2173 197324.000    232977.1104  -5339307.4232   3469621.5658   2   8   0.4555   1.0059   0.5832  -0.0971  -0.6212  -0.0798   0.00    1.0
2173 197325.000    232977.1385  -5339307.4830   3469621.6410   2   8   0.4555   1.0059   0.5832  -0.0972  -0.6212  -0.0798   0.00    1.1
2173 197326.000    232977.1103  -5339307.3200   3469621.6115   2   8   0.4555   1.0060   0.5832  -0.0972  -0.6212  -0.0797   0.00    1.1
2173 197327.000    232977.1982  -5339307.4498   3469621.6189   2   8   0.4554   1.0060   0.5832  -0.0973  -0.6212  -0.0797   0.00    1.0
2173 197328.000    232977.2409  -5339307.4251   3469621.6273   2   8   0.4554   1.0060   0.5831  -0.0974  -0.6212  -0.0797   0.00    1.1
2173 197329.000    232977.3065  -5339307.4059   3469621.5629   2   8   0.4554   1.0060   0.5831  -0.0974  -0.6212  -0.0796   0.00    1.0
2173 197330.000    232977.2634  -5339307.3689   3469621.5510   2   8   0.4554   1.0061   0.5831  -0.0975  -0.6212  -0.0796   0.00    1.1
2173 197331.000    232977.2380  -5339307.1789   3469621.4587   2   8   0.4554   1.0061   0.5831  -0.0976  -0.6212  -0.0795   0.00    1.2
2173 197332.000    232977.3049  -5339307.2877   3469621.4963   2   8   0.4554   1.0061   0.5831  -0.0976  -0.6212  -0.0795   0.00    1.0
2173 197333.000    232977.2723  -5339307.3572   3469621.5907   2   8   0.4553   1.0062   0.5831  -0.0977  -0.6211  -0.0795   0.00    1.2
2173 197334.000    232977.2277  -5339307.3252   3469621.5299   2   8   0.4553   1.0062   0.5830  -0.0978  -0.6211  -0.0794   0.00    1.5
2173 197335.000    232977.2781  -5339307.2727   3469621.5172   2   8   0.4553   1.0062   0.5830  -0.0978  -0.6211  -0.0794   0.00    1.2
2173 197336.000    232977.3475  -5339307.2393   3469621.4394   2   8   0.4553   1.0062   0.5830  -0.0979  -0.6211  -0.0793   0.00    1.1
2173 197337.000    232977.4299  -5339307.1561   3469621.4385   2   8   0.4553   1.0063   0.5830  -0.0980  -0.6211  -0.0793   0.00    1.0
2173 197338.000    232977.4614  -5339307.0413   3469621.3517   2   8   0.4553   1.0063   0.5830  -0.0981  -0.6211  -0.0793   0.00    1.2
2173 197339.000    232977.4529  -5339306.9207   3469621.2569   2   8   0.4552   1.0063   0.5829  -0.0981  -0.6211  -0.0792   0.00    1.1
2173 197340.000    232977.3896  -5339306.9804   3469621.2591   2   8   0.4552   1.0064   0.5829  -0.0982  -0.6211  -0.0792   0.00    1.0
2173 197341.000    232977.3793  -5339306.8486   3469621.2541   2   8   0.4552   1.0064   0.5829  -0.0982  -0.6211  -0.0792   0.00    1.2
2173 197342.000    232977.4705  -5339306.7985   3469621.2828   2   8   0.4552   1.0064   0.5829  -0.0983  -0.6211  -0.0791   0.00    1.0
2173 197343.000    232977.4745  -5339306.8865   3469621.3264   2   8   0.4552   1.0064   0.5829  -0.0984  -0.6211  -0.0791   0.00    1.1
2173 197344.000    232977.4892  -5339306.9480   3469621.3256   2   8   0.4551   1.0065   0.5828  -0.0984  -0.6211  -0.0790   0.00    1.3
2173 197345.000    232977.4459  -5339306.9512   3469621.2492   2   8   0.4551   1.0065   0.5828  -0.0985  -0.6210  -0.0790   0.00    1.5
2173 197346.000    232977.4977  -5339306.8497   3469621.1883   2   8   0.4551   1.0065   0.5828  -0.0986  -0.6210  -0.0790   0.00    1.4
2173 197347.000    232977.6063  -5339306.9756   3469621.2216   2   8   0.4551   1.0066   0.5828  -0.0986  -0.6210  -0.0789   0.00    1.5
2173 197348.000    232977.6120  -5339306.9820   3469621.2649   2   8   0.4551   1.0066   0.5828  -0.0987  -0.6210  -0.0789   0.00    1.6
2173 197349.000    232977.6905  -5339306.9428   3469621.2970   2   8   0.4551   1.0066   0.5828  -0.0988  -0.6210  -0.0788   0.00    1.4
2173 197350.000    232977.7366  -5339306.8068   3469621.2807   2   8   0.4550   1.0066   0.5827  -0.0988  -0.6210  -0.0788   0.00    1.4
2173 197351.000    232977.7713  -5339306.8324   3469621.2788   2   8   0.4550   1.0067   0.5827  -0.0989  -0.6210  -0.0788   0.00    1.7
2173 197352.000    232977.7872  -5339307.0446   3469621.3714   2   8   0.4550   1.0067   0.5827  -0.0990  -0.6210  -0.0787   0.00    1.5
2173 197353.000    232977.8098  -5339306.9711   3469621.2968   2   8   0.4550   1.0067   0.5827  -0.0990  -0.6210  -0.0787   0.00    1.3
2173 197354.000    232977.8541  -5339306.9724   3469621.2717   2   8   0.4550   1.0068   0.5827  -0.0991  -0.6210  -0.0786   0.00    1.3
2173 197355.000    232977.8926  -5339306.8903   3469621.2809   2   8   0.4550   1.0068   0.5826  -0.0992  -0.6210  -0.0786   0.00    1.1
2173 197356.000    232977.9140  -5339306.9512   3469621.3122   2   8   0.4549   1.0068   0.5826  -0.0992  -0.6210  -0.0786   0.00    1.5
2173 197357.000    232977.8883  -5339306.9706   3469621.2773   2   8   0.4549   1.0068   0.5826  -0.0993  -0.6210  -0.0785   0.00    1.6
2173 197358.000    232977.8947  -5339306.9923   3469621.2294   2   8   0.4549   1.0069   0.5826  -0.0994  -0.6209  -0.0785   0.00    1.4
2173 197359.000    232977.8582  -5339306.9872   3469621.1752   2   8   0.4549   1.0069   0.5826  -0.0994  -0.6209  -0.0784   0.00    1.4
2173 197360.000    232977.7878  -5339306.9754   3469621.1954   2   8   0.4549   1.0069   0.5826  -0.0995  -0.6209  -0.0784   0.00    1.4
2173 197361.000    232977.7921  -5339307.0355   3469621.2527   2   8   0.4548   1.0070   0.5825  -0.0995  -0.6209  -0.0784   0.00    1.5
2173 197362.000    232977.7601  -5339307.1338   3469621.3306   2   8   0.4548   1.0070   0.5825  -0.0996  -0.6209  -0.0783   0.00    1.4
2173 197363.000    232977.7020  -5339307.1849   3469621.3120   2   8   0.4548   1.0070   0.5825  -0.0997  -0.6209  -0.0783   0.00    1.3
2173 197364.000    232977.7378  -5339307.3598   3469621.3074   2   8   0.4548   1.0070   0.5825  -0.0997  -0.6209  -0.0782   0.00    1.4
2173 197365.000    232977.6636  -5339307.3674   3469621.3716   2   8   0.4548   1.0071   0.5825  -0.0998  -0.6209  -0.0782   0.00    1.6
2173 197366.000    232977.7432  -5339307.2471   3469621.3079   2   8   0.4548   1.0071   0.5825  -0.0999  -0.6209  -0.0782   0.00    1.5
2173 197367.000    232977.7838  -5339307.2190   3469621.2840   2   8   0.4547   1.0071   0.5824  -0.0999  -0.6209  -0.0781   0.00    1.5
2173 197368.000    232977.6803  -5339307.2151   3469621.2825   2   8   0.4547   1.0072   0.5824  -0.1000  -0.6209  -0.0781   0.00    1.4
2173 197369.000    232977.7187  -5339307.1416   3469621.1832   2   8   0.4547   1.0072   0.5824  -0.1001  -0.6209  -0.0781   0.00    1.3
2173 197370.000    232977.7151  -5339307.1267   3469621.1781   2   8   0.4547   1.0072   0.5824  -0.1001  -0.6208  -0.0780   0.00    1.4
2173 197371.000    232977.6447  -5339307.1494   3469621.2061   2   8   0.4547   1.0072   0.5824  -0.1002  -0.6208  -0.0780   0.00    1.5
2173 197372.000    232977.6353  -5339307.3553   3469621.3514   2   8   0.4546   1.0073   0.5823  -0.1002  -0.6208  -0.0779   0.00    1.3
2173 197373.000    232977.6751  -5339307.3676   3469621.3843   2   8   0.4546   1.0073   0.5823  -0.1003  -0.6208  -0.0779   0.00    1.3
2173 197374.000    232977.6977  -5339307.2578   3469621.2682   2   8   0.4546   1.0073   0.5823  -0.1004  -0.6208  -0.0779   0.00    1.4
2173 197375.000    232977.6848  -5339307.3372   3469621.3470   2   8   0.4546   1.0074   0.5823  -0.1004  -0.6208  -0.0778   0.00    1.6
2173 197376.000    232977.5713  -5339307.2976   3469621.3795   2   8   0.4546   1.0074   0.5823  -0.1005  -0.6208  -0.0778   0.00    1.5
2173 197377.000    232977.5196  -5339307.1708   3469621.3203   2   8   0.4546   1.0074   0.5823  -0.1006  -0.6208  -0.0777   0.00    1.7
2173 197378.000    232977.4884  -5339307.2400   3469621.3611   2   8   0.4545   1.0074   0.5822  -0.1006  -0.6208  -0.0777   0.00    1.5
2173 197379.000    232977.4332  -5339307.2352   3469621.3144   2   8   0.4545   1.0075   0.5822  -0.1007  -0.6208  -0.0777   0.00    1.4
2173 197380.000    232977.4434  -5339307.1760   3469621.3011   2   8   0.4545   1.0075   0.5822  -0.1007  -0.6208  -0.0776   0.00    1.6
2173 197381.000    232977.4606  -5339307.0734   3469621.1723   2   8   0.4545   1.0075   0.5822  -0.1008  -0.6208  -0.0776   0.00    1.4
2173 197382.000    232977.4476  -5339307.0532   3469621.1060   2   8   0.4545   1.0076   0.5822  -0.1009  -0.6208  -0.0775   0.00    1.3
2173 197383.000    232977.4085  -5339307.0446   3469621.1185   2   8   0.4545   1.0076   0.5822  -0.1009  -0.6207  -0.0775   0.00    1.4
2173 197384.000    232977.3633  -5339307.0743   3469621.0867   2   8   0.4544   1.0076   0.5821  -0.1010  -0.6207  -0.0775   0.00    1.3
2173 197385.000    232977.3292  -5339307.1144   3469621.1431   2   8   0.4544   1.0076   0.5821  -0.1010  -0.6207  -0.0774   0.00    1.5
2173 197386.000    232977.2946  -5339307.2297   3469621.2515   2   8   0.4544   1.0077   0.5821  -0.1011  -0.6207  -0.0774   0.00    1.4
2173 197387.000    232977.3267  -5339307.0450   3469621.2482   2   8   0.4544   1.0077   0.5821  -0.1012  -0.6207  -0.0773   0.00    1.2
2173 197388.000    232977.3595  -5339306.9644   3469621.2189   2   8   0.4544   1.0077   0.5821  -0.1012  -0.6207  -0.0773   0.00    1.2
2173 197389.000    232977.3419  -5339307.0563   3469621.1808   2   8   0.4543   1.0078   0.5821  -0.1013  -0.6207  -0.0773   0.00    1.3
2173 197390.000    232977.3394  -5339307.0006   3469621.1295   2   8   0.4543   1.0078   0.5820  -0.1013  -0.6207  -0.0772   0.00    1.4
2173 197391.000    232977.2853  -5339306.9137   3469621.0807   2   8   0.4543   1.0078   0.5820  -0.1014  -0.6207  -0.0772   0.00    1.6
2173 197392.000    232977.2772  -5339306.9559   3469621.1132   2   8   0.4543   1.0078   0.5820  -0.1015  -0.6207  -0.0772   0.00    1.3
2173 197393.000    232977.3300  -5339307.2242   3469621.1797   2   8   0.4543   1.0079   0.5820  -0.1015  -0.6207  -0.0771   0.00    1.4
2173 197394.000    232977.3926  -5339307.2736   3469621.2284   2   8   0.4543   1.0079   0.5820  -0.1016  -0.6207  -0.0771   0.00    1.5
2173 197395.000    232977.3895  -5339307.2709   3469621.2272   2   8   0.3233   0.7160   0.4134  -0.0757  -0.4408  -0.0539   1.00    1.4
2173 197396.000    232977.4691  -5339307.1485   3469621.2072   2   8   0.4542   1.0080   0.5819  -0.1017  -0.6206  -0.0770   0.00    1.6
2173 197397.000    232977.4123  -5339307.2586   3469621.3079   2   8   0.4542   1.0080   0.5819  -0.1018  -0.6206  -0.0770   0.00    1.4
2173 197398.000    232977.3416  -5339307.2502   3469621.4371   2   8   0.4542   1.0080   0.5819  -0.1018  -0.6206  -0.0769   0.00    1.6
2173 197399.000    232977.1788  -5339307.2387   3469621.4671   2   8   0.4542   1.0080   0.5819  -0.1019  -0.6206  -0.0769   0.00    1.4
2173 197400.000    232977.1236  -5339307.3443   3469621.5583   2   8   0.4542   1.0081   0.5819  -0.1019  -0.6206  -0.0768   0.00    1.5
2173 197401.000    232977.1010  -5339307.4332   3469621.5738   2   8   0.4541   1.0081   0.5819  -0.1020  -0.6206  -0.0768   0.00    1.3
2173 197402.000    232977.1527  -5339307.4308   3469621.5573   2   8   0.4541   1.0081   0.5818  -0.1021  -0.6206  -0.0768   0.00    1.6
2173 197403.000    232977.1552  -5339307.3983   3469621.4328   2   8   0.4541   1.0082   0.5818  -0.1021  -0.6206  -0.0767   0.00    1.8
2173 197404.000    232977.1739  -5339307.4054   3469621.4416   2   8   0.4541   1.0082   0.5818  -0.1022  -0.6206  -0.0767   0.00    1.6
2173 197405.000    232977.1345  -5339307.6418   3469621.5539   2   8   0.4541   1.0082   0.5818  -0.1022  -0.6206  -0.0766   0.00    1.4
2173 197406.000    232977.2637  -5339307.6985   3469621.5525   2   8   0.4540   1.0082   0.5818  -0.1023  -0.6206  -0.0766   0.00    1.3
2173 197407.000    232977.2895  -5339307.8450   3469621.5696   2   8   0.4540   1.0083   0.5818  -0.1024  -0.6206  -0.0766   0.00    1.5
2173 197408.000    232977.2205  -5339307.7654   3469621.5258   2   8   0.4540   1.0083   0.5817  -0.1024  -0.6206  -0.0765   0.00    1.4
2173 197409.000    232977.1880  -5339307.7557   3469621.5529   2   8   0.4540   1.0083   0.5817  -0.1025  -0.6205  -0.0765   0.00    1.3
2173 197410.000    232977.2480  -5339307.8030   3469621.5602   2   8   0.4540   1.0084   0.5817  -0.1025  -0.6205  -0.0764   0.00    1.5
2173 197411.000    232977.2296  -5339307.7392   3469621.5131   2   8   0.4540   1.0084   0.5817  -0.1026  -0.6205  -0.0764   0.00    1.8
2173 197412.000    232977.2258  -5339307.6722   3469621.4190   2   8   0.4539   1.0084   0.5817  -0.1026  -0.6205  -0.0764   0.00    1.7
2173 197413.000    232977.2095  -5339307.7178   3469621.4270   2   8   0.4539   1.0084   0.5817  -0.1027  -0.6205  -0.0763   0.00    1.6
2173 197414.000    232977.1198  -5339307.7330   3469621.4433   2   8   0.4539   1.0085   0.5816  -0.1028  -0.6205  -0.0763   0.00    1.4
2173 197415.000    232977.1072  -5339307.7562   3469621.4649   2   8   0.4539   1.0085   0.5816  -0.1028  -0.6205  -0.0763   0.00    1.3
2173 197416.000    232977.1750  -5339307.6948   3469621.3966   2   8   0.4539   1.0085   0.5816  -0.1029  -0.6205  -0.0762   0.00    1.5
2173 197417.000    232977.1114  -5339307.7803   3469621.5017   2   8   0.4539   1.0086   0.5816  -0.1029  -0.6205  -0.0762   0.00    1.5
2173 197418.000    232977.1617  -5339307.9314   3469621.6705   2   8   0.4538   1.0086   0.5816  -0.1030  -0.6205  -0.0761   0.00    1.4
2173 197419.000    232977.1815  -5339307.9566   3469621.6525   2   8   0.4538   1.0086   0.5816  -0.1030  -0.6205  -0.0761   0.00    1.6
2173 197420.000    232977.2675  -5339308.0125   3469621.6797   2   8   0.4538   1.0086   0.5815  -0.1031  -0.6205  -0.0761   0.00    1.6
2173 197421.000    232977.3039  -5339308.0363   3469621.6766   2   8   0.4538   1.0087   0.5815  -0.1032  -0.6205  -0.0760   0.00    1.7
2173 197422.000    232977.2917  -5339307.9668   3469621.6536   2   8   0.4538   1.0087   0.5815  -0.1032  -0.6205  -0.0760   0.00    1.5
2173 197423.000    232977.3581  -5339307.9544   3469621.7231   2   8   0.4538   1.0087   0.5815  -0.1033  -0.6204  -0.0759   0.00    1.4
2173 197424.000    232977.3057  -5339308.0060   3469621.7087   2   8   0.4537   1.0088   0.5815  -0.1033  -0.6204  -0.0759   0.00    1.6
2173 197425.000    232977.2347  -5339307.9326   3469621.6463   2   8   0.4537   1.0088   0.5815  -0.1034  -0.6204  -0.0759   0.00    1.4
2173 197426.000    232977.2247  -5339307.9182   3469621.6652   2   8   0.4537   1.0088   0.5815  -0.1034  -0.6204  -0.0758   0.00    1.4
2173 197427.000    232977.1638  -5339307.9202   3469621.7164   2   8   0.4537   1.0088   0.5814  -0.1035  -0.6204  -0.0758   0.00    1.3
2173 197428.000    232977.2345  -5339307.9109   3469621.7277   2   8   0.4537   1.0089   0.5814  -0.1036  -0.6204  -0.0757   0.00    1.5
2173 197429.000    232977.3054  -5339307.7535   3469621.6988   2   8   0.4536   1.0089   0.5814  -0.1036  -0.6204  -0.0757   0.00    1.5
2173 197430.000    232977.3531  -5339307.7533   3469621.7632   2   8   0.4536   1.0089   0.5814  -0.1037  -0.6204  -0.0757   0.00    1.6
2173 197431.000    232977.4666  -5339307.8055   3469621.7813   2   8   0.4536   1.0090   0.5814  -0.1037  -0.6204  -0.0756   0.00    1.4
2173 197432.000    232977.5287  -5339307.8328   3469621.8156   2   8   0.4536   1.0090   0.5814  -0.1038  -0.6204  -0.0756   0.00    1.5
2173 197433.000    232977.5822  -5339307.8455   3469621.8449   2   8   0.4536   1.0090   0.5813  -0.1038  -0.6204  -0.0756   0.00    1.3
2173 197434.000    232977.6229  -5339307.8808   3469621.8275   2   8   0.4536   1.0090   0.5813  -0.1039  -0.6204  -0.0755   0.00    1.4
2173 197435.000    232977.6507  -5339307.8404   3469621.7358   2   8   0.4535   1.0091   0.5813  -0.1039  -0.6204  -0.0755   0.00    1.5
2173 197436.000    232977.6543  -5339307.6950   3469621.6537   2   8   0.4535   1.0091   0.5813  -0.1040  -0.6204  -0.0754   0.00    1.3
2173 197437.000    232977.5653  -5339307.6473   3469621.6244   2   8   0.4535   1.0091   0.5813  -0.1041  -0.6203  -0.0754   0.00    1.4
2173 197438.000    232977.5419  -5339307.7156   3469621.6295   2   8   0.4535   1.0092   0.5813  -0.1041  -0.6203  -0.0754   0.00    1.3
2173 197439.000    232977.6245  -5339307.7012   3469621.5541   2   8   0.4535   1.0092   0.5813  -0.1042  -0.6203  -0.0753   0.00    1.4
2173 197440.000    232977.7081  -5339307.7997   3469621.6376   2   8   0.4535   1.0092   0.5812  -0.1042  -0.6203  -0.0753   0.00    1.5
2173 197441.000    232977.6788  -5339307.9199   3469621.7129   2   8   0.4534   1.0092   0.5812  -0.1043  -0.6203  -0.0752   0.00    1.4
2173 197442.000    232977.6632  -5339307.9522   3469621.7317   2   8   0.4534   1.0093   0.5812  -0.1043  -0.6203  -0.0752   0.00    1.8
2173 197443.000    232977.6294  -5339307.9993   3469621.7285   2   8   0.4534   1.0093   0.5812  -0.1044  -0.6203  -0.0752   0.00    1.7
2173 197444.000    232977.6918  -5339307.8503   3469621.6450   2   8   0.4534   1.0093   0.5812  -0.1044  -0.6203  -0.0751   0.00    1.5
2173 197445.000    232977.7458  -5339307.9592   3469621.6447   2   8   0.4534   1.0094   0.5812  -0.1045  -0.6203  -0.0751   0.00    1.5
2173 197446.000    232977.8804  -5339308.1315   3469621.7657   2   8   0.4533   1.0094   0.5811  -0.1045  -0.6203  -0.0750   0.00    1.4
2173 197447.000    232977.8535  -5339307.7469   3469621.6304   2   8   0.4533   1.0094   0.5811  -0.1046  -0.6203  -0.0750   0.00    1.5
2173 197448.000    232977.7931  -5339307.7013   3469621.6089   2   8   0.4533   1.0094   0.5811  -0.1047  -0.6203  -0.0750   0.00    1.7
2173 197449.000    232977.7966  -5339307.7155   3469621.6149   2   8   0.3226   0.7171   0.4128  -0.0776  -0.4405  -0.0524   1.00    1.7
2173 197450.000    232977.7953  -5339307.6426   3469621.4998   2   8   0.4533   1.0095   0.5811  -0.1048  -0.6203  -0.0749   0.00    1.8
2173 197451.000    232977.7684  -5339307.5884   3469621.5152   2   8   0.4533   1.0095   0.5811  -0.1048  -0.6202  -0.0749   0.00    1.8
2173 197452.000    232977.7700  -5339307.5297   3469621.5044   2   8   0.4532   1.0096   0.5811  -0.1049  -0.6202  -0.0748   0.00    1.8
2173 197453.000    232977.7817  -5339307.4897   3469621.4591   2   8   0.4532   1.0096   0.5810  -0.1049  -0.6202  -0.0748   0.00    1.5
2173 197454.000    232977.6718  -5339307.5151   3469621.4667   2   8   0.4532   1.0096   0.5810  -0.1050  -0.6202  -0.0747   0.00    1.6
2173 197455.000    232977.6676  -5339307.5688   3469621.4998   2   8   0.4532   1.0096   0.5810  -0.1050  -0.6202  -0.0747   0.00    2.0
2173 197456.000    232977.7181  -5339307.5694   3469621.4513   2   8   0.4532   1.0097   0.5810  -0.1051  -0.6202  -0.0747   0.00    2.1
2173 197457.000    232977.6523  -5339307.4145   3469621.3959   2   8   0.4532   1.0097   0.5810  -0.1051  -0.6202  -0.0746   0.00    2.0
2173 197458.000    232977.6587  -5339307.3530   3469621.3723   2   8   0.4531   1.0097   0.5810  -0.1052  -0.6202  -0.0746   0.00    2.1
2173 197459.000    232977.6493  -5339307.1982   3469621.2317   2   8   0.4531   1.0098   0.5810  -0.1052  -0.6202  -0.0745   0.00    2.2
2173 197460.000    232977.6330  -5339307.2208   3469621.2259   2   8   0.4531   1.0098   0.5809  -0.1053  -0.6202  -0.0745   0.00    1.8
2173 197461.000    232977.6638  -5339307.3269   3469621.2926   2   8   0.4531   1.0098   0.5809  -0.1053  -0.6202  -0.0745   0.00    2.1
2173 197462.000    232977.6475  -5339307.2611   3469621.2923   2   8   0.4531   1.0098   0.5809  -0.1054  -0.6202  -0.0744   0.00    2.1
2173 197463.000    232977.6130  -5339307.2489   3469621.3241   2   8   0.4531   1.0099   0.5809  -0.1055  -0.6202  -0.0744   0.00    1.9
2173 197464.000    232977.5588  -5339306.9439   3469621.2599   2   8   0.4530   1.0099   0.5809  -0.1055  -0.6202  -0.0743   0.00    2.4
2173 197465.000    232977.5237  -5339306.6970   3469621.1198   2   8   0.4530   1.0099   0.5809  -0.1056  -0.6201  -0.0743   0.00    2.2
2173 197466.000    232977.4931  -5339306.6761   3469621.0719   2   8   0.4530   1.0100   0.5809  -0.1056  -0.6201  -0.0743   0.00    2.1
2173 197467.000    232977.5007  -5339306.5962   3469620.9630   2   8   0.4530   1.0100   0.5808  -0.1057  -0.6201  -0.0742   0.00    2.1
2173 197468.000    232977.4363  -5339306.6762   3469620.9624   2   8   0.4530   1.0100   0.5808  -0.1057  -0.6201  -0.0742   0.00    2.1
2173 197469.000    232977.4188  -5339306.5730   3469620.8945   2   8   0.4529   1.0100   0.5808  -0.1058  -0.6201  -0.0742   0.00    2.1
2173 197470.000    232977.4079  -5339306.5924   3469620.9028   2   8   0.3223   0.7175   0.4126  -0.0783  -0.4404  -0.0519   1.00    2.0
2173 197471.000    232977.3200  -5339306.7706   3469620.9554   2   8   0.4529   1.0101   0.5808  -0.1059  -0.6201  -0.0741   0.00    2.0
2173 197472.000    232977.3166  -5339306.8428   3469620.9955   2   8   0.4529   1.0101   0.5808  -0.1059  -0.6201  -0.0740   0.00    2.1
2173 197473.000    232977.3391  -5339306.8861   3469620.9725   2   8   0.4529   1.0102   0.5808  -0.1060  -0.6201  -0.0740   0.00    2.3
2173 197474.000    232977.3636  -5339306.9205   3469620.9761   2   8   0.4529   1.0102   0.5807  -0.1060  -0.6201  -0.0740   0.00    2.3
2173 197475.000    232977.3447  -5339306.7842   3469620.8760   2   8   0.4528   1.0102   0.5807  -0.1061  -0.6201  -0.0739   0.00    2.1
2173 197476.000    232977.3641  -5339306.7438   3469620.8390   2   8   0.4528   1.0102   0.5807  -0.1061  -0.6201  -0.0739   0.00    2.0
2173 197477.000    232977.3535  -5339306.7401   3469620.8062   2   8   0.4528   1.0103   0.5807  -0.1062  -0.6201  -0.0738   0.00    2.2
2173 197478.000    232977.3542  -5339306.8220   3469620.7947   2   8   0.4528   1.0103   0.5807  -0.1062  -0.6201  -0.0738   0.00    2.0
2173 197479.000    232977.3615  -5339306.8255   3469620.6896   2   8   0.4528   1.0103   0.5807  -0.1063  -0.6201  -0.0738   0.00    2.1
2173 197480.000    232977.4257  -5339306.8724   3469620.7012   2   8   0.4528   1.0104   0.5807  -0.1063  -0.6200  -0.0737   0.00    2.0
2173 197481.000    232977.5256  -5339306.8548   3469620.6675   2   8   0.4527   1.0104   0.5806  -0.1064  -0.6200  -0.0737   0.00    2.1
2173 197482.000    232977.5233  -5339306.9903   3469620.7272   2   8   0.4527   1.0104   0.5806  -0.1064  -0.6200  -0.0737   0.00    1.9
2173 197483.000    232977.5513  -5339306.9386   3469620.7107   2   8   0.4527   1.0104   0.5806  -0.1065  -0.6200  -0.0736   0.00    2.1
2173 197484.000    232977.5785  -5339306.9956   3469620.7576   2   8   0.4527   1.0105   0.5806  -0.1065  -0.6200  -0.0736   0.00    2.2
2173 197485.000    232977.5597  -5339307.0159   3469620.7662   2   8   0.4527   1.0105   0.5806  -0.1066  -0.6200  -0.0735   0.00    2.1
2173 197486.000    232977.5532  -5339306.9524   3469620.7420   2   8   0.4527   1.0105   0.5806  -0.1066  -0.6200  -0.0735   0.00    2.4
2173 197487.000    232977.5748  -5339307.0296   3469620.7410   2   8   0.4526   1.0106   0.5806  -0.1067  -0.6200  -0.0735   0.00    2.1
2173 197488.000    232977.5705  -5339307.1567   3469620.7295   2   8   0.4526   1.0106   0.5805  -0.1067  -0.6200  -0.0734   0.00    2.3
2173 197489.000    232977.5659  -5339307.0475   3469620.7213   2   8   0.4526   1.0106   0.5805  -0.1068  -0.6200  -0.0734   0.00    1.9
2173 197490.000    232977.5767  -5339306.8774   3469620.6905   2   8   0.4526   1.0106   0.5805  -0.1068  -0.6200  -0.0733   0.00    2.3
2173 197491.000    232977.5975  -5339306.7828   3469620.6194   2   8   0.4526   1.0107   0.5805  -0.1069  -0.6200  -0.0733   0.00    1.9
2173 197492.000    232977.6820  -5339306.8483   3469620.6645   2   8   0.4525   1.0107   0.5805  -0.1069  -0.6200  -0.0733   0.00    1.9
2173 197493.000    232977.8081  -5339306.9657   3469620.6698   2   8   0.4525   1.0107   0.5805  -0.1070  -0.6200  -0.0732   0.00    1.7
2173 197494.000    232977.8067  -5339307.0101   3469620.6452   2   8   0.4525   1.0108   0.5805  -0.1070  -0.6200  -0.0732   0.00    1.8
2173 197495.000    232977.8402  -5339307.1546   3469620.7183   2   8   0.4525   1.0108   0.5804  -0.1071  -0.6199  -0.0732   0.00    1.6
2173 197496.000    232977.7736  -5339307.1419   3469620.7670   2   8   0.4525   1.0108   0.5804  -0.1071  -0.6199  -0.0731   0.00    2.1
2173 197497.000    232977.7418  -5339307.3240   3469620.8786   2   8   0.4525   1.0108   0.5804  -0.1072  -0.6199  -0.0731   0.00    2.2
2173 197498.000    232977.6989  -5339307.2586   3469620.9502   2   8   0.4524   1.0109   0.5804  -0.1072  -0.6199  -0.0730   0.00    2.2
2173 197499.000    232977.6935  -5339307.2360   3469620.9467   2   8   0.4524   1.0109   0.5804  -0.1073  -0.6199  -0.0730   0.00    2.2
2173 197500.000    232977.6706  -5339307.2196   3469620.9282   2   8   0.4524   1.0109   0.5804  -0.1073  -0.6199  -0.0730   0.00    2.0
2173 197501.000    232977.6226  -5339307.2986   3469621.0251   2   8   0.4524   1.0110   0.5804  -0.1074  -0.6199  -0.0729   0.00    2.3
2173 197502.000    232977.6189  -5339307.2237   3469621.0210   2   8   0.4524   1.0110   0.5804  -0.1074  -0.6199  -0.0729   0.00    2.5
2173 197503.000    232977.6339  -5339307.1121   3469621.0574   2   8   0.4524   1.0110   0.5803  -0.1075  -0.6199  -0.0728   0.00    2.8
2173 197504.000    232977.6598  -5339307.2269   3469621.1212   2   8   0.4523   1.0110   0.5803  -0.1075  -0.6199  -0.0728   0.00    2.2
2173 197505.000    232977.7869  -5339307.3007   3469621.1738   2   8   0.4523   1.0111   0.5803  -0.1076  -0.6199  -0.0728   0.00    2.1
2173 197506.000    232977.8203  -5339307.2380   3469621.1139   2   8   0.4523   1.0111   0.5803  -0.1076  -0.6199  -0.0727   0.00    2.0
2173 197507.000    232977.9100  -5339307.2553   3469621.1328   2   8   0.4523   1.0111   0.5803  -0.1077  -0.6199  -0.0727   0.00    2.1
2173 197508.000    232977.9221  -5339307.4519   3469621.2159   2   8   0.4523   1.0112   0.5803  -0.1077  -0.6199  -0.0727   0.00    2.2
2173 197509.000    232977.9641  -5339307.3866   3469621.1427   2   8   0.4523   1.0112   0.5803  -0.1078  -0.6199  -0.0726   0.00    2.2
2173 197510.000    232977.9451  -5339307.3732   3469621.1174   2   8   0.4522   1.0112   0.5802  -0.1078  -0.6198  -0.0726   0.00    2.2
2173 197511.000    232977.9154  -5339307.3138   3469621.1330   2   8   0.4522   1.0112   0.5802  -0.1079  -0.6198  -0.0725   0.00    1.9
2173 197512.000    232977.8849  -5339307.3757   3469621.1913   2   8   0.4522   1.0113   0.5802  -0.1079  -0.6198  -0.0725   0.00    2.0
2173 197513.000    232977.9312  -5339307.4423   3469621.2296   2   8   0.4522   1.0113   0.5802  -0.1080  -0.6198  -0.0725   0.00    2.1
2173 197514.000    232977.8932  -5339307.4700   3469621.3116   2   8   0.4522   1.0113   0.5802  -0.1080  -0.6198  -0.0724   0.00    2.2
2173 197515.000    232977.8867  -5339307.3590   3469621.3589   2   8   0.4522   1.0114   0.5802  -0.1080  -0.6198  -0.0724   0.00    2.3
2173 197516.000    232977.8564  -5339307.3176   3469621.3721   2   8   0.4521   1.0114   0.5802  -0.1081  -0.6198  -0.0723   0.00    2.0
2173 197517.000    232977.8797  -5339307.3577   3469621.4639   2   8   0.4521   1.0114   0.5802  -0.1081  -0.6198  -0.0723   0.00    2.5
2173 197518.000    232977.8963  -5339307.3847   3469621.5461   2   8   0.4521   1.0114   0.5801  -0.1082  -0.6198  -0.0723   0.00    2.2
2173 197519.000    232977.8981  -5339307.3521   3469621.5299   2   8   0.4521   1.0115   0.5801  -0.1082  -0.6198  -0.0722   0.00    2.3
2173 197520.000    232977.9404  -5339307.3494   3469621.5493   2   8   0.4521   1.0115   0.5801  -0.1083  -0.6198  -0.0722   0.00    2.0
2173 197521.000    232977.9607  -5339307.2484   3469621.5428   2   8   0.4520   1.0115   0.5801  -0.1083  -0.6198  -0.0722   0.00    2.0
2173 197522.000    232977.9853  -5339307.2475   3469621.5591   2   8   0.4520   1.0116   0.5801  -0.1084  -0.6198  -0.0721   0.00    2.5
2173 197523.000    232978.0395  -5339307.2019   3469621.6187   2   8   0.4520   1.0116   0.5801  -0.1084  -0.6198  -0.0721   0.00    2.3
2173 197524.000    232978.0158  -5339307.1486   3469621.6256   2   8   0.4520   1.0116   0.5801  -0.1085  -0.6198  -0.0720   0.00    2.4
2173 197525.000    232977.9992  -5339307.1346   3469621.6855   2   8   0.4520   1.0116   0.5801  -0.1085  -0.6198  -0.0720   0.00    2.6
2173 197526.000    232978.0072  -5339306.9847   3469621.6656   2   8   0.4520   1.0117   0.5800  -0.1086  -0.6197  -0.0720   0.00    2.5
2173 197527.000    232977.9767  -5339307.0250   3469621.6827   2   8   0.4519   1.0117   0.5800  -0.1086  -0.6197  -0.0719   0.00    2.2
2173 197528.000    232977.9522  -5339307.0976   3469621.7499   2   8   0.4519   1.0117   0.5800  -0.1087  -0.6197  -0.0719   0.00    2.4
2173 197529.000    232977.8884  -5339307.0163   3469621.6764   2   8   0.4519   1.0118   0.5800  -0.1087  -0.6197  -0.0718   0.00    2.1
2173 197530.000    232977.8550  -5339307.2796   3469621.7903   2   8   0.4519   1.0118   0.5800  -0.1087  -0.6197  -0.0718   0.00    2.2
2173 197531.000    232977.8039  -5339307.4254   3469621.8310   2   8   0.4519   1.0118   0.5800  -0.1088  -0.6197  -0.0718   0.00    2.3
2173 197532.000    232977.8009  -5339307.4677   3469621.8703   2   8   0.4519   1.0118   0.5800  -0.1088  -0.6197  -0.0717   0.00    1.9
2173 197533.000    232977.7309  -5339307.4392   3469621.8659   2   8   0.4518   1.0119   0.5800  -0.1089  -0.6197  -0.0717   0.00    1.9
2173 197534.000    232977.7938  -5339307.4217   3469621.8418   2   8   0.4518   1.0119   0.5799  -0.1089  -0.6197  -0.0717   0.00    1.8
2173 197535.000    232977.8023  -5339307.3237   3469621.7778   2   8   0.4518   1.0119   0.5799  -0.1090  -0.6197  -0.0716   0.00    1.8
2173 197536.000    232977.8558  -5339307.2567   3469621.6755   2   8   0.4518   1.0120   0.5799  -0.1090  -0.6197  -0.0716   0.00    2.0
2173 197537.000    232977.8928  -5339307.1995   3469621.5959   2   8   0.4518   1.0120   0.5799  -0.1091  -0.6197  -0.0715   0.00    1.8
2173 197538.000    232977.9064  -5339307.1645   3469621.6178   2   8   0.4518   1.0120   0.5799  -0.1091  -0.6197  -0.0715   0.00    1.9
2173 197539.000    232977.8692  -5339307.2205   3469621.6576   2   8   0.4517   1.0120   0.5799  -0.1092  -0.6197  -0.0715   0.00    2.0
2173 197540.000    232977.8976  -5339307.2813   3469621.7381   2   8   0.4517   1.0121   0.5799  -0.1092  -0.6197  -0.0714   0.00    1.7
2173 197541.000    232977.8714  -5339307.4496   3469621.8125   2   8   0.4517   1.0121   0.5799  -0.1092  -0.6197  -0.0714   0.00    1.6
2173 197542.000    232977.8273  -5339307.3599   3469621.7622   2   8   0.4517   1.0121   0.5798  -0.1093  -0.6196  -0.0713   0.00    1.7
2173 197543.000    232977.7448  -5339307.2895   3469621.7574   2   8   0.4517   1.0122   0.5798  -0.1093  -0.6196  -0.0713   0.00    1.5
2173 197544.000    232977.6925  -5339307.2765   3469621.6740   2   8   0.4517   1.0122   0.5798  -0.1094  -0.6196  -0.0713   0.00    1.6
2173 197545.000    232977.6435  -5339307.3105   3469621.6448   2   8   0.4516   1.0122   0.5798  -0.1094  -0.6196  -0.0712   0.00    1.5
2173 197546.000    232977.6058  -5339307.5297   3469621.6823   2   8   0.4516   1.0122   0.5798  -0.1095  -0.6196  -0.0712   0.00    1.4
2173 197547.000    232977.5724  -5339307.5147   3469621.6288   2   8   0.4516   1.0123   0.5798  -0.1095  -0.6196  -0.0712   0.00    1.5
2173 197548.000    232977.5190  -5339307.3595   3469621.5364   2   8   0.4516   1.0123   0.5798  -0.1096  -0.6196  -0.0711   0.00    1.6
2173 197549.000    232977.5121  -5339307.4049   3469621.4899   2   8   0.4516   1.0123   0.5798  -0.1096  -0.6196  -0.0711   0.00    1.6
2173 197550.000    232977.4763  -5339307.5571   3469621.5469   2   8   0.4516   1.0124   0.5798  -0.1096  -0.6196  -0.0710   0.00    1.4
2173 197551.000    232977.4537  -5339307.5393   3469621.5354   2   8   0.4515   1.0124   0.5797  -0.1097  -0.6196  -0.0710   0.00    1.6
2173 197552.000    232977.5744  -5339307.5262   3469621.5774   2   8   0.4515   1.0124   0.5797  -0.1097  -0.6196  -0.0710   0.00    1.6
2173 197553.000    232977.6214  -5339307.4610   3469621.5689   2   8   0.4515   1.0124   0.5797  -0.1098  -0.6196  -0.0709   0.00    1.6
2173 197554.000    232977.6353  -5339307.3934   3469621.5138   2   8   0.4515   1.0125   0.5797  -0.1098  -0.6196  -0.0709   0.00    1.8
2173 197555.000    232977.6790  -5339307.4032   3469621.4729   2   8   0.4515   1.0125   0.5797  -0.1099  -0.6196  -0.0709   0.00    1.9
2173 197556.000    232977.6940  -5339307.4399   3469621.4892   2   8   0.4514   1.0125   0.5797  -0.1099  -0.6196  -0.0708   0.00    2.1
2173 197557.000    232977.6131  -5339307.3964   3469621.5492   2   8   0.4514   1.0125   0.5797  -0.1100  -0.6196  -0.0708   0.00    1.8
2173 197558.000    232977.6228  -5339307.4154   3469621.6104   2   8   0.4514   1.0126   0.5797  -0.1100  -0.6195  -0.0707   0.00    1.9
2173 197559.000    232977.6271  -5339307.5913   3469621.6861   2   8   0.4514   1.0126   0.5796  -0.1100  -0.6195  -0.0707   0.00    1.7
2173 197560.000    232977.6458  -5339307.8000   3469621.7453   2   8   0.4514   1.0126   0.5796  -0.1101  -0.6195  -0.0707   0.00    1.8
2173 197561.000    232977.7548  -5339307.8825   3469621.7692   2   8   0.4514   1.0127   0.5796  -0.1101  -0.6195  -0.0706   0.00    1.9
2173 197562.000    232977.7130  -5339307.8148   3469621.8338   2   8   0.4513   1.0127   0.5796  -0.1102  -0.6195  -0.0706   0.00    1.6
2173 197563.000    232977.6371  -5339307.9830   3469621.9303   2   8   0.4513   1.0127   0.5796  -0.1102  -0.6195  -0.0705   0.00    1.4
2173 197564.000    232977.6219  -5339307.9524   3469621.8804   2   8   0.4513   1.0127   0.5796  -0.1103  -0.6195  -0.0705   0.00    1.7
2173 197565.000    232977.5825  -5339307.7938   3469621.8299   2   8   0.4513   1.0128   0.5796  -0.1103  -0.6195  -0.0705   0.00    1.7
2173 197566.000    232977.4904  -5339307.7086   3469621.7215   2   8   0.4513   1.0128   0.5796  -0.1103  -0.6195  -0.0704   0.00    1.7
2173 197567.000    232977.4542  -5339307.3774   3469621.5809   2   8   0.4513   1.0128   0.5796  -0.1104  -0.6195  -0.0704   0.00    2.0
2173 197568.000    232977.4776  -5339307.3197   3469621.5989   2   8   0.4512   1.0129   0.5795  -0.1104  -0.6195  -0.0704   0.00    1.9
2173 197569.000    232977.4924  -5339307.3242   3469621.6298   2   8   0.4512   1.0129   0.5795  -0.1105  -0.6195  -0.0703   0.00    2.1
2173 197570.000    232977.4824  -5339307.3081   3469621.6572   2   8   0.4512   1.0129   0.5795  -0.1105  -0.6195  -0.0703   0.00    2.1
2173 197571.000    232977.4781  -5339307.2737   3469621.6841   2   8   0.4512   1.0129   0.5795  -0.1106  -0.6195  -0.0702   0.00    2.4
2173 197572.000    232977.5696  -5339307.1104   3469621.6558   2   8   0.4512   1.0130   0.5795  -0.1106  -0.6195  -0.0702   0.00    2.1
2173 197573.000    232977.6218  -5339307.2006   3469621.6871   2   8   0.4512   1.0130   0.5795  -0.1106  -0.6195  -0.0702   0.00    1.9
2173 197574.000    232977.6073  -5339307.2991   3469621.8039   2   8   0.4511   1.0130   0.5795  -0.1107  -0.6194  -0.0701   0.00    1.7
2173 197575.000    232977.4349  -5339307.3250   3469621.7877   2   8   0.4511   1.0131   0.5795  -0.1107  -0.6194  -0.0701   0.00    1.7
2173 197576.000    232977.3888  -5339307.2956   3469621.7630   2   8   0.4511   1.0131   0.5795  -0.1108  -0.6194  -0.0700   0.00    1.9
2173 197577.000    232977.3102  -5339307.4635   3469621.7695   2   8   0.4511   1.0131   0.5794  -0.1108  -0.6194  -0.0700   0.00    1.7
2173 197578.000    232977.3363  -5339307.4401   3469621.8136   2   8   0.4511   1.0131   0.5794  -0.1108  -0.6194  -0.0700   0.00    1.7
2173 197579.000    232977.3252  -5339307.3993   3469621.8811   2   8   0.4511   1.0132   0.5794  -0.1109  -0.6194  -0.0699   0.00    1.5
2173 197580.000    232977.3014  -5339307.5212   3469621.9229   2   8   0.4510   1.0132   0.5794  -0.1109  -0.6194  -0.0699   0.00    1.7
2173 197581.000    232977.3133  -5339307.5014   3469621.9865   2   8   0.4510   1.0132   0.5794  -0.1110  -0.6194  -0.0699   0.00    1.7
2173 197582.000    232977.2378  -5339307.3051   3469621.8975   2   8   0.4510   1.0133   0.5794  -0.1110  -0.6194  -0.0698   0.00    1.5
2173 197583.000    232977.2716  -5339307.3127   3469621.8919   2   8   0.4510   1.0133   0.5794  -0.1111  -0.6194  -0.0698   0.00    1.7
2173 197584.000    232977.2565  -5339307.4031   3469621.8697   2   8   0.4510   1.0133   0.5794  -0.1111  -0.6194  -0.0697   0.00    1.7
2173 197585.000    232977.2892  -5339307.3673   3469621.8268   2   8   0.4510   1.0133   0.5794  -0.1111  -0.6194  -0.0697   0.00    1.6
2173 197586.000    232977.2415  -5339307.3449   3469621.7921   2   8   0.4509   1.0134   0.5793  -0.1112  -0.6194  -0.0697   0.00    1.7
2173 197587.000    232977.2494  -5339307.3626   3469621.8002   2   8   0.4509   1.0134   0.5793  -0.1112  -0.6194  -0.0696   0.00    1.9
2173 197588.000    232977.3024  -5339307.4027   3469621.8550   2   8   0.4509   1.0134   0.5793  -0.1113  -0.6194  -0.0696   0.00    2.1
2173 197589.000    232977.2844  -5339307.5017   3469621.8873   2   8   0.4509   1.0135   0.5793  -0.1113  -0.6194  -0.0696   0.00    2.2
2173 197590.000    232977.2975  -5339307.5256   3469621.9073   2   8   0.4509   1.0135   0.5793  -0.1113  -0.6194  -0.0695   0.00    1.8
2173 197591.000    232977.2494  -5339307.6744   3469621.9393   2   8   0.4509   1.0135   0.5793  -0.1114  -0.6193  -0.0695   0.00    1.8
2173 197592.000    232977.1976  -5339307.7911   3469621.9845   2   8   0.4508   1.0135   0.5793  -0.1114  -0.6193  -0.0694   0.00    1.8
2173 197593.000    232977.2103  -5339307.8368   3469621.9711   2   8   0.4508   1.0136   0.5793  -0.1115  -0.6193  -0.0694   0.00    1.8
2173 197594.000    232977.2395  -5339307.9051   3469621.9948   2   8   0.4508   1.0136   0.5793  -0.1115  -0.6193  -0.0694   0.00    1.9
2173 197595.000    232977.2245  -5339307.9484   3469622.0136   2   8   0.4508   1.0136   0.5793  -0.1115  -0.6193  -0.0693   0.00    1.8
2173 197596.000    232977.1848  -5339307.9781   3469621.9953   2   8   0.4508   1.0136   0.5792  -0.1116  -0.6193  -0.0693   0.00    1.7
2173 197597.000    232977.1887  -5339308.0617   3469622.0535   2   8   0.4508   1.0137   0.5792  -0.1116  -0.6193  -0.0693   0.00    1.5
2173 197598.000    232977.2280  -5339308.2688   3469622.1212   2   8   0.4507   1.0137   0.5792  -0.1117  -0.6193  -0.0692   0.00    1.5
2173 197599.000    232977.2920  -5339308.3810   3469622.2019   2   8   0.4507   1.0137   0.5792  -0.1117  -0.6193  -0.0692   0.00    1.2
2173 197600.000    232977.3761  -5339308.3072   3469622.1611   2   8   0.4507   1.0138   0.5792  -0.1117  -0.6193  -0.0691   0.00    1.4
2173 197601.000    232977.4078  -5339308.2201   3469622.1484   2   8   0.4507   1.0138   0.5792  -0.1118  -0.6193  -0.0691   0.00    1.2
2173 197602.000    232977.4300  -5339308.1655   3469622.1695   2   8   0.4507   1.0138   0.5792  -0.1118  -0.6193  -0.0691   0.00    1.1
2173 197603.000    232977.4113  -5339307.9591   3469622.1125   2   8   0.4507   1.0138   0.5792  -0.1119  -0.6193  -0.0690   0.00    1.1
2173 197604.000    232977.5085  -5339307.9955   3469622.1179   2   8   0.4506   1.0139   0.5792  -0.1119  -0.6193  -0.0690   0.00    1.3
2173 197605.000    232977.4281  -5339307.7704   3469622.0237   2   8   0.4506   1.0139   0.5791  -0.1119  -0.6193  -0.0689   0.00    1.1
2173 197606.000    232977.3897  -5339307.4924   3469621.8606   2   8   0.4506   1.0139   0.5791  -0.1120  -0.6193  -0.0689   0.00    1.4
2173 197607.000    232977.3609  -5339307.5146   3469621.8663   2   8   0.4506   1.0140   0.5791  -0.1120  -0.6193  -0.0689   0.00    1.3
2173 197608.000    232977.3426  -5339307.3928   3469621.7907   2   8   0.4506   1.0140   0.5791  -0.1121  -0.6192  -0.0688   0.00    1.2
2173 197609.000    232977.3693  -5339307.3193   3469621.7643   2   8   0.4505   1.0140   0.5791  -0.1121  -0.6192  -0.0688   0.00    1.1
2173 197610.000    232977.4804  -5339307.3704   3469621.7544   2   8   0.4505   1.0140   0.5791  -0.1121  -0.6192  -0.0688   0.00    1.2
2173 197611.000    232977.4857  -5339307.4108   3469621.7749   2   8   0.4505   1.0141   0.5791  -0.1122  -0.6192  -0.0687   0.00    1.1
2173 197612.000    232977.5268  -5339307.4580   3469621.6873   2   8   0.4505   1.0141   0.5791  -0.1122  -0.6192  -0.0687   0.00    1.2
2173 197613.000    232977.5636  -5339307.5662   3469621.6868   2   8   0.4505   1.0141   0.5791  -0.1122  -0.6192  -0.0686   0.00    1.5
2173 197614.000    232977.6525  -5339307.6711   3469621.6776   2   8   0.4505   1.0142   0.5791  -0.1123  -0.6192  -0.0686   0.00    1.6
2173 197615.000    232977.6495  -5339307.6214   3469621.6637   2   8   0.4504   1.0142   0.5790  -0.1123  -0.6192  -0.0686   0.00    1.3
2173 197616.000    232977.6605  -5339307.6748   3469621.7569   2   8   0.4504   1.0142   0.5790  -0.1124  -0.6192  -0.0685   0.00    1.1
2173 197617.000    232977.6378  -5339307.7021   3469621.6889   2   8   0.4504   1.0142   0.5790  -0.1124  -0.6192  -0.0685   0.00    1.3
2173 197618.000    232977.6852  -5339307.6301   3469621.6066   2   8   0.4504   1.0143   0.5790  -0.1124  -0.6192  -0.0685   0.00    1.1
2173 197619.000    232977.6787  -5339307.5981   3469621.5290   2   8   0.4504   1.0143   0.5790  -0.1125  -0.6192  -0.0684   0.00    1.4
2173 197620.000    232977.7549  -5339307.4179   3469621.3443   2   8   0.4504   1.0143   0.5790  -0.1125  -0.6192  -0.0684   0.00    1.6
2173 197621.000    232977.7496  -5339307.4618   3469621.2958   2   8   0.4503   1.0143   0.5790  -0.1126  -0.6192  -0.0683   0.00    1.4
2173 197622.000    232977.6958  -5339307.6511   3469621.3191   2   8   0.4503   1.0144   0.5790  -0.1126  -0.6192  -0.0683   0.00    1.4
2173 197623.000    232977.7257  -5339307.8088   3469621.3997   2   8   0.4503   1.0144   0.5790  -0.1126  -0.6192  -0.0683   0.00    1.4
2173 197624.000    232977.7351  -5339307.6911   3469621.3794   2   8   0.4503   1.0144   0.5790  -0.1127  -0.6192  -0.0682   0.00    1.4
2173 197625.000    232977.6463  -5339307.5581   3469621.3993   2   8   0.4503   1.0145   0.5790  -0.1127  -0.6191  -0.0682   0.00    1.8
2173 197626.000    232977.6601  -5339307.5642   3469621.4398   2   8   0.4503   1.0145   0.5789  -0.1127  -0.6191  -0.0682   0.00    1.5
2173 197627.000    232977.6181  -5339307.4666   3469621.4027   2   8   0.4502   1.0145   0.5789  -0.1128  -0.6191  -0.0681   0.00    1.8
2173 197628.000    232977.6887  -5339307.4561   3469621.4310   2   8   0.4502   1.0145   0.5789  -0.1128  -0.6191  -0.0681   0.00    1.6
2173 197629.000    232977.6748  -5339307.5322   3469621.4279   2   8   0.4502   1.0146   0.5789  -0.1129  -0.6191  -0.0680   0.00    1.7
2173 197630.000    232977.7081  -5339307.6447   3469621.4634   2   8   0.4502   1.0146   0.5789  -0.1129  -0.6191  -0.0680   0.00    1.3
2173 197631.000    232977.7664  -5339307.7136   3469621.4013   2   8   0.4502   1.0146   0.5789  -0.1129  -0.6191  -0.0680   0.00    1.6
2173 197632.000    232977.7515  -5339307.8165   3469621.3411   2   8   0.4502   1.0147   0.5789  -0.1130  -0.6191  -0.0679   0.00    1.7
2173 197633.000    232977.7877  -5339307.8333   3469621.3884   2   8   0.4501   1.0147   0.5789  -0.1130  -0.6191  -0.0679   0.00    1.6
2173 197634.000    232977.8641  -5339307.8877   3469621.4512   2   8   0.4501   1.0147   0.5789  -0.1130  -0.6191  -0.0679   0.00    1.2
2173 197635.000    232977.8538  -5339307.7786   3469621.4050   2   8   0.4501   1.0147   0.5789  -0.1131  -0.6191  -0.0678   0.00    1.2
2173 197636.000    232977.8681  -5339307.7556   3469621.3010   2   8   0.4501   1.0148   0.5788  -0.1131  -0.6191  -0.0678   0.00    1.3
2173 197637.000    232977.8570  -5339307.6831   3469621.2764   2   8   0.4501   1.0148   0.5788  -0.1132  -0.6191  -0.0677   0.00    1.5
2173 197638.000    232977.8069  -5339307.6186   3469621.2617   2   8   0.4501   1.0148   0.5788  -0.1132  -0.6191  -0.0677   0.00    1.1
2173 197639.000    232977.8093  -5339307.7498   3469621.2738   2   8   0.4500   1.0148   0.5788  -0.1132  -0.6191  -0.0677   0.00    1.0
2173 197640.000    232977.7901  -5339307.8041   3469621.2968   2   8   0.4500   1.0149   0.5788  -0.1133  -0.6191  -0.0676   0.00    1.1
2173 197641.000    232977.7780  -5339307.7278   3469621.3236   2   8   0.4500   1.0149   0.5788  -0.1133  -0.6191  -0.0676   0.00    1.5
2173 197642.000    232977.7462  -5339307.6869   3469621.3350   2   8   0.4500   1.0149   0.5788  -0.1133  -0.6191  -0.0676   0.00    1.1
2173 197643.000    232977.7769  -5339307.6294   3469621.2403   2   8   0.4500   1.0150   0.5788  -0.1134  -0.6190  -0.0675   0.00    1.1
2173 197644.000    232977.7596  -5339307.5989   3469621.1926   2   8   0.4500   1.0150   0.5788  -0.1134  -0.6190  -0.0675   0.00    1.1
2173 197645.000    232977.6618  -5339307.4606   3469621.1015   2   8   0.4499   1.0150   0.5788  -0.1134  -0.6190  -0.0674   0.00    1.1
2173 197646.000    232977.6553  -5339307.3278   3469621.0054   2   8   0.4499   1.0150   0.5788  -0.1135  -0.6190  -0.0674   0.00    1.3
2173 197647.000    232977.6768  -5339307.2620   3469620.9648   2   8   0.4499   1.0151   0.5787  -0.1135  -0.6190  -0.0674   0.00    1.1
2173 197648.000    232977.7889  -5339307.3663   3469621.0885   2   8   0.4499   1.0151   0.5787  -0.1136  -0.6190  -0.0673   0.00    1.1
2173 197649.000    232977.7894  -5339307.5229   3469621.2091   2   8   0.4499   1.0151   0.5787  -0.1136  -0.6190  -0.0673   0.00    1.2
2173 197650.000    232977.7944  -5339307.7452   3469621.3094   2   8   0.4499   1.0151   0.5787  -0.1136  -0.6190  -0.0673   0.00    1.1
2173 197651.000    232977.7478  -5339307.8111   3469621.2804   2   8   0.4498   1.0152   0.5787  -0.1137  -0.6190  -0.0672   0.00    1.1
2173 197652.000    232977.7165  -5339307.8370   3469621.2167   2   8   0.4498   1.0152   0.5787  -0.1137  -0.6190  -0.0672   0.00    1.3
2173 197653.000    232977.6597  -5339307.8462   3469621.2662   2   8   0.4498   1.0152   0.5787  -0.1137  -0.6190  -0.0671   0.00    1.2
2173 197654.000    232977.6121  -5339307.7471   3469621.2180   2   8   0.4498   1.0153   0.5787  -0.1138  -0.6190  -0.0671   0.00    1.2
2173 197655.000    232977.5373  -5339307.6930   3469621.2088   2   8   0.4498   1.0153   0.5787  -0.1138  -0.6190  -0.0671   0.00    1.2
2173 197656.000    232977.4855  -5339307.6225   3469621.2397   2   8   0.4498   1.0153   0.5787  -0.1138  -0.6190  -0.0670   0.00    1.1
2173 197657.000    232977.4273  -5339307.4076   3469621.1552   2   8   0.4497   1.0153   0.5787  -0.1139  -0.6190  -0.0670   0.00    1.1
2173 197658.000    232977.4686  -5339306.9620   3469621.0178   2   8   0.4497   1.0154   0.5786  -0.1139  -0.6190  -0.0670   0.00    1.2
2173 197659.000    232977.5218  -5339307.0372   3469621.0326   2   8   0.4497   1.0154   0.5786  -0.1139  -0.6190  -0.0669   0.00    1.2
2173 197660.000    232977.5457  -5339307.2161   3469621.0644   2   8   0.4497   1.0154   0.5786  -0.1140  -0.6189  -0.0669   0.00    1.3
2173 197661.000    232977.6027  -5339307.3082   3469621.0916   2   8   0.4497   1.0155   0.5786  -0.1140  -0.6189  -0.0668   0.00    1.5
2173 197662.000    232977.6371  -5339307.1702   3469621.0591   2   8   0.4497   1.0155   0.5786  -0.1140  -0.6189  -0.0668   0.00    1.6
2173 197663.000    232977.6487  -5339307.2368   3469621.0707   2   8   0.4496   1.0155   0.5786  -0.1141  -0.6189  -0.0668   0.00    1.3
2173 197664.000    232977.6309  -5339307.2987   3469621.0923   2   8   0.4496   1.0155   0.5786  -0.1141  -0.6189  -0.0667   0.00    1.4
2173 197665.000    232977.6312  -5339307.4157   3469621.0885   2   8   0.4496   1.0156   0.5786  -0.1142  -0.6189  -0.0667   0.00    1.6
2173 197666.000    232977.5854  -5339307.4642   3469621.0706   2   8   0.4496   1.0156   0.5786  -0.1142  -0.6189  -0.0667   0.00    1.7
2173 197667.000    232977.6076  -5339307.4652   3469621.1158   2   8   0.4496   1.0156   0.5786  -0.1142  -0.6189  -0.0666   0.00    1.5
2173 197668.000    232977.5635  -5339307.6770   3469621.2000   2   8   0.4496   1.0156   0.5786  -0.1143  -0.6189  -0.0666   0.00    1.4
2173 197669.000    232977.5805  -5339307.6786   3469621.2191   2   8   0.4495   1.0157   0.5786  -0.1143  -0.6189  -0.0665   0.00    2.1
2173 197670.000    232977.5381  -5339307.5847   3469621.1357   2   8   0.4495   1.0157   0.5785  -0.1143  -0.6189  -0.0665   0.00    1.9
2173 197671.000    232977.5908  -5339307.6119   3469621.1420   2   8   0.4495   1.0157   0.5785  -0.1144  -0.6189  -0.0665   0.00    1.6
2173 197672.000    232977.6114  -5339307.4575   3469621.0862   2   8   0.4495   1.0158   0.5785  -0.1144  -0.6189  -0.0664   0.00    1.5
2173 197673.000    232977.6846  -5339307.3967   3469621.0564   2   8   0.4495   1.0158   0.5785  -0.1144  -0.6189  -0.0664   0.00    1.7
2173 197674.000    232977.6558  -5339307.4107   3469620.9826   2   8   0.4495   1.0158   0.5785  -0.1145  -0.6189  -0.0664   0.00    1.9
