% program   : rnx2rtkp ver.2.4.3 b31
% inp file  : ngs/21_08_31_09_18_26_arlr.obs
% inp file  : ngs/21_08_31_09_18_26_arlr_SW.obs
% inp file  : ngs/21_08_31_09_18_26_brdc.nav
% obs start : 2021/08/31 09:00:00.0 GPST (week2173 205200.0s)
% obs end   : 2021/08/31 09:59:59.0 GPST (week2173 208799.0s)
% ref pos   :  -220629.2109  -5302651.9138   3525680.8837
%
% (x/y/z-ecef=WGS84,Q=1:fix,2:float,3:sbas,4:dgps,5:single,6:ppp,ns=# of satellites)
%  GPST              x-ecef(m)      y-ecef(m)      z-ecef(m)   Q  ns   sdx(m)   sdy(m)   sdz(m)  sdxy(m)  sdyz(m)  sdzx(m) age(s)  ratio
2173 206281.000   -218301.8730  -5246693.1831   3608099.3004   2   7   0.4140   1.0015   0.7762   0.2145  -0.7269  -0.2549 -30.00    1.2
2173 206282.000   -218301.9923  -5246693.2970   3608099.3432   2   7   0.2944   0.7120   0.5516   0.1519  -0.5167  -0.1809 -29.00    1.1
2173 206283.000   -218301.9546  -5246693.3735   3608099.3890   2   7   0.2411   0.5829   0.4516   0.1243  -0.4230  -0.1481 -28.00    1.0
2173 206284.000   -218301.9512  -5246693.4896   3608099.4500   2   7   0.2091   0.5057   0.3918   0.1078  -0.3670  -0.1285 -27.00    1.0
2173 206285.000   -218301.9706  -5246693.6168   3608099.5072   2   7   0.1873   0.4529   0.3509   0.0965  -0.3287  -0.1151 -26.00    1.1
2173 206286.000   -218301.9985  -5246693.6591   3608099.5006   2   7   0.1712   0.4139   0.3207   0.0882  -0.3004  -0.1053 -25.00    1.0
2173 206287.000   -218301.9953  -5246693.6300   3608099.4648   2   7   0.1586   0.3835   0.2972   0.0817  -0.2783  -0.0975 -24.00    1.1
2173 206288.000   -218302.0002  -5246693.6816   3608099.4939   2   7   0.1485   0.3589   0.2781   0.0765  -0.2605  -0.0913 -23.00    1.1
2173 206289.000   -218302.0060  -5246693.6588   3608099.4849   2   7   0.1400   0.3385   0.2623   0.0721  -0.2457  -0.0861 -22.00    1.1
2173 206290.000   -218302.0204  -5246693.6413   3608099.4862   2   7   0.1329   0.3212   0.2489   0.0684  -0.2332  -0.0817 -21.00    1.2
2173 206291.000   -218302.0186  -5246693.6389   3608099.4688   2   7   0.1267   0.3063   0.2373   0.0652  -0.2223  -0.0779 -20.00    1.1
2173 206292.000   -218302.0394  -5246693.6564   3608099.4875   2   7   0.1213   0.2933   0.2272   0.0624  -0.2128  -0.0746 -19.00    1.2
2173 206293.000   -218302.0520  -5246693.6584   3608099.4667   2   7   0.1166   0.2817   0.2183   0.0599  -0.2045  -0.0717 -18.00    1.2
2173 206294.000   -218302.0666  -5246693.6414   3608099.4705   2   7   0.1123   0.2714   0.2103   0.0576  -0.1970  -0.0690 -17.00    1.3
2173 206295.000   -218302.0684  -5246693.6294   3608099.4551   2   7   0.1085   0.2622   0.2030   0.0556  -0.1902  -0.0666 -16.00    1.3
2173 206296.000   -218302.0803  -5246693.6319   3608099.4485   2   7   0.1050   0.2537   0.1965   0.0537  -0.1841  -0.0645 -15.00    1.3
2173 206297.000   -218302.0859  -5246693.6158   3608099.4357   2   7   0.1019   0.2461   0.1905   0.0520  -0.1785  -0.0625 -14.00    1.4
2173 206298.000   -218302.0926  -5246693.5963   3608099.4177   2   7   0.0990   0.2390   0.1850   0.0505  -0.1734  -0.0607 -13.00    1.5
2173 206299.000   -218302.1030  -5246693.5650   3608099.4013   2   7   0.0963   0.2325   0.1799   0.0490  -0.1686  -0.0590 -12.00    1.5
2173 206300.000   -218302.1086  -5246693.5424   3608099.3677   2   7   0.0938   0.2265   0.1752   0.0477  -0.1642  -0.0574 -11.00    1.5
2173 206301.000   -218302.1213  -5246693.5278   3608099.3482   2   7   0.0915   0.2209   0.1709   0.0465  -0.1601  -0.0560 -10.00    1.5
2173 206302.000   -218302.1301  -5246693.4937   3608099.3162   2   7   0.0894   0.2157   0.1668   0.0453  -0.1563  -0.0546  -9.00    1.4
2173 206303.000   -218302.1419  -5246693.4697   3608099.2844   2   7   0.0874   0.2109   0.1630   0.0442  -0.1528  -0.0534  -8.00    1.4
2173 206304.000   -218302.1532  -5246693.4727   3608099.2752   2   7   0.0855   0.2063   0.1594   0.0432  -0.1495  -0.0522  -7.00    1.4
2173 206305.000   -218302.1607  -5246693.4756   3608099.2720   2   7   0.0837   0.2020   0.1561   0.0422  -0.1463  -0.0511  -6.00    1.4
2173 206306.000   -218302.1642  -5246693.4701   3608099.2597   2   7   0.0821   0.1980   0.1529   0.0413  -0.1434  -0.0500  -5.00    1.3
2173 206307.000   -218302.1717  -5246693.4614   3608099.2483   2   7   0.0805   0.1942   0.1499   0.0405  -0.1406  -0.0490  -4.00    1.3
2173 206308.000   -218302.1710  -5246693.4490   3608099.2368   2   7   0.0790   0.1906   0.1471   0.0397  -0.1379  -0.0481  -3.00    1.3
2173 206309.000   -218302.1699  -5246693.4361   3608099.2204   2   7   0.0776   0.1872   0.1444   0.0389  -0.1355  -0.0472  -2.00    1.3
2173 206310.000   -218302.1726  -5246693.4168   3608099.2029   2   7   0.0764   0.1840   0.1419   0.0382  -0.1331  -0.0464  -1.00    1.2
2173 206311.000   -218302.1711  -5246693.4064   3608099.1930   2   7   0.0751   0.1810   0.1395   0.0375  -0.1309  -0.0456   0.00    1.2
2173 206312.000   -218302.1721  -5246693.3828   3608099.1786   2   7   0.0739   0.1781   0.1372   0.0369  -0.1288  -0.0448   0.00    1.1
2173 206313.000   -218302.1787  -5246693.3786   3608099.1770   2   7   0.0728   0.1754   0.1350   0.0363  -0.1267  -0.0442   0.00    1.1
2173 206314.000   -218302.1804  -5246693.3736   3608099.1836   2   7   0.0717   0.1727   0.1329   0.0357  -0.1248  -0.0435   0.00    1.0
2173 206315.000   -218302.1763  -5246693.3586   3608099.1799   2   7   0.0707   0.1702   0.1310   0.0352  -0.1229  -0.0428   0.00    1.0
2173 206316.000   -218302.1756  -5246693.3646   3608099.1872   2   7   0.0697   0.1678   0.1290   0.0346  -0.1212  -0.0422   0.00    1.1
2173 206317.000   -218302.1715  -5246693.3687   3608099.1872   2   7   0.0688   0.1655   0.1272   0.0342  -0.1195  -0.0415   0.00    1.1
2173 206318.000   -218302.1691  -5246693.3674   3608099.1889   2   7   0.0678   0.1633   0.1254   0.0336  -0.1178  -0.0410   0.00    1.1
2173 206319.000   -218302.1666  -5246693.3630   3608099.1797   2   7   0.0670   0.1611   0.1237   0.0331  -0.1162  -0.0404   0.00    1.2
2173 206320.000   -218302.1694  -5246693.3613   3608099.1833   2   7   0.0661   0.1591   0.1220   0.0327  -0.1147  -0.0399   0.00    1.2
2173 206321.000   -218302.1660  -5246693.3654   3608099.1828   2   7   0.0653   0.1571   0.1204   0.0323  -0.1132  -0.0393   0.00    1.2
2173 206322.000   -218302.1591  -5246693.3591   3608099.1721   2   7   0.0645   0.1552   0.1189   0.0318  -0.1118  -0.0389   0.00    1.2
2173 206323.000   -218302.1599  -5246693.3607   3608099.1866   2   7   0.0638   0.1533   0.1174   0.0314  -0.1104  -0.0384   0.00    1.2
2173 206324.000   -218302.1543  -5246693.3752   3608099.1962   2   7   0.0630   0.1515   0.1159   0.0309  -0.1090  -0.0379   0.00    1.2
2173 206325.000   -218302.1585  -5246693.3838   3608099.2091   2   8   0.0622   0.1496   0.1143   0.0300  -0.1075  -0.0371   0.00    1.0
2173 206326.000   -218302.1576  -5246693.3904   3608099.2149   2   8   0.0614   0.1476   0.1128   0.0290  -0.1060  -0.0363   0.00    1.1
2173 206327.000   -218302.1552  -5246693.3959   3608099.2230   2   8   0.0606   0.1458   0.1113   0.0281  -0.1046  -0.0356   0.00    1.2
2173 206328.000   -218302.1589  -5246693.4062   3608099.2325   2   8   0.0598   0.1440   0.1099   0.0273  -0.1032  -0.0349   0.00    1.2
2173 206329.000   -218302.1611  -5246693.4123   3608099.2318   2   8   0.0591   0.1423   0.1085   0.0264  -0.1018  -0.0343   0.00    1.2
2173 206330.000   -218302.1647  -5246693.4173   3608099.2412   2   8   0.0585   0.1407   0.1072   0.0257  -0.1005  -0.0336   0.00    1.2
2173 206331.000   -218302.1609  -5246693.4168   3608099.2463   2   8   0.0578   0.1391   0.1059   0.0250  -0.0993  -0.0330   0.00    1.2
2173 206332.000   -218302.1597  -5246693.4211   3608099.2523   2   8   0.0572   0.1375   0.1046   0.0243  -0.0981  -0.0325   0.00    1.2
2173 206333.000   -218302.1589  -5246693.4240   3608099.2577   2   8   0.0565   0.1360   0.1033   0.0236  -0.0969  -0.0319   0.00    1.2
2173 206334.000   -218302.1546  -5246693.4293   3608099.2634   2   8   0.0559   0.1346   0.1021   0.0229  -0.0957  -0.0313   0.00    1.2
2173 206335.000   -218302.1540  -5246693.4333   3608099.2665   2   8   0.0553   0.1332   0.1009   0.0223  -0.0946  -0.0308   0.00    1.2
2173 206336.000   -218302.1532  -5246693.4327   3608099.2705   2   8   0.0548   0.1318   0.0998   0.0216  -0.0935  -0.0303   0.00    1.2
2173 206337.000   -218302.1548  -5246693.4358   3608099.2764   2   8   0.0542   0.1305   0.0986   0.0211  -0.0925  -0.0298   0.00    1.2
2173 206338.000   -218302.1519  -5246693.4359   3608099.2842   2   8   0.0537   0.1292   0.0975   0.0205  -0.0914  -0.0293   0.00    1.2
2173 206339.000   -218302.1501  -5246693.4523   3608099.2972   2   8   0.0532   0.1279   0.0965   0.0200  -0.0904  -0.0288   0.00    1.2
2173 206340.000   -218302.1497  -5246693.4661   3608099.3015   2   8   0.0526   0.1267   0.0954   0.0194  -0.0895  -0.0284   0.00    1.2
2173 206341.000   -218302.1474  -5246693.4838   3608099.3136   2   8   0.0522   0.1255   0.0944   0.0189  -0.0885  -0.0280   0.00    1.2
2173 206342.000   -218302.1473  -5246693.4887   3608099.3072   2   8   0.0517   0.1243   0.0934   0.0185  -0.0876  -0.0276   0.00    1.2
2173 206343.000   -218302.1432  -5246693.4951   3608099.3038   2   8   0.0512   0.1232   0.0924   0.0178  -0.0867  -0.0272   0.00    1.2
2173 206344.000   -218302.1396  -5246693.5023   3608099.3043   2   8   0.0508   0.1221   0.0914   0.0175  -0.0858  -0.0268   0.00    1.2
2173 206345.000   -218302.1368  -5246693.5119   3608099.2994   2   8   0.0503   0.1210   0.0904   0.0168  -0.0849  -0.0264   0.00    1.2
2173 206346.000   -218302.1337  -5246693.5083   3608099.2943   2   8   0.0499   0.1200   0.0895   0.0164  -0.0840  -0.0259   0.00    1.2
2173 206347.000   -218302.1316  -5246693.5076   3608099.2903   2   8   0.0495   0.1189   0.0886   0.0160  -0.0832  -0.0256   0.00    1.2
2173 206348.000   -218302.1275  -5246693.5225   3608099.2893   2   8   0.0491   0.1179   0.0876   0.0155  -0.0824  -0.0252   0.00    1.2
2173 206349.000   -218302.1261  -5246693.5240   3608099.2842   2   8   0.0487   0.1169   0.0867   0.0151  -0.0816  -0.0248   0.00    1.2
2173 206350.000   -218302.1254  -5246693.5218   3608099.2804   2   8   0.0483   0.1159   0.0859   0.0148  -0.0808  -0.0246   0.00    1.2
2173 206351.000   -218302.1227  -5246693.5335   3608099.2744   2   8   0.0479   0.1150   0.0850   0.0143  -0.0800  -0.0242   0.00    1.2
2173 206352.000   -218302.1239  -5246693.5339   3608099.2736   2   8   0.0475   0.1141   0.0842   0.0138  -0.0793  -0.0239   0.00    1.2
2173 206353.000   -218302.1215  -5246693.5368   3608099.2692   2   8   0.0472   0.1132   0.0833   0.0134  -0.0785  -0.0235   0.00    1.2
2173 206354.000   -218302.1210  -5246693.5406   3608099.2632   2   8   0.0467   0.1123   0.0825   0.0131  -0.0778  -0.0233   0.00    1.2
2173 206355.000   -218302.1267  -5246693.5555   3608099.2498   2   8   0.0465   0.1114   0.0817   0.0128  -0.0771  -0.0229   0.00    1.2
2173 206356.000   -218302.1272  -5246693.5480   3608099.2333   2   8   0.0462   0.1106   0.0809   0.0123  -0.0764  -0.0226   0.00    1.3
2173 206357.000   -218302.1243  -5246693.5501   3608099.2287   2   8   0.0458   0.1097   0.0801   0.0120  -0.0757  -0.0223   0.00    1.3
2173 206358.000   -218302.1246  -5246693.5482   3608099.2211   2   8   0.0454   0.1089   0.0793   0.0115  -0.0751  -0.0220   0.00    1.3
2173 206359.000   -218302.1228  -5246693.5426   3608099.2091   2   8   0.0451   0.1081   0.0785   0.0112  -0.0744  -0.0217   0.00    1.3
2173 206360.000   -218302.1215  -5246693.5420   3608099.1967   2   8   0.0448   0.1073   0.0778   0.0109  -0.0737  -0.0215   0.00    1.3
2173 206361.000   -218302.1189  -5246693.5464   3608099.1881   2   8   0.0446   0.1065   0.0771   0.0106  -0.0731  -0.0212   0.00    1.3
2173 206362.000   -218302.1186  -5246693.5420   3608099.1734   2   8   0.0443   0.1058   0.0763   0.0101  -0.0725  -0.0209   0.00    1.3
2173 206363.000   -218302.1183  -5246693.5423   3608099.1605   2   8   0.0439   0.1050   0.0756   0.0100  -0.0718  -0.0206   0.00    1.3
2173 206364.000   -218302.1150  -5246693.5362   3608099.1464   2   8   0.0436   0.1043   0.0749   0.0094  -0.0713  -0.0204   0.00    1.3
2173 206365.000   -218302.1134  -5246693.5328   3608099.1382   2   8   0.0433   0.1036   0.0742   0.0092  -0.0706  -0.0201   0.00    1.3
2173 206366.000   -218302.1140  -5246693.5341   3608099.1343   2   8   0.0431   0.1029   0.0735   0.0086  -0.0701  -0.0199   0.00    1.4
2173 206367.000   -218302.1236  -5246693.5425   3608099.1579   2   8   0.0428   0.1022   0.0728   0.0084  -0.0695  -0.0196   0.00    1.4
2173 206368.000   -218302.1278  -5246693.5280   3608099.1643   2   8   0.0426   0.1015   0.0722   0.0083  -0.0689  -0.0193   0.00    1.4
2173 206369.000   -218302.1313  -5246693.5136   3608099.1717   2   8   0.0423   0.1008   0.0715   0.0078  -0.0684  -0.0191   0.00    1.4
2173 206370.000   -218302.1355  -5246693.5029   3608099.1746   2   8   0.0420   0.1002   0.0708   0.0076  -0.0678  -0.0189   0.00    1.4
2173 206371.000   -218302.1399  -5246693.4924   3608099.1820   2   8   0.0418   0.0995   0.0702   0.0072  -0.0672  -0.0186   0.00    1.5
2173 206372.000   -218302.1452  -5246693.4702   3608099.1821   2   8   0.0416   0.0989   0.0696   0.0069  -0.0667  -0.0185   0.00    1.5
2173 206373.000   -218302.1484  -5246693.4553   3608099.1883   2   8   0.0412   0.0982   0.0689   0.0064  -0.0662  -0.0183   0.00    1.5
2173 206374.000   -218302.1503  -5246693.4389   3608099.1992   2   8   0.0410   0.0976   0.0683   0.0062  -0.0657  -0.0181   0.00    1.5
2173 206375.000   -218302.1523  -5246693.4090   3608099.2004   2   8   0.0408   0.0970   0.0677   0.0060  -0.0652  -0.0178   0.00    1.6
2173 206376.000   -218302.1534  -5246693.3889   3608099.2014   2   8   0.0406   0.0964   0.0671   0.0056  -0.0647  -0.0176   0.00    1.6
2173 206377.000   -218302.1566  -5246693.3663   3608099.2011   2   8   0.0403   0.0958   0.0665   0.0050  -0.0642  -0.0174   0.00    1.6
2173 206378.000   -218302.1548  -5246693.3532   3608099.2077   2   8   0.0401   0.0952   0.0659   0.0048  -0.0637  -0.0172   0.00    1.6
2173 206379.000   -218302.1565  -5246693.3345   3608099.2065   2   8   0.0398   0.0947   0.0653   0.0035  -0.0632  -0.0170   0.00    1.7
2173 206380.000   -218302.1588  -5246693.3127   3608099.2009   2   8   0.0396   0.0941   0.0647   0.0041  -0.0627  -0.0168   0.00    1.7
2173 206381.000   -218302.1571  -5246693.2922   3608099.1927   2   8   0.0395   0.0935   0.0642   0.0036  -0.0623  -0.0166   0.00    1.7
2173 206382.000   -218302.1599  -5246693.2751   3608099.1904   2   8   0.0393   0.0930   0.0636   0.0030  -0.0618  -0.0164   0.00    1.7
2173 206383.000   -218302.1578  -5246693.2587   3608099.1824   2   8   0.0390   0.0925   0.0630   0.0027  -0.0613  -0.0161   0.00    1.6
2173 206384.000   -218302.1598  -5246693.2487   3608099.1790   2   8   0.0388   0.0919   0.0625   0.0024  -0.0609  -0.0160   0.00    1.6
2173 206385.000   -218302.1606  -5246693.2292   3608099.1731   2   8   0.0386   0.0914   0.0619   0.0012  -0.0605  -0.0159   0.00    1.6
2173 206386.000   -218302.1621  -5246693.2101   3608099.1668   2   8   0.0383   0.0909   0.0614  -0.0019  -0.0600  -0.0156   0.00    1.6
2173 206387.000   -218302.1608  -5246693.1997   3608099.1649   2   8   0.0381   0.0903   0.0609  -0.0022  -0.0596  -0.0154   0.00    1.6
2173 206388.000   -218302.1631  -5246693.1805   3608099.1584   2   8   0.0380   0.0898   0.0604  -0.0024  -0.0592  -0.0152   0.00    1.6
2173 206389.000   -218302.1636  -5246693.1604   3608099.1540   2   8   0.0378   0.0893   0.0599  -0.0030  -0.0588  -0.0151   0.00    1.6
2173 206390.000   -218302.1642  -5246693.1449   3608099.1484   2   8   0.0375   0.0888   0.0593  -0.0033  -0.0584  -0.0150   0.00    1.6
2173 206391.000   -218302.1636  -5246693.1228   3608099.1400   2   8   0.0375   0.0884   0.0588  -0.0037  -0.0579  -0.0148   0.00    1.6
2173 206392.000   -218302.1648  -5246693.1006   3608099.1317   2   8   0.0373   0.0879   0.0583  -0.0036  -0.0575  -0.0144   0.00    1.6
2173 206393.000   -218302.1638  -5246693.0862   3608099.1217   2   8   0.0370   0.0874   0.0579  -0.0038  -0.0571  -0.0144   0.00    1.6
2173 206394.000   -218302.1639  -5246693.0664   3608099.1137   2   8   0.0369   0.0870   0.0574  -0.0043  -0.0567  -0.0143   0.00    1.6
2173 206395.000   -218302.1623  -5246693.0485   3608099.1057   2   8   0.0367   0.0865   0.0569  -0.0044  -0.0564  -0.0141   0.00    1.5
2173 206396.000   -218302.1638  -5246693.0264   3608099.0951   2   8   0.0366   0.0860   0.0564  -0.0045  -0.0560  -0.0139   0.00    1.5
2173 206397.000   -218302.1680  -5246693.0059   3608099.0876   2   8   0.0364   0.0856   0.0560  -0.0048  -0.0556  -0.0139   0.00    1.5
2173 206398.000   -218302.1669  -5246692.9957   3608099.0848   2   8   0.0362   0.0851   0.0555  -0.0046  -0.0553  -0.0136   0.00    1.5
2173 206399.000   -218302.1684  -5246692.9782   3608099.0761   2   8   0.0360   0.0847   0.0551  -0.0053  -0.0549  -0.0135   0.00    1.5
2173 206400.000   -218302.1689  -5246692.9635   3608099.0706   2   8   0.0359   0.0842   0.0546  -0.0052  -0.0545  -0.0134   0.00    1.5
2173 206401.000   -218302.1685  -5246692.9491   3608099.0696   2   8   0.0357   0.0838   0.0542  -0.0051  -0.0542  -0.0132   0.00    1.5
2173 206402.000   -218302.1706  -5246692.9469   3608099.0742   2   8   0.0356   0.0834   0.0537  -0.0051  -0.0538  -0.0130   0.00    1.5
2173 206403.000   -218302.1728  -5246692.9321   3608099.0671   2   8   0.0353   0.0830   0.0533  -0.0058  -0.0535  -0.0129   0.00    1.5
2173 206404.000   -218302.1732  -5246692.9220   3608099.0675   2   8   0.0352   0.0826   0.0529  -0.0056  -0.0532  -0.0128   0.00    1.5
2173 206405.000   -218302.1760  -5246692.9093   3608099.0631   2   8   0.0350   0.0821   0.0525  -0.0058  -0.0528  -0.0127   0.00    1.4
2173 206406.000   -218302.1774  -5246692.8958   3608099.0627   2   8   0.0348   0.0817   0.0520  -0.0059  -0.0525  -0.0126   0.00    1.4
2173 206407.000   -218302.1828  -5246692.8745   3608099.0629   2   8   0.0348   0.0814   0.0516  -0.0058  -0.0521  -0.0123   0.00    1.4
2173 206408.000   -218302.1817  -5246692.8763   3608099.0655   2   8   0.0346   0.0810   0.0512  -0.0062  -0.0518  -0.0122   0.00    1.4
2173 206409.000   -218302.1828  -5246692.8682   3608099.0676   2   8   0.0344   0.0806   0.0508  -0.0059  -0.0515  -0.0121   0.00    1.4
2173 206410.000   -218302.1818  -5246692.8528   3608099.0651   2   8   0.0343   0.0802   0.0504  -0.0058  -0.0512  -0.0119   0.00    1.4
2173 206411.000   -218302.1814  -5246692.8479   3608099.0651   2   8   0.0341   0.0798   0.0500  -0.0061  -0.0509  -0.0118   0.00    1.4
2173 206412.000   -218302.1819  -5246692.8374   3608099.0646   2   8   0.0341   0.0794   0.0496  -0.0062  -0.0506  -0.0117   0.00    1.4
2173 206413.000   -218302.1830  -5246692.8276   3608099.0641   2   8   0.0339   0.0790   0.0493  -0.0060  -0.0503  -0.0116   0.00    1.4
2173 206414.000   -218302.1842  -5246692.8298   3608099.0688   2   8   0.0337   0.0786   0.0489  -0.0063  -0.0500  -0.0116   0.00    1.4
2173 206415.000   -218302.1837  -5246692.8289   3608099.0636   2   8   0.0335   0.0783   0.0485  -0.0064  -0.0497  -0.0114   0.00    1.4
2173 206416.000   -218302.1839  -5246692.8139   3608099.0577   2   8   0.0335   0.0779   0.0481  -0.0065  -0.0494  -0.0111   0.00    1.3
2173 206417.000   -218302.1835  -5246692.7986   3608099.0439   2   8   0.0333   0.0776   0.0478  -0.0065  -0.0491  -0.0111   0.00    1.3
2173 206418.000   -218302.1824  -5246692.7949   3608099.0363   2   8   0.0332   0.0772   0.0474  -0.0065  -0.0488  -0.0109   0.00    1.3
2173 206419.000   -218302.1811  -5246692.7819   3608099.0297   2   8   0.0330   0.0769   0.0471  -0.0067  -0.0485  -0.0109   0.00    1.3
2173 206420.000   -218302.1807  -5246692.7680   3608099.0198   2   8   0.0329   0.0765   0.0467  -0.0067  -0.0482  -0.0108   0.00    1.3
2173 206421.000   -218302.1788  -5246692.7571   3608099.0102   2   8   0.0328   0.0762   0.0464  -0.0064  -0.0480  -0.0106   0.00    1.3
2173 206422.000   -218302.1753  -5246692.7376   3608099.0036   2   8   0.0327   0.0758   0.0460  -0.0064  -0.0477  -0.0104   0.00    1.3
2173 206423.000   -218302.1743  -5246692.7254   3608098.9920   2   8   0.0325   0.0755   0.0457  -0.0067  -0.0474  -0.0104   0.00    1.3
2173 206424.000   -218302.1719  -5246692.7126   3608098.9816   2   8   0.0324   0.0751   0.0454  -0.0065  -0.0472  -0.0104   0.00    1.3
2173 206425.000   -218302.1730  -5246692.6974   3608098.9694   2   8   0.0323   0.0748   0.0450  -0.0065  -0.0469  -0.0103   0.00    1.3
2173 206426.000   -218302.1684  -5246692.6902   3608098.9603   2   8   0.0321   0.0745   0.0447  -0.0065  -0.0466  -0.0102   0.00    1.3
2173 206427.000   -218302.1686  -5246692.6711   3608098.9455   2   8   0.0320   0.0742   0.0443  -0.0064  -0.0464  -0.0100   0.00    1.2
2173 206428.000   -218302.1700  -5246692.6652   3608098.9366   2   8   0.0319   0.0738   0.0441  -0.0066  -0.0461  -0.0099   0.00    1.2
2173 206429.000   -218302.1666  -5246692.6563   3608098.9304   2   8   0.0317   0.0735   0.0437  -0.0068  -0.0459  -0.0099   0.00    1.2
2173 206430.000   -218302.1664  -5246692.6530   3608098.9267   2   8   0.0317   0.0732   0.0434  -0.0067  -0.0456  -0.0097   0.00    1.2
2173 206431.000   -218302.1655  -5246692.6355   3608098.9168   2   8   0.0316   0.0729   0.0431  -0.0067  -0.0454  -0.0096   0.00    1.2
2173 206432.000   -218302.1658  -5246692.6295   3608098.9102   2   8   0.0314   0.0726   0.0428  -0.0066  -0.0451  -0.0096   0.00    1.2
2173 206433.000   -218302.1658  -5246692.6189   3608098.9024   2   8   0.0314   0.0723   0.0425  -0.0065  -0.0449  -0.0094   0.00    1.2
2173 206434.000   -218302.1648  -5246692.6007   3608098.8987   2   8   0.0312   0.0720   0.0422  -0.0066  -0.0447  -0.0093   0.00    1.2
2173 206435.000   -218302.1650  -5246692.5859   3608098.8914   2   8   0.0311   0.0716   0.0419  -0.0070  -0.0444  -0.0093   0.00    1.2
2173 206436.000   -218302.1646  -5246692.5740   3608098.8833   2   8   0.0309   0.0713   0.0416  -0.0067  -0.0442  -0.0092   0.00    1.2
2173 206437.000   -218302.1661  -5246692.5537   3608098.8766   2   8   0.0308   0.0710   0.0413  -0.0070  -0.0440  -0.0091   0.00    1.2
2173 206438.000   -218302.1639  -5246692.5413   3608098.8743   2   8   0.0308   0.0708   0.0411  -0.0067  -0.0437  -0.0089   0.00    1.2
2173 206439.000   -218302.1666  -5246692.5228   3608098.8716   2   8   0.0306   0.0705   0.0408  -0.0068  -0.0435  -0.0089   0.00    1.1
2173 206440.000   -218302.1677  -5246692.5072   3608098.8705   2   8   0.0304   0.0702   0.0405  -0.0067  -0.0433  -0.0090   0.00    1.1
2173 206441.000   -218302.1640  -5246692.4953   3608098.8660   2   8   0.0303   0.0699   0.0402  -0.0066  -0.0431  -0.0088   0.00    1.1
2173 206442.000   -218302.1639  -5246692.4872   3608098.8689   2   8   0.0304   0.0696   0.0400  -0.0065  -0.0428  -0.0085   0.00    1.1
2173 206443.000   -218302.1645  -5246692.4805   3608098.8701   2   8   0.0302   0.0693   0.0397  -0.0067  -0.0426  -0.0085   0.00    1.1
2173 206444.000   -218302.1624  -5246692.4701   3608098.8717   2   8   0.0302   0.0690   0.0394  -0.0065  -0.0424  -0.0084   0.00    1.1
2173 206445.000   -218302.1599  -5246692.4689   3608098.8783   2   8   0.0300   0.0688   0.0392  -0.0065  -0.0422  -0.0085   0.00    1.1
2173 206446.000   -218302.1600  -5246692.4621   3608098.8774   2   8   0.0299   0.0685   0.0389  -0.0068  -0.0420  -0.0084   0.00    1.1
2173 206447.000   -218302.1590  -5246692.4552   3608098.8800   2   8   0.0298   0.0682   0.0387  -0.0067  -0.0418  -0.0083   0.00    1.1
2173 206448.000   -218302.1578  -5246692.4499   3608098.8822   2   8   0.0297   0.0679   0.0384  -0.0068  -0.0416  -0.0082   0.00    1.1
2173 206449.000   -218302.1563  -5246692.4352   3608098.8822   2   8   0.0296   0.0677   0.0382  -0.0065  -0.0414  -0.0080   0.00    1.1
2173 206450.000   -218302.1574  -5246692.4232   3608098.8752   2   8   0.0295   0.0674   0.0379  -0.0064  -0.0412  -0.0080   0.00    1.1
2173 206451.000   -218302.1566  -5246692.4120   3608098.8741   2   8   0.0294   0.0671   0.0377  -0.0063  -0.0410  -0.0081   0.00    1.1
2173 206452.000   -218302.1559  -5246692.3919   3608098.8675   2   8   0.0292   0.0668   0.0374  -0.0067  -0.0408  -0.0080   0.00    1.0
2173 206453.000   -218302.1547  -5246692.3852   3608098.8627   2   8   0.0291   0.0666   0.0372  -0.0066  -0.0406  -0.0079   0.00    1.0
2173 206454.000   -218302.1566  -5246692.3736   3608098.8601   2   8   0.0291   0.0663   0.0370  -0.0062  -0.0404  -0.0078   0.00    1.0
2173 206455.000   -218302.1576  -5246692.3648   3608098.8593   2   8   0.0290   0.0661   0.0367  -0.0063  -0.0402  -0.0078   0.00    1.0
2173 206456.000   -218302.1562  -5246692.3516   3608098.8540   2   8   0.0289   0.0658   0.0365  -0.0064  -0.0400  -0.0076   0.00    1.0
2173 206457.000   -218302.1577  -5246692.3384   3608098.8485   2   8   0.0288   0.0656   0.0363  -0.0063  -0.0398  -0.0075   0.00    1.0
2173 206458.000   -218302.1549  -5246692.3262   3608098.8450   2   8   0.0287   0.0653   0.0361  -0.0061  -0.0396  -0.0076   0.00    1.0
2173 206459.000   -218302.1568  -5246692.3158   3608098.8450   2   8   0.0287   0.0651   0.0358  -0.0062  -0.0395  -0.0074   0.00    1.0
2173 206460.000   -218302.1574  -5246692.3052   3608098.8434   2   8   0.0285   0.0648   0.0356  -0.0064  -0.0393  -0.0074   0.00    1.0
2173 206461.000   -218302.1545  -5246692.2939   3608098.8404   2   8   0.0284   0.0646   0.0354  -0.0062  -0.0391  -0.0074   0.00    1.0
2173 206462.000   -218302.1547  -5246692.2869   3608098.8371   2   8   0.0283   0.0643   0.0351  -0.0063  -0.0389  -0.0072   0.00    1.0
2173 206463.000   -218302.1543  -5246692.2796   3608098.8340   2   8   0.0283   0.0641   0.0349  -0.0062  -0.0387  -0.0073   0.00    1.0
2173 206464.000   -218302.1539  -5246692.2721   3608098.8332   2   8   0.0281   0.0639   0.0348  -0.0061  -0.0386  -0.0071   0.00    1.0
2173 206465.000   -218302.1521  -5246692.2652   3608098.8288   2   8   0.0281   0.0636   0.0345  -0.0063  -0.0384  -0.0069   0.00    1.0
2173 206466.000   -218302.1523  -5246692.2604   3608098.8295   2   8   0.0280   0.0634   0.0343  -0.0061  -0.0382  -0.0069   0.00    1.0
2173 206467.000   -218302.1533  -5246692.2503   3608098.8264   2   8   0.0278   0.0631   0.0341  -0.0062  -0.0381  -0.0071   0.00    1.0
2173 206468.000   -218302.1499  -5246692.2480   3608098.8244   2   8   0.0278   0.0629   0.0339  -0.0061  -0.0379  -0.0069   0.00    1.0
2173 206469.000   -218302.1492  -5246692.2403   3608098.8192   2   8   0.0277   0.0627   0.0337  -0.0058  -0.0377  -0.0070   0.00    1.0
2173 206470.000   -218302.1463  -5246692.2463   3608098.8191   2   8   0.0276   0.0624   0.0335  -0.0060  -0.0376  -0.0069   0.00    1.0
2173 206471.000   -218302.1464  -5246692.2451   3608098.8163   2   8   0.0275   0.0622   0.0333  -0.0058  -0.0374  -0.0069   0.00    1.0
2173 206472.000   -218302.1447  -5246692.2455   3608098.8157   2   8   0.0274   0.0620   0.0331  -0.0059  -0.0373  -0.0068   0.00    1.0
2173 206473.000   -218302.1446  -5246692.2409   3608098.8090   2   8   0.0273   0.0618   0.0329  -0.0059  -0.0371  -0.0068   0.00    1.0
2173 206474.000   -218302.1443  -5246692.2423   3608098.8106   2   8   0.0273   0.0616   0.0327  -0.0058  -0.0369  -0.0066   0.00    1.0
2173 206475.000   -218302.1421  -5246692.2098   3608098.7878   2   8   0.0271   0.0613   0.0325  -0.0059  -0.0368  -0.0066   0.00    1.0
2173 206476.000   -218302.1384  -5246692.2078   3608098.7845   2   8   0.0271   0.0611   0.0324  -0.0057  -0.0366  -0.0066   0.00    1.0
2173 206477.000   -218302.1380  -5246692.2104   3608098.7857   2   8   0.0271   0.0609   0.0322  -0.0056  -0.0365  -0.0066   0.00    1.0
2173 206478.000   -218302.1349  -5246692.2119   3608098.7865   2   8   0.0270   0.0607   0.0320  -0.0056  -0.0363  -0.0065   0.00    1.0
2173 206479.000   -218302.1333  -5246692.2023   3608098.7843   2   8   0.0268   0.0604   0.0318  -0.0057  -0.0362  -0.0063   0.00    1.0
2173 206480.000   -218302.1295  -5246692.1928   3608098.7776   2   8   0.0268   0.0602   0.0317  -0.0054  -0.0360  -0.0064   0.00    1.0
2173 206481.000   -218302.1296  -5246692.1869   3608098.7774   2   8   0.0267   0.0600   0.0314  -0.0055  -0.0358  -0.0062   0.00    1.0
2173 206482.000   -218302.1254  -5246692.1783   3608098.7703   2   8   0.0266   0.0598   0.0313  -0.0054  -0.0357  -0.0063   0.00    1.0
2173 206483.000   -218302.1228  -5246692.1718   3608098.7632   2   8   0.0266   0.0596   0.0311  -0.0053  -0.0355  -0.0062   0.00    1.0
2173 206484.000   -218302.1206  -5246692.1673   3608098.7596   2   8   0.0265   0.0594   0.0309  -0.0057  -0.0354  -0.0063   0.00    1.0
2173 206485.000   -218302.1163  -5246692.1609   3608098.7528   2   8   0.0264   0.0592   0.0308  -0.0054  -0.0353  -0.0061   0.00    1.0
2173 206486.000   -218302.1144  -5246692.1570   3608098.7521   2   8   0.0263   0.0590   0.0306  -0.0053  -0.0351  -0.0061   0.00    1.0
2173 206487.000   -218302.1119  -5246692.1527   3608098.7435   2   8   0.0264   0.0588   0.0305  -0.0052  -0.0350  -0.0059   0.00    1.0
2173 206488.000   -218302.1110  -5246692.1519   3608098.7403   2   8   0.0262   0.0585   0.0303  -0.0052  -0.0349  -0.0061   0.00    1.0
2173 206489.000   -218302.1085  -5246692.1505   3608098.7386   2   8   0.0261   0.0584   0.0302  -0.0050  -0.0347  -0.0060   0.00    1.0
2173 206490.000   -218302.1069  -5246692.1546   3608098.7383   2   8   0.0261   0.0581   0.0300  -0.0051  -0.0346  -0.0059   0.00    1.0
2173 206491.000   -218302.1065  -5246692.1494   3608098.7299   2   8   0.0261   0.0579   0.0298  -0.0049  -0.0344  -0.0056   0.00    1.0
2173 206492.000   -218302.1044  -5246692.1480   3608098.7260   2   8   0.0258   0.0577   0.0296  -0.0052  -0.0343  -0.0059   0.00    1.0
2173 206493.000   -218302.1043  -5246692.1522   3608098.7238   2   8   0.0258   0.0575   0.0295  -0.0049  -0.0341  -0.0058   0.00    1.0
2173 206494.000   -218302.1001  -5246692.1533   3608098.7214   2   8   0.0257   0.0573   0.0294  -0.0048  -0.0340  -0.0059   0.00    1.0
2173 206495.000   -218302.0964  -5246692.1499   3608098.7133   2   8   0.0257   0.0571   0.0292  -0.0048  -0.0339  -0.0057   0.00    1.0
2173 206496.000   -218302.0896  -5246692.1534   3608098.7097   2   8   0.0256   0.0569   0.0291  -0.0050  -0.0338  -0.0058   0.00    1.0
2173 206497.000   -218302.0904  -5246692.1567   3608098.7096   2   8   0.0256   0.0567   0.0289  -0.0045  -0.0336  -0.0057   0.00    1.0
2173 206498.000   -218302.0872  -5246692.1595   3608098.7036   2   8   0.0254   0.0566   0.0287  -0.0049  -0.0335  -0.0055   0.00    1.0
2173 206499.000   -218302.0833  -5246692.1647   3608098.7008   2   8   0.0254   0.0564   0.0286  -0.0047  -0.0333  -0.0057   0.00    1.0
2173 206500.000   -218302.0809  -5246692.1675   3608098.6956   2   8   0.0253   0.0562   0.0285  -0.0043  -0.0332  -0.0054   0.00    1.0
2173 206501.000   -218302.0793  -5246692.1727   3608098.6958   2   8   0.0252   0.0560   0.0283  -0.0041  -0.0331  -0.0057   0.00    1.0
2173 206502.000   -218302.0780  -5246692.1755   3608098.6949   2   8   0.0253   0.0558   0.0282  -0.0044  -0.0330  -0.0053   0.00    1.0
2173 206503.000   -218302.0772  -5246692.1787   3608098.6887   2   8   0.0250   0.0556   0.0280  -0.0042  -0.0329  -0.0057   0.00    1.0
2173 206504.000   -218302.0759  -5246692.1889   3608098.6883   2   8   0.0251   0.0554   0.0279  -0.0041  -0.0327  -0.0055   0.00    1.0
2173 206505.000   -218302.0744  -5246692.1899   3608098.6791   2   8   0.0249   0.0552   0.0278  -0.0043  -0.0326  -0.0058   0.00    1.0
2173 206506.000   -218302.0736  -5246692.1945   3608098.6771   2   8   0.0248   0.0550   0.0277  -0.0047  -0.0325  -0.0056   0.00    1.0
2173 206507.000   -218302.0755  -5246692.1919   3608098.6714   2   8   0.0250   0.0549   0.0275  -0.0039  -0.0323  -0.0052   0.00    1.0
2173 206508.000   -218302.0730  -5246692.1941   3608098.6759   2   8   0.0246   0.0547   0.0273  -0.0044  -0.0322  -0.0057   0.00    1.0
2173 206509.000   -218302.0743  -5246692.1935   3608098.6719   2   8   0.0247   0.0545   0.0272  -0.0038  -0.0321  -0.0053   0.00    1.0
2173 206510.000   -218302.0727  -5246692.1922   3608098.6709   2   8   0.0247   0.0544   0.0271  -0.0040  -0.0320  -0.0054   0.00    1.0
2173 206511.000   -218302.0724  -5246692.1870   3608098.6668   2   8   0.0244   0.0542   0.0270  -0.0042  -0.0319  -0.0054   0.00    1.0
2173 206512.000   -218302.0709  -5246692.1882   3608098.6692   2   8   0.0245   0.0540   0.0268  -0.0039  -0.0318  -0.0054   0.00    1.0
2173 206513.000   -218302.0719  -5246692.1857   3608098.6646   2   8   0.0245   0.0538   0.0268  -0.0038  -0.0316  -0.0053   0.00    1.0
2173 206514.000   -218302.0706  -5246692.1896   3608098.6655   2   8   0.0243   0.0536   0.0265  -0.0035  -0.0315  -0.0052   0.00    1.0
2173 206515.000   -218302.0742  -5246692.1877   3608098.6637   2   8   0.0244   0.0534   0.0264  -0.0033  -0.0314  -0.0052   0.00    1.0
2173 206516.000   -218302.0735  -5246692.1898   3608098.6625   2   8   0.0243   0.0533   0.0263  -0.0038  -0.0313  -0.0051   0.00    1.0
2173 206517.000   -218302.0735  -5246692.1939   3608098.6609   2   8   0.0242   0.0531   0.0262  -0.0032  -0.0312  -0.0051   0.00    1.0
2173 206518.000   -218302.0724  -5246692.2051   3608098.6651   2   8   0.0240   0.0529   0.0261  -0.0037  -0.0311  -0.0053   0.00    1.0
2173 206519.000   -218302.0702  -5246692.2123   3608098.6653   2   8   0.0241   0.0528   0.0260  -0.0029  -0.0310  -0.0051   0.00    1.0
2173 206520.000   -218302.0681  -5246692.2165   3608098.6612   2   8   0.0239   0.0526   0.0259  -0.0035  -0.0309  -0.0054   0.00    1.0
2173 206521.000   -218302.0653  -5246692.2210   3608098.6592   2   8   0.0239   0.0524   0.0257  -0.0039  -0.0308  -0.0052   0.00    1.0
2173 206522.000   -218302.0628  -5246692.2341   3608098.6614   2   8   0.0238   0.0522   0.0256  -0.0035  -0.0307  -0.0053   0.00    1.0
2173 206523.000   -218302.0592  -5246692.2390   3608098.6559   2   8   0.0239   0.0521   0.0255  -0.0028  -0.0305  -0.0050   0.00    1.0
2173 206524.000   -218302.0562  -5246692.2447   3608098.6549   2   8   0.0238   0.0519   0.0254  -0.0034  -0.0304  -0.0051   0.00    1.0
2173 206525.000   -218302.0548  -5246692.2535   3608098.6598   2   8   0.0237   0.0518   0.0253  -0.0028  -0.0303  -0.0049   0.00    1.0
2173 206526.000   -218302.0600  -5246692.2569   3608098.6680   2   8   0.0237   0.0516   0.0252  -0.0031  -0.0302  -0.0050   0.00    1.0
2173 206527.000   -218302.0624  -5246692.2544   3608098.6674   2   8   0.0236   0.0514   0.0251  -0.0034  -0.0301  -0.0051   0.00    1.0
2173 206528.000   -218302.0536  -5246692.2509   3608098.6633   2   8   0.0236   0.0513   0.0250  -0.0023  -0.0300  -0.0048   0.00    1.0
2173 206529.000   -218302.0562  -5246692.2531   3608098.6634   2   8   0.0235   0.0511   0.0249  -0.0023  -0.0299  -0.0049   0.00    1.0
2173 206530.000   -218302.0542  -5246692.2610   3608098.6629   2   8   0.0234   0.0510   0.0247  -0.0018  -0.0298  -0.0048   0.00    1.0
2173 206531.000   -218302.0504  -5246692.2654   3608098.6641   2   8   0.0233   0.0508   0.0246  -0.0025  -0.0297  -0.0049   0.00    1.0
2173 206532.000   -218302.0494  -5246692.2695   3608098.6675   2   8   0.0232   0.0506   0.0245  -0.0022  -0.0296  -0.0051   0.00    1.0
2173 206533.000   -218302.0483  -5246692.2717   3608098.6667   2   8   0.0233   0.0505   0.0244  -0.0021  -0.0294  -0.0051   0.00    1.0
2173 206534.000   -218302.0493  -5246692.2732   3608098.6680   2   8   0.0232   0.0503   0.0242  -0.0022  -0.0294  -0.0048   0.00    1.0
2173 206535.000   -218302.0326  -5246692.2534   3608098.6478   2   8   0.0231   0.0501   0.0242  -0.0028  -0.0293  -0.0049   0.00    1.0
2173 206536.000   -218302.0308  -5246692.2620   3608098.6551   2   8   0.0231   0.0500   0.0241  -0.0019  -0.0292  -0.0048   0.00    1.0
2173 206537.000   -218302.0294  -5246692.2705   3608098.6678   2   8   0.0230   0.0499   0.0240  -0.0022  -0.0291  -0.0048   0.00    1.0
2173 206538.000   -218302.0281  -5246692.2795   3608098.6768   2   8   0.0230   0.0497   0.0238  -0.0013  -0.0290  -0.0048   0.00    1.0
2173 206539.000   -218302.0254  -5246692.2817   3608098.6847   2   8   0.0230   0.0496   0.0237   0.0005  -0.0289  -0.0047   0.00    1.0
2173 206540.000   -218302.0227  -5246692.2854   3608098.6898   2   8   0.0228   0.0494   0.0237  -0.0023  -0.0288  -0.0049   0.00    1.0
2173 206541.000   -218302.0201  -5246692.2956   3608098.6992   2   8   0.0228   0.0493   0.0236  -0.0012  -0.0287  -0.0049   0.00    1.0
2173 206542.000   -218302.0161  -5246692.2959   3608098.7010   2   8   0.0227   0.0491   0.0235  -0.0013  -0.0286  -0.0048   0.00    1.0
2173 206543.000   -218302.0142  -5246692.2990   3608098.7092   2   8   0.0226   0.0489   0.0234  -0.0015  -0.0285  -0.0048   0.00    1.0
2173 206544.000   -218302.0102  -5246692.3093   3608098.7175   2   8   0.0227   0.0488   0.0233   0.0016  -0.0284  -0.0047   0.00    1.0
2173 206545.000   -218302.0093  -5246692.3141   3608098.7238   2   8   0.0226   0.0486   0.0232  -0.0014  -0.0283  -0.0047   0.00    1.0
2173 206546.000   -218302.0085  -5246692.3161   3608098.7283   2   8   0.0224   0.0485   0.0231  -0.0003  -0.0282  -0.0046   0.00    1.0
2173 206547.000   -218302.0069  -5246692.3183   3608098.7353   2   8   0.0225   0.0484   0.0230   0.0017  -0.0281  -0.0044   0.00    1.0
2173 206548.000   -218302.0027  -5246692.3223   3608098.7353   2   8   0.0224   0.0482   0.0229   0.0007  -0.0280  -0.0046   0.00    1.0
2173 206549.000   -218302.0021  -5246692.3247   3608098.7425   2   8   0.0223   0.0481   0.0228   0.0009  -0.0280  -0.0048   0.00    1.0
2173 206550.000   -218301.9987  -5246692.3296   3608098.7465   2   8   0.0223   0.0479   0.0227   0.0017  -0.0278  -0.0048   0.00    1.0
2173 206551.000   -218301.9975  -5246692.3390   3608098.7573   2   8   0.0223   0.0478   0.0227   0.0018  -0.0278  -0.0048   0.00    1.0
2173 206552.000   -218301.9974  -5246692.3470   3608098.7646   2   8   0.0223   0.0477   0.0225  -0.0003  -0.0277  -0.0045   0.00    1.0
2173 206553.000   -218301.9941  -5246692.3509   3608098.7684   2   8   0.0222   0.0475   0.0225  -0.0005  -0.0276  -0.0046   0.00    1.0
2173 206554.000   -218301.9934  -5246692.3560   3608098.7705   2   8   0.0221   0.0474   0.0224   0.0022  -0.0275  -0.0043   0.00    1.0
2173 206555.000   -218301.9945  -5246692.3629   3608098.7757   2   8   0.0221   0.0472   0.0223   0.0025  -0.0274  -0.0045   0.00    1.0
2173 206556.000   -218301.9923  -5246692.3672   3608098.7775   2   8   0.0219   0.0471   0.0222   0.0026  -0.0273  -0.0042   0.00    1.0
2173 206557.000   -218301.9905  -5246692.3744   3608098.7819   2   8   0.0219   0.0469   0.0221   0.0015  -0.0273  -0.0047   0.00    1.0
2173 206558.000   -218301.9873  -5246692.3789   3608098.7855   2   8   0.0219   0.0468   0.0220   0.0024  -0.0271  -0.0046   0.00    1.0
2173 206559.000   -218301.9854  -5246692.3871   3608098.7920   2   8   0.0219   0.0467   0.0219   0.0028  -0.0271  -0.0044   0.00    1.0
2173 206560.000   -218301.9844  -5246692.3966   3608098.7995   2   8   0.0219   0.0465   0.0219   0.0029  -0.0269  -0.0045   0.00    1.0
2173 206561.000   -218301.9785  -5246692.4030   3608098.8029   2   8   0.0217   0.0464   0.0217   0.0022  -0.0269  -0.0046   0.00    1.0
2173 206562.000   -218301.9814  -5246692.4214   3608098.8123   2   8   0.0217   0.0462   0.0216   0.0013  -0.0268  -0.0048   0.00    1.0
2173 206563.000   -218301.9773  -5246692.4291   3608098.8165   2   8   0.0217   0.0461   0.0216   0.0026  -0.0267  -0.0043   0.00    1.0
2173 206564.000   -218301.9764  -5246692.4392   3608098.8194   2   8   0.0215   0.0460   0.0215   0.0025  -0.0267  -0.0045   0.00    1.0
2173 206565.000   -218301.9747  -5246692.4529   3608098.8311   2   8   0.0215   0.0458   0.0214   0.0022  -0.0266  -0.0046   0.00    1.0
2173 206566.000   -218301.9737  -5246692.4635   3608098.8392   2   8   0.0216   0.0457   0.0213   0.0026  -0.0265  -0.0045   0.00    1.0
2173 206567.000   -218301.9738  -5246692.4712   3608098.8495   2   8   0.0214   0.0456   0.0213   0.0022  -0.0264  -0.0048   0.00    1.0
2173 206568.000   -218301.9744  -5246692.4847   3608098.8613   2   8   0.0213   0.0454   0.0212   0.0025  -0.0263  -0.0046   0.00    1.0
2173 206569.000   -218301.9758  -5246692.4901   3608098.8672   2   8   0.0213   0.0453   0.0210   0.0025  -0.0262  -0.0045   0.00    1.0
2173 206570.000   -218301.9745  -5246692.4975   3608098.8759   2   8   0.0213   0.0452   0.0211   0.0030  -0.0261  -0.0044   0.00    1.0
2173 206571.000   -218301.9742  -5246692.5024   3608098.8823   2   8   0.0212   0.0450   0.0210   0.0032  -0.0261  -0.0046   0.00    1.0
2173 206572.000   -218301.9722  -5246692.5084   3608098.8860   2   8   0.0212   0.0449   0.0209   0.0034  -0.0260  -0.0044   0.00    1.0
2173 206573.000   -218301.9715  -5246692.5204   3608098.8944   2   8   0.0213   0.0448   0.0208   0.0034  -0.0259  -0.0039   0.00    1.0
2173 206574.000   -218301.9664  -5246692.5269   3608098.8948   2   8   0.0211   0.0447   0.0207   0.0031  -0.0258  -0.0044   0.00    1.0
2173 206575.000   -218301.9668  -5246692.5286   3608098.8977   2   8   0.0209   0.0446   0.0207   0.0034  -0.0257  -0.0048   0.00    1.0
2173 206576.000   -218301.9630  -5246692.5398   3608098.9013   2   8   0.0211   0.0444   0.0206   0.0030  -0.0257  -0.0044   0.00    1.0
2173 206577.000   -218301.9650  -5246692.5465   3608098.9052   2   8   0.0209   0.0443   0.0205   0.0031  -0.0256  -0.0046   0.00    1.0
2173 206578.000   -218301.9605  -5246692.5555   3608098.9111   2   8   0.0210   0.0442   0.0204   0.0040  -0.0255  -0.0042   0.00    1.0
2173 206579.000   -218301.9594  -5246692.5655   3608098.9163   2   8   0.0208   0.0440   0.0204   0.0029  -0.0254  -0.0046   0.00    1.1
2173 206580.000   -218301.9574  -5246692.5818   3608098.9248   2   8   0.0209   0.0439   0.0202   0.0032  -0.0254  -0.0042   0.00    1.1
2173 206581.000   -218301.9547  -5246692.5904   3608098.9325   2   8   0.0207   0.0438   0.0202   0.0039  -0.0253  -0.0045   0.00    1.1
2173 206582.000   -218301.9543  -5246692.5974   3608098.9331   2   8   0.0207   0.0436   0.0201   0.0035  -0.0252  -0.0046   0.00    1.1
2173 206583.000   -218301.9476  -5246692.6076   3608098.9379   2   8   0.0207   0.0436   0.0201   0.0036  -0.0251  -0.0044   0.00    1.1
2173 206584.000   -218301.9451  -5246692.6114   3608098.9386   2   8   0.0206   0.0434   0.0200   0.0041  -0.0251  -0.0043   0.00    1.1
2173 206585.000   -218301.9435  -5246692.6206   3608098.9432   2   8   0.0206   0.0433   0.0200   0.0038  -0.0250  -0.0045   0.00    1.1
2173 206586.000   -218301.9441  -5246692.6244   3608098.9480   2   8   0.0206   0.0432   0.0199   0.0039  -0.0249  -0.0046   0.00    1.1
2173 206587.000   -218301.9425  -5246692.6363   3608098.9520   2   8   0.0206   0.0431   0.0199   0.0040  -0.0248  -0.0044   0.00    1.1
2173 206588.000   -218301.9385  -5246692.6449   3608098.9567   2   8   0.0205   0.0430   0.0198   0.0037  -0.0247  -0.0044   0.00    1.1
2173 206589.000   -218301.9367  -5246692.6504   3608098.9621   2   8   0.0205   0.0428   0.0196   0.0041  -0.0247  -0.0043   0.00    1.1
2173 206590.000   -218301.9346  -5246692.6584   3608098.9637   2   8   0.0203   0.0427   0.0195   0.0036  -0.0246  -0.0044   0.00    1.1
2173 206591.000   -218301.9303  -5246692.6611   3608098.9683   2   8   0.0204   0.0426   0.0195   0.0038  -0.0246  -0.0044   0.00    1.1
2173 206592.000   -218301.9269  -5246692.6672   3608098.9691   2   8   0.0203   0.0425   0.0195   0.0042  -0.0245  -0.0043   0.00    1.1
2173 206593.000   -218301.9257  -5246692.6709   3608098.9730   2   8   0.0203   0.0424   0.0194   0.0040  -0.0244  -0.0045   0.00    1.1
2173 206594.000   -218301.9249  -5246692.6767   3608098.9755   2   8   0.0203   0.0422   0.0193   0.0036  -0.0243  -0.0043   0.00    1.1
2173 206595.000   -218301.9266  -5246692.6529   3608098.9677   2   8   0.0201   0.0421   0.0193   0.0037  -0.0243  -0.0042   0.00    1.1
2173 206596.000   -218301.9259  -5246692.6530   3608098.9652   2   8   0.0202   0.0420   0.0192   0.0040  -0.0242  -0.0043   0.00    1.1
2173 206597.000   -218301.9223  -5246692.6519   3608098.9625   2   8   0.0201   0.0419   0.0192   0.0044  -0.0241  -0.0044   0.00    1.1
2173 206598.000   -218301.9214  -5246692.6577   3608098.9665   2   8   0.0200   0.0418   0.0191   0.0043  -0.0241  -0.0046   0.00    1.1
2173 206599.000   -218301.9186  -5246692.6577   3608098.9636   2   8   0.0201   0.0417   0.0191   0.0041  -0.0240  -0.0045   0.00    1.1
2173 206600.000   -218301.9201  -5246692.6571   3608098.9646   2   8   0.0200   0.0416   0.0190   0.0043  -0.0239  -0.0044   0.00    1.1
2173 206601.000   -218301.9162  -5246692.6594   3608098.9643   2   8   0.0199   0.0414   0.0189   0.0042  -0.0239  -0.0042   0.00    1.1
2173 206602.000   -218301.9163  -5246692.6584   3608098.9645   2   8   0.0199   0.0414   0.0189   0.0043  -0.0238  -0.0044   0.00    1.1
2173 206603.000   -218301.9127  -5246692.6546   3608098.9619   2   8   0.0199   0.0412   0.0188   0.0044  -0.0237  -0.0045   0.00    1.1
2173 206604.000   -218301.9103  -5246692.6567   3608098.9664   2   8   0.0198   0.0411   0.0187   0.0042  -0.0236  -0.0044   0.00    1.1
2173 206605.000   -218301.9063  -5246692.6515   3608098.9596   2   8   0.0197   0.0410   0.0186   0.0037  -0.0236  -0.0044   0.00    1.0
2173 206606.000   -218301.9054  -5246692.6536   3608098.9598   2   8   0.0197   0.0409   0.0186   0.0037  -0.0236  -0.0044   0.00    1.0
2173 206607.000   -218301.9026  -5246692.6506   3608098.9584   2   8   0.0197   0.0408   0.0186   0.0045  -0.0234  -0.0045   0.00    1.0
2173 206608.000   -218301.9007  -5246692.6525   3608098.9600   2   8   0.0195   0.0406   0.0185   0.0042  -0.0234  -0.0045   0.00    1.0
2173 206609.000   -218301.8987  -5246692.6514   3608098.9562   2   8   0.0197   0.0406   0.0184   0.0046  -0.0233  -0.0042   0.00    1.0
2173 206610.000   -218301.8978  -5246692.6545   3608098.9611   2   8   0.0196   0.0405   0.0184   0.0047  -0.0233  -0.0044   0.00    1.0
2173 206611.000   -218301.8963  -5246692.6568   3608098.9620   2   8   0.0195   0.0403   0.0183   0.0047  -0.0232  -0.0045   0.00    1.0
2173 206612.000   -218301.8966  -5246692.6577   3608098.9630   2   8   0.0194   0.0402   0.0182   0.0046  -0.0231  -0.0045   0.00    1.0
2173 206613.000   -218301.8976  -5246692.6548   3608098.9643   2   8   0.0195   0.0401   0.0183   0.0046  -0.0231  -0.0045   0.00    1.0
2173 206614.000   -218301.8948  -5246692.6510   3608098.9614   2   8   0.0195   0.0400   0.0181   0.0049  -0.0230  -0.0042   0.00    1.0
2173 206615.000   -218301.8967  -5246692.6478   3608098.9609   2   8   0.0194   0.0399   0.0180   0.0043  -0.0230  -0.0042   0.00    1.0
2173 206616.000   -218301.8933  -5246692.6414   3608098.9569   2   8   0.0193   0.0398   0.0181   0.0048  -0.0229  -0.0042   0.00    1.0
2173 206617.000   -218301.8910  -5246692.6339   3608098.9531   2   8   0.0192   0.0397   0.0180   0.0044  -0.0229  -0.0042   0.00    1.0
2173 206618.000   -218301.8891  -5246692.6331   3608098.9505   2   8   0.0192   0.0396   0.0179   0.0049  -0.0228  -0.0042   0.00    1.0
2173 206619.000   -218301.8860  -5246692.6265   3608098.9497   2   8   0.0192   0.0395   0.0179   0.0047  -0.0227  -0.0042   0.00    1.0
2173 206620.000   -218301.8844  -5246692.6262   3608098.9486   2   8   0.0193   0.0394   0.0178   0.0051  -0.0226  -0.0042   0.00    1.0
2173 206621.000   -218301.8818  -5246692.6197   3608098.9444   2   8   0.0192   0.0393   0.0178   0.0048  -0.0226  -0.0043   0.00    1.0
2173 206622.000   -218301.8805  -5246692.6301   3608098.9480   2   8   0.0192   0.0392   0.0177   0.0050  -0.0225  -0.0041   0.00    1.0
2173 206623.000   -218301.8794  -5246692.6257   3608098.9425   2   8   0.0190   0.0391   0.0176   0.0049  -0.0225  -0.0044   0.00    1.0
2173 206624.000   -218301.8789  -5246692.6325   3608098.9467   2   8   0.0190   0.0389   0.0175   0.0050  -0.0224  -0.0044   0.00    1.0
2173 206625.000   -218301.8747  -5246692.6244   3608098.9397   2   8   0.0190   0.0389   0.0176   0.0052  -0.0223  -0.0042   0.00    1.0
2173 206626.000   -218301.8735  -5246692.6274   3608098.9387   2   8   0.0191   0.0388   0.0175   0.0048  -0.0223  -0.0040   0.00    1.0
2173 206627.000   -218301.8719  -5246692.6327   3608098.9401   2   8   0.0189   0.0387   0.0175   0.0048  -0.0222  -0.0041   0.00    1.0
2173 206628.000   -218301.8697  -5246692.6315   3608098.9384   2   8   0.0188   0.0386   0.0173   0.0047  -0.0222  -0.0043   0.00    1.0
2173 206629.000   -218301.8658  -5246692.6233   3608098.9333   2   8   0.0188   0.0385   0.0173   0.0049  -0.0221  -0.0040   0.00    1.0
2173 206630.000   -218301.8626  -5246692.6316   3608098.9392   2   8   0.0188   0.0384   0.0174   0.0051  -0.0221  -0.0042   0.00    1.0
2173 206631.000   -218301.8598  -5246692.6367   3608098.9354   2   8   0.0189   0.0383   0.0173   0.0052  -0.0220  -0.0043   0.00    1.0
2173 206632.000   -218301.8582  -5246692.6304   3608098.9363   2   8   0.0187   0.0382   0.0172   0.0053  -0.0220  -0.0042   0.00    1.0
2173 206633.000   -218301.8558  -5246692.6354   3608098.9361   2   8   0.0187   0.0381   0.0171   0.0050  -0.0219  -0.0043   0.00    1.0
2173 206634.000   -218301.8544  -5246692.6384   3608098.9375   2   8   0.0186   0.0380   0.0171   0.0049  -0.0218  -0.0045   0.00    1.0
2173 206635.000   -218301.8518  -5246692.6413   3608098.9374   2   8   0.0186   0.0379   0.0170   0.0051  -0.0218  -0.0041   0.00    1.0
2173 206636.000   -218301.8504  -5246692.6498   3608098.9433   2   8   0.0186   0.0378   0.0170   0.0053  -0.0217  -0.0042   0.00    1.0
2173 206637.000   -218301.8537  -5246692.6563   3608098.9463   2   8   0.0185   0.0378   0.0170   0.0052  -0.0216  -0.0039   0.00    1.0
2173 206638.000   -218301.8512  -5246692.6541   3608098.9434   2   8   0.0186   0.0376   0.0169   0.0051  -0.0216  -0.0042   0.00    1.0
2173 206639.000   -218301.8506  -5246692.6560   3608098.9394   2   8   0.0185   0.0376   0.0169   0.0052  -0.0215  -0.0041   0.00    1.0
2173 206640.000   -218301.8508  -5246692.6629   3608098.9435   2   8   0.0184   0.0375   0.0168   0.0051  -0.0215  -0.0043   0.00    1.0
2173 206641.000   -218301.8470  -5246692.6624   3608098.9404   2   8   0.0185   0.0373   0.0168   0.0052  -0.0215  -0.0043   0.00    1.0
2173 206642.000   -218301.8450  -5246692.6578   3608098.9379   2   8   0.0183   0.0372   0.0167   0.0053  -0.0214  -0.0042   0.00    1.0
2173 206643.000   -218301.8427  -5246692.6512   3608098.9335   2   8   0.0183   0.0371   0.0167   0.0052  -0.0213  -0.0042   0.00    1.0
2173 206644.000   -218301.8385  -5246692.6425   3608098.9331   2   8   0.0183   0.0371   0.0166   0.0051  -0.0213  -0.0042   0.00    1.0
2173 206645.000   -218301.8394  -5246692.6401   3608098.9330   2   8   0.0182   0.0370   0.0166   0.0054  -0.0212  -0.0043   0.00    1.0
2173 206646.000   -218301.8339  -5246692.6355   3608098.9275   2   8   0.0181   0.0368   0.0165   0.0053  -0.0212  -0.0044   0.00    1.0
2173 206647.000   -218301.8301  -5246692.6404   3608098.9363   2   8   0.0182   0.0368   0.0165   0.0052  -0.0211  -0.0043   0.00    1.0
2173 206648.000   -218301.8300  -5246692.6515   3608098.9503   2   8   0.0183   0.0367   0.0165   0.0053  -0.0211  -0.0041   0.00    1.0
2173 206649.000   -218301.8300  -5246692.6516   3608098.9581   2   8   0.0181   0.0366   0.0165   0.0052  -0.0210  -0.0042   0.00    1.0
2173 206650.000   -218301.8273  -5246692.6512   3608098.9585   2   8   0.0181   0.0365   0.0164   0.0056  -0.0209  -0.0039   0.00    1.0
2173 206651.000   -218301.8269  -5246692.6563   3608098.9667   2   8   0.0181   0.0365   0.0163   0.0054  -0.0209  -0.0043   0.00    1.0
2173 206652.000   -218301.8273  -5246692.6691   3608098.9751   2   8   0.0179   0.0363   0.0163   0.0051  -0.0208  -0.0044   0.00    1.0
2173 206653.000   -218301.8280  -5246692.6703   3608098.9809   2   8   0.0181   0.0363   0.0163   0.0053  -0.0207  -0.0042   0.00    1.0
2173 206654.000   -218301.8302  -5246692.6882   3608099.0040   2   8   0.0177   0.0361   0.0162   0.0053  -0.0208  -0.0044   0.00    1.0
2173 206655.000   -218301.8265  -5246692.6826   3608099.0053   2   8   0.0180   0.0361   0.0162   0.0056  -0.0207  -0.0042   0.00    1.0
2173 206656.000   -218301.8253  -5246692.6815   3608099.0107   2   8   0.0179   0.0360   0.0161   0.0055  -0.0207  -0.0043   0.00    1.0
2173 206657.000   -218301.8237  -5246692.6729   3608099.0169   2   8   0.0178   0.0359   0.0160   0.0050  -0.0206  -0.0047   0.00    1.0
2173 206658.000   -218301.8218  -5246692.6800   3608099.0266   2   8   0.0179   0.0358   0.0161   0.0052  -0.0206  -0.0044   0.00    1.0
2173 206659.000   -218301.8193  -5246692.6713   3608099.0281   2   8   0.0176   0.0357   0.0159   0.0052  -0.0205  -0.0044   0.00    1.0
2173 206660.000   -218301.8179  -5246692.6673   3608099.0271   2   8   0.0178   0.0357   0.0159   0.0055  -0.0204  -0.0043   0.00    1.0
2173 206661.000   -218301.8153  -5246692.6558   3608099.0320   2   8   0.0178   0.0355   0.0159   0.0055  -0.0204  -0.0044   0.00    1.0
2173 206662.000   -218301.8141  -5246692.6548   3608099.0383   2   8   0.0176   0.0355   0.0159   0.0055  -0.0204  -0.0045   0.00    1.0
2173 206663.000   -218301.8123  -5246692.6466   3608099.0414   2   8   0.0177   0.0354   0.0159   0.0056  -0.0203  -0.0042   0.00    1.0
2173 206664.000   -218301.8071  -5246692.6421   3608099.0414   2   8   0.0175   0.0353   0.0158   0.0053  -0.0203  -0.0044   0.00    1.0
2173 206665.000   -218301.8069  -5246692.6371   3608099.0443   2   8   0.0176   0.0352   0.0158   0.0054  -0.0202  -0.0040   0.00    1.0
2173 206666.000   -218301.8017  -5246692.6340   3608099.0448   2   8   0.0176   0.0351   0.0157   0.0053  -0.0202  -0.0042   0.00    1.1
2173 206667.000   -218301.8007  -5246692.6381   3608099.0517   2   8   0.0175   0.0351   0.0157   0.0055  -0.0200  -0.0043   0.00    1.1
2173 206668.000   -218301.7972  -5246692.6335   3608099.0517   2   8   0.0174   0.0350   0.0156   0.0055  -0.0201  -0.0044   0.00    1.1
2173 206669.000   -218301.7965  -5246692.6396   3608099.0609   2   8   0.0176   0.0349   0.0155   0.0058  -0.0200  -0.0041   0.00    1.1
2173 206670.000   -218301.7935  -5246692.6384   3608099.0669   2   8   0.0175   0.0348   0.0156   0.0054  -0.0200  -0.0042   0.00    1.1
2173 206671.000   -218301.7938  -5246692.6366   3608099.0733   2   8   0.0174   0.0347   0.0155   0.0057  -0.0199  -0.0044   0.00    1.1
2173 206672.000   -218301.7928  -5246692.6305   3608099.0772   2   8   0.0174   0.0346   0.0155   0.0057  -0.0199  -0.0043   0.00    1.1
2173 206673.000   -218301.7896  -5246692.6238   3608099.0780   2   8   0.0174   0.0346   0.0155   0.0057  -0.0198  -0.0039   0.00    1.1
2173 206674.000   -218301.7879  -5246692.6178   3608099.0842   2   8   0.0173   0.0345   0.0154   0.0056  -0.0197  -0.0043   0.00    1.1
2173 206675.000   -218301.7860  -5246692.6134   3608099.0888   2   8   0.0173   0.0344   0.0154   0.0057  -0.0197  -0.0041   0.00    1.1
2173 206676.000   -218301.7799  -5246692.5950   3608099.0776   2   8   0.0172   0.0343   0.0153   0.0059  -0.0197  -0.0040   0.00    1.1
2173 206677.000   -218301.7760  -5246692.5937   3608099.0786   2   8   0.0173   0.0343   0.0153   0.0057  -0.0196  -0.0041   0.00    1.1
2173 206678.000   -218301.7734  -5246692.5882   3608099.0794   2   8   0.0171   0.0342   0.0152   0.0055  -0.0196  -0.0043   0.00    1.1
2173 206679.000   -218301.7679  -5246692.5854   3608099.0823   2   8   0.0172   0.0341   0.0152   0.0052  -0.0195  -0.0044   0.00    1.1
2173 206680.000   -218301.7643  -5246692.5797   3608099.0813   2   8   0.0171   0.0340   0.0152   0.0058  -0.0195  -0.0041   0.00    1.1
2173 206681.000   -218301.7606  -5246692.5802   3608099.0846   2   8   0.0170   0.0339   0.0152   0.0056  -0.0195  -0.0045   0.00    1.1
2173 206682.000   -218301.7574  -5246692.5806   3608099.0869   2   8   0.0171   0.0339   0.0151   0.0057  -0.0194  -0.0042   0.00    1.1
2173 206683.000   -218301.7522  -5246692.5826   3608099.0915   2   8   0.0171   0.0337   0.0151   0.0057  -0.0194  -0.0045   0.00    1.1
2173 206684.000   -218301.7490  -5246692.5813   3608099.0900   2   8   0.0170   0.0337   0.0151   0.0058  -0.0193  -0.0044   0.00    1.2
2173 206685.000   -218301.7442  -5246692.5857   3608099.1007   2   8   0.0170   0.0337   0.0150   0.0057  -0.0193  -0.0041   0.00    1.2
2173 206686.000   -218301.7408  -5246692.5797   3608099.0993   2   8   0.0169   0.0336   0.0149   0.0058  -0.0193  -0.0042   0.00    1.2
2173 206687.000   -218301.7378  -5246692.5838   3608099.1021   2   8   0.0168   0.0334   0.0149   0.0053  -0.0193  -0.0046   0.00    1.2
2173 206688.000   -218301.7339  -5246692.5793   3608099.1035   2   8   0.0172   0.0334   0.0149   0.0058  -0.0191  -0.0040   0.00    1.2
2173 206689.000   -218301.7318  -5246692.5774   3608099.1081   2   8   0.0168   0.0333   0.0149   0.0057  -0.0191  -0.0042   0.00    1.2
2173 206690.000   -218301.7296  -5246692.5781   3608099.1098   2   8   0.0169   0.0333   0.0149   0.0056  -0.0191  -0.0043   0.00    1.2
2173 206691.000   -218301.7276  -5246692.5778   3608099.1133   2   8   0.0168   0.0331   0.0148   0.0057  -0.0191  -0.0044   0.00    1.2
2173 206692.000   -218301.7231  -5246692.5766   3608099.1139   2   8   0.0166   0.0331   0.0147   0.0055  -0.0190  -0.0044   0.00    1.2
2173 206693.000   -218301.7217  -5246692.5668   3608099.1102   2   8   0.0168   0.0330   0.0147   0.0057  -0.0189  -0.0042   0.00    1.2
2173 206694.000   -218301.7178  -5246692.5774   3608099.1115   2   8   0.0168   0.0330   0.0148   0.0058  -0.0189  -0.0042   0.00    1.2
2173 206695.000   -218301.7149  -5246692.5726   3608099.1121   2   8   0.0167   0.0329   0.0147   0.0054  -0.0189  -0.0043   0.00    1.2
2173 206696.000   -218301.7132  -5246692.5772   3608099.1153   2   8   0.0167   0.0328   0.0146   0.0061  -0.0188  -0.0041   0.00    1.2
2173 206697.000   -218301.7096  -5246692.5791   3608099.1158   2   8   0.0166   0.0327   0.0146   0.0058  -0.0188  -0.0045   0.00    1.2
2173 206698.000   -218301.7056  -5246692.5835   3608099.1202   2   8   0.0166   0.0327   0.0145   0.0063  -0.0187  -0.0043   0.00    1.2
2173 206699.000   -218301.7058  -5246692.5961   3608099.1270   2   8   0.0166   0.0326   0.0145   0.0057  -0.0186  -0.0043   0.00    1.2
2173 206700.000   -218301.7048  -5246692.5975   3608099.1331   2   8   0.0167   0.0325   0.0145   0.0058  -0.0186  -0.0042   0.00    1.2
2173 206701.000   -218301.7027  -5246692.6039   3608099.1342   2   8   0.0166   0.0325   0.0145   0.0059  -0.0186  -0.0041   0.00    1.2
2173 206702.000   -218301.7026  -5246692.6069   3608099.1354   2   8   0.0165   0.0324   0.0145   0.0058  -0.0186  -0.0043   0.00    1.2
2173 206703.000   -218301.6972  -5246692.6097   3608099.1370   2   8   0.0165   0.0323   0.0144   0.0056  -0.0185  -0.0040   0.00    1.2
2173 206704.000   -218301.6952  -5246692.6135   3608099.1332   2   8   0.0164   0.0322   0.0143   0.0059  -0.0185  -0.0041   0.00    1.2
2173 206705.000   -218301.6921  -5246692.6202   3608099.1393   2   8   0.0164   0.0322   0.0144   0.0059  -0.0184  -0.0042   0.00    1.2
2173 206706.000   -218301.6894  -5246692.6305   3608099.1432   2   8   0.0163   0.0321   0.0143   0.0059  -0.0184  -0.0045   0.00    1.2
2173 206707.000   -218301.6884  -5246692.6319   3608099.1410   2   8   0.0163   0.0320   0.0143   0.0059  -0.0184  -0.0043   0.00    1.2
2173 206708.000   -218301.6843  -5246692.6317   3608099.1401   2   8   0.0162   0.0319   0.0142   0.0055  -0.0183  -0.0044   0.00    1.2
2173 206709.000   -218301.6796  -5246692.6352   3608099.1391   2   8   0.0164   0.0319   0.0143   0.0059  -0.0182  -0.0044   0.00    1.2
2173 206710.000   -218301.6777  -5246692.6376   3608099.1414   2   8   0.0163   0.0318   0.0142   0.0059  -0.0182  -0.0042   0.00    1.2
2173 206711.000   -218301.6752  -5246692.6511   3608099.1437   2   8   0.0162   0.0318   0.0141   0.0058  -0.0182  -0.0043   0.00    1.2
2173 206712.000   -218301.6734  -5246692.6527   3608099.1485   2   8   0.0163   0.0317   0.0142   0.0059  -0.0181  -0.0041   0.00    1.2
2173 206713.000   -218301.6682  -5246692.6570   3608099.1450   2   8   0.0163   0.0316   0.0141   0.0059  -0.0181  -0.0042   0.00    1.2
