% program   : rnx2rtkp ver.2.4.3 b31
% inp file  : ngs/21_09_02_07_47_05_gacc.obs
% inp file  : ngs/21_09_02_07_47_05_gacc_SW.obs
% inp file  : ngs/21_09_02_07_47_05_brdc.nav
% obs start : 2021/09/02 07:00:00.0 GPST (week2173 370800.0s)
% obs end   : 2021/09/02 07:59:59.0 GPST (week2173 374399.0s)
% ref pos   :   735718.1790  -5325111.8987   3421118.2203
%
% (x/y/z-ecef=WGS84,Q=1:fix,2:float,3:sbas,4:dgps,5:single,6:ppp,ns=# of satellites)
%  GPST              x-ecef(m)      y-ecef(m)      z-ecef(m)   Q  ns   sdx(m)   sdy(m)   sdz(m)  sdxy(m)  sdyz(m)  sdzx(m) age(s)  ratio
2173 373600.000    728280.0117  -5271276.2139   3504619.9323   2   6   0.4396   1.0624   0.7985  -0.0843  -0.7131  -0.0284 -30.00    1.1
2173 373601.000    728279.9595  -5271276.1453   3504619.9366   2   6   0.3128   0.7550   0.5679  -0.0614  -0.5068  -0.0157 -29.00    1.0
2173 373602.000    728279.9737  -5271276.1755   3504620.0312   2   6   0.2561   0.6181   0.4651  -0.0503  -0.4151  -0.0128 -28.00    1.0
2173 373603.000    728279.9942  -5271276.1983   3504620.0151   2   6   0.2222   0.5364   0.4037  -0.0434  -0.3603  -0.0117 -27.00    1.0
2173 373604.000    728279.9777  -5271276.2123   3504620.0230   2   6   0.1990   0.4805   0.3617  -0.0387  -0.3229  -0.0112 -26.00    1.0
2173 373605.000    728280.0094  -5271276.2267   3504619.9501   2   6   0.1818   0.4392   0.3306  -0.0352  -0.2952  -0.0108 -25.00    1.0
2173 373606.000    728280.0074  -5271276.2903   3504619.9248   2   6   0.1684   0.4070   0.3065  -0.0325  -0.2737  -0.0104 -24.00    1.1
2173 373607.000    728280.0402  -5271276.3277   3504619.8857   2   6   0.1576   0.3810   0.2869  -0.0304  -0.2563  -0.0100 -23.00    1.1
2173 373608.000    728280.0370  -5271276.3270   3504619.8353   2   6   0.1487   0.3593   0.2707  -0.0287  -0.2418  -0.0096 -22.00    1.1
2173 373609.000    728280.0242  -5271276.3343   3504619.8205   2   6   0.1411   0.3410   0.2570  -0.0272  -0.2295  -0.0092 -21.00    1.1
2173 373610.000    728280.0174  -5271276.3165   3504619.7965   2   6   0.1346   0.3252   0.2451  -0.0260  -0.2189  -0.0088 -20.00    1.1
2173 373611.000    728280.0182  -5271276.2904   3504619.7756   2   6   0.1288   0.3113   0.2348  -0.0250  -0.2096  -0.0084 -19.00    1.1
2173 373612.000    728280.0244  -5271276.2655   3504619.7519   2   6   0.1238   0.2990   0.2256  -0.0241  -0.2014  -0.0080 -18.00    1.1
2173 373613.000    728280.0284  -5271276.2202   3504619.7261   2   6   0.1193   0.2881   0.2174  -0.0233  -0.1941  -0.0075 -17.00    1.1
2173 373614.000    728280.0224  -5271276.1801   3504619.7005   2   6   0.1152   0.2782   0.2100  -0.0227  -0.1875  -0.0071 -16.00    1.0
2173 373615.000    728280.0149  -5271276.1521   3504619.6999   2   6   0.1115   0.2692   0.2034  -0.0221  -0.1814  -0.0067 -15.00    1.0
2173 373616.000    728279.9996  -5271276.1282   3504619.6951   2   6   0.1081   0.2610   0.1972  -0.0216  -0.1760  -0.0062 -14.00    1.0
2173 373617.000    728279.9960  -5271276.0972   3504619.6720   2   6   0.1051   0.2535   0.1916  -0.0211  -0.1709  -0.0057 -13.00    1.0
2173 373618.000    728279.9872  -5271276.1215   3504619.6858   2   6   0.1022   0.2465   0.1865  -0.0207  -0.1663  -0.0053 -12.00    1.0
2173 373619.000    728279.9836  -5271276.0917   3504619.6741   2   6   0.0996   0.2401   0.1817  -0.0203  -0.1620  -0.0048 -11.00    1.0
2173 373620.000    728279.9858  -5271276.0737   3504619.6660   2   6   0.0972   0.2341   0.1773  -0.0199  -0.1580  -0.0044 -10.00    1.0
2173 373621.000    728279.9782  -5271276.0893   3504619.6836   2   6   0.0949   0.2286   0.1731  -0.0196  -0.1542  -0.0039  -9.00    1.0
2173 373622.000    728279.9723  -5271276.0937   3504619.6852   2   6   0.0928   0.2233   0.1693  -0.0193  -0.1507  -0.0034  -8.00    1.0
2173 373623.000    728279.9663  -5271276.0973   3504619.6856   2   6   0.0908   0.2185   0.1657  -0.0190  -0.1475  -0.0029  -7.00    1.0
2173 373624.000    728279.9573  -5271276.1279   3504619.7070   2   6   0.0889   0.2139   0.1623  -0.0188  -0.1444  -0.0023  -6.00    1.0
2173 373625.000    728279.9507  -5271276.1491   3504619.7136   2   6   0.0872   0.2096   0.1591  -0.0185  -0.1415  -0.0021  -5.00    1.1
2173 373626.000    728279.9499  -5271276.1353   3504619.7045   2   6   0.0855   0.2056   0.1561  -0.0183  -0.1388  -0.0015  -4.00    1.1
2173 373627.000    728279.9477  -5271276.1504   3504619.7099   2   6   0.0839   0.2017   0.1532  -0.0180  -0.1363  -0.0007  -3.00    1.1
2173 373628.000    728279.9411  -5271276.1531   3504619.7074   2   6   0.0825   0.1981   0.1505  -0.0177  -0.1339   0.0007  -2.00    1.1
2173 373629.000    728279.9316  -5271276.1508   3504619.7138   2   6   0.0811   0.1948   0.1480  -0.0175  -0.1316   0.0006  -1.00    1.1
2173 373630.000    728279.9293  -5271276.1594   3504619.7308   2   6   0.0797   0.1916   0.1456  -0.0172  -0.1295   0.0006   0.00    1.1
2173 373631.000    728279.9243  -5271276.1653   3504619.7359   2   6   0.0785   0.1885   0.1433  -0.0170  -0.1274   0.0008   0.00    1.0
2173 373632.000    728279.9208  -5271276.1790   3504619.7489   2   6   0.0773   0.1856   0.1412  -0.0167  -0.1255  -0.0009   0.00    1.0
2173 373633.000    728279.9131  -5271276.1919   3504619.7537   2   7   0.0759   0.1828   0.1385  -0.0175  -0.1234   0.0091   0.00    1.1
2173 373634.000    728279.9038  -5271276.1990   3504619.7572   2   7   0.0745   0.1800   0.1360  -0.0183  -0.1213   0.0126   0.00    1.1
2173 373635.000    728279.9028  -5271276.1827   3504619.7501   2   7   0.0732   0.1774   0.1337  -0.0189  -0.1194   0.0149   0.00    1.0
2173 373636.000    728279.8934  -5271276.2025   3504619.7593   2   8   0.0720   0.1747   0.1307  -0.0190  -0.1171   0.0157   0.00    1.0
2173 373637.000    728279.8850  -5271276.2079   3504619.7527   2   8   0.0708   0.1722   0.1279  -0.0188  -0.1149   0.0163   0.00    1.0
2173 373638.000    728279.8775  -5271276.2307   3504619.7531   2   8   0.0697   0.1697   0.1253  -0.0190  -0.1129   0.0167   0.00    1.0
2173 373639.000    728279.8704  -5271276.2445   3504619.7522   2   8   0.0686   0.1674   0.1228  -0.0188  -0.1109   0.0172   0.00    1.0
2173 373640.000    728279.8623  -5271276.2736   3504619.7585   2   8   0.0676   0.1651   0.1205  -0.0188  -0.1091   0.0175   0.00    1.1
2173 373641.000    728279.8539  -5271276.2817   3504619.7547   2   8   0.0666   0.1630   0.1183  -0.0188  -0.1073   0.0177   0.00    1.1
2173 373642.000    728279.8447  -5271276.3080   3504619.7684   2   8   0.0657   0.1609   0.1163  -0.0187  -0.1057   0.0180   0.00    1.1
2173 373643.000    728279.8433  -5271276.3405   3504619.7831   2   8   0.0648   0.1589   0.1143  -0.0186  -0.1041   0.0182   0.00    1.1
2173 373644.000    728279.8348  -5271276.3601   3504619.7885   2   8   0.0639   0.1569   0.1124  -0.0184  -0.1025   0.0182   0.00    1.2
2173 373645.000    728279.8305  -5271276.3777   3504619.7902   2   8   0.0631   0.1550   0.1106  -0.0183  -0.1011   0.0184   0.00    1.2
2173 373646.000    728279.8233  -5271276.4064   3504619.7969   2   8   0.0623   0.1532   0.1089  -0.0182  -0.0996   0.0185   0.00    1.2
2173 373647.000    728279.8167  -5271276.4277   3504619.7952   2   8   0.0615   0.1515   0.1072  -0.0181  -0.0982   0.0185   0.00    1.2
2173 373648.000    728279.8117  -5271276.4462   3504619.7969   2   8   0.0608   0.1497   0.1057  -0.0180  -0.0969   0.0185   0.00    1.2
2173 373649.000    728279.8074  -5271276.4582   3504619.8007   2   8   0.0601   0.1481   0.1041  -0.0179  -0.0956   0.0185   0.00    1.2
2173 373650.000    728279.8003  -5271276.4642   3504619.7982   2   8   0.0594   0.1465   0.1027  -0.0178  -0.0944   0.0186   0.00    1.2
2173 373651.000    728279.7989  -5271276.4722   3504619.7950   2   8   0.0588   0.1449   0.1013  -0.0177  -0.0932   0.0186   0.00    1.2
2173 373652.000    728279.7942  -5271276.4808   3504619.7984   2   8   0.0581   0.1433   0.0999  -0.0176  -0.0920   0.0185   0.00    1.2
2173 373653.000    728279.7914  -5271276.4913   3504619.8044   2   8   0.0575   0.1418   0.0986  -0.0175  -0.0909   0.0185   0.00    1.2
2173 373654.000    728279.7888  -5271276.5037   3504619.8084   2   8   0.0569   0.1404   0.0973  -0.0174  -0.0898   0.0184   0.00    1.2
2173 373655.000    728279.7876  -5271276.5071   3504619.8091   2   8   0.0563   0.1390   0.0961  -0.0173  -0.0887   0.0185   0.00    1.2
2173 373656.000    728279.7822  -5271276.5231   3504619.8099   2   8   0.0557   0.1376   0.0949  -0.0171  -0.0877   0.0184   0.00    1.2
2173 373657.000    728279.7782  -5271276.5237   3504619.8079   2   8   0.0552   0.1362   0.0937  -0.0170  -0.0866   0.0183   0.00    1.2
2173 373658.000    728279.7725  -5271276.5287   3504619.8117   2   8   0.0546   0.1349   0.0926  -0.0169  -0.0856   0.0183   0.00    1.2
2173 373659.000    728279.7680  -5271276.5365   3504619.8123   2   8   0.0541   0.1336   0.0915  -0.0168  -0.0847   0.0182   0.00    1.2
2173 373660.000    728279.7649  -5271276.5426   3504619.8092   2   8   0.0536   0.1323   0.0904  -0.0166  -0.0837   0.0181   0.00    1.2
2173 373661.000    728279.7640  -5271276.5511   3504619.8065   2   8   0.0531   0.1311   0.0894  -0.0166  -0.0828   0.0181   0.00    1.2
2173 373662.000    728279.7613  -5271276.5559   3504619.8045   2   8   0.0527   0.1298   0.0883  -0.0165  -0.0818   0.0181   0.00    1.2
2173 373663.000    728279.7612  -5271276.5644   3504619.8044   2   8   0.0522   0.1287   0.0873  -0.0164  -0.0809   0.0180   0.00    1.2
2173 373664.000    728279.7624  -5271276.5693   3504619.8009   2   8   0.0517   0.1275   0.0864  -0.0162  -0.0800   0.0180   0.00    1.2
2173 373665.000    728279.7648  -5271276.5715   3504619.7972   2   8   0.0513   0.1263   0.0854  -0.0161  -0.0792   0.0179   0.00    1.2
2173 373666.000    728279.7647  -5271276.5643   3504619.7963   2   8   0.0509   0.1252   0.0845  -0.0161  -0.0783   0.0178   0.00    1.2
2173 373667.000    728279.7639  -5271276.5708   3504619.8008   2   8   0.0505   0.1241   0.0836  -0.0159  -0.0775   0.0177   0.00    1.2
2173 373668.000    728279.7631  -5271276.5835   3504619.8007   2   8   0.0500   0.1230   0.0827  -0.0158  -0.0767   0.0177   0.00    1.2
2173 373669.000    728279.7629  -5271276.6021   3504619.8056   2   8   0.0497   0.1219   0.0819  -0.0157  -0.0758   0.0174   0.00    1.2
2173 373670.000    728279.7609  -5271276.6228   3504619.8136   2   8   0.0493   0.1209   0.0810  -0.0156  -0.0750   0.0174   0.00    1.2
2173 373671.000    728279.7619  -5271276.6325   3504619.8128   2   8   0.0489   0.1198   0.0802  -0.0155  -0.0743   0.0174   0.00    1.2
2173 373672.000    728279.7604  -5271276.6432   3504619.8147   2   8   0.0485   0.1188   0.0794  -0.0154  -0.0735   0.0174   0.00    1.2
2173 373673.000    728279.7620  -5271276.6536   3504619.8139   2   8   0.0482   0.1178   0.0786  -0.0153  -0.0727   0.0171   0.00    1.2
2173 373674.000    728279.7648  -5271276.6570   3504619.8120   2   8   0.0478   0.1168   0.0778  -0.0153  -0.0720   0.0170   0.00    1.2
2173 373675.000    728279.7708  -5271276.6514   3504619.8008   2   8   0.0475   0.1158   0.0770  -0.0150  -0.0712   0.0170   0.00    1.1
2173 373676.000    728279.7731  -5271276.6498   3504619.7929   2   8   0.0471   0.1149   0.0763  -0.0150  -0.0705   0.0170   0.00    1.1
2173 373677.000    728279.7785  -5271276.6482   3504619.7833   2   8   0.0468   0.1139   0.0755  -0.0149  -0.0698   0.0169   0.00    1.1
2173 373678.000    728279.7825  -5271276.6405   3504619.7711   2   8   0.0465   0.1130   0.0748  -0.0148  -0.0690   0.0168   0.00    1.1
2173 373679.000    728279.7837  -5271276.6480   3504619.7623   2   8   0.0462   0.1121   0.0741  -0.0146  -0.0684   0.0167   0.00    1.1
2173 373680.000    728279.7899  -5271276.6547   3504619.7577   2   8   0.0458   0.1112   0.0733  -0.0146  -0.0677   0.0166   0.00    1.1
2173 373681.000    728279.7958  -5271276.6581   3504619.7531   2   8   0.0455   0.1103   0.0726  -0.0144  -0.0670   0.0165   0.00    1.1
2173 373682.000    728279.7996  -5271276.6716   3504619.7566   2   8   0.0452   0.1094   0.0720  -0.0145  -0.0663   0.0164   0.00    1.1
2173 373683.000    728279.8024  -5271276.6831   3504619.7570   2   8   0.0449   0.1085   0.0713  -0.0144  -0.0656   0.0163   0.00    1.1
2173 373684.000    728279.8058  -5271276.6791   3504619.7516   2   8   0.0446   0.1077   0.0706  -0.0142  -0.0650   0.0163   0.00    1.1
2173 373685.000    728279.8103  -5271276.6824   3504619.7499   2   8   0.0443   0.1068   0.0700  -0.0140  -0.0643   0.0163   0.00    1.1
2173 373686.000    728279.8142  -5271276.6785   3504619.7458   2   8   0.0441   0.1060   0.0693  -0.0140  -0.0637   0.0161   0.00    1.1
2173 373687.000    728279.8166  -5271276.6692   3504619.7365   2   8   0.0438   0.1052   0.0687  -0.0139  -0.0630   0.0161   0.00    1.1
2173 373688.000    728279.8252  -5271276.6611   3504619.7300   2   8   0.0436   0.1044   0.0681  -0.0138  -0.0624   0.0159   0.00    1.1
2173 373689.000    728279.8262  -5271276.6398   3504619.7170   2   8   0.0433   0.1036   0.0675  -0.0137  -0.0618   0.0159   0.00    1.1
2173 373690.000    728279.8291  -5271276.6256   3504619.7047   2   8   0.0430   0.1028   0.0669  -0.0137  -0.0612   0.0158   0.00    1.1
2173 373691.000    728279.8302  -5271276.6121   3504619.6950   2   8   0.0428   0.1020   0.0663  -0.0135  -0.0606   0.0158   0.00    1.1
2173 373692.000    728279.8310  -5271276.5912   3504619.6794   2   8   0.0425   0.1012   0.0657  -0.0134  -0.0600   0.0157   0.00    1.0
2173 373693.000    728279.8286  -5271276.5841   3504619.6699   2   8   0.0423   0.1005   0.0651  -0.0133  -0.0594   0.0156   0.00    1.0
2173 373694.000    728279.8280  -5271276.5846   3504619.6612   2   8   0.0420   0.0997   0.0645  -0.0133  -0.0588   0.0156   0.00    1.0
2173 373695.000    728279.8300  -5271276.5871   3504619.6514   2   8   0.0418   0.0990   0.0640  -0.0132  -0.0582   0.0155   0.00    1.0
2173 373696.000    728279.8273  -5271276.5692   3504619.6346   2   8   0.0416   0.0982   0.0634  -0.0132  -0.0576   0.0154   0.00    1.0
2173 373697.000    728279.8239  -5271276.5603   3504619.6201   2   8   0.0414   0.0975   0.0629  -0.0131  -0.0570   0.0152   0.00    1.0
2173 373698.000    728279.8226  -5271276.5519   3504619.6091   2   8   0.0411   0.0968   0.0623  -0.0131  -0.0565   0.0153   0.00    1.0
2173 373699.000    728279.8218  -5271276.5451   3504619.5978   2   8   0.0409   0.0961   0.0618  -0.0129  -0.0559   0.0151   0.00    1.0
2173 373700.000    728279.8207  -5271276.5425   3504619.5901   2   8   0.0407   0.0954   0.0612  -0.0128  -0.0554   0.0151   0.00    1.0
2173 373701.000    728279.8224  -5271276.5347   3504619.5855   2   8   0.0405   0.0947   0.0607  -0.0127  -0.0548   0.0150   0.00    1.0
2173 373702.000    728279.8238  -5271276.5151   3504619.5754   2   8   0.0402   0.0940   0.0602  -0.0126  -0.0543   0.0149   0.00    1.0
2173 373703.000    728279.8247  -5271276.5081   3504619.5682   2   8   0.0400   0.0933   0.0597  -0.0125  -0.0537   0.0149   0.00    1.0
2173 373704.000    728279.8246  -5271276.4991   3504619.5605   2   8   0.0398   0.0927   0.0592  -0.0124  -0.0532   0.0148   0.00    1.1
2173 373705.000    728279.8264  -5271276.4831   3504619.5499   2   8   0.0396   0.0920   0.0587  -0.0123  -0.0527   0.0147   0.00    1.1
2173 373706.000    728279.8274  -5271276.4757   3504619.5420   2   8   0.0394   0.0914   0.0582  -0.0124  -0.0522   0.0147   0.00    1.1
2173 373707.000    728279.8281  -5271276.4668   3504619.5327   2   8   0.0393   0.0907   0.0577  -0.0121  -0.0516   0.0146   0.00    1.1
2173 373708.000    728279.8258  -5271276.4671   3504619.5267   2   8   0.0390   0.0901   0.0572  -0.0122  -0.0511   0.0145   0.00    1.1
2173 373709.000    728279.8276  -5271276.4664   3504619.5198   2   8   0.0388   0.0894   0.0568  -0.0121  -0.0506   0.0145   0.00    1.1
2173 373710.000    728279.8238  -5271276.4653   3504619.5149   2   8   0.0386   0.0888   0.0563  -0.0120  -0.0501   0.0144   0.00    1.1
2173 373711.000    728279.8220  -5271276.4677   3504619.5110   2   8   0.0385   0.0882   0.0558  -0.0119  -0.0496   0.0143   0.00    1.1
2173 373712.000    728279.8188  -5271276.4784   3504619.5085   2   8   0.0383   0.0876   0.0554  -0.0119  -0.0492   0.0142   0.00    1.1
2173 373713.000    728279.8153  -5271276.4711   3504619.5002   2   8   0.0381   0.0870   0.0549  -0.0118  -0.0487   0.0142   0.00    1.1
2173 373714.000    728279.8128  -5271276.4704   3504619.4967   2   8   0.0380   0.0864   0.0545  -0.0117  -0.0482   0.0141   0.00    1.1
2173 373715.000    728279.8096  -5271276.4684   3504619.4888   2   8   0.0378   0.0858   0.0540  -0.0116  -0.0477   0.0140   0.00    1.1
2173 373716.000    728279.8093  -5271276.4602   3504619.4802   2   8   0.0375   0.0852   0.0536  -0.0116  -0.0472   0.0140   0.00    1.2
2173 373717.000    728279.8085  -5271276.4552   3504619.4736   2   8   0.0374   0.0846   0.0532  -0.0115  -0.0468   0.0139   0.00    1.2
2173 373718.000    728279.8078  -5271276.4543   3504619.4684   2   8   0.0373   0.0841   0.0528  -0.0113  -0.0463   0.0139   0.00    1.2
2173 373719.000    728279.8060  -5271276.4531   3504619.4605   2   8   0.0371   0.0835   0.0523  -0.0113  -0.0458   0.0137   0.00    1.2
2173 373720.000    728279.8066  -5271276.4503   3504619.4562   2   8   0.0369   0.0830   0.0519  -0.0112  -0.0454   0.0138   0.00    1.2
2173 373721.000    728279.8046  -5271276.4471   3504619.4514   2   8   0.0367   0.0824   0.0515  -0.0112  -0.0449   0.0137   0.00    1.2
2173 373722.000    728279.8000  -5271276.4411   3504619.4446   2   8   0.0366   0.0819   0.0511  -0.0111  -0.0445   0.0136   0.00    1.2
2173 373723.000    728279.8003  -5271276.4305   3504619.4375   2   8   0.0365   0.0813   0.0507  -0.0111  -0.0441   0.0136   0.00    1.2
2173 373724.000    728279.7996  -5271276.4296   3504619.4329   2   8   0.0362   0.0808   0.0503  -0.0110  -0.0436   0.0134   0.00    1.2
2173 373725.000    728279.7974  -5271276.4259   3504619.4270   2   8   0.0361   0.0803   0.0499  -0.0110  -0.0432   0.0136   0.00    1.2
2173 373726.000    728279.7969  -5271276.4205   3504619.4170   2   8   0.0360   0.0798   0.0496  -0.0109  -0.0428   0.0134   0.00    1.2
2173 373727.000    728279.7964  -5271276.4251   3504619.4147   2   8   0.0358   0.0792   0.0492  -0.0109  -0.0424   0.0134   0.00    1.2
2173 373728.000    728279.7983  -5271276.4273   3504619.4061   2   8   0.0357   0.0787   0.0488  -0.0107  -0.0419   0.0133   0.00    1.2
2173 373729.000    728279.7975  -5271276.4306   3504619.4010   2   8   0.0355   0.0782   0.0484  -0.0107  -0.0415   0.0132   0.00    1.2
2173 373730.000    728279.7971  -5271276.4351   3504619.3954   2   8   0.0353   0.0777   0.0481  -0.0106  -0.0411   0.0131   0.00    1.2
2173 373731.000    728279.7947  -5271276.4363   3504619.3897   2   8   0.0352   0.0772   0.0477  -0.0106  -0.0407   0.0131   0.00    1.2
2173 373732.000    728279.7925  -5271276.4345   3504619.3839   2   8   0.0351   0.0768   0.0473  -0.0105  -0.0403   0.0131   0.00    1.2
2173 373733.000    728279.7892  -5271276.4295   3504619.3748   2   8   0.0350   0.0763   0.0470  -0.0104  -0.0399   0.0129   0.00    1.2
2173 373734.000    728279.7878  -5271276.4271   3504619.3686   2   8   0.0348   0.0758   0.0466  -0.0103  -0.0395   0.0130   0.00    1.2
2173 373735.000    728279.7831  -5271276.4247   3504619.3615   2   8   0.0347   0.0753   0.0463  -0.0103  -0.0391   0.0129   0.00    1.2
2173 373736.000    728279.7810  -5271276.4230   3504619.3538   2   8   0.0346   0.0748   0.0459  -0.0102  -0.0387   0.0129   0.00    1.2
2173 373737.000    728279.7804  -5271276.4171   3504619.3438   2   8   0.0344   0.0744   0.0456  -0.0102  -0.0384   0.0128   0.00    1.2
2173 373738.000    728279.7780  -5271276.4170   3504619.3368   2   8   0.0342   0.0739   0.0453  -0.0101  -0.0380   0.0127   0.00    1.2
2173 373739.000    728279.7767  -5271276.4188   3504619.3324   2   8   0.0341   0.0735   0.0449  -0.0101  -0.0376   0.0127   0.00    1.2
2173 373740.000    728279.7751  -5271276.4221   3504619.3310   2   8   0.0341   0.0730   0.0446  -0.0100  -0.0372   0.0126   0.00    1.2
2173 373741.000    728279.7735  -5271276.4284   3504619.3268   2   8   0.0339   0.0726   0.0443  -0.0099  -0.0369   0.0125   0.00    1.2
2173 373742.000    728279.7987  -5271276.4323   3504619.3175   2   8   0.0338   0.0721   0.0439  -0.0099  -0.0365   0.0124   0.00    1.2
2173 373743.000    728279.8025  -5271276.4223   3504619.3103   2   8   0.0336   0.0717   0.0436  -0.0098  -0.0361   0.0125   0.00    1.2
2173 373744.000    728279.8050  -5271276.4210   3504619.3060   2   8   0.0335   0.0713   0.0433  -0.0097  -0.0358   0.0125   0.00    1.2
2173 373745.000    728279.8084  -5271276.4181   3504619.2993   2   8   0.0334   0.0709   0.0430  -0.0097  -0.0354   0.0124   0.00    1.2
2173 373746.000    728279.8092  -5271276.4175   3504619.2932   2   8   0.0333   0.0704   0.0427  -0.0097  -0.0351   0.0124   0.00    1.2
2173 373747.000    728279.8065  -5271276.4151   3504619.2876   2   8   0.0331   0.0701   0.0424  -0.0096  -0.0347   0.0122   0.00    1.1
2173 373748.000    728279.8144  -5271276.4303   3504619.2922   2   8   0.0330   0.0696   0.0421  -0.0095  -0.0344   0.0122   0.00    1.1
2173 373749.000    728279.8169  -5271276.4422   3504619.2963   2   8   0.0330   0.0692   0.0418  -0.0094  -0.0341   0.0122   0.00    1.1
2173 373750.000    728279.8181  -5271276.4555   3504619.2997   2   8   0.0328   0.0688   0.0415  -0.0093  -0.0337   0.0122   0.00    1.1
2173 373751.000    728279.8236  -5271276.4609   3504619.3039   2   8   0.0327   0.0684   0.0412  -0.0093  -0.0334   0.0121   0.00    1.1
2173 373752.000    728279.8268  -5271276.4724   3504619.3085   2   8   0.0326   0.0680   0.0409  -0.0093  -0.0331   0.0121   0.00    1.0
2173 373753.000    728279.8297  -5271276.4716   3504619.3104   2   8   0.0325   0.0677   0.0407  -0.0092  -0.0327   0.0120   0.00    1.0
2173 373754.000    728279.8340  -5271276.4708   3504619.3119   2   8   0.0324   0.0673   0.0404  -0.0091  -0.0324   0.0120   0.00    1.0
2173 373755.000    728279.8420  -5271276.4825   3504619.3112   2   8   0.0323   0.0669   0.0401  -0.0092  -0.0321   0.0120   0.00    1.0
2173 373756.000    728279.8477  -5271276.4717   3504619.3006   2   8   0.0322   0.0665   0.0398  -0.0091  -0.0318   0.0119   0.00    1.0
2173 373757.000    728279.8535  -5271276.4579   3504619.2883   2   8   0.0320   0.0661   0.0395  -0.0089  -0.0315   0.0118   0.00    1.1
2173 373758.000    728279.8578  -5271276.4441   3504619.2736   2   8   0.0319   0.0658   0.0393  -0.0091  -0.0312   0.0117   0.00    1.1
2173 373759.000    728279.8599  -5271276.4378   3504619.2625   2   8   0.0318   0.0654   0.0390  -0.0088  -0.0308   0.0118   0.00    1.1
2173 373760.000    728279.8647  -5271276.4266   3504619.2484   2   8   0.0317   0.0650   0.0388  -0.0089  -0.0305   0.0118   0.00    1.1
2173 373761.000    728279.8682  -5271276.4173   3504619.2386   2   8   0.0316   0.0647   0.0385  -0.0088  -0.0302   0.0117   0.00    1.2
2173 373762.000    728279.8731  -5271276.4134   3504619.2307   2   8   0.0315   0.0643   0.0382  -0.0088  -0.0299   0.0116   0.00    1.2
2173 373763.000    728279.8774  -5271276.4029   3504619.2236   2   8   0.0314   0.0640   0.0380  -0.0085  -0.0296   0.0116   0.00    1.2
2173 373764.000    728279.8837  -5271276.3860   3504619.2089   2   8   0.0312   0.0636   0.0377  -0.0086  -0.0293   0.0117   0.00    1.2
2173 373765.000    728279.8863  -5271276.3672   3504619.1986   2   8   0.0312   0.0633   0.0375  -0.0086  -0.0291   0.0115   0.00    1.2
2173 373766.000    728279.8928  -5271276.3449   3504619.1874   2   8   0.0311   0.0629   0.0373  -0.0085  -0.0288   0.0115   0.00    1.3
2173 373767.000    728279.8985  -5271276.3234   3504619.1753   2   8   0.0310   0.0626   0.0370  -0.0086  -0.0285   0.0113   0.00    1.3
2173 373768.000    728279.9026  -5271276.3080   3504619.1617   2   8   0.0309   0.0623   0.0368  -0.0084  -0.0282   0.0114   0.00    1.3
2173 373769.000    728279.9069  -5271276.2907   3504619.1475   2   8   0.0308   0.0619   0.0365  -0.0084  -0.0279   0.0115   0.00    1.3
2173 373770.000    728279.9100  -5271276.2764   3504619.1321   2   8   0.0307   0.0616   0.0363  -0.0083  -0.0277   0.0114   0.00    1.3
2173 373771.000    728279.9143  -5271276.2702   3504619.1179   2   8   0.0306   0.0613   0.0361  -0.0082  -0.0274   0.0112   0.00    1.4
2173 373772.000    728279.9171  -5271276.2721   3504619.1096   2   8   0.0305   0.0610   0.0358  -0.0082  -0.0271   0.0113   0.00    1.4
2173 373773.000    728279.9223  -5271276.2655   3504619.0990   2   8   0.0304   0.0606   0.0356  -0.0081  -0.0269   0.0113   0.00    1.4
2173 373774.000    728279.9267  -5271276.2608   3504619.0909   2   8   0.0303   0.0603   0.0354  -0.0082  -0.0266   0.0112   0.00    1.4
2173 373775.000    728279.9318  -5271276.2571   3504619.0821   2   8   0.0302   0.0600   0.0352  -0.0081  -0.0263   0.0113   0.00    1.4
2173 373776.000    728279.9372  -5271276.2490   3504619.0745   2   8   0.0302   0.0597   0.0349  -0.0079  -0.0261   0.0111   0.00    1.4
2173 373777.000    728279.9407  -5271276.2371   3504619.0655   2   8   0.0301   0.0594   0.0347  -0.0080  -0.0258   0.0110   0.00    1.4
2173 373778.000    728279.9461  -5271276.2341   3504619.0608   2   8   0.0300   0.0591   0.0345  -0.0079  -0.0255   0.0111   0.00    1.4
2173 373779.000    728279.9463  -5271276.2277   3504619.0538   2   8   0.0299   0.0588   0.0343  -0.0079  -0.0253   0.0110   0.00    1.4
2173 373780.000    728279.9519  -5271276.2159   3504619.0480   2   8   0.0298   0.0585   0.0341  -0.0078  -0.0250   0.0109   0.00    1.4
2173 373781.000    728279.9574  -5271276.2013   3504619.0414   2   8   0.0297   0.0582   0.0339  -0.0077  -0.0248   0.0109   0.00    1.4
2173 373782.000    728279.9626  -5271276.1793   3504619.0288   2   8   0.0296   0.0579   0.0337  -0.0076  -0.0245   0.0109   0.00    1.4
2173 373783.000    728279.9660  -5271276.1659   3504619.0225   2   8   0.0295   0.0577   0.0335  -0.0076  -0.0243   0.0109   0.00    1.4
2173 373784.000    728279.9699  -5271276.1494   3504619.0133   2   8   0.0294   0.0573   0.0332  -0.0077  -0.0241   0.0108   0.00    1.4
2173 373785.000    728279.9723  -5271276.1349   3504619.0032   2   8   0.0293   0.0571   0.0331  -0.0076  -0.0238   0.0107   0.00    1.4
2173 373786.000    728279.9732  -5271276.1305   3504618.9974   2   8   0.0293   0.0568   0.0329  -0.0077  -0.0236   0.0109   0.00    1.4
2173 373787.000    728279.9753  -5271276.1235   3504618.9906   2   8   0.0292   0.0565   0.0327  -0.0076  -0.0234   0.0107   0.00    1.4
2173 373788.000    728279.9767  -5271276.1147   3504618.9809   2   8   0.0290   0.0563   0.0325  -0.0075  -0.0231   0.0106   0.00    1.4
2173 373789.000    728279.9786  -5271276.1108   3504618.9729   2   8   0.0290   0.0560   0.0323  -0.0073  -0.0229   0.0108   0.00    1.4
2173 373790.000    728279.9807  -5271276.1097   3504618.9673   2   8   0.0289   0.0557   0.0321  -0.0076  -0.0227   0.0106   0.00    1.4
2173 373791.000    728279.9814  -5271276.1084   3504618.9636   2   8   0.0289   0.0554   0.0319  -0.0074  -0.0225   0.0104   0.00    1.4
2173 373792.000    728279.9803  -5271276.1071   3504618.9619   2   8   0.0288   0.0552   0.0317  -0.0073  -0.0222   0.0105   0.00    1.4
2173 373793.000    728279.9799  -5271276.1135   3504618.9624   2   8   0.0287   0.0549   0.0316  -0.0073  -0.0220   0.0105   0.00    1.4
2173 373794.000    728279.9783  -5271276.1123   3504618.9653   2   8   0.0286   0.0547   0.0313  -0.0074  -0.0218   0.0106   0.00    1.4
2173 373795.000    728279.9797  -5271276.1122   3504618.9669   2   8   0.0285   0.0544   0.0312  -0.0073  -0.0215   0.0106   0.00    1.4
2173 373796.000    728279.9802  -5271276.1085   3504618.9698   2   8   0.0285   0.0542   0.0309  -0.0073  -0.0213   0.0105   0.00    1.4
2173 373797.000    728279.9809  -5271276.1148   3504618.9728   2   8   0.0283   0.0539   0.0308  -0.0072  -0.0211   0.0105   0.00    1.4
2173 373798.000    728279.9836  -5271276.1138   3504618.9758   2   8   0.0284   0.0537   0.0307  -0.0070  -0.0209   0.0105   0.00    1.4
2173 373799.000    728279.9868  -5271276.1176   3504618.9777   2   8   0.0282   0.0534   0.0305  -0.0071  -0.0207   0.0104   0.00    1.4
2173 373800.000    728279.9879  -5271276.1133   3504618.9762   2   8   0.0282   0.0532   0.0303  -0.0070  -0.0205   0.0104   0.00    1.4
2173 373801.000    728279.9904  -5271276.1082   3504618.9779   2   8   0.0281   0.0529   0.0301  -0.0069  -0.0203   0.0103   0.00    1.4
2173 373802.000    728279.9936  -5271276.0988   3504618.9769   2   8   0.0280   0.0527   0.0300  -0.0069  -0.0201   0.0104   0.00    1.4
2173 373803.000    728280.0002  -5271276.0882   3504618.9743   2   8   0.0279   0.0524   0.0298  -0.0068  -0.0199   0.0102   0.00    1.4
2173 373804.000    728280.0032  -5271276.0804   3504618.9741   2   8   0.0278   0.0522   0.0296  -0.0069  -0.0197   0.0103   0.00    1.4
2173 373805.000    728280.0071  -5271276.0689   3504618.9672   2   8   0.0278   0.0519   0.0294  -0.0069  -0.0195   0.0103   0.00    1.4
2173 373806.000    728280.0077  -5271276.0635   3504618.9601   2   8   0.0277   0.0517   0.0293  -0.0068  -0.0194   0.0102   0.00    1.4
2173 373807.000    728280.0073  -5271276.0513   3504618.9496   2   8   0.0277   0.0515   0.0292  -0.0068  -0.0191   0.0100   0.00    1.4
2173 373808.000    728280.0134  -5271276.0518   3504618.9468   2   8   0.0276   0.0513   0.0290  -0.0068  -0.0189   0.0101   0.00    1.4
2173 373809.000    728280.0129  -5271276.0563   3504618.9441   2   8   0.0275   0.0510   0.0288  -0.0066  -0.0188   0.0101   0.00    1.4
2173 373810.000    728280.0138  -5271276.0640   3504618.9423   2   8   0.0274   0.0508   0.0286  -0.0067  -0.0186   0.0101   0.00    1.4
2173 373811.000    728280.0165  -5271276.0590   3504618.9371   2   8   0.0273   0.0506   0.0285  -0.0066  -0.0184   0.0101   0.00    1.4
2173 373812.000    728280.0209  -5271276.0572   3504618.9368   2   8   0.0272   0.0504   0.0284  -0.0063  -0.0182   0.0102   0.00    1.4
2173 373813.000    728280.0224  -5271276.0547   3504618.9328   2   8   0.0272   0.0502   0.0283  -0.0064  -0.0180   0.0100   0.00    1.4
2173 373814.000    728280.0253  -5271276.0492   3504618.9258   2   8   0.0271   0.0500   0.0281  -0.0064  -0.0178   0.0099   0.00    1.4
2173 373815.000    728280.0177  -5271276.0431   3504618.9337   2   8   0.0271   0.0497   0.0279  -0.0063  -0.0176   0.0099   0.00    1.4
2173 373816.000    728280.0190  -5271276.0419   3504618.9293   2   8   0.0270   0.0495   0.0278  -0.0066  -0.0175   0.0099   0.00    1.4
2173 373817.000    728280.0216  -5271276.0370   3504618.9259   2   8   0.0269   0.0493   0.0276  -0.0065  -0.0172   0.0098   0.00    1.4
2173 373818.000    728280.0236  -5271276.0246   3504618.9187   2   8   0.0269   0.0491   0.0275  -0.0061  -0.0171   0.0098   0.00    1.4
2173 373819.000    728280.0233  -5271276.0148   3504618.9127   2   8   0.0268   0.0489   0.0273  -0.0061  -0.0169   0.0100   0.00    1.4
2173 373820.000    728280.0235  -5271276.0131   3504618.9097   2   8   0.0268   0.0487   0.0272  -0.0062  -0.0168   0.0098   0.00    1.4
2173 373821.000    728280.0229  -5271276.0088   3504618.9084   2   8   0.0267   0.0485   0.0271  -0.0060  -0.0166   0.0098   0.00    1.4
2173 373822.000    728280.0234  -5271276.0049   3504618.9050   2   8   0.0266   0.0483   0.0270  -0.0061  -0.0165   0.0098   0.00    1.3
2173 373823.000    728280.0233  -5271276.0076   3504618.9042   2   8   0.0266   0.0481   0.0268  -0.0063  -0.0162   0.0097   0.00    1.3
2173 373824.000    728280.0249  -5271276.0064   3504618.9037   2   8   0.0265   0.0479   0.0267  -0.0060  -0.0161   0.0097   0.00    1.3
2173 373825.000    728280.0277  -5271276.0130   3504618.9085   2   8   0.0264   0.0477   0.0265  -0.0059  -0.0159   0.0096   0.00    1.3
2173 373826.000    728280.0281  -5271276.0153   3504618.9068   2   8   0.0264   0.0475   0.0264  -0.0059  -0.0158   0.0097   0.00    1.3
2173 373827.000    728280.0296  -5271276.0111   3504618.9065   2   8   0.0264   0.0473   0.0263  -0.0060  -0.0157   0.0096   0.00    1.3
2173 373828.000    728280.0321  -5271276.0119   3504618.9063   2   8   0.0263   0.0471   0.0262  -0.0059  -0.0154   0.0095   0.00    1.3
2173 373829.000    728280.0344  -5271276.0079   3504618.9039   2   8   0.0263   0.0469   0.0260  -0.0060  -0.0152   0.0095   0.00    1.3
2173 373830.000    728280.0349  -5271276.0037   3504618.8994   2   8   0.0261   0.0467   0.0259  -0.0059  -0.0151   0.0097   0.00    1.3
2173 373831.000    728280.0364  -5271276.0038   3504618.8987   2   8   0.0261   0.0465   0.0258  -0.0058  -0.0150   0.0096   0.00    1.3
2173 373832.000    728280.0377  -5271276.0102   3504618.9004   2   8   0.0260   0.0464   0.0256  -0.0058  -0.0148   0.0094   0.00    1.3
2173 373833.000    728280.0358  -5271276.0122   3504618.9016   2   8   0.0259   0.0462   0.0255  -0.0059  -0.0146   0.0096   0.00    1.3
2173 373834.000    728280.0355  -5271276.0169   3504618.9041   2   8   0.0259   0.0460   0.0254  -0.0060  -0.0145   0.0096   0.00    1.3
2173 373835.000    728280.0350  -5271276.0180   3504618.9064   2   8   0.0258   0.0458   0.0253  -0.0057  -0.0144   0.0095   0.00    1.3
2173 373836.000    728280.0362  -5271276.0213   3504618.9088   2   8   0.0258   0.0456   0.0252  -0.0056  -0.0143   0.0094   0.00    1.2
2173 373837.000    728280.0379  -5271276.0275   3504618.9159   2   8   0.0257   0.0455   0.0251  -0.0057  -0.0141   0.0092   0.00    1.2
2173 373838.000    728280.0380  -5271276.0320   3504618.9184   2   8   0.0256   0.0453   0.0249  -0.0056  -0.0139   0.0092   0.00    1.2
2173 373839.000    728280.0419  -5271276.0320   3504618.9210   2   8   0.0256   0.0451   0.0248  -0.0055  -0.0138   0.0095   0.00    1.2
2173 373840.000    728280.0402  -5271276.0369   3504618.9264   2   8   0.0255   0.0449   0.0247  -0.0054  -0.0137   0.0092   0.00    1.2
2173 373841.000    728280.0418  -5271276.0314   3504618.9283   2   8   0.0255   0.0448   0.0246  -0.0054  -0.0135   0.0094   0.00    1.2
2173 373842.000    728280.0428  -5271276.0279   3504618.9302   2   8   0.0254   0.0446   0.0245  -0.0055  -0.0133   0.0093   0.00    1.2
2173 373843.000    728280.0445  -5271276.0200   3504618.9310   2   8   0.0254   0.0444   0.0243  -0.0053  -0.0132   0.0091   0.00    1.2
2173 373844.000    728280.0452  -5271276.0153   3504618.9337   2   8   0.0253   0.0443   0.0243  -0.0054  -0.0131   0.0092   0.00    1.2
2173 373845.000    728280.0457  -5271276.0091   3504618.9319   2   8   0.0253   0.0441   0.0241  -0.0053  -0.0129   0.0092   0.00    1.2
2173 373846.000    728280.0459  -5271276.0070   3504618.9309   2   8   0.0253   0.0439   0.0241  -0.0054  -0.0128   0.0091   0.00    1.2
2173 373847.000    728280.0476  -5271276.0071   3504618.9310   2   8   0.0251   0.0437   0.0239  -0.0053  -0.0127   0.0092   0.00    1.2
2173 373848.000    728280.0453  -5271276.0082   3504618.9302   2   8   0.0251   0.0436   0.0238  -0.0053  -0.0126   0.0091   0.00    1.2
2173 373849.000    728280.0441  -5271276.0092   3504618.9304   2   8   0.0249   0.0434   0.0237  -0.0053  -0.0124   0.0093   0.00    1.1
2173 373850.000    728280.0420  -5271276.0153   3504618.9325   2   8   0.0250   0.0433   0.0236  -0.0051  -0.0122   0.0093   0.00    1.1
2173 373851.000    728280.0407  -5271276.0196   3504618.9317   2   8   0.0248   0.0431   0.0235  -0.0051  -0.0120   0.0093   0.00    1.1
2173 373852.000    728280.0405  -5271276.0231   3504618.9324   2   8   0.0248   0.0429   0.0234  -0.0052  -0.0120   0.0091   0.00    1.1
2173 373853.000    728280.0418  -5271276.0309   3504618.9371   2   8   0.0248   0.0428   0.0233  -0.0050  -0.0119   0.0092   0.00    1.1
2173 373854.000    728280.0416  -5271276.0325   3504618.9401   2   8   0.0249   0.0426   0.0232  -0.0051  -0.0118   0.0090   0.00    1.1
2173 373855.000    728280.0432  -5271276.0331   3504618.9396   2   8   0.0247   0.0425   0.0231  -0.0052  -0.0116   0.0090   0.00    1.1
2173 373856.000    728280.0447  -5271276.0297   3504618.9416   2   8   0.0246   0.0423   0.0229  -0.0050  -0.0115   0.0091   0.00    1.1
2173 373857.000    728280.0448  -5271276.0259   3504618.9416   2   8   0.0246   0.0422   0.0229  -0.0050  -0.0114   0.0091   0.00    1.1
2173 373858.000    728280.0472  -5271276.0218   3504618.9418   2   8   0.0245   0.0420   0.0228  -0.0050  -0.0112   0.0090   0.00    1.1
2173 373859.000    728280.0448  -5271276.0195   3504618.9417   2   8   0.0245   0.0419   0.0227  -0.0049  -0.0111   0.0091   0.00    1.1
2173 373860.000    728280.0431  -5271276.0167   3504618.9416   2   8   0.0244   0.0417   0.0226  -0.0049  -0.0110   0.0089   0.00    1.1
2173 373861.000    728280.0434  -5271276.0103   3504618.9424   2   8   0.0244   0.0416   0.0225  -0.0047  -0.0109   0.0090   0.00    1.1
2173 373862.000    728280.0425  -5271276.0138   3504618.9451   2   8   0.0244   0.0414   0.0224  -0.0048  -0.0108   0.0089   0.00    1.0
2173 373863.000    728280.0420  -5271276.0121   3504618.9458   2   8   0.0243   0.0413   0.0223  -0.0047  -0.0107   0.0088   0.00    1.0
2173 373864.000    728280.0410  -5271276.0160   3504618.9480   2   8   0.0243   0.0411   0.0222  -0.0047  -0.0105   0.0089   0.00    1.0
2173 373865.000    728280.0396  -5271276.0160   3504618.9489   2   8   0.0243   0.0410   0.0222  -0.0047  -0.0104   0.0089   0.00    1.0
2173 373866.000    728280.0384  -5271276.0251   3504618.9527   2   8   0.0241   0.0409   0.0219  -0.0045  -0.0103   0.0089   0.00    1.0
2173 373867.000    728280.0345  -5271276.0270   3504618.9533   2   8   0.0241   0.0407   0.0219  -0.0046  -0.0101   0.0089   0.00    1.0
2173 373868.000    728280.0379  -5271276.0277   3504618.9553   2   8   0.0241   0.0406   0.0219  -0.0046  -0.0100   0.0088   0.00    1.0
2173 373869.000    728280.0384  -5271276.0261   3504618.9608   2   8   0.0239   0.0404   0.0218  -0.0046  -0.0099   0.0088   0.00    1.0
2173 373870.000    728280.0394  -5271276.0206   3504618.9601   2   8   0.0240   0.0403   0.0216  -0.0045  -0.0098   0.0087   0.00    1.0
2173 373871.000    728280.0383  -5271276.0187   3504618.9601   2   8   0.0239   0.0402   0.0215  -0.0046  -0.0097   0.0087   0.00    1.0
2173 373872.000    728280.0376  -5271276.0194   3504618.9591   2   8   0.0238   0.0400   0.0215  -0.0043  -0.0095   0.0087   0.00    1.0
2173 373873.000    728280.0374  -5271276.0192   3504618.9595   2   8   0.0238   0.0399   0.0214  -0.0047  -0.0095   0.0088   0.00    1.0
2173 373874.000    728280.0369  -5271276.0270   3504618.9576   2   8   0.0237   0.0398   0.0213  -0.0044  -0.0094   0.0087   0.00    1.0
2173 373875.000    728280.0346  -5271276.0363   3504618.9603   2   8   0.0237   0.0396   0.0212  -0.0044  -0.0093   0.0087   0.00    1.0
2173 373876.000    728280.0344  -5271276.0466   3504618.9623   2   8   0.0237   0.0395   0.0212  -0.0046  -0.0092   0.0087   0.00    1.1
2173 373877.000    728280.0333  -5271276.0488   3504618.9657   2   8   0.0236   0.0393   0.0210  -0.0046  -0.0091   0.0085   0.00    1.1
2173 373878.000    728280.0330  -5271276.0663   3504618.9693   2   8   0.0236   0.0392   0.0210  -0.0044  -0.0091   0.0088   0.00    1.1
2173 373879.000    728280.0305  -5271276.0796   3504618.9761   2   8   0.0235   0.0391   0.0209  -0.0042  -0.0088   0.0086   0.00    1.1
2173 373880.000    728280.0289  -5271276.0906   3504618.9824   2   8   0.0235   0.0390   0.0208  -0.0043  -0.0087   0.0085   0.00    1.1
2173 373881.000    728280.0268  -5271276.0979   3504618.9880   2   8   0.0235   0.0388   0.0208  -0.0045  -0.0087   0.0085   0.00    1.1
2173 373882.000    728280.0232  -5271276.1091   3504618.9921   2   8   0.0234   0.0387   0.0207  -0.0043  -0.0085   0.0085   0.00    1.1
2173 373883.000    728280.0225  -5271276.1158   3504618.9965   2   8   0.0233   0.0386   0.0205  -0.0042  -0.0084   0.0086   0.00    1.1
2173 373884.000    728280.0215  -5271276.1251   3504619.0046   2   8   0.0233   0.0384   0.0205  -0.0044  -0.0084   0.0084   0.00    1.1
2173 373885.000    728280.0205  -5271276.1320   3504619.0104   2   8   0.0233   0.0383   0.0204  -0.0044  -0.0082   0.0087   0.00    1.1
2173 373886.000    728280.0180  -5271276.1401   3504619.0189   2   8   0.0231   0.0382   0.0203  -0.0041  -0.0081   0.0087   0.00    1.2
2173 373887.000    728280.0178  -5271276.1419   3504619.0249   2   8   0.0231   0.0381   0.0202  -0.0040  -0.0080   0.0086   0.00    1.2
2173 373888.000    728280.0150  -5271276.1474   3504619.0303   2   8   0.0232   0.0380   0.0202  -0.0040  -0.0078   0.0085   0.00    1.2
2173 373889.000    728280.0159  -5271276.1453   3504619.0366   2   8   0.0231   0.0378   0.0201  -0.0040  -0.0079   0.0084   0.00    1.2
2173 373890.000    728280.0147  -5271276.1435   3504619.0376   2   8   0.0230   0.0377   0.0201  -0.0040  -0.0076   0.0084   0.00    1.2
2173 373891.000    728280.0152  -5271276.1447   3504619.0398   2   8   0.0230   0.0376   0.0200  -0.0039  -0.0076   0.0085   0.00    1.2
2173 373892.000    728280.0150  -5271276.1521   3504619.0419   2   8   0.0229   0.0375   0.0199  -0.0040  -0.0076   0.0084   0.00    1.2
2173 373893.000    728280.0160  -5271276.1566   3504619.0432   2   8   0.0229   0.0374   0.0198  -0.0041  -0.0075   0.0085   0.00    1.2
2173 373894.000    728280.0101  -5271276.1668   3504619.0492   2   8   0.0229   0.0372   0.0197  -0.0038  -0.0074   0.0082   0.00    1.2
2173 373895.000    728280.0084  -5271276.1831   3504619.0526   2   8   0.0228   0.0371   0.0197  -0.0039  -0.0072   0.0083   0.00    1.2
2173 373896.000    728280.0094  -5271276.1919   3504619.0554   2   8   0.0228   0.0370   0.0197  -0.0037  -0.0071   0.0083   0.00    1.2
2173 373897.000    728280.0095  -5271276.1982   3504619.0599   2   8   0.0227   0.0369   0.0196  -0.0038  -0.0070   0.0082   0.00    1.2
2173 373898.000    728280.0079  -5271276.2078   3504619.0667   2   8   0.0227   0.0368   0.0195  -0.0040  -0.0070   0.0083   0.00    1.2
2173 373899.000    728280.0090  -5271276.2137   3504619.0674   2   8   0.0227   0.0367   0.0194  -0.0033  -0.0068   0.0084   0.00    1.2
2173 373900.000    728280.0099  -5271276.2170   3504619.0705   2   8   0.0226   0.0366   0.0194  -0.0035  -0.0068   0.0082   0.00    1.2
2173 373901.000    728280.0113  -5271276.2259   3504619.0760   2   8   0.0225   0.0364   0.0193  -0.0037  -0.0068   0.0082   0.00    1.2
2173 373902.000    728280.0108  -5271276.2262   3504619.0781   2   8   0.0225   0.0363   0.0192  -0.0038  -0.0066   0.0082   0.00    1.2
2173 373903.000    728280.0135  -5271276.2335   3504619.0838   2   8   0.0225   0.0362   0.0190  -0.0037  -0.0065   0.0083   0.00    1.2
2173 373904.000    728280.0122  -5271276.2370   3504619.0885   2   8   0.0225   0.0361   0.0191  -0.0035  -0.0064   0.0082   0.00    1.2
2173 373905.000    728280.0137  -5271276.2407   3504619.0904   2   8   0.0224   0.0360   0.0190  -0.0038  -0.0063   0.0082   0.00    1.2
2173 373906.000    728280.0156  -5271276.2473   3504619.0943   2   8   0.0224   0.0359   0.0189  -0.0035  -0.0061   0.0083   0.00    1.2
2173 373907.000    728280.0163  -5271276.2528   3504619.0958   2   8   0.0223   0.0358   0.0189  -0.0034  -0.0061   0.0081   0.00    1.2
2173 373908.000    728280.0164  -5271276.2601   3504619.0970   2   8   0.0223   0.0357   0.0189  -0.0034  -0.0061   0.0081   0.00    1.2
2173 373909.000    728280.0152  -5271276.2739   3504619.0994   2   8   0.0222   0.0356   0.0187  -0.0035  -0.0060   0.0082   0.00    1.2
2173 373910.000    728280.0051  -5271276.2296   3504619.0749   2   8   0.0222   0.0355   0.0187  -0.0034  -0.0059   0.0082   0.00    1.2
2173 373911.000    728280.0025  -5271276.2489   3504619.0875   2   8   0.0221   0.0354   0.0186  -0.0037  -0.0059   0.0082   0.00    1.2
2173 373912.000    728279.9986  -5271276.2614   3504619.1019   2   8   0.0221   0.0353   0.0185  -0.0032  -0.0056   0.0082   0.00    1.2
2173 373913.000    728279.9965  -5271276.2784   3504619.1169   2   8   0.0221   0.0352   0.0185  -0.0035  -0.0057   0.0082   0.00    1.2
2173 373914.000    728279.9962  -5271276.2908   3504619.1300   2   8   0.0220   0.0351   0.0184  -0.0035  -0.0055   0.0082   0.00    1.2
2173 373915.000    728279.9924  -5271276.3108   3504619.1436   2   8   0.0221   0.0350   0.0184  -0.0034  -0.0055   0.0079   0.00    1.2
2173 373916.000    728279.9895  -5271276.3272   3504619.1592   2   8   0.0220   0.0348   0.0183  -0.0034  -0.0054   0.0079   0.00    1.2
2173 373917.000    728279.9868  -5271276.3401   3504619.1737   2   8   0.0219   0.0348   0.0182  -0.0032  -0.0052   0.0081   0.00    1.2
2173 373918.000    728279.9838  -5271276.3569   3504619.1859   2   8   0.0219   0.0347   0.0182  -0.0031  -0.0052   0.0080   0.00    1.1
2173 373919.000    728279.9814  -5271276.3679   3504619.1997   2   8   0.0218   0.0346   0.0182  -0.0029  -0.0051   0.0081   0.00    1.1
2173 373920.000    728279.9815  -5271276.3730   3504619.2116   2   8   0.0218   0.0344   0.0181  -0.0034  -0.0051   0.0082   0.00    1.1
2173 373921.000    728279.9776  -5271276.3793   3504619.2243   2   8   0.0218   0.0343   0.0180  -0.0030  -0.0051   0.0080   0.00    1.1
2173 373922.000    728279.9766  -5271276.3846   3504619.2343   2   8   0.0217   0.0342   0.0179  -0.0035  -0.0050   0.0080   0.00    1.1
2173 373923.000    728279.9756  -5271276.3942   3504619.2448   2   8   0.0217   0.0342   0.0179  -0.0035  -0.0047   0.0078   0.00    1.1
2173 373924.000    728279.9720  -5271276.4073   3504619.2554   2   8   0.0216   0.0341   0.0178  -0.0029  -0.0047   0.0081   0.00    1.1
2173 373925.000    728279.9674  -5271276.4198   3504619.2688   2   8   0.0216   0.0339   0.0177  -0.0026  -0.0045   0.0080   0.00    1.1
2173 373926.000    728279.9650  -5271276.4293   3504619.2764   2   8   0.0215   0.0338   0.0177  -0.0031  -0.0046   0.0082   0.00    1.1
2173 373927.000    728279.9614  -5271276.4411   3504619.2896   2   8   0.0215   0.0338   0.0176  -0.0032  -0.0044   0.0080   0.00    1.0
2173 373928.000    728279.9600  -5271276.4470   3504619.3026   2   8   0.0216   0.0337   0.0177  -0.0030  -0.0044   0.0079   0.00    1.0
2173 373929.000    728279.9556  -5271276.4520   3504619.3106   2   8   0.0215   0.0336   0.0176  -0.0029  -0.0044   0.0079   0.00    1.0
2173 373930.000    728279.9532  -5271276.4595   3504619.3233   2   8   0.0214   0.0335   0.0175  -0.0029  -0.0041   0.0080   0.00    1.0
2173 373931.000    728279.9509  -5271276.4610   3504619.3310   2   8   0.0214   0.0334   0.0175  -0.0028  -0.0040   0.0079   0.00    1.0
2173 373932.000    728279.9467  -5271276.4689   3504619.3396   2   8   0.0214   0.0333   0.0174  -0.0029  -0.0038   0.0081   0.00    1.0
2173 373933.000    728279.9432  -5271276.4770   3504619.3485   2   8   0.0213   0.0332   0.0173  -0.0030  -0.0037   0.0079   0.00    1.0
2173 373934.000    728279.9418  -5271276.4883   3504619.3591   2   8   0.0212   0.0331   0.0173  -0.0032  -0.0039   0.0078   0.00    1.0
2173 373935.000    728279.9386  -5271276.4980   3504619.3681   2   8   0.0212   0.0331   0.0173  -0.0025  -0.0036   0.0079   0.00    1.0
2173 373936.000    728279.9361  -5271276.4997   3504619.3747   2   8   0.0212   0.0329   0.0172  -0.0030  -0.0036   0.0078   0.00    1.0
2173 373937.000    728279.9311  -5271276.5320   3504619.3848   2   8   0.0212   0.0328   0.0171  -0.0025  -0.0038   0.0080   0.00    1.0
2173 373938.000    728279.9275  -5271276.5427   3504619.3908   2   8   0.0211   0.0328   0.0170  -0.0025  -0.0033   0.0079   0.00    1.1
2173 373939.000    728279.9233  -5271276.5542   3504619.3985   2   8   0.0212   0.0327   0.0170  -0.0027  -0.0032   0.0078   0.00    1.1
2173 373940.000    728279.9191  -5271276.5700   3504619.4041   2   8   0.0211   0.0326   0.0170  -0.0027  -0.0033   0.0078   0.00    1.1
2173 373941.000    728279.9170  -5271276.5834   3504619.4108   2   8   0.0210   0.0325   0.0169  -0.0028  -0.0030   0.0079   0.00    1.1
2173 373942.000    728279.9147  -5271276.6027   3504619.4203   2   8   0.0210   0.0324   0.0168  -0.0026  -0.0033   0.0077   0.00    1.1
2173 373943.000    728279.9115  -5271276.6146   3504619.4265   2   8   0.0209   0.0323   0.0168  -0.0025  -0.0030   0.0079   0.00    1.1
2173 373944.000    728279.9071  -5271276.6252   3504619.4327   2   8   0.0209   0.0323   0.0167  -0.0026  -0.0028   0.0079   0.00    1.1
2173 373945.000    728279.9070  -5271276.6348   3504619.4391   2   8   0.0209   0.0321   0.0167  -0.0024  -0.0030   0.0077   0.00    1.1
2173 373946.000    728279.9044  -5271276.6417   3504619.4450   2   8   0.0209   0.0321   0.0167  -0.0026  -0.0030   0.0078   0.00    1.1
2173 373947.000    728279.9025  -5271276.6380   3504619.4490   2   8   0.0208   0.0320   0.0166  -0.0025  -0.0026   0.0077   0.00    1.1
2173 373948.000    728279.8995  -5271276.6451   3504619.4575   2   8   0.0208   0.0319   0.0165  -0.0021  -0.0027   0.0077   0.00    1.2
2173 373949.000    728279.8982  -5271276.6542   3504619.4627   2   8   0.0207   0.0318   0.0165  -0.0023  -0.0028   0.0078   0.00    1.2
2173 373950.000    728279.8938  -5271276.6576   3504619.4678   2   8   0.0206   0.0317   0.0164  -0.0023  -0.0027   0.0078   0.00    1.1
2173 373951.000    728279.8930  -5271276.6604   3504619.4707   2   8   0.0207   0.0316   0.0164  -0.0024  -0.0027   0.0078   0.00    1.1
2173 373952.000    728279.8875  -5271276.6809   3504619.4775   2   8   0.0207   0.0316   0.0164  -0.0024  -0.0020   0.0076   0.00    1.1
2173 373953.000    728279.8833  -5271276.6920   3504619.4810   2   8   0.0206   0.0315   0.0164  -0.0019  -0.0023   0.0078   0.00    1.1
2173 373954.000    728279.8816  -5271276.7031   3504619.4897   2   8   0.0206   0.0314   0.0163  -0.0023  -0.0023   0.0076   0.00    1.1
2173 373955.000    728279.8757  -5271276.7138   3504619.4930   2   8   0.0206   0.0313   0.0162  -0.0018  -0.0013   0.0076   0.00    1.1
2173 373956.000    728279.8717  -5271276.7252   3504619.5031   2   8   0.0205   0.0313   0.0162  -0.0023  -0.0019   0.0077   0.00    1.1
2173 373957.000    728279.8685  -5271276.7309   3504619.5055   2   8   0.0204   0.0311   0.0162  -0.0020  -0.0020   0.0076   0.00    1.1
2173 373958.000    728279.8656  -5271276.7383   3504619.5094   2   8   0.0204   0.0311   0.0160  -0.0023  -0.0015   0.0077   0.00    1.1
2173 373959.000    728279.8626  -5271276.7492   3504619.5143   2   8   0.0204   0.0310   0.0161  -0.0020  -0.0016   0.0076   0.00    1.1
2173 373960.000    728279.8591  -5271276.7587   3504619.5184   2   8   0.0203   0.0309   0.0160  -0.0020  -0.0017   0.0076   0.00    1.1
2173 373961.000    728279.8580  -5271276.7753   3504619.5212   2   8   0.0204   0.0309   0.0160  -0.0018  -0.0010   0.0075   0.00    1.1
2173 373962.000    728279.8541  -5271276.7905   3504619.5256   2   8   0.0204   0.0308   0.0159  -0.0017  -0.0015   0.0075   0.00    1.1
2173 373963.000    728279.8505  -5271276.8087   3504619.5353   2   8   0.0203   0.0307   0.0158  -0.0021  -0.0013   0.0075   0.00    1.1
2173 373964.000    728279.8470  -5271276.8199   3504619.5418   2   8   0.0202   0.0306   0.0158  -0.0019  -0.0007   0.0075   0.00    1.1
2173 373965.000    728279.8472  -5271276.8273   3504619.5470   2   8   0.0202   0.0305   0.0158  -0.0024  -0.0014   0.0074   0.00    1.1
2173 373966.000    728279.8471  -5271276.8355   3504619.5609   2   8   0.0202   0.0304   0.0157  -0.0018  -0.0012   0.0076   0.00    1.1
2173 373967.000    728279.8466  -5271276.8419   3504619.5669   2   8   0.0201   0.0304   0.0157  -0.0021   0.0003   0.0076   0.00    1.1
2173 373968.000    728279.8447  -5271276.8446   3504619.5681   2   8   0.0202   0.0303   0.0158  -0.0017   0.0010   0.0074   0.00    1.1
2173 373969.000    728279.8412  -5271276.8490   3504619.5712   2   8   0.0201   0.0302   0.0155  -0.0025   0.0003   0.0076   0.00    1.1
2173 373970.000    728279.8390  -5271276.8573   3504619.5729   2   8   0.0201   0.0301   0.0155  -0.0022  -0.0005   0.0075   0.00    1.1
2173 373971.000    728279.8366  -5271276.8574   3504619.5742   2   8   0.0201   0.0301   0.0155  -0.0021   0.0008   0.0075   0.00    1.1
2173 373972.000    728279.8344  -5271276.8640   3504619.5761   2   8   0.0200   0.0300   0.0155  -0.0017   0.0016   0.0075   0.00    1.1
2173 373973.000    728279.8315  -5271276.8698   3504619.5806   2   8   0.0200   0.0299   0.0155  -0.0022   0.0014   0.0075   0.00    1.1
2173 373974.000    728279.8301  -5271276.8756   3504619.5840   2   8   0.0200   0.0298   0.0154  -0.0016   0.0011   0.0073   0.00    1.1
2173 373975.000    728279.8302  -5271276.8816   3504619.5856   2   8   0.0199   0.0298   0.0154  -0.0005   0.0016   0.0073   0.00    1.1
2173 373976.000    728279.8283  -5271276.8844   3504619.5894   2   8   0.0199   0.0296   0.0152  -0.0019   0.0013   0.0074   0.00    1.1
2173 373977.000    728279.8271  -5271276.8868   3504619.5916   2   8   0.0199   0.0297   0.0153  -0.0010   0.0017   0.0074   0.00    1.1
2173 373978.000    728279.8256  -5271276.8978   3504619.5952   2   8   0.0198   0.0296   0.0153  -0.0022   0.0014   0.0073   0.00    1.1
2173 373979.000    728279.8251  -5271276.9084   3504619.6003   2   8   0.0198   0.0295   0.0152  -0.0016   0.0017   0.0075   0.00    1.1
2173 373980.000    728279.8214  -5271276.9231   3504619.6057   2   8   0.0198   0.0294   0.0151  -0.0021   0.0016   0.0074   0.00    1.1
2173 373981.000    728279.8185  -5271276.9451   3504619.6096   2   8   0.0197   0.0294   0.0151  -0.0010   0.0018   0.0073   0.00    1.1
2173 373982.000    728279.8153  -5271276.9646   3504619.6153   2   8   0.0197   0.0293   0.0151  -0.0012   0.0021   0.0074   0.00    1.1
2173 373983.000    728279.8148  -5271276.9712   3504619.6175   2   8   0.0197   0.0292   0.0150   0.0003   0.0022   0.0075   0.00    1.1
2173 373984.000    728279.8130  -5271276.9721   3504619.6156   2   8   0.0196   0.0291   0.0150  -0.0009   0.0020   0.0073   0.00    1.1
2173 373985.000    728279.8110  -5271276.9701   3504619.6150   2   8   0.0196   0.0291   0.0150  -0.0017   0.0024   0.0073   0.00    1.1
2173 373986.000    728279.8092  -5271276.9698   3504619.6150   2   8   0.0196   0.0290   0.0149  -0.0013   0.0023   0.0074   0.00    1.1
2173 373987.000    728279.8093  -5271276.9636   3504619.6145   2   8   0.0196   0.0289   0.0150  -0.0019   0.0024   0.0072   0.00    1.1
2173 373988.000    728279.8098  -5271276.9660   3504619.6168   2   8   0.0194   0.0288   0.0148  -0.0017   0.0020   0.0075   0.00    1.1
2173 373989.000    728279.8083  -5271276.9766   3504619.6178   2   8   0.0195   0.0288   0.0149  -0.0014   0.0021   0.0072   0.00    1.1
2173 373990.000    728279.8057  -5271276.9812   3504619.6174   2   8   0.0195   0.0287   0.0149   0.0003   0.0025   0.0073   0.00    1.1
2173 373991.000    728279.8058  -5271276.9877   3504619.6187   2   8   0.0195   0.0287   0.0148   0.0009   0.0027   0.0073   0.00    1.1
2173 373992.000    728279.8052  -5271276.9904   3504619.6177   2   8   0.0194   0.0286   0.0147  -0.0009   0.0024   0.0072   0.00    1.1
2173 373993.000    728279.8048  -5271276.9970   3504619.6205   2   8   0.0194   0.0285   0.0147  -0.0016   0.0022   0.0073   0.00    1.1
2173 373994.000    728279.8026  -5271276.9961   3504619.6218   2   8   0.0194   0.0285   0.0147  -0.0010   0.0024   0.0072   0.00    1.1
2173 373995.000    728279.8021  -5271276.9967   3504619.6197   2   8   0.0193   0.0284   0.0147  -0.0007   0.0022   0.0074   0.00    1.1
2173 373996.000    728279.7997  -5271276.9893   3504619.6133   2   8   0.0193   0.0283   0.0146  -0.0013   0.0024   0.0072   0.00    1.1
2173 373997.000    728279.8010  -5271276.9854   3504619.6128   2   8   0.0192   0.0283   0.0145  -0.0017   0.0025   0.0071   0.00    1.1
2173 373998.000    728279.8008  -5271276.9800   3504619.6094   2   8   0.0193   0.0282   0.0146  -0.0013   0.0026   0.0073   0.00    1.1
2173 373999.000    728279.8014  -5271276.9842   3504619.6085   2   8   0.0192   0.0281   0.0145  -0.0008   0.0025   0.0071   0.00    1.1
2173 374000.000    728279.8015  -5271276.9876   3504619.6081   2   8   0.0192   0.0281   0.0145  -0.0013   0.0023   0.0072   0.00    1.1
2173 374001.000    728279.7990  -5271276.9912   3504619.6103   2   8   0.0192   0.0280   0.0144  -0.0014   0.0025   0.0070   0.00    1.1
2173 374002.000    728279.7983  -5271276.9920   3504619.6096   2   8   0.0191   0.0279   0.0144  -0.0012   0.0023   0.0070   0.00    1.1
2173 374003.000    728279.7947  -5271277.0039   3504619.6120   2   8   0.0191   0.0279   0.0144  -0.0007   0.0026   0.0071   0.00    1.1
2173 374004.000    728279.7948  -5271277.0077   3504619.6088   2   8   0.0190   0.0278   0.0143  -0.0006   0.0025   0.0069   0.00    1.1
2173 374005.000    728279.7905  -5271277.0161   3504619.6128   2   8   0.0190   0.0278   0.0143   0.0005   0.0026   0.0074   0.00    1.1
2173 374006.000    728279.7915  -5271277.0165   3504619.6108   2   8   0.0190   0.0277   0.0142   0.0007   0.0024   0.0072   0.00    1.1
2173 374007.000    728279.7885  -5271277.0221   3504619.6117   2   8   0.0190   0.0277   0.0142   0.0014   0.0029   0.0072   0.00    1.1
2173 374008.000    728279.7876  -5271277.0223   3504619.6132   2   8   0.0189   0.0276   0.0141  -0.0007   0.0030   0.0072   0.00    1.1
2173 374009.000    728279.7881  -5271277.0227   3504619.6102   2   8   0.0190   0.0276   0.0142   0.0011   0.0029   0.0071   0.00    1.1
2173 374010.000    728279.7892  -5271277.0295   3504619.6134   2   8   0.0190   0.0274   0.0142   0.0014   0.0027   0.0071   0.00    1.1
2173 374011.000    728279.7867  -5271277.0289   3504619.6128   2   8   0.0189   0.0274   0.0141  -0.0004   0.0030   0.0071   0.00    1.1
2173 374012.000    728279.7852  -5271277.0373   3504619.6152   2   8   0.0188   0.0273   0.0140  -0.0007   0.0023   0.0071   0.00    1.1
2173 374013.000    728279.7852  -5271277.0437   3504619.6151   2   8   0.0188   0.0273   0.0140   0.0013   0.0029   0.0071   0.00    1.1
2173 374014.000    728279.7841  -5271277.0456   3504619.6172   2   8   0.0188   0.0272   0.0140   0.0012   0.0027   0.0069   0.00    1.1
2173 374015.000    728279.7817  -5271277.0489   3504619.6176   2   8   0.0188   0.0272   0.0140   0.0010   0.0029   0.0070   0.00    1.1
2173 374016.000    728279.7812  -5271277.0536   3504619.6180   2   8   0.0188   0.0270   0.0140   0.0005   0.0024   0.0069   0.00    1.1
2173 374017.000    728279.7802  -5271277.0513   3504619.6188   2   8   0.0187   0.0270   0.0139   0.0014   0.0029   0.0072   0.00    1.1
2173 374018.000    728279.7785  -5271277.0541   3504619.6195   2   8   0.0187   0.0269   0.0139  -0.0011   0.0026   0.0071   0.00    1.1
2173 374019.000    728279.7776  -5271277.0562   3504619.6207   2   8   0.0187   0.0269   0.0138  -0.0008   0.0025   0.0070   0.00    1.1
2173 374020.000    728279.7757  -5271277.0586   3504619.6221   2   8   0.0186   0.0268   0.0138   0.0006   0.0028   0.0070   0.00    1.1
2173 374021.000    728279.7753  -5271277.0614   3504619.6239   2   8   0.0186   0.0268   0.0138  -0.0014   0.0028   0.0069   0.00    1.1
2173 374022.000    728279.7761  -5271277.0712   3504619.6313   2   8   0.0187   0.0268   0.0138   0.0017   0.0029   0.0071   0.00    1.1
2173 374023.000    728279.7765  -5271277.0674   3504619.6306   2   8   0.0186   0.0267   0.0138   0.0014   0.0030   0.0069   0.00    1.1
2173 374024.000    728279.7759  -5271277.0716   3504619.6328   2   8   0.0185   0.0267   0.0137   0.0015   0.0030   0.0072   0.00    1.1
2173 374025.000    728279.7745  -5271277.0794   3504619.6358   2   8   0.0185   0.0266   0.0136   0.0018   0.0028   0.0069   0.00    1.1
2173 374026.000    728279.7723  -5271277.0804   3504619.6368   2   8   0.0185   0.0265   0.0136  -0.0011   0.0023   0.0069   0.00    1.1
2173 374027.000    728279.7728  -5271277.0838   3504619.6380   2   8   0.0185   0.0265   0.0137  -0.0012   0.0029   0.0072   0.00    1.1
2173 374028.000    728279.7683  -5271277.0931   3504619.6423   2   8   0.0184   0.0264   0.0136  -0.0006   0.0027   0.0072   0.00    1.1
2173 374029.000    728279.7671  -5271277.0964   3504619.6414   2   8   0.0185   0.0264   0.0136   0.0021   0.0030   0.0070   0.00    1.1
2173 374030.000    728279.7662  -5271277.0866   3504619.6398   2   8   0.0183   0.0263   0.0136   0.0018   0.0028   0.0068   0.00    1.1
2173 374031.000    728279.7644  -5271277.0834   3504619.6419   2   8   0.0184   0.0263   0.0135   0.0018   0.0029   0.0070   0.00    1.1
2173 374032.000    728279.7641  -5271277.0915   3504619.6447   2   8   0.0184   0.0262   0.0135   0.0011   0.0027   0.0068   0.00    1.1
