     2.11           OBSERVATION DATA    M (MIXED)           RINEX VERSION / TYPE
CONVBIN 2.4.3                           20210831 165215 UTC PGM / RUN BY / DATE 
log: logs/21_08_31_06_47_46_al50_SW.rtcm                    COMMENT             
format: RTCM 3, station ID: 2694                            COMMENT             
2694                                                        MARKER NAME         
                                                            MARKER NUMBER       
                                                            OBSERVER / AGENCY   
                    SWFT                                    REC # / TYPE / VERS 
                    NULL                                    ANT # / TYPE        
   235323.3548 -5393046.7222  3385767.9472                  APPROX POSITION XYZ 
        0.0000        0.0000        0.0000                  ANTENNA: DELTA H/E/N
     1     1                                                WAVELENGTH FACT L1/2
     5    C1    L1    P2    L2    C2                        # / TYPES OF OBSERV 
  2021     8    31     6    47   51.0000000     GPS         TIME OF FIRST OBS   
  2021     8    31     7    17   49.0000000     GPS         TIME OF LAST OBS    
                                                            END OF HEADER       
 21  8 31  6 47 51.0000000  0 23G 4G 7G 8G 9G14G21G27G30C20C23C25C28
                                C32C34E 1E 4E 9E13E19E21E26E31E33
  23117556.635   121483568.673    23117558.332    94662519.523                  
  20886154.797   109757496.716    20886154.279    85525324.966                  
  20583714.257   108168106.095    20583716.759    84286825.500                  
  21554357.476   113268876.019    21554359.799    88261452.493                  
  24138748.603   126849974.144    24138749.783    98844136.316                  
  22756832.184   119587955.183    22756831.702    93185418.960                  
  22451631.148   117984087.149    22451633.024    91935645.528                  
  23133411.801   121566859.094    23133414.017    94727412.667                  
                 134928595.210                   134928595.210    25911612.924  
                 116441841.183                   116441841.183    22361421.959  
                 129667611.865                   129667611.865    24901299.884  
                 120037548.640                   120037548.640    23051949.480  
                 133762234.279                   133762234.279    25687637.926  
                 134732022.824                   134732022.824    25873868.115  
  24310730.194   127753721.020                                                  
  25018638.557   131473843.145                                                  
  24741442.908   130017153.640                                                  
  26930128.202   141518734.866                                                  
  26919217.181   141461417.348                                                  
  26520562.387   139366467.431                                                  
  25033005.662   131549300.952                                                  
  25696747.465   135037296.504                                                  
  26934310.465   141540773.660                                                  
 21  8 31  6 47 52.0000000  0 23G 4G 7G 8G 9G14G21G27G30C20C23C25C28
                                C32C34E 1E 4E 9E13E19E21E26E31E33
  23118223.721   121487074.153    23118225.401    94665251.062                  
  20885815.214   109755712.178    20885814.678    85523934.419                  
  20583978.308   108169493.625    20583980.774    84287906.691                  
  21554770.072   113271044.219    21554772.377    88263141.992                  
  24138308.418   126847661.039    24138309.615    98842333.899                  
  22756420.553   119585792.031    22756420.053    93183733.387                  
  22452212.481   117987142.060    22452214.339    91938025.976                  
  23132859.505   121563956.672    23132861.703    94725151.039                  
                 134929273.919                   134929273.919    25911743.243  
                 116441975.219                   116441975.219    22361447.708  
                 129669493.923                   129669493.923    24901661.303  
                 120034986.492                   120034986.492    23051457.439  
                 133764595.139                   133764595.139    25688091.299  
                 134734703.143                   134734703.143    25874382.868  
  24310795.827   127754065.839                                                  
  25018918.654   131475315.165                                                  
  24741243.508   130016105.828                                                  
  26930294.956   141519611.128                                                  
  26919784.397   141464398.090                                                  
  26520855.743   139368008.991                                                  
  25032700.334   131547696.560                                                  
  25696513.649   135036067.824                                                  
  26933756.847   141537864.368                                                  
 21  8 31  6 47 53.0000000  0 23G 4G 7G 8G 9G14G21G27G30C20C23C25C28
                                C32C34E 1E 4E 9E13E19E21E26E31E33
  23118890.825   121490579.789    23118892.505    94667982.730                  
  20885475.685   109753927.910    20885475.167    85522544.078                  
  20584242.466   108170881.731    20584244.932    84288988.331                  
  21555182.757   113273212.894    21555185.080    88264831.871                  
  24137868.286   126845348.062    24137869.483    98840531.582                  
  22756008.976   119583629.175    22756008.476    93182048.047                  
  22452793.885   117990197.331    22452795.744    91940406.711                  
  23132307.191   121561054.324    23132309.407    94722889.472                  
                 134929953.067                   134929953.067    25911873.687  
                 116442109.445                   116442109.445    22361473.475  
                 129671376.138                   129671376.138    24902022.758  
                 120032424.687                   120032424.687    23050965.487  
                 133766956.090                   133766956.090    25688544.708  
                 134737383.745                   134737383.745    25874897.639  
  24310861.442   127754410.721                                                  
  25019198.858   131476787.571                                                  
  24741044.197   130015058.456                                                  
  26930461.781   141520487.847                                                  
  26920351.595   141467378.794                                                  
  26521149.081   139369550.547                                                  
  25032395.096   131546092.511                                                  
  25696279.833   135034839.180                                                  
  26933203.211   141534955.089                                                  
 21  8 31  6 47 54.0000000  0 23G 4G 7G 8G 9G14G21G27G30C20C23C25C28
                                C32C34E 1E 4E 9E13E19E21E26E31E33
  23119557.947   121494085.595    23119559.645    94670714.527                  
  20885136.192   109752143.918    20885135.656    85521153.952                  
  20584506.713   108172270.426    20584509.197    84290070.434                  
  21555595.532   113275382.055    21555597.855    88266522.124                  
  24137428.154   126843035.218    24137429.351    98838729.363                  
  22755597.453   119581466.619    22755596.952    93180362.938                  
  22453375.343   117993252.943    22453377.220    91942787.703                  
  23131754.896   121558152.028    23131757.111    94720627.942                  
                 134930632.648                   134930632.648    25912004.184  
                 116442243.868                   116442243.868    22361499.296  
                 129673258.507                   129673258.507    24902384.266  
                 120029863.214                   120029863.214    23050473.588  
                 133769317.136                   133769317.136    25688998.116  
                 134740064.638                   134740064.638    25875412.481  
  24310927.075   127754755.639                                                  
  25019479.116   131478260.333                                                  
  24740844.957   130014011.509                                                  
  26930628.696   141521365.007                                                  
  26920918.794   141470359.492                                                  
  26521442.437   139371092.090                                                  
  25032089.946   131544488.817                                                  
  25696046.034   135033610.594                                                  
  26932649.593   141532045.803                                                  
 21  8 31  6 47 55.0000000  0 23G 4G 7G 8G 9G14G21G27G30C20C23C25C28
                                C32C34E 1E 4E 9E13E19E21E26E31E33
  23120225.105   121497591.565    23120226.803    94673446.452                  
  20884796.752   109750360.208    20884796.233    85519764.050                  
  20584771.085   108173659.700    20584773.569    84291152.980                  
  21556008.395   113277551.704    21556010.718    88268212.762                  
  24136988.058   126840722.497    24136989.255    98836927.243                  
  22755185.983   119579304.358    22755185.500    93178678.062                  
  22453956.855   117996308.898    22453958.731    91945168.969                  
  23131202.618   121555249.800    23131204.833    94718366.466                  
                 134931312.668                   134931312.668    25912134.789  
                 116442378.484                   116442378.484    22361525.135  
                 129675141.039                   129675141.039    24902745.774  
                 120027302.086                   120027302.086    23049981.744  
                 133771678.276                   133771678.276    25689451.561  
                 134742745.813                   134742745.813    25875927.359  
  24310992.726   127755100.604                                                  
  25019759.445   131479733.484                                                  
  24740645.825   130012964.997                                                  
  26930795.718   141522242.633                                                  
  26921486.028   141473340.179                                                  
  26521735.775   139372633.637                                                  
  25031784.833   131542885.482                                                  
  25695812.254   135032382.043                                                  
  26932095.993   141529136.547                                                  
 21  8 31  6 47 56.0000000  0 23G 4G 7G 8G 9G14G21G27G30C20C23C25C28
                                C32C34E 1E 4E 9E13E19E21E26E31E33
  23120892.299   121501097.706    23120893.996    94676178.508                  
  20884457.383   109748576.771    20884456.865    85518374.359                  
  20585035.564   108175049.543    20585038.048    84292235.977                  
  21556421.384   113279721.846    21556423.671    88269903.782                  
  24136547.997   126838409.902    24136549.177    98835125.224                  
  22754774.584   119577142.409    22754774.102    93176993.427                  
  22454538.456   117999365.214    22454540.332    91947550.516                  
  23130650.358   121552347.639    23130652.573    94716105.042                  
                 134931993.124                   134931993.124    25912265.447  
                 116442513.297                   116442513.297    22361551.045  
                 129677023.722                   129677023.722    24903107.318  
                 120024741.293                   120024741.293    23049489.952  
                 133774039.509                   133774039.509    25689905.005  
                 134745427.270                   134745427.270    25876442.327  
  24311058.377   127755445.637                                                  
  25020039.846   131481207.012                                                  
  24740446.764   130011918.913                                                  
  26930962.793   141523120.711                                                  
  26922053.227   141476320.862                                                  
  26522029.113   139374175.177                                                  
  25031479.809   131541282.507                                                  
  25695578.473   135031153.551                                                  
  26931542.375   141526227.285                                                  
 21  8 31  6 47 57.0000000  0 23G 4G 7G 8G 9G14G21G27G30C20C23C25C28
                                C32C34E 1E 4E 9E13E19E21E26E31E33
  23121559.546   121504604.011    23121561.226    94678910.691                  
  20884118.068   109746793.606    20884117.532    85516984.882                  
  20585300.169   108176439.969    20585302.635    84293319.426                  
  21556834.427   113281892.473    21556836.732    88271595.177                  
  24136107.937   126836097.443    24136109.134    98833323.305                  
  22754363.239   119574980.757    22754362.739    93175309.020                  
  22455120.128   118002421.868    22455122.005    91949932.320                  
  23130098.116   121549445.540    23130100.313    94713843.668                  
                 134932674.020                   134932674.020    25912396.195  
                 116442648.302                   116442648.302    22361576.955  
                 129678906.563                   129678906.563    24903468.898  
                 120022180.840                   120022180.840    23048998.268  
                 133776400.837                   133776400.837    25690358.467  
                 134748109.014                   134748109.014    25876957.312  
  24311124.063   127755790.719                                                  
  25020320.318   131482680.915                                                  
  24740247.774   130010873.245                                                  
  26931129.976   141523999.243                                                  
  26922620.425   141479301.523                                                  
  26522322.468   139375716.707                                                  
  25031174.820   131539679.890                                                  
  25695344.729   135029925.085                                                  
  26930988.757   141523318.046                                                  
 21  8 31  6 47 58.0000000  0 23G 4G 7G 8G 9G14G21G27G30C20C23C25C28
                                C32C34E 1E 4E 9E13E19E21E26E31E33
  23122226.793   121508110.492    23122228.473    94681643.016                  
  20883778.807   109745010.723    20883778.253    85515595.620                  
  20585564.863   108177830.983    20585567.347    84294403.333                  
  21557247.576   113284063.598    21557249.899    88273286.960                  
  24135667.912   126833785.100    24135669.092    98831521.484                  
  22753951.948   119572819.398    22753951.465    93173624.848                  
  22455701.855   118005478.870    22455703.713    91952314.402                  
  23129545.873   121546543.520    23129548.107    94711582.352                  
                 134933355.351                   134933355.351    25912527.032  
                 116442783.501                   116442783.501    22361602.918  
                 129680789.560                   129680789.560    24903830.513  
                 120019620.728                   120019620.728    23048506.602  
                 133778762.253                   133778762.253    25690811.965  
                 134750791.047                   134750791.047    25877472.387  
  24311189.714   127756135.851                                                  
  25020600.862   131484155.190                                                  
  24740048.874   130009828.030                                                  
  26931297.265   141524878.237                                                  
  26923187.624   141482282.171                                                  
  26522615.806   139377258.225                                                  
  25030869.921   131538077.632                                                  
  25695110.966   135028696.692                                                  
  26930435.157   141520408.820                                                  
 21  8 31  6 47 59.0000000  0 23G 4G 7G 8G 9G14G21G27G30C20C23C25C28
                                C32C34E 1E 4E 9E13E19E21E26E31E33
  23122894.076   121511617.125    23122895.774    94684375.453                  
  20883439.581   109743228.116    20883439.045    85514206.578                  
  20585829.664   108179222.578    20585832.148    84295487.695                  
  21557660.815   113286235.207    21557663.138    88274979.125                  
  24135227.923   126831472.902    24135229.121    98829719.771                  
  22753540.692   119570658.341    22753540.228    93171940.906                  
  22456283.634   118008536.207    22456285.528    91954696.743                  
  23128993.667   121543641.562    23128995.865    94709321.086                  
                 134934037.122                   134934037.122    25912657.976  
                 116442918.890                   116442918.890    22361628.918  
                 129682672.711                   129682672.711    24904192.164  
                 120017060.952                   120017060.952    23048015.043  
                 133781123.765                   133781123.765    25691265.463  
                 134753473.365                   134753473.365    25877987.479  
  24311255.418   127756481.025                                                  
  25020881.477   131485629.856                                                  
  24739850.063   130008783.232                                                  
  26931464.609   141525757.668                                                  
  26923754.822   141485262.828                                                  
  26522909.162   139378799.747                                                  
  25030565.093   131536475.740                                                  
  25694877.221   135027468.335                                                  
  26929881.556   141517499.590                                                  
 21  8 31  6 48  0.0000000  0 23G 4G 7G 8G 9G14G21G27G30C20C23C25C28
                                C32C34E 1E 4E 9E13E19E21E26E31E33
  23123561.395   121515123.929    23123563.092    94687108.032                  
  20883100.392   109741445.785    20883099.873    85512817.751                  
  20586094.572   108180614.739    20586097.056    84296572.496                  
  21558074.162   113288407.309    21558076.485    88276671.672                  
  24134787.934   126829160.823    24134789.132    98827918.153                  
  22753129.526   119568497.586    22753129.044    93170257.198                  
  22456865.503   118011593.903    22456867.379    91957079.360                  
  23128441.443   121540739.674    23128443.658    94707059.875                  
                 134934719.329                   134934719.329    25912788.974  
                 116443054.477                   116443054.477    22361654.953  
                 129684556.020                   129684556.020    24904553.816  
                 120014501.520                   120014501.520    23047523.520  
                 133783485.367                   133783485.367    25691718.979  
                 134756155.964                   134756155.964    25878502.643  
  24311321.105   127756826.257                                                  
  25021162.181   131487104.889                                                  
  24739651.324   130007738.864                                                  
  26931632.042   141526637.559                                                  
  26924322.021   141488243.441                                                  
  26523202.500   139380341.263                                                  
  25030260.337   131534874.203                                                  
  25694643.477   135026240.031                                                  
  26929327.938   141514590.372                                                  
 21  8 31  6 48  1.0000000  0 23G 4G 7G 8G 9G14G21G27G30C20C23C25C28
                                C32C34E 1E 4E 9E13E19E21E26E31E33
  23124228.767   121518630.906    23124230.464    94689840.739                  
  20882761.291   109739663.730    20882760.755    85511429.137                  
  20586359.623   108182007.478    20586362.107    84297657.742                  
  21558487.597   113290579.887    21558489.902    88278364.590                  
  24134347.999   126826848.880    24134349.178    98826116.637                  
  22752718.396   119566337.145    22752717.913    93168573.743                  
  22457447.426   118014651.933    22457449.302    91959462.243                  
  23127889.236   121537837.842    23127891.452    94704798.707                  
                 134935401.969                   134935401.969    25912920.079  
                 116443190.258                   116443190.258    22361681.042  
                 129686439.488                   129686439.488    24904915.520  
                 120011942.422                   120011942.422    23047032.086  
                 133785847.062                   133785847.062    25692172.513  
                 134758838.849                   134758838.849    25879017.860  
  24311386.827   127757171.533                                                  
  25021442.939   131488580.301                                                  
  24739452.656   130006694.928                                                  
  26931799.564   141527517.902                                                  
  26924889.202   141491224.075                                                  
  26523495.838   139381882.766                                                  
  25029955.635   131533273.018                                                  
  25694409.732   135025011.762                                                  
  26928774.338   141511681.160                                                  
 21  8 31  6 48  2.0000000  0 23G 4G 7G 8G 9G14G21G27G30C20C23C25C28
                                C32C34E 1E 4E 9E13E19E21E26E31E33
  23124896.157   121522138.039    23124897.837    94692573.570                  
  20882422.244   109737881.953    20882421.708    85510040.739                  
  20586624.764   108183400.786    20586627.248    84298743.442                  
  21558901.122   113292752.957    21558903.427    88280057.890                  
  24133908.082   126824537.054    24133909.261    98824315.214                  
  22752307.337   119564177.001    22752306.854    93166890.511                  
  22458029.420   118017710.320    22458031.296    91961845.402                  
  23127337.066   121534936.087    23127339.263    94702537.598                  
                 134936085.048                   134936085.048    25913051.255  
                 116443326.234                   116443326.234    22361707.166  
                 129688323.111                   129688323.111    24905277.261  
                 120009383.668                   120009383.668    23046540.688  
                 133788208.850                   133788208.850    25692626.082  
                 134761522.018                   134761522.018    25879533.132  
  24311452.514   127757516.867                                                  
  25021723.787   131490056.093                                                  
  24739254.096   130005651.418                                                  
  26931967.175   141528398.701                                                  
  26925456.400   141494204.656                                                  
  26523789.176   139383424.270                                                  
  25029651.021   131531672.200                                                  
  25694176.023   135023783.542                                                  
  26928220.738   141508771.974                                                  
 21  8 31  6 48  3.0000000  0 23G 4G 7G 8G 9G14G21G27G30C20C23C25C28
                                C32C34E 1E 4E 9E13E19E21E26E31E33
  23125563.583   121525645.344    23125565.263    94695306.535                  
  20882083.215   109736100.450    20882082.697    85508652.550                  
  20586889.994   108184794.687    20586892.478    84299829.598                  
  21559314.719   113294926.524    21559317.042    88281751.578                  
  24133468.182   126822225.366    24133469.361    98822513.903                  
  22751896.331   119562017.156    22751895.849    93165207.515                  
  22458611.485   118020769.046    22458613.362    91964228.824                  
  23126784.877   121532034.390    23126787.093    94700276.538                  
                 134936768.566                   134936768.566    25913182.521  
                 116443462.405                   116443462.405    22361733.309  
                 129690206.887                   129690206.887    24905639.019  
                 120006825.250                   120006825.250    23046049.379  
                 133790570.734                   133790570.734    25693079.651  
                 134764205.476                   134764205.476    25880048.474  
  24311518.236   127757862.243                                                  
  25022004.688   131491532.259                                                  
  24739055.607   130004608.339                                                  
  26932134.858   141529279.945                                                  
  26926023.581   141497185.251                                                  
  26524082.496   139384965.774                                                  
  25029346.462   131530071.737                                                  
  25693942.314   135022555.382                                                  
  26927667.138   141505862.782                                                  
 21  8 31  6 48  4.0000000  0 23G 4G 7G 8G 9G14G21G27G30C20C23C25C28
                                C32C34E 1E 4E 9E13E19E21E26E31E33
  23126231.027   121529152.805    23126232.724    94698039.617                  
  20881744.258   109734319.222    20881743.740    85507264.583                  
  20587155.367   108186189.167    20587157.833    84300916.208                  
  21559728.440   113297100.563    21559730.763    88283445.632                  
  24133028.300   126819913.810    24133029.480    98820712.689                  
  22751485.379   119559857.604    22751484.897    93163524.750                  
  22459193.605   118023828.126    22459195.481    91966612.519                  
  23126232.724   121529132.766    23126234.940    94698015.530                  
                 134937452.521                   134937452.521    25913313.858  
                 116443598.771                   116443598.771    22361759.505  
                 129692090.821                   129692090.821    24906000.795  
                 120004267.176                   120004267.176    23045558.124  
                 133792932.708                   133792932.708    25693533.239  
                 134766889.215                   134766889.215    25880563.853  
  24311583.976   127758207.672                                                  
  25022285.660   131493008.809                                                  
  24738857.207   130003565.694                                                  
  26932302.666   141530161.653                                                  
  26926590.761   141500165.818                                                  
  26524375.833   139386507.255                                                  
  25029041.956   131528471.644                                                  
  25693708.605   135021327.257                                                  
  26927113.538   141502953.596                                                  
 21  8 31  6 48  5.0000000  0 23G 4G 7G 8G 9G14G21G27G30C20C23C25C28
                                C32C34E 1E 4E 9E13E19E21E26E31E33
  23126898.506   121532660.436    23126900.204    94700772.836                  
  20881405.354   109732538.279    20881404.836    85505876.832                  
  20587420.847   108187584.239    20587423.313    84302003.272                  
  21560142.233   113299275.095    21560144.556    88285140.074                  
  24132588.436   126817602.368    24132589.634    98818911.563                  
  22751074.499   119557698.364    22751074.017    93161842.227                  
  22459775.777   118026887.538    22459777.654    91968996.480                  
  23125680.571   121526231.210    23125682.787    94695754.582                  
                 134938136.906                   134938136.906    25913445.303  
                 116443735.328                   116443735.328    22361785.719  
                 129693974.911                   129693974.911    24906362.625  
                 120001709.439                   120001709.439    23045066.940  
                 133795294.773                   133795294.773    25693986.862  
                 134769573.242                   134769573.242    25881079.302  
  24311649.716   127758553.153                                                  
  25022566.704   131494485.731                                                  
  24738658.861   130002523.484                                                  
  26932470.528   141531043.812                                                  
  26927157.942   141503146.384                                                  
  26524669.171   139388048.735                                                  
  25028737.539   131526871.894                                                  
  25693474.914   135020099.175                                                  
  26926559.937   141500044.434                                                  
 21  8 31  6 48  6.0000000  0 23G 4G 7G 8G 9G14G21G27G30C20C23C25C28
                                C32C34E 1E 4E 9E13E19E21E26E31E33
  23127566.021   121536168.253    23127567.701    94703506.204                  
  20881066.522   109730757.594    20881065.986    85504489.288                  
  20587686.416   108188979.880    20587688.900    84303090.785                  
  21560556.115   113301450.125    21560558.438    88286834.906                  
  24132148.626   126815291.062    24132149.805    98817110.552                  
  22750663.654   119555539.437    22750663.172    93160159.944                  
  22460358.039   118029947.249    22460359.898    91971380.669                  
  23125128.436   121523329.700    23125130.634    94693493.663                  
                 134938821.735                   134938821.735    25913576.801  
                 116443872.078                   116443872.078    22361811.986  
                 129695859.156                   129695859.156    24906724.473  
                 119999152.039                   119999152.039    23044575.828  
                 133797656.930                   133797656.930    25694440.485  
                 134772257.552                   134772257.552    25881594.788  
  24311715.474   127758898.667                                                  
  25022847.820   131495963.026                                                  
  24738460.622   130001481.661                                                  
  26932638.479   141531926.418                                                  
  26927725.141   141506126.950                                                  
  26524962.491   139389590.204                                                  
  25028433.194   131525272.532                                                  
  25693241.223   135018871.144                                                  
  26926006.337   141497135.246                                                  
 21  8 31  6 48  7.0000000  0 23G 4G 7G 8G 9G14G21G27G30C20C23C25C28
                                C32C34E 1E 4E 9E13E19E21E26E31E33
  23128233.554   121539676.239    23128235.252    94706239.695                  
  20880727.707   109728977.179    20880727.189    85503101.954                  
  20587952.093   108190376.096    20587954.594    84304178.746                  
  21560970.123   113303625.652    21560972.446    88288530.122                  
  24131708.816   126812979.890    24131709.995    98815309.632                  
  22750252.899   119553380.807    22750252.399    93158477.899                  
  22460940.337   118033007.321    22460942.214    91973765.141                  
  23124576.302   121520428.265    23124578.517    94691232.804                  
                 134939506.995                   134939506.995    25913708.406  
                 116444009.028                   116444009.028    22361838.271  
                 129697743.564                   129697743.564    24907086.356  
                 119996594.986                   119996594.986    23044084.752  
                 133800019.180                   133800019.180    25694894.126  
                 134774942.143                   134774942.143    25882110.345  
  24311781.232   127759244.233                                                  
  25023129.025   131497440.706                                                  
  24738262.436   130000440.254                                                  
  26932806.519   141532809.473                                                  
  26928292.321   141509107.508                                                  
  26525255.847   139391131.661                                                  
  25028128.920   131523673.528                                                  
  25693007.532   135017643.165                                                  
  26925452.737   141494226.054                                                  
 21  8 31  6 48  8.0000000  0 23G 4G 7G 8G 9G14G21G27G30C20C23C25C28
                                C32C34E 1E 4E 9E13E19E21E26E31E33
  23128901.141   121543184.337    23128902.821    94708973.278                  
  20880388.964   109727197.087    20880388.446    85501714.867                  
  20588217.912   108191772.900    20588220.396    84305267.164                  
  21561384.202   113305801.628    21561386.507    88290225.685                  
  24131269.041   126810668.839    24131270.221    98813508.817                  
  22749842.180   119551222.462    22749841.679    93156796.069                  
  22461522.724   118036067.769    22461524.601    91976149.907                  
  23124024.202   121517526.937    23124026.418    94688972.028                  
                 134940192.694                   134940192.694    25913840.083  
                 116444146.168                   116444146.168    22361864.628  
                 129699628.122                   129699628.122    24907448.276  
                 119994038.266                   119994038.266    23043593.764  
                 133802381.524                   133802381.524    25695347.802  
                 134777627.023                   134777627.023    25882625.938  
  24311847.026   127759589.914                                                  
  25023410.283   131498918.761                                                  
  24738064.376   129999399.435                                                  
  26932974.649   141533693.021                                                  
  26928859.484   141512087.997                                                  
  26525549.185   139392673.168                                                  
  25027824.700   131522074.840                                                  
  25692773.877   135016415.254                                                  
  26924899.155   141491317.009                                                  
 21  8 31  6 48  9.0000000  0 23G 4G 7G 8G 9G14G21G27G30C20C23C25C28
                                C32C34E 1E 4E 9E13E19E21E26E31E33
  23129568.746   121546692.640    23129570.443    94711707.019                  
  20880050.275   109725417.235    20880049.738    85500327.970                  
  20588483.821   108193170.284    20588486.305    84306356.035                  
  21561798.352   113307978.108    21561800.675    88291921.643                  
  24130829.285   126808357.917    24130830.482    98811708.101                  
  22749431.514   119549064.421    22749431.014    93155114.480                  
  22462105.183   118039128.563    22462107.059    91978534.937                  
  23123472.103   121514625.639    23123474.319    94686711.280                  
                 134940878.832                   134940878.832    25913971.867  
                 116444283.504                   116444283.504    22361890.985  
                 129701512.835                   129701512.835    24907810.213  
                 119991481.890                   119991481.890    23043102.849  
                 133804743.957                   133804743.957    25695801.479  
                 134780312.187                   134780312.187    25883141.602  
  24311912.802   127759935.598                                                  
  25023691.613   131500397.195                                                  
  24737866.387   129998358.920                                                  
  26933142.867   141534576.985                                                  
  26929426.665   141515068.508                                                  
  26525842.505   139394214.625                                                  
  25027520.534   131520476.528                                                  
  25692540.221   135015187.363                                                  
  26924345.572   141488407.870                                                  
 21  8 31  6 48 10.0000000  0 23G 4G 7G 8G 9G14G21G27G30C20C23C25C28
                                C32C34E 1E 4E 9E13E19E21E26E31E33
  23130236.386   121550201.099    23130238.084    94714440.878                  
  20879711.639   109723637.659    20879711.103    85498941.285                  
  20588749.837   108194568.235    20588752.321    84307445.347                  
  21562212.645   113310155.090    21562214.932    88293617.993                  
  24130389.564   126806047.130    24130390.743    98809907.488                  
  22749020.919   119546906.692    22749020.419    93153433.132                  
  22462687.695   118042189.785    22462689.572    91980920.308                  
  23122920.022   121511724.426    23122922.238    94684450.593                  
                 134941565.407                   134941565.407    25914103.705  
                 116444421.036                   116444421.036    22361917.395  
                 129703397.711                   129703397.711    24908172.186  
                 119988925.851                   119988925.851    23042611.987  
                 133807106.481                   133807106.481    25696255.173  
                 134782997.633                   134782997.633    25883657.320  
  24311978.578   127760281.335                                                  
  25023973.014   131501875.999                                                  
  24737668.452   129997318.858                                                  
  26933311.158   141535461.410                                                  
  26929993.827   141518049.018                                                  
  26526135.843   139395756.076                                                  
  25027216.456   131518878.577                                                  
  25692306.584   135013959.529                                                  
  26923792.008   141485498.746                                                  
 21  8 31  6 48 11.0000000  0 23G 4G 7G 8G 9G14G21G27G30C20C23C25C28
                                C32C34E 1E 4E 9E13E19E21E26E31E33
  23130904.044   121553709.728    23130905.742    94717174.879                  
  20879373.039   109721858.368    20879372.520    85497554.829                  
  20589015.979   108195966.761    20589018.462    84308535.110                  
  21562626.974   113312332.542    21562629.297    88295314.711                  
  24129949.843   126803736.469    24129951.040    98808106.973                  
  22748610.361   119544749.256    22748609.878    93151752.016                  
  22463270.297   118045251.301    22463272.173    91983305.907                  
  23122367.940   121508823.258    23122370.156    94682189.946                  
                 134942252.414                   134942252.414    25914235.632  
                 116444558.763                   116444558.763    22361943.842  
                 129705282.738                   129705282.738    24908534.176  
                 119986370.156                   119986370.156    23042121.178  
                 133809469.098                   133809469.098    25696708.886  
                 134785683.364                   134785683.364    25884173.074  
  24312044.372   127760627.110                                                  
  25024254.523   131503355.187                                                  
  24737470.624   129996279.218                                                  
  26933479.538   141536346.293                                                  
  26930561.008   141521029.505                                                  
  26526429.163   139397297.533                                                  
  25026912.469   131517280.993                                                  
  25692072.946   135012731.738                                                  
  26923238.408   141482589.651                                                  
 21  8 31  6 48 12.0000000  0 23G 4G 7G 8G 9G14G21G27G30C20C23C25C28
                                C32C34E 1E 4E 9E13E19E21E26E31E33
  23131571.738   121557218.513    23131573.436    94719908.995                  
  20879034.492   109720079.350    20879033.974    85496168.579                  
  20589282.227   108197365.876    20589284.693    84309625.328                  
  21563041.446   113314510.490    21563043.751    88297011.809                  
  24129510.176   126801425.937    24129511.355    98806306.558                  
  22748199.874   119542592.126    22748199.373    93150071.132                  
  22463852.934   118048313.158    22463854.829    91985691.766                  
  23121815.895   121505922.171    23121818.093    94679929.355                  
                 134942939.858                   134942939.858    25914367.666  
                 116444696.678                   116444696.678    22361970.341  
                 129707167.922                   129707167.922    24908896.220  
                 119983814.800                   119983814.800    23041630.459  
                 133811831.805                   133811831.805    25697162.616  
                 134788369.378                   134788369.378    25884688.899  
  24312110.201   127760972.940                                                  
  25024536.067   131504834.741                                                  
  24737272.868   129995240.018                                                  
  26933648.025   141537231.616                                                  
  26931128.153   141524009.981                                                  
  26526722.501   139398838.969                                                  
  25026608.516   131515683.785                                                  
  25691839.309   135011503.991                                                  
  26922684.825   141479680.551                                                  
 21  8 31  6 48 13.0000000  0 23G 4G 7G 8G 9G14G21G27G30C20C23C25C28
                                C32C34E 1E 4E 9E13E19E21E26E31E33
  23132239.486   121560727.458    23132241.183    94722643.239                  
  20878696.017   109718300.602    20878695.499    85494782.543                  
  20589548.583   108198765.573    20589551.067    84310716.000                  
  21563455.972   113316688.927    21563458.295    88298709.292                  
  24129070.526   126799115.540    24129071.705    98804506.247                  
  22747789.440   119540435.297    22747788.958    93148390.489                  
  22464435.661   118051375.343    22464437.537    91988077.887                  
  23121263.831   121503021.158    23121266.065    94677668.825                  
                 134943627.741                   134943627.741    25914499.754  
                 116444834.798                   116444834.798    22361996.859  
                 129709053.266                   129709053.266    24909258.283  
                 119981259.782                   119981259.782    23041139.776  
                 133814194.605                   133814194.605    25697616.382  
                 134791055.679                   134791055.679    25885204.777  
  24312176.013   127761318.833                                                  
  25024817.683   131506314.684                                                  
  24737075.201   129994201.241                                                  
  26933816.583   141538117.397                                                  
  26931695.316   141526990.438                                                  
  26527015.821   139400380.411                                                  
  25026304.636   131514086.911                                                  
  25691605.671   135010276.297                                                  
  26922131.243   141476771.468                                                  
 21  8 31  6 48 14.0000000  0 23G 4G 7G 8G 9G14G21G27G30C20C23C25C28
                                C32C34E 1E 4E 9E13E19E21E26E31E33
  23132907.233   121564236.601    23132908.949    94725377.640                  
  20878357.596   109716522.109    20878357.060    85493396.691                  
  20589815.046   108200165.921    20589817.512    84311807.231                  
  21563870.623   113318867.817    21563872.928    88300407.112                  
  24128630.877   126796805.225    24128632.074    98802705.988                  
  22747379.078   119538278.751    22747378.578    93146710.052                  
  22465018.441   118054437.903    22465020.318    91990464.305                  
  23120711.822   121500120.191    23120714.019    94675408.336                  
                 134944316.060                   134944316.060    25914631.931  
                 116444973.106                   116444973.106    22362023.412  
                 129710938.761                   129710938.761    24909620.363  
                 119978705.107                   119978705.107    23040649.200  
                 133816557.495                   133816557.495    25698070.148  
                 134793742.262                   134793742.262    25885720.692  
  24312241.842   127761664.716                                                  
  25025099.388   131507795.025                                                  
  24736877.605   129993162.778                                                  
  26933985.213   141539003.492                                                  
  26932262.479   141529970.922                                                  
  26527309.141   139401921.862                                                  
  25026000.845   131512490.488                                                  
  25691372.052   135009048.650                                                  
  26921577.661   141473862.387                                                  
 21  8 31  6 48 15.0000000  0 23G 4G 7G 8G 9G14G21G27G30C20C23C25C28
                                C32C34E 1E 4E 9E13E19E21E26E31E33
  23133575.034   121567745.887    23133576.732    94728112.149                  
  20878019.228   109714743.927    20878018.692    85492011.090                  
  20590081.598   108201566.747    20590084.082    84312898.782                  
  21564285.345   113321047.226    21564287.668    88302105.356                  
  24128191.281   126794495.075    24128192.460    98800905.871                  
  22746968.751   119536122.521    22746968.251    93145029.875                  
  22465601.275   118057500.778    22465603.152    91992850.960                  
  23120159.794   121497219.310    23120161.992    94673147.907                  
                 134945004.818                   134945004.818    25914764.198  
                 116445111.609                   116445111.609    22362050.019  
                 129712824.419                   129712824.419    24909982.478  
                 119976150.775                   119976150.775    23040158.659  
                 133818920.481                   133818920.481    25698523.914  
                 134796429.130                   134796429.130    25886236.678  
  24312307.672   127762010.711                                                  
  25025381.147   131509275.706                                                  
  24736680.099   129992124.855                                                  
  26934153.968   141539890.171                                                  
  26932829.641   141532951.368                                                  
  26527602.461   139403463.296                                                  
  25025697.107   131510894.322                                                  
  25691138.468   135007821.032                                                  
  26921024.096   141470953.114                                                  
 21  8 31  6 48 16.0000000  0 23G 4G 7G 8G 9G14G21G27G30C20C23C25C28
                                C32C34E 1E 4E 9E13E19E21E26E31E33
  23134242.853   121571255.323    23134244.569    94730846.774                  
  20877680.896   109712966.018    20877680.360    85490625.707                  
  20590348.275   108202968.155    20590350.759    84313990.790                  
  21564700.156   113323227.110    21564702.479    88303803.964                  
  24127751.703   126792185.065    24127752.882    98799105.863                  
  22746558.497   119533966.602    22746557.996    93143349.938                  
  22466184.199   118060564.004    22466186.075    91995237.890                  
  23119607.784   121494318.487    23119610.000    94670887.528                  
                 134945694.003                   134945694.003    25914896.554  
                 116445250.304                   116445250.304    22362076.662  
                 129714710.231                   129714710.231    24910344.648  
                 119973596.777                   119973596.777    23039668.172  
                 133821283.554                   133821283.554    25698977.733  
                 134799116.281                   134799116.281    25886752.717  
  24312373.537   127762356.741                                                  
  25025662.977   131510756.769                                                  
  24736482.682   129991087.378                                                  
  26934322.777   141540777.325                                                  
  26933396.804   141535931.794                                                  
  26527895.799   139405004.718                                                  
  25025393.441   131509298.548                                                  
  25690904.866   135006593.479                                                  
  26920470.514   141468044.054                                                  
 21  8 31  6 48 17.0000000  0 23G 4G 7G 8G 9G14G21G27G30C20C23C25C28
                                C32C34E 1E 4E 9E13E19E21E26E31E33
  23134910.726   121574764.941    23134912.423    94733581.544                  
  20877342.617   109711188.391    20877342.099    85489240.543                  
  20590615.078   108204370.155    20590617.561    84315083.258                  
  21565115.075   113325407.487    21565117.380    88305502.962                  
  24127312.143   126789875.176    24127313.322    98797305.949                  
  22746148.295   119531810.986    22746147.795    93141670.235                  
  22466767.176   118063627.574    22466769.052    91997625.090                  
  23119055.774   121491417.726    23119058.008    94668627.195                  
                 134946383.634                   134946383.634    25915028.999  
                 116445389.199                   116445389.199    22362103.323  
                 129716596.194                   129716596.194    24910706.817  
                 119971043.126                   119971043.126    23039177.775  
                 133823646.718                   133823646.718    25699431.553  
                 134801803.716                   134801803.716    25887268.828  
  24312439.402   127762702.833                                                  
  25025944.897   131512238.214                                                  
  24736285.318   129990050.332                                                  
  26934491.675   141541664.925                                                  
  26933963.967   141538912.184                                                  
  26528189.119   139406546.139                                                  
  25025089.846   131507703.124                                                  
  25690671.282   135005365.976                                                  
  26919916.931   141465135.000                                                  
 21  8 31  6 48 18.0000000  0 23G 4G 7G 8G 9G14G21G27G30C20C23C25C28
                                C32C34E 1E 4E 9E13E19E21E26E31E33
  23135578.598   121578274.715    23135580.296    94736316.430                  
  20877004.392   109709411.034    20877003.874    85487855.594                  
  20590881.987   108205772.733    20590884.453    84316176.176                  
  21565530.083   113327588.364    21565532.406    88307202.344                  
  24126872.601   126787565.413    24126873.798    98795506.136                  
  22745738.165   119529655.669    22745737.665    93139990.769                  
  22467350.224   118066691.488    22467352.100    92000012.550                  
  23118503.800   121488517.048    23118506.016    94666366.926                  
                 134947073.694                   134947073.694    25915161.515  
                 116445528.290                   116445528.290    22362130.037  
                 129718482.320                   129718482.320    24911069.022  
                 119968489.809                   119968489.809    23038687.449  
                 133826009.971                   133826009.971    25699885.408  
                 134804491.433                   134804491.433    25887784.975  
  24312505.267   127763048.980                                                  
  25026226.888   131513720.040                                                  
  24736088.062   129989013.706                                                  
  26934660.662   141542552.980                                                  
  26934531.094   141541892.594                                                  
  26528482.439   139408087.546                                                  
  25024786.305   131506108.057                                                  
  25690437.698   135004138.519                                                  
  26919363.367   141462225.970                                                  
 21  8 31  6 48 19.0000000  0 23G 4G 7G 8G 9G14G21G27G30C20C23C25C28
                                C32C34E 1E 4E 9E13E19E21E26E31E33
  23136246.543   121581784.655    23136248.222    94739051.448                  
  20876666.239   109707633.961    20876665.703    85486470.859                  
  20591148.986   108207175.890    20591151.452    84317269.542                  
  21565945.180   113329769.712    21565947.503    88308902.098                  
  24126433.094   126785255.782    24126434.273    98793706.422                  
  22745328.054   119527500.654    22745327.571    93138311.539                  
  22467933.344   118069755.736    22467935.202    92002400.278                  
  23117951.844   121485616.433    23117954.042    94664106.707                  
                 134947764.191                   134947764.191    25915294.121  
                 116445667.569                   116445667.569    22362156.787  
                 129720368.600                   129720368.600    24911431.263  
                 119965936.837                   119965936.837    23038197.176  
                 133828373.321                   133828373.321    25700339.246  
                 134807179.438                   134807179.438    25888301.175  
  24312571.132   127763395.163                                                  
  25026508.915   131515202.227                                                  
  24735890.878   129987977.511                                                  
  26934829.739   141543441.473                                                  
  26935098.257   141544872.952                                                  
  26528775.759   139409628.956                                                  
  25024482.835   131504513.352                                                  
  25690204.132   135002911.110                                                  
  26918809.803   141459316.946                                                  
 21  8 31  6 48 20.0000000  0 23G 4G 7G 8G 9G14G21G27G30C20C23C25C28
                                C32C34E 1E 4E 9E13E19E21E26E31E33
  23136914.487   121585294.760    23136916.184    94741786.598                  
  20876328.121   109705857.167    20876327.603    85485086.345                  
  20591416.092   108208579.630    20591418.576    84318363.368                  
  21566360.367   113331951.551    21566362.672    88310602.230                  
  24125993.605   126782946.274    24125994.803    98791906.807                  
  22744918.049   119525345.944    22744917.548    93136632.547                  
  22468516.499   118072820.324    22468518.376    92004788.269                  
