     2.11           OBSERVATION DATA    M (MIXED)           RINEX VERSION / TYPE
CONVBIN 2.4.3                           20210901 005132 UTC PGM / RUN BY / DATE 
log: logs/21_08_31_21_54_03_garf_SW.rtcm                    COMMENT             
format: RTCM 3, station ID: 205                             COMMENT             
0205                                                        MARKER NAME         
                                                            MARKER NUMBER       
                                                            OBSERVER / AGENCY   
                    SWFT                                    REC # / TYPE / VERS 
                    NULL                                    ANT # / TYPE        
   708072.7232 -4803697.1753  4121856.3428                  APPROX POSITION XYZ 
        0.0000        0.0000        0.0000                  ANTENNA: DELTA H/E/N
     1     1                                                WAVELENGTH FACT L1/2
     5    C1    L1    P2    L2    C2                        # / TYPES OF OBSERV 
  2021     8    31    21    54    8.0000000     GPS         TIME OF FIRST OBS   
  2021     8    31    22    24    6.0000000     GPS         TIME OF LAST OBS    
                                                            END OF HEADER       
 21  8 31 21 54  8.0000000  0 13G10G12G18G23G24G32E 3E 5E 9E13E15E25
                                E31
  20440017.275   107412968.915    20440020.277    83698405.293                  
  24421307.765   128334803.009    24421310.248   100001136.382                  
  23407655.416   123008027.914    23407658.364    95850405.399                  
  20764555.221   109118470.511    20764556.436    85027380.547                  
  21699761.397   114032965.790    21699764.882    88856843.884                  
  21445458.576   112696604.774    21445461.774    87815525.914                  
  24257201.588   127472429.933                                                  
  24062206.894   126447735.777                                                  
  25991337.875   136585360.661                                                  
  27635044.648   145223068.476                                                  
  24579986.136   129168654.455                                                  
  27486133.127   144440537.663                                                  
  27715898.135   145647976.062                                                  
 21  8 31 21 54  9.0000000  0 13G10G12G18G23G24G32E 3E 5E 9E13E15E25
                                E31
  20439847.644   107412077.453    20439850.646    83697710.645                  
  24420802.661   128332148.724    24420805.145    99999068.111                  
  23408365.584   123011759.870    23408368.515    95853313.413                  
  20764821.951   109119872.235    20764823.184    85028472.800                  
  21700229.047   114035423.276    21700232.532    88858758.808                  
  21445152.140   112694994.434    21445155.338    87814271.101                  
  24257009.532   127471420.747                                                  
  24062412.816   126448817.814                                                  
  25991751.722   136587535.345                                                  
  27634612.664   145220798.390                                                  
  24580003.665   129168746.488                                                  
  27485584.637   144437655.395                                                  
  27716047.055   145648758.588                                                  
 21  8 31 21 54 10.0000000  0 13G10G12G18G23G24G32E 3E 5E 9E13E15E25
                                E31
  20439678.067   107411186.391    20439681.087    83697016.313                  
  24420297.593   128329494.659    24420300.095    99997000.013                  
  23409075.789   123015491.977    23409078.719    95856221.547                  
  20765088.772   109121274.388    20765090.005    85029565.382                  
  21700696.787   114037881.258    21700700.271    88860674.114                  
  21444845.757   112693384.376    21444848.956    87813016.513                  
  24256817.511   127470411.704                                                  
  24062618.739   126449899.977                                                  
  25992165.532   136589710.015                                                  
  27634180.734   145218528.615                                                  
  24580021.266   129168839.028                                                  
  27485036.165   144434773.165                                                  
  27716196.065   145649541.581                                                  
 21  8 31 21 54 11.0000000  0 13G10G12G18G23G24G32E 3E 5E 9E13E15E25
                                E31
  20439508.580   107410295.730    20439511.582    83696322.294                  
  24419792.597   128326840.820    24419795.080    99994932.082                  
  23409785.993   123019224.226    23409788.959    95859129.793                  
  20765355.681   109122676.963    20765356.896    85030658.300                  
  21701164.598   114040339.742    21701168.100    88862589.816                  
  21444539.447   112691774.599    21444542.627    87811762.141                  
  24256625.545   127469402.821                                                  
  24062824.697   126450982.257                                                  
  25992579.361   136591884.673                                                  
  27633748.857   145216259.142                                                  
  24580038.957   129168932.074                                                  
  27484487.676   144431890.909                                                  
  27716345.146   145650325.020                                                  
 21  8 31 21 54 12.0000000  0 17G10G12G18G23G24G32C19C21C22C34E 3E 5
                                E 9E13E15E25E31
  20439339.163   107409405.468    20439342.183    83695628.581                  
  24419287.618   128324187.207    24419290.120    99992864.336                  
  23410496.269   123022956.630    23410499.199    95862038.157                  
  20765622.662   109124079.970    20765623.877    85031751.550                  
  21701632.534   114042798.716    21701636.036    88864505.899                  
  21444233.154   112690165.095    21444236.334    87810507.984                  
                 131698280.937                   131698280.937    25291276.533  
                 119770944.307                   119770944.307    23000749.798  
                 116490719.271                   116490719.271    22370813.864  
                 130728522.929                   130728522.929    25105043.556  
  24256433.578   127468394.077                                                  
  24063030.656   126452064.655                                                  
  25992993.172   136594059.319                                                  
  27633317.052   145213989.980                                                  
  24580056.754   129169025.618                                                  
  27483939.222   144429008.682                                                  
  27716494.299   145651108.926                                                  
 21  8 31 21 54 13.0000000  0 17G10G12G18G23G24G32C19C21C22C34E 3E 5
                                E 9E13E15E25E31
  20439169.837   107408515.605    20439172.839    83694935.179                  
  24418782.693   128321533.820    24418785.195    99990796.762                  
  23411206.544   123026689.175    23411209.475    95864946.629                  
  20765889.715   109125483.405    20765890.948    85032845.136                  
  21702100.560   114045258.183    21702104.062    88866422.367                  
  21443926.914   112688555.870    21443930.113    87809254.043                  
                 131700677.449                   131700677.449    25291736.785  
                 119769337.746                   119769337.746    23000441.271  
                 116491515.067                   116491515.067    22370966.697  
                 130729733.449                   130729733.449    25105276.014  
  24256241.646   127467385.499                                                  
  24063236.668   126453147.185                                                  
  25993407.001   136596233.945                                                  
  27632885.301   145211721.132                                                  
  24580074.659   129169119.667                                                  
  27483390.732   144426126.452                                                  
  27716643.559   145651893.289                                                  
 21  8 31 21 54 14.0000000  0 17G10G12G18G23G24G32C19C21C22C34E 3E 5
                                E 9E13E15E25E31
  20439000.581   107407626.142    20439003.583    83694242.091                  
  24418277.822   128318880.665    24418280.323    99988729.370                  
  23411916.856   123030421.876    23411919.804    95867855.227                  
  20766156.875   109126887.269    20766158.072    85033939.058                  
  21702568.674   114047718.146    21702572.177    88868339.219                  
  21443620.764   112686946.929    21443623.945    87808000.325                  
                 131703074.058                   131703074.058    25292197.020  
                 119767731.333                   119767731.333    23000132.780  
                 116492311.098                   116492311.098    22371119.567  
                 130730944.425                   130730944.425    25105508.580  
  24256049.769   127466377.076                                                  
  24063442.680   126454229.817                                                  
  25993820.812   136598408.565                                                  
  27632453.621   145209452.589                                                  
  24580092.653   129169214.224                                                  
  27482842.278   144423244.246                                                  
  27716792.926   145652678.099                                                  
 21  8 31 21 54 15.0000000  0 17G10G12G18G23G24G32C19C21C22C34E 3E 5
                                E 9E13E15E25E31
  20438831.379   107406737.112    20438834.399    83693549.363                  
  24417772.986   128316227.762    24417775.488    99986662.192                  
  23412627.203   123034154.656    23412630.134    95870763.855                  
  20766424.106   109128291.517    20766425.321    85035033.249                  
  21703036.878   114050178.590    21703040.381    88870256.436                  
  21443314.632   112685338.276    21443317.813    87806746.827                  
                 131705470.762                   131705470.762    25292657.272  
                 119766125.065                   119766125.065    22999824.307  
                 116493107.363                   116493107.363    22371272.472  
                 130732155.855                   130732155.855    25105741.217  
  24255857.873   127465368.779                                                  
  24063648.727   126455312.573                                                  
  25994234.640   136600583.229                                                  
  27632021.977   145207184.424                                                  
  24580110.737   129169309.359                                                  
  27482293.824   144420361.852                                                  
  27716942.347   145653463.331                                                  
 21  8 31 21 54 16.0000000  0 17G10G12G18G23G24G32C19C21C22C34E 3E 5
                                E 9E13E15E25E31
  20438662.285   107405848.453    20438665.287    83692856.901                  
  24417268.204   128313575.059    24417270.688    99984595.148                  
  23413337.568   123037887.644    23413340.499    95873672.677                  
  20766691.426   109129696.246    20766692.624    85036127.844                  
  21703505.172   114052639.538    21703508.674    88872174.059                  
  21443008.572   112683729.899    21443011.752    87805493.546                  
                 131707867.566                   131707867.566    25293117.560  
                 119764518.952                   119764518.952    22999515.888  
                 116493903.862                   116493903.862    22371425.449  
                 130733367.742                   130733367.742    25105973.943  
  24255666.032   127464360.649                                                  
  24063854.793   126456395.463                                                  
  25994648.469   136602757.817                                                  
  27631590.422   145204916.492                                                  
  24580128.945   129169404.934                                                  
  27481745.352   144417479.657                                                  
  27717091.857   145654249.071                                                  
 21  8 31 21 54 17.0000000  0 17G10G12G18G23G24G32C19C21C22C34E 3E 5
                                E 9E13E15E25E31
  20438493.244   107404960.184    20438496.264    83692164.741                  
  24416763.440   128310922.579    24416765.924    99982528.285                  
  23414047.933   123041620.782    23414050.900    95876581.613                  
  20766958.801   109131101.407    20766960.016    85037222.774                  
  21703973.573   114055100.992    21703977.075    88874092.075                  
  21442702.565   112682121.801    21442705.745    87804240.480                  
                 131710264.465                   131710264.465    25293577.867  
                 119762912.984                   119762912.984    22999207.469  
                 116494700.598                   116494700.598    22371578.443  
                 130734580.082                   130734580.082    25106206.758  
  24255474.243   127463352.669                                                  
  24064060.876   126457478.460                                                  
  25995062.262   136604932.390                                                  
  27631158.903   145202648.882                                                  
  24580147.225   129169500.999                                                  
  27481196.881   144414597.465                                                  
  27717241.474   145655035.250                                                  
 21  8 31 21 54 18.0000000  0 17G10G12G18G23G24G32C19C21C22C34E 3E 5
                                E 9E13E15E25E31
  20438324.292   107404072.325    20438327.294    83691472.901                  
  24416258.711   128308270.322    24416261.213    99980461.591                  
  23414758.352   123045354.063    23414761.319    95879490.661                  
  20767226.282   109132506.996    20767227.497    85038318.036                  
  21704442.081   114057562.944    21704445.583    88876010.477                  
  21442396.593   112680513.982    21442399.792    87802987.636                  
                 131712661.461                   131712661.461    25294038.173  
                 119761307.167                   119761307.167    22998899.085  
                 116495497.565                   116495497.565    22371731.474  
                 130735792.879                   130735792.879    25106439.681  
  24255282.455   127462344.853                                                  
  24064266.995   126458561.579                                                  
  25995476.055   136607106.948                                                  
  27630727.456   145200381.581                                                  
  24580165.595   129169597.575                                                  
  27480648.427   144411715.294                                                  
  27717391.163   145655821.891                                                  
 21  8 31 21 54 19.0000000  0 17G10G12G18G23G24G32C19C21C22C34E 3E 5
                                E 9E13E15E25E31
  20438155.412   107403184.863    20438158.414    83690781.374                  
  24415754.054   128305618.290    24415756.538    99978395.075                  
  23415468.825   123049087.497    23415471.755    95882399.824                  
  20767493.835   109133913.010    20767495.068    85039413.632                  
  21704910.660   114060025.384    21704914.162    88877929.258                  
  21442090.694   112678906.438    21442093.874    87801735.007                  
                 131715058.555                   131715058.555    25294498.514  
                 119759701.501                   119759701.501    22998590.719  
                 116496294.769                   116496294.769    22371884.576  
                 130737006.126                   130737006.126    25106672.657  
  24255090.703   127461337.169                                                  
  24064473.115   126459644.808                                                  
  25995889.884   136609281.501                                                  
  27630296.062   145198114.590                                                  
  24580184.053   129169694.643                                                  
  27480099.955   144408833.120                                                  
  27717540.941   145656608.977                                                  
 21  8 31 21 54 20.0000000  0 17G10G12G18G23G24G32C19C21C22C34E 3E 5
                                E 9E13E15E25E31
  20437986.621   107402297.797    20437989.623    83690090.156                  
  24415249.433   128302966.485    24415251.917    99976328.734                  
  23416179.297   123052821.069    23416182.245    95885309.105                  
  20767761.459   109135319.465    20767762.674    85040509.570                  
  21705379.347   114062488.316    21705382.849    88879848.429                  
  21441784.847   112677299.173    21441788.028    87800482.591                  
                 131717455.745                   131717455.745    25294958.874  
                 119758095.981                   119758095.981    22998282.407  
                 116497092.208                   116497092.208    22372037.713  
                 130738219.833                   130738219.833    25106905.741  
  24254898.986   127460329.653                                                  
  24064679.287   126460728.168                                                  
  25996303.677   136611456.044                                                  
  27629864.722   145195847.905                                                  
  24580202.637   129169792.231                                                  
  27479551.519   144405950.969                                                  
  27717690.826   145657396.539                                                  
 21  8 31 21 54 21.0000000  0 17G10G12G18G23G24G32C19C21C22C34E 3E 5
                                E 9E13E15E25E31
  20437817.884   107401411.130    20437820.886    83689399.249                  
  24414744.866   128300314.903    24414747.332    99974262.570                  
  23416889.805   123056554.785    23416892.736    95888218.492                  
  20768029.173   109136726.337    20768030.406    85041605.841                  
  21705848.123   114064951.747    21705851.625    88881767.988                  
  21441479.037   112675692.184    21441482.236    87799230.398                  
                 131719853.034                   131719853.034    25295419.251  
                 119756490.612                   119756490.612    22997974.113  
                 116497889.879                   116497889.879    22372190.904  
                 130739433.987                   130739433.987    25107138.914  
  24254707.287   127459322.286                                                  
  24064885.460   126461811.645                                                  
  25996717.487   136613630.561                                                  
  27629433.435   145193581.536                                                  
  24580221.292   129169890.324                                                  
  27479003.065   144403068.827                                                  
  27717840.783   145658184.550                                                  
 21  8 31 21 54 22.0000000  0 17G10G12G18G23G24G32C19C21C22C34E 3E 5
                                E 9E13E15E25E31
  20437649.236   107400524.867    20437652.238    83688708.660                  
  24414240.316   128297663.538    24414242.800    99972196.583                  
  23417600.313   123060288.642    23417603.279    95891127.993                  
  20768296.994   109138133.639    20768298.191    85042702.440                  
  21706317.006   114067415.669    21706320.508    88883687.929                  
  21441173.298   112674085.480    21441176.479    87797978.425                  
                 131722250.419                   131722250.419    25295879.647  
                 119754885.391                   119754885.391    22997665.837  
                 116498687.781                   116498687.781    22372344.131  
                 130740648.601                   130740648.601    25107372.158  
  24254515.624   127458315.083                                                  
  24065091.669   126462895.249                                                  
  25997131.280   136615805.090                                                  
  27629002.237   145191315.488                                                  
  24580240.055   129169988.921                                                  
  27478454.593   144400186.694                                                  
  27717990.812   145658973.031                                                  
 21  8 31 21 54 23.0000000  0 17G10G12G18G23G24G32C19C21C22C34E 3E 5
                                E 9E13E15E25E31
  20437480.660   107399638.996    20437483.662    83688018.379                  
  24413735.820   128295012.407    24413738.304    99970130.769                  
  23418310.875   123064022.651    23418313.841    95894037.613                  
  20768564.886   109139541.365    20768566.101    85043799.376                  
  21706785.960   114069880.083    21706789.463    88885608.259                  
  21440867.595   112672479.051    21440870.793    87796726.668                  
                 131724647.903                   131724647.903    25296340.060  
                 119753280.322                   119753280.322    22997357.596  
                 116499485.923                   116499485.923    22372497.412  
                 130741863.669                   130741863.669    25107605.492  
  24254323.979   127457308.019                                                  
  24065297.895   126463978.976                                                  
  25997545.073   136617979.590                                                  
  27628571.076   145189049.739                                                  
  24580258.924   129170088.024                                                  
  27477906.157   144397304.570                                                  
  27718140.947   145659761.969                                                  
 21  8 31 21 54 24.0000000  0 17G10G12G18G23G24G32C19C21C22C34E 3E 5
                                E 9E13E15E25E31
  20437312.155   107398753.532    20437315.157    83687328.405                  
  24413231.377   128292361.500    24413233.861    99968065.132                  
  23419021.472   123067756.802    23419024.421    95896947.343                  
  20768832.832   109140949.527    20768834.065    85044896.648                  
  21707255.022   114072344.988    21707258.525    88887528.966                  
  21440561.963   112670872.898    21440565.144    87795475.125                  
                 131727045.480                   131727045.480    25296800.491  
                 119751675.403                   119751675.403    22997049.409  
                 116500284.293                   116500284.293    22372650.746  
                 130743079.187                   130743079.187    25107838.933  
  24254132.351   127456301.116                                                  
  24065504.139   126465062.821                                                  
  25997958.866   136620154.087                                                  
  27628139.986   145186784.303                                                  
  24580277.883   129170187.628                                                  
  27477357.703   144394422.449                                                  
  27718291.154   145660551.350                                                  
 21  8 31 21 54 25.0000000  0 17G10G12G18G23G24G32C19C21C22C34E 3E 5
                                E 9E13E15E25E31
  20437143.739   107397868.473    20437146.741    83686638.751                  
  24412726.953   128289710.816    24412729.436    99965999.663                  
  23419732.088   123071491.093    23419735.036    95899857.180                  
  20769100.886   109142358.121    20769102.101    85045994.249                  
  21707724.156   114074810.400    21707727.658    88889450.061                  
  21440256.385   112669267.036    21440259.565    87794223.806                  
                 131729443.156                   131729443.156    25297260.940  
                 119750070.630                   119750070.630    22996741.222  
                 116501082.903                   116501082.903    22372804.098  
                 130744295.165                   130744295.165    25108072.463  
  24253940.795   127455294.374                                                  
  24065710.419   126466146.788                                                  
  25998372.659   136622328.569                                                  
  27627708.931   145184519.191                                                  
  24580296.932   129170287.739                                                  
  27476809.267   144391540.362                                                  
  27718441.468   145661341.198                                                  
 21  8 31 21 54 26.0000000  0 17G10G12G18G23G24G32C19C21C22C34E 3E 5
                                E 9E13E15E25E31
  20436975.395   107396983.798    20436978.397    83685949.394                  
  24412222.599   128287060.363    24412225.083    99963934.378                  
  23420442.721   123075225.536    23420445.687    95902767.134                  
  20769369.028   109143767.141    20769370.243    85047092.188                  
  21708193.396   114077276.296    21708196.898    88891371.544                  
  21439950.842   112667661.450    21439954.023    87792972.695                  
                 131731840.930                   131731840.930    25297721.425  
                 119748466.008                   119748466.008    22996433.053  
                 116501881.741                   116501881.741    22372957.503  
                 130745511.594                   130745511.594    25108306.065  
  24253749.239   127454287.770                                                  
  24065916.699   126467230.867                                                  
  25998786.434   136624503.039                                                  
  27627277.966   145182254.384                                                  
  24580316.087   129170388.359                                                  
  27476260.813   144388658.282                                                  
  27718591.854   145662131.507                                                  
 21  8 31 21 54 27.0000000  0 17G10G12G18G23G24G32C19C21C22C34E 3E 5
                                E 9E13E15E25E31
  20436807.123   107396099.529    20436810.125    83685260.351                  
  24411718.282   128284410.137    24411720.766    99961869.269                  
  23421153.408   123078960.124    23421156.356    95905677.199                  
  20769637.224   109145176.585    20769638.439    85048190.457                  
  21708662.744   114079742.688    21708666.246    88893293.403                  
  21439645.354   112666056.136    21439648.534    87791721.806                  
                 131734238.801                   131734238.801    25298181.892  
                 119746861.535                   119746861.535    22996124.937  
                 116502680.817                   116502680.817    22373110.962  
                 130746728.476                   130746728.476    25108539.738  
  24253557.719   127453281.328                                                  
  24066123.015   126468315.076                                                  
  25999200.245   136626677.495                                                  
  27626847.037   145179989.882                                                  
  24580335.315   129170489.480                                                  
  27475712.377   144385776.196                                                  
  27718742.347   145662922.264                                                  
 21  8 31 21 54 28.0000000  0 17G10G12G18G23G24G32C19C21C22C34E 3E 5
                                E 9E13E15E25E31
  20436638.922   107395215.661    20436641.924    83684571.625                  
  24411214.000   128281760.145    24411216.484    99959804.340                  
  23421864.094   123082694.855    23421867.043    95908587.380                  
  20769905.528   109146586.465    20769906.743    85049289.062                  
  21709132.181   114082209.579    21709135.683    88895215.656                  
  21439339.936   112664451.101    21439343.117    87790471.129                  
                 131736636.765                   131736636.765    25298642.394  
                 119745257.210                   119745257.210    22995816.857  
                 116503480.126                   116503480.126    22373264.457  
                 130747945.811                   130747945.811    25108773.518  
  24253366.217   127452275.035                                                  
  24066329.367   126469399.395                                                  
  25999614.020   136628851.945                                                  
  27626416.179   145177725.690                                                  
  24580354.667   129170591.102                                                  
  27475163.941   144382894.127                                                  
  27718892.893   145663713.485                                                  
 21  8 31 21 54 29.0000000  0 17G10G12G18G23G24G32C19C21C22C34E 3E 5
                                E 9E13E15E25E31
  20436470.792   107394332.192    20436473.794    83683883.208                  
  24410709.754   128279110.370    24410712.238    99957739.585                  
  23422574.817   123086429.730    23422577.783    95911497.667                  
  20770173.885   109147996.778    20770175.100    85050388.008                  
  21709601.725   114084676.972    21709605.228    88897138.297                  
  21439034.555   112662846.343    21439037.735    87789220.668                  
                 131739034.833                   131739034.833    25299102.933  
                 119743653.036                   119743653.036    22995508.777  
                 116504279.673                   116504279.673    22373418.006  
                 130749163.601                   130749163.601    25109007.388  
  24253174.768   127451268.883                                                  
  24066535.736   126470483.838                                                  
  26000027.795   136631026.374                                                  
  27625985.375   145175461.828                                                  
  24580374.108   129170693.239                                                  
  27474615.505   144380012.074                                                  
  27719043.547   145664505.153                                                  
 21  8 31 21 54 30.0000000  0 17G10G12G18G23G24G32C19C21C22C34E 3E 5
                                E 9E13E15E25E31
  20436302.752   107393449.129    20436305.754    83683195.107                  
  24410205.562   128276460.833    24410208.064    99955675.009                  
  23423285.575   123090164.749    23423288.523    95914408.069                  
  20770442.349   109149407.523    20770443.564    85051487.289                  
  21710071.341   114087144.843    21710074.843    88899061.316                  
  21438729.244   112661241.883    21438732.425    87787970.437                  
                 131741432.991                   131741432.991    25299563.489  
                 119742049.013                   119742049.013    22995200.751  
                 116505079.449                   116505079.449    22373571.572  
                 130750381.846                   130750381.846    25109241.347  
  24252983.337   127450262.907                                                  
  24066742.123   126471568.408                                                  
  26000441.588   136633200.800                                                  
  27625554.642   145173198.253                                                  
  24580393.621   129170795.871                                                  
  27474067.051   144377130.029                                                  
  27719194.272   145665297.289                                                  
 21  8 31 21 54 31.0000000  0 17G10G12G18G23G24G32C19C21C22C34E 3E 5
                                E 9E13E15E25E31
  20436134.801   107392566.458    20436137.803    83682507.311                  
  24409701.423   128273811.508    24409703.907    99953610.606                  
  23423996.351   123093899.914    23423999.300    95917318.585                  
  20770710.885   109150818.679    20770712.100    85052586.894                  
  21710541.046   114089613.216    21710544.548    88900984.723                  
  21438423.952   112659637.685    21438427.169    87786720.415                  
                 131743831.249                   131743831.249    25300024.045  
                 119740445.136                   119740445.136    22994892.743  
                 116505879.462                   116505879.462    22373725.228  
                 130751600.546                   130751600.546    25109475.378  
  24252791.924   127449257.069                                                  
  24066948.528   126472653.085                                                  
  26000855.363   136635375.206                                                  
  27625123.963   145170935.001                                                  
  24580413.259   129170899.011                                                  
  27473518.615   144374247.995                                                  
  27719345.123   145666089.890                                                  
 21  8 31 21 54 32.0000000  0 17G10G12G18G23G24G32C19C21C22C34E 3E 5
                                E 9E13E15E25E31
  20435966.904   107391684.184    20435969.905    83681819.825                  
  24409197.320   128271162.426    24409199.804    99951546.384                  
  23424707.163   123097635.226    23424710.111    95920229.218                  
  20770979.492   109152230.275    20770980.725    85053686.836                  
  21711010.859   114092082.079    21711014.361    88902908.508                  
  21438118.767   112658033.765    21438121.948    87785470.605                  
                 131746229.605                   131746229.605    25300484.619  
                 119738841.415                   119738841.415    22994584.752  
                 116506679.707                   116506679.707    22373878.901  
                 130752819.699                   130752819.699    25109709.498  
  24252600.565   127448251.387                                                  
  24067154.951   126473737.886                                                  
  26001269.138   136637549.606                                                  
  27624693.319   145168672.054                                                  
  24580432.987   129171002.656                                                  
  27472970.197   144371365.968                                                  
  27719496.027   145666882.933                                                  
 21  8 31 21 54 33.0000000  0 17G10G12G18G23G24G32C19C21C22C34E 3E 5
                                E 9E13E15E25E31
  20435799.096   107390802.321    20435802.098    83681132.657                  
  24408693.253   128268513.563    24408695.737    99949482.335                  
  23425417.993   123101370.679    23425420.941    95923139.956                  
  20771248.206   109153642.308    20771249.421    85054787.124                  
  21711480.760   114094551.447    21711484.263    88904832.691                  
  21437813.600   112656430.133    21437816.781    87784221.024                  
                 131748628.060                   131748628.060    25300945.211  
                 119737237.837                   119737237.837    22994276.816  
                 116507480.187                   116507480.187    22374032.629  
                 130754039.306                   130754039.306    25109943.725  
  24252409.206   127447245.851                                                  
  24067361.392   126474822.808                                                  
  26001682.896   136639723.991                                                  
  27624262.765   145166409.424                                                  
  24580452.803   129171106.805                                                  
  27472421.761   144368483.958                                                  
  27719647.020   145667676.440                                                  
 21  8 31 21 54 34.0000000  0 17G10G12G18G23G24G32C19C21C22C34E 3E 5
                                E 9E13E15E25E31
  20435631.359   107389920.851    20435634.361    83680445.801                  
  24408189.239   128265864.936    24408191.723    99947418.477                  
  23426128.858   123105106.273    23426131.825    95926050.809                  
  20771516.974   109155054.758    20771518.207    85055887.730                  
  21711950.751   114097021.295    21711954.254    88906757.251                  
  21437508.486   112654826.783    21437511.685    87782971.660                  
                 131751026.608                   131751026.608    25301405.839  
                 119735634.411                   119735634.411    22993968.897  
                 116508280.897                   116508280.897    22374186.392  
                 130755259.363                   130755259.363    25110178.024  
  24252217.900   127446240.477                                                  
  24067567.886   126475907.858                                                  
  26002096.689   136641898.355                                                  
  27623832.264   145164147.106                                                  
  24580472.727   129171211.465                                                  
  27471873.343   144365601.954                                                  
  27719798.120   145668470.402                                                  
 21  8 31 21 54 35.0000000  0 17G10G12G18G23G24G32C19C21C22C34E 3E 5
                                E 9E13E15E25E31
  20435463.694   107389039.788    20435466.696    83679759.257                  
  24407685.261   128263216.535    24407687.745    99945354.785                  
  23426839.742   123108842.017    23426842.708    95928961.773                  
  20771785.831   109156467.653    20771787.064    85056988.687                  
  21712420.867   114099491.637    21712424.352    88908682.192                  
  21437203.426   112653223.699    21437206.625    87781722.504                  
                 131753425.255                   131753425.255    25301866.466  
                 119734031.138                   119734031.138    22993660.995  
                 116509081.849                   116509081.849    22374340.208  
                 130756479.874                   130756479.874    25110412.394  
  24252026.594   127445235.255                                                  
  24067774.381   126476993.020                                                  
  26002510.446   136644072.711                                                  
  27623401.818   145161885.098                                                  
  24580492.723   129171316.630                                                  
  27471324.924   144362719.968                                                  
  27719949.274   145669264.819                                                  
 21  8 31 21 54 36.0000000  0 17G10G12G18G23G24G32C19C21C22C34E 3E 5
                                E 9E13E15E25E31
  20435296.100   107388159.122    20435299.120    83679073.024                  
  24407181.319   128260568.360    24407183.803    99943291.274                  
  23427550.661   123112577.907    23427553.627    95931872.854                  
  20772054.778   109157880.960    20772055.993    85058089.965                  
  21712891.037   114101962.464    21712894.539    88910607.507                  
  21436898.420   112651620.909    21436901.619    87780473.577                  
                 131755824.001                   131755824.001    25302327.112  
                 119732428.008                   119732428.008    22993353.148  
                 116509883.030                   116509883.030    22374494.060  
                 130757700.844                   130757700.844    25110646.889  
  24251835.342   127444230.177                                                  
  24067980.893   126478078.297                                                  
  26002924.203   136646247.061                                                  
  27622971.424   145159623.395                                                  
  24580512.843   129171422.288                                                  
  27470776.488   144359837.984                                                  
  27720100.536   145670059.685                                                  
 21  8 31 21 54 37.0000000  0 17G10G12G18G23G24G32C19C21C22C34E 3E 5
                                E 9E13E15E25E31
  20435128.596   107387278.867    20435131.598    83678387.113                  
  24406677.448   128257920.419    24406679.914    99941227.942                  
  23428261.598   123116313.938    23428264.564    95934784.047                  
  20772323.814   109159294.716    20772325.047    85059191.593                  
  21713361.314   114104433.809    21713364.816    88912533.231                  
  21436593.485   112650018.390    21436596.666    87779224.863                  
                 131758222.840                   131758222.840    25302787.793  
                 119730825.032                   119730825.032    22993045.300  
                 116510684.450                   116510684.450    22374647.984  
                 130758922.263                   130758922.263    25110881.438  
  24251644.126   127443225.258                                                  
  24068187.459   126479163.708                                                  
  26003337.960   136648421.394                                                  
  27622541.102   145157362.015                                                  
  24580533.035   129171528.465                                                  
  27470228.052   144356956.024                                                  
  27720251.886   145670855.011                                                  
 21  8 31 21 54 38.0000000  0 17G10G12G18G23G24G32C19C21C22C34E 3E 5
                                E 9E13E15E25E31
  20434961.163   107386399.005    20434964.183    83677701.504                  
  24406173.596   128255272.695    24406176.079    99939164.785                  
  23428972.588   123120050.104    23428975.537    95937695.348                  
  20772592.921   109160708.888    20772594.137    85060293.543                  
  21713831.680   114106905.624    21713835.201    88914459.325                  
  21436288.586   112648416.148    21436291.767    87777976.363                  
                 131760621.778                   131760621.778    25303248.492  
                 119729222.207                   119729222.207    22992737.506  
                 116511486.102                   116511486.102    22374801.926  
                 130760144.137                   130760144.137    25111116.076  
  24251452.927   127442220.488                                                  
  24068394.025   126480249.222                                                  
  26003751.718   136650595.711                                                  
  27622110.816   145155100.941                                                  
  24580553.334   129171635.138                                                  
  27469679.634   144354074.061                                                  
  27720403.326   145671650.802                                                  
 21  8 31 21 54 39.0000000  0 17G10G12G18G23G24G32C19C21C22C34E 3E 5
                                E 9E13E15E25E31
  20434793.820   107385519.539    20434796.822    83677016.208                  
  24405669.796   128252625.207    24405672.280    99937101.809                  
  23429683.579   123123786.426    23429686.545    95940606.761                  
  20772862.118   109162123.492    20772863.333    85061395.832                  
  21714302.154   114109377.947    21714305.656    88916385.806                  
  21435983.741   112646814.186    21435986.921    87776728.083                  
                 131763020.811                   131763020.811    25303709.192  
                 119727619.528                   119727619.528    22992429.713  
                 116512287.984                   116512287.984    22374955.921  
                 130761366.460                   130761366.460    25111350.821  
  24251261.746   127441215.871                                                  
  24068600.627   126481334.874                                                  
  26004165.475   136652770.020                                                  
  27621680.620   145152840.171                                                  
  24580573.741   129171742.316                                                  
  27469131.234   144351192.122                                                  
  27720554.838   145672447.044                                                  
 21  8 31 21 54 40.0000000  0 17G10G12G18G23G24G32C19C21C22C34E 3E 5
                                E 9E13E15E25E31
  20434626.548   107384640.475    20434629.532    83676331.223                  
  24405166.033   128249977.956    24405168.517    99935039.016                  
  23430394.605   123127522.886    23430397.553    95943518.290                  
  20773131.387   109163538.524    20773132.602    85062498.457                  
  21714772.717   114111850.762    21714776.219    88918312.673                  
  21435678.949   112645212.511    21435682.147    87775480.022                  
                 131765419.941                   131765419.941    25304169.944  
                 119726017.000                   119726017.000    22992121.972  
                 116513090.104                   116513090.104    22375109.952  
                 130762589.242                   130762589.242    25111585.638  
  24251070.601   127440211.406                                                  
  24068807.228   126482420.620                                                  
  26004579.232   136654944.317                                                  
  27621250.459   145150579.721                                                  
  24580594.219   129171850.007                                                  
  27468582.816   144348310.189                                                  
  27720706.439   145673243.746                                                  
 21  8 31 21 54 41.0000000  0 17G10G12G18G23G24G32C19C21C22C34E 3E 5
                                E 9E13E15E25E31
  20434459.312   107383761.819    20434462.332    83675646.556                  
  24404662.323   128247330.925    24404664.807    99932976.399                  
  23431105.667   123131259.495    23431108.615    95946429.929                  
  20773400.744   109164953.987    20773401.959    85063601.415                  
  21715243.387   114114324.059    21715246.871    88920239.917                  
  21435374.228   112643611.112    21435377.409    87774232.179                  
                 131767819.172                   131767819.172    25304630.679  
                 119724414.626                   119724414.626    22991814.268  
                 116513892.460                   116513892.460    22375264.037  
                 130763812.471                   130763812.471    25111820.562  
  24250879.474   127439207.094                                                  
  24069013.866   126483506.507                                                  
  26004993.007   136657118.606                                                  
  27620820.387   145148319.595                                                  
  24580614.822   129171958.203                                                  
  27468034.398   144345428.273                                                  
  27720858.147   145674040.910                                                  
 21  8 31 21 54 42.0000000  0 17G10G12G18G23G24G32C19C21C22C34E 3E 5
                                E 9E13E15E25E31
  20434292.201   107382883.565    20434295.203    83674962.202                  
  24404158.667   128244684.132    24404161.133    99930913.961                  
  23431816.747   123134996.254    23431819.695    95949341.687                  
  20773670.173   109166369.882    20773671.406    85064704.712                  
  21715714.128   114116797.855    21715717.613    88922167.550                  
  21435069.526   112642009.992    21435072.724    87772984.555                  
                 131770218.497                   131770218.497    25305091.432  
                 119722812.394                   119722812.394    22991506.563  
                 116514695.052                   116514695.052    22375418.157  
                 130765036.161                   130765036.161    25112055.540  
  24250688.401   127438202.934                                                  
  24069220.521   126484592.511                                                  
  26005406.747   136659292.874                                                  
  27620390.333   145146059.770                                                  
  24580635.496   129172066.898                                                  
  27467485.997   144342546.363                                                  
  27721009.926   145674838.516                                                  
 21  8 31 21 54 43.0000000  0 17G10G12G18G23G24G32C19C21C22C34E 3E 5
                                E 9E13E15E25E31
  20434125.161   107382005.707    20434128.163    83674278.157                  
  24403655.028   128242037.561    24403657.494    99928851.700                  
  23432527.845   123138733.142    23432530.793    95952253.548                  
  20773939.692   109167786.208    20773940.925    85065808.341                  
  21716184.959   114119272.144    21716188.462    88924095.567                  
  21434764.895   112640409.148    21434768.075    87771737.144                  
                 131772617.923                   131772617.923    25305552.238  
                 119721210.316                   119721210.316    22991198.894  
                 116515497.870                   116515497.870    22375572.349  
                 130766260.298                   130766260.298    25112290.642  
  24250497.345   127437198.925                                                  
  24069427.194   126485678.635                                                  
  26005820.504   136661467.133                                                  
  27619960.387   145143800.251                                                  
  24580656.278   129172176.098                                                  
  27466937.579   144339664.473                                                  
  27721161.795   145675636.587                                                  
 21  8 31 21 54 44.0000000  0 17G10G12G18G23G24G32C19C21C22C34E 3E 5
                                E 9E13E15E25E31
  20433958.175   107381128.251    20433961.177    83673594.423                  
  24403151.444   128239391.223    24403153.927    99926789.621                  
  23433238.978   123142470.177    23433241.945    95955165.520                  
  20774209.300   109169202.957    20774210.515    85066912.301                  
  21716655.897   114121746.914    21716659.400    88926023.962                  
  21434460.317   112638808.585    21434463.498    87770489.952                  
                 131775017.442                   131775017.442    25306013.045  
                 119719608.390                   119719608.390    22990891.261  
                 116516300.930                   116516300.930    22375726.558  
                 130767484.891                   130767484.891    25112525.799  
  24250306.325   127436195.070                                                  
  24069633.921   126486764.874                                                  
  26006234.243   136663641.386                                                  
  27619530.458   145141541.063                                                  
  24580677.167   129172285.805                                                  
  27466389.179   144336782.589                                                  
  27721313.735   145676435.120                                                  
 21  8 31 21 54 45.0000000  0 17G10G12G18G23G24G32C19C21C22C34E 3E 5
                                E 9E13E15E25E31
  20433791.278   107380251.192    20433794.280    83672911.000                  
  24402647.894   128236745.105    24402650.378    99924727.710                  
  23433950.148   123146207.352    23433953.096    95958077.601                  
  20774478.979   109170620.143    20774480.194    85068016.601                  
  21717126.925   114124222.189    21717130.427    88927952.743                  
  21434155.793   112637208.304    21434158.974    87769242.980                  
                 131777417.058                   131777417.058    25306473.869  
                 119718006.609                   119718006.609    22990583.664  
                 116517104.219                   116517104.219    22375880.822  
                 130768709.932                   130768709.932    25112761.062  
  24250115.323   127435191.378                                                  
  24069840.647   126487851.239                                                  
  26006647.982   136665815.618                                                  
  27619100.619   145139282.168                                                  
  24580698.127   129172396.014                                                  
  27465840.778   144333900.715                                                  
  27721465.801   145677234.100                                                  
 21  8 31 21 54 46.0000000  0 17G10G12G18G23G24G32C19C21C22C34E 3E 5
                                E 9E13E15E25E31
  20433624.453   107379374.540    20433627.455    83672227.894                  
  24402144.399   128234099.215    24402146.883    99922665.981                  
  23434661.335   123149944.674    23434664.301    95960989.800                  
  20774748.748   109172037.758    20774749.963    85069121.234                  
  21717598.042   114126697.953    21717601.562    88929881.910                  
  21433851.323   112635608.299    21433854.521    87767996.223                  
                 131779816.769                   131779816.769    25306934.693  
                 119716404.985                   119716404.985    22990276.084  
                 116517907.747                   116517907.747    22376035.139  
                 130769935.430                   130769935.430    25112996.397  
  24249924.339   127434187.828                                                  
  24070047.374   126488937.719                                                  
  26007061.740   136667989.839                                                  
  27618670.815   145137023.594                                                  
  24580719.195   129172506.731                                                  
  27465292.378   144331018.854                                                  
  27721617.919   145678033.547                                                  
 21  8 31 21 54 47.0000000  0 17G10G12G18G23G24G32C19C21C22C34E 3E 5
                                E 9E13E15E25E31
  20433457.717   107378498.284    20433460.719    83671545.102                  
  24401640.939   128231453.540    24401643.423    99920604.418                  
  23435372.557   123153682.141    23435375.524    95963902.109                  
  20775018.588   109173455.792    20775019.803    85070226.195                  
  21718069.266   114129174.214    21718072.768    88931811.462                  
  21433546.906   112634008.579    21433550.105    87766749.688                  
                 131782216.582                   131782216.582    25307395.553  
                 119714803.504                   119714803.504    22989968.541  
                 116518711.507                   116518711.507    22376189.473  
                 130771161.379                   130771161.379    25113231.840  
  24249733.409   127433184.426                                                  
  24070254.155   126490024.322                                                  
  26007475.479   136670164.054                                                  
  27618241.083   145134765.327                                                  
  24580740.352   129172617.958                                                  
  27464743.978   144328137.015                                                  
  27721770.146   145678833.445                                                  
 21  8 31 21 54 48.0000000  0 17G10G12G18G23G24G32C19C21C22C34E 3E 5
                                E 9E13E15E25E31
  20433291.035   107377622.437    20433294.037    83670862.621                  
  24401137.533   128228808.102    24401140.017    99918543.040                  
