% program   : rnx2rtkp ver.2.4.3 b31
% inp file  : ngs/21_09_02_06_46_48_talh.obs
% inp file  : ngs/21_09_02_06_46_48_talh_VZ.obs
% inp file  : ngs/21_09_02_06_46_48_brdc.nav
% obs start : 2021/09/02 06:00:00.0 GPST (week2173 367200.0s)
% obs end   : 2021/09/02 06:59:59.0 GPST (week2173 370799.0s)
% ref pos   :   541906.5699  -5479021.0959   3209021.2120
%
% (x/y/z-ecef=WGS84,Q=1:fix,2:float,3:sbas,4:dgps,5:single,6:ppp,ns=# of satellites)
%  GPST              x-ecef(m)      y-ecef(m)      z-ecef(m)   Q  ns   sdx(m)   sdy(m)   sdz(m)  sdxy(m)  sdyz(m)  sdzx(m) age(s)  ratio
2173 369997.000    541527.6585  -5479445.6980   3208362.0411   2   8   0.5175   1.1249   0.5542  -0.4231  -0.6615   0.2803 -30.00    1.0
2173 369998.000    541527.6633  -5479445.6992   3208362.0412   2   8   0.3681   0.8002   0.3942  -0.3011  -0.4704   0.1991 -29.00    1.1
2173 369999.000    541527.6673  -5479445.7051   3208362.0445   2   8   0.3014   0.6551   0.3227  -0.2466  -0.3851   0.1630 -28.00    1.1
2173 370000.000    541527.6663  -5479445.6970   3208362.0434   2   8   0.2615   0.5684   0.2800  -0.2139  -0.3341   0.1414 -27.00    1.0
2173 370001.000    541527.6698  -5479445.7056   3208362.0455   2   8   0.2342   0.5090   0.2508  -0.1916  -0.2993   0.1267 -26.00    1.0
2173 370002.000    541527.6700  -5479445.7058   3208362.0456   2   8   0.2140   0.4652   0.2291  -0.1751  -0.2735   0.1158 -25.00    1.0
2173 370003.000    541527.6710  -5479445.7123   3208362.0491   2   8   0.1983   0.4310   0.2123  -0.1623  -0.2534   0.1073 -24.00    1.0
2173 370004.000    541527.6741  -5479445.7103   3208362.0483   2   8   0.1856   0.4034   0.1987  -0.1519  -0.2372   0.1004 -23.00    1.0
2173 370005.000    541527.6761  -5479445.7172   3208362.0461   2   8   0.1750   0.3805   0.1874  -0.1433  -0.2237   0.0947 -22.00    1.0
2173 370006.000    541527.6775  -5479445.7198   3208362.0499   2   8   0.1661   0.3611   0.1778  -0.1360  -0.2123   0.0899 -21.00    1.0
2173 370007.000    541527.6772  -5479445.7222   3208362.0502   2   8   0.1584   0.3443   0.1696  -0.1297  -0.2024   0.0857 -20.00    1.0
2173 370008.000    541527.6800  -5479445.7225   3208362.0516   2   8   0.1517   0.3296   0.1624  -0.1241  -0.1938   0.0820 -19.00    1.0
2173 370009.000    541527.6819  -5479445.7236   3208362.0500   2   8   0.1457   0.3167   0.1560  -0.1193  -0.1862   0.0788 -18.00    1.0
2173 370010.000    541527.6820  -5479445.7263   3208362.0525   2   8   0.1404   0.3051   0.1503  -0.1149  -0.1793   0.0759 -17.00    1.1
2173 370011.000    541527.6811  -5479445.7249   3208362.0533   2   8   0.1356   0.2947   0.1451  -0.1110  -0.1732   0.0733 -16.00    1.1
2173 370012.000    541527.6843  -5479445.7266   3208362.0542   2   8   0.1313   0.2852   0.1405  -0.1074  -0.1676   0.0709 -15.00    1.1
2173 370013.000    541527.6863  -5479445.7327   3208362.0587   2   8   0.1273   0.2765   0.1362  -0.1042  -0.1625   0.0688 -14.00    1.1
2173 370014.000    541527.6874  -5479445.7370   3208362.0603   2   8   0.1237   0.2686   0.1323  -0.1012  -0.1578   0.0668 -13.00    1.2
2173 370015.000    541527.6875  -5479445.7398   3208362.0612   2   8   0.1203   0.2613   0.1287  -0.0984  -0.1535   0.0649 -12.00    1.2
2173 370016.000    541527.6893  -5479445.7412   3208362.0619   2   8   0.1172   0.2545   0.1254  -0.0959  -0.1495   0.0632 -11.00    1.2
2173 370017.000    541527.6880  -5479445.7347   3208362.0579   2   8   0.1144   0.2481   0.1222  -0.0935  -0.1458   0.0616 -10.00    1.2
2173 370018.000    541527.6897  -5479445.7410   3208362.0603   2   8   0.1117   0.2422   0.1193  -0.0912  -0.1423   0.0602  -9.00    1.2
2173 370019.000    541527.6901  -5479445.7459   3208362.0627   2   8   0.1092   0.2367   0.1166  -0.0892  -0.1390   0.0588  -8.00    1.2
2173 370020.000    541527.6891  -5479445.7410   3208362.0574   2   8   0.1068   0.2315   0.1141  -0.0872  -0.1359   0.0574  -7.00    1.2
2173 370021.000    541527.6921  -5479445.7445   3208362.0610   2   8   0.1046   0.2266   0.1117  -0.0853  -0.1330   0.0562  -6.00    1.2
2173 370022.000    541527.6927  -5479445.7583   3208362.0645   2   8   0.1026   0.2219   0.1094  -0.0836  -0.1302   0.0550  -5.00    1.2
2173 370023.000    541527.6936  -5479445.7622   3208362.0663   2   8   0.1006   0.2175   0.1072  -0.0819  -0.1276   0.0539  -4.00    1.2
2173 370024.000    541527.6922  -5479445.7692   3208362.0674   2   8   0.0988   0.2133   0.1052  -0.0803  -0.1251   0.0529  -3.00    1.2
2173 370025.000    541527.6955  -5479445.7776   3208362.0705   2   8   0.0970   0.2093   0.1033  -0.0788  -0.1228   0.0518  -2.00    1.2
2173 370026.000    541527.6976  -5479445.7900   3208362.0752   2   8   0.0953   0.2056   0.1014  -0.0773  -0.1205   0.0509  -1.00    1.2
2173 370027.000    541527.7033  -5479445.8098   3208362.0827   2   8   0.0938   0.2020   0.0997  -0.0760  -0.1184   0.0500   0.00    1.2
2173 370028.000    541527.7021  -5479445.8149   3208362.0844   2   8   0.0923   0.1986   0.0980  -0.0747  -0.1164   0.0491   0.00    1.2
2173 370029.000    541527.7061  -5479445.8321   3208362.0958   2   8   0.0908   0.1954   0.0965  -0.0734  -0.1144   0.0483   0.00    1.1
2173 370030.000    541527.7105  -5479445.8397   3208362.0978   2   8   0.0895   0.1923   0.0949  -0.0722  -0.1126   0.0475   0.00    1.1
2173 370031.000    541527.7093  -5479445.8533   3208362.1023   2   8   0.0882   0.1893   0.0935  -0.0711  -0.1108   0.0468   0.00    1.0
2173 370032.000    541527.7114  -5479445.8550   3208362.1019   2   8   0.0869   0.1864   0.0921  -0.0700  -0.1091   0.0460   0.00    1.0
2173 370033.000    541527.7148  -5479445.8616   3208362.1051   2   8   0.0857   0.1836   0.0907  -0.0689  -0.1074   0.0453   0.00    1.0
2173 370034.000    541527.7169  -5479445.8693   3208362.1119   2   8   0.0846   0.1809   0.0894  -0.0679  -0.1058   0.0446   0.00    1.0
2173 370035.000    541527.7158  -5479445.8758   3208362.1137   2   8   0.0835   0.1783   0.0882  -0.0668  -0.1042   0.0439   0.00    1.0
2173 370036.000    541527.7159  -5479445.8753   3208362.1105   2   7   0.0824   0.1759   0.0872  -0.0659  -0.1029   0.0435   0.00    1.9
2173 370037.000    541527.7167  -5479445.8846   3208362.1154   2   7   0.0814   0.1735   0.0862  -0.0650  -0.1016   0.0429   0.00    2.5
2173 370038.000    541527.7174  -5479445.8893   3208362.1180   2   7   0.0804   0.1712   0.0852  -0.0642  -0.1002   0.0423   0.00    2.7
2173 370039.000    541527.7180  -5479445.8939   3208362.1176   2   8   0.0795   0.1690   0.0841  -0.0633  -0.0989   0.0418   0.00    2.2
2173 370040.000    541527.7192  -5479445.8913   3208362.1149   2   8   0.0785   0.1668   0.0830  -0.0624  -0.0976   0.0412   0.00    2.9
2173 370041.000    541527.6100  -5479445.8414   3208362.0912   1   8   0.0053   0.0114   0.0059  -0.0041  -0.0066   0.0029   0.00    3.3
2173 370042.000    541527.6103  -5479445.8408   3208362.0913   1   8   0.0051   0.0114   0.0053  -0.0044  -0.0068   0.0020   0.00    3.7
2173 370043.000    541527.6107  -5479445.8430   3208362.0945   1   8   0.0051   0.0114   0.0052  -0.0043  -0.0067   0.0026   0.00    4.0
2173 370044.000    541527.6095  -5479445.8421   3208362.0911   1   8   0.0054   0.0113   0.0058  -0.0043  -0.0067   0.0022   0.00    4.1
2173 370045.000    541527.6069  -5479445.8407   3208362.0873   1   8   0.0053   0.0114   0.0060  -0.0043  -0.0067   0.0030   0.00    4.1
2173 370046.000    541527.6080  -5479445.8430   3208362.0923   1   8   0.0054   0.0113   0.0053  -0.0042  -0.0067   0.0028   0.00    4.2
2173 370047.000    541527.6096  -5479445.8448   3208362.0885   1   8   0.0052   0.0114   0.0056  -0.0042  -0.0067   0.0027   0.00    4.0
2173 370048.000    541527.6073  -5479445.8415   3208362.0880   1   8   0.0051   0.0114   0.0054  -0.0042  -0.0067   0.0029   0.00    3.8
2173 370049.000    541527.6077  -5479445.8412   3208362.0893   1   8   0.0052   0.0114   0.0058  -0.0044  -0.0066   0.0028   0.00    3.6
2173 370050.000    541527.6100  -5479445.8376   3208362.0866   1   8   0.0052   0.0114   0.0056  -0.0043  -0.0067   0.0028   0.00    3.5
2173 370051.000    541527.6092  -5479445.8419   3208362.0876   1   8   0.0053   0.0114   0.0053  -0.0041  -0.0067   0.0028   0.00    3.4
2173 370052.000    541527.6074  -5479445.8401   3208362.0886   1   8   0.0052   0.0114   0.0054  -0.0043  -0.0067   0.0025   0.00    3.2
2173 370053.000    541527.6074  -5479445.8489   3208362.0892   1   8   0.0053   0.0114   0.0055  -0.0043  -0.0066   0.0027   0.00    3.1
2173 370054.000    541527.6095  -5479445.8391   3208362.0895   1   8   0.0051   0.0114   0.0050  -0.0042  -0.0067   0.0034   0.00    3.1
2173 370055.000    541527.7320  -5479445.9705   3208362.1336   2   8   0.0674   0.1391   0.0699  -0.0512  -0.0807   0.0338   0.00    3.0
2173 370056.000    541527.7344  -5479445.9799   3208362.1377   2   8   0.0668   0.1374   0.0691  -0.0506  -0.0797   0.0334   0.00    2.9
2173 370057.000    541527.7373  -5479445.9895   3208362.1403   2   8   0.0662   0.1359   0.0684  -0.0499  -0.0787   0.0330   0.00    2.9
2173 370058.000    541527.7369  -5479446.0021   3208362.1463   2   8   0.0657   0.1343   0.0677  -0.0493  -0.0778   0.0326   0.00    2.8
2173 370059.000    541527.7372  -5479445.9984   3208362.1455   2   8   0.0651   0.1328   0.0670  -0.0486  -0.0768   0.0321   0.00    2.8
2173 370060.000    541527.7399  -5479446.0050   3208362.1494   2   8   0.0646   0.1313   0.0663  -0.0480  -0.0759   0.0317   0.00    2.7
2173 370061.000    541527.7427  -5479446.0136   3208362.1510   2   8   0.0641   0.1298   0.0657  -0.0474  -0.0750   0.0313   0.00    2.7
2173 370062.000    541527.7394  -5479446.0058   3208362.1474   2   8   0.0635   0.1283   0.0649  -0.0467  -0.0741   0.0310   0.00    2.6
2173 370063.000    541527.7434  -5479446.0196   3208362.1509   2   8   0.0630   0.1269   0.0643  -0.0461  -0.0732   0.0305   0.00    2.6
2173 370064.000    541527.7406  -5479446.0179   3208362.1518   2   8   0.0625   0.1254   0.0637  -0.0455  -0.0723   0.0301   0.00    2.5
2173 370065.000    541527.7419  -5479446.0172   3208362.1485   2   8   0.0620   0.1240   0.0630  -0.0449  -0.0714   0.0298   0.00    2.5
2173 370066.000    541527.7405  -5479446.0076   3208362.1464   2   8   0.0615   0.1226   0.0624  -0.0443  -0.0705   0.0293   0.00    2.4
2173 370067.000    541527.7430  -5479446.0167   3208362.1523   2   8   0.0610   0.1213   0.0618  -0.0437  -0.0697   0.0290   0.00    2.3
2173 370068.000    541527.7421  -5479446.0174   3208362.1511   2   8   0.0606   0.1199   0.0612  -0.0432  -0.0688   0.0286   0.00    2.3
2173 370069.000    541527.7436  -5479446.0169   3208362.1510   2   8   0.0602   0.1186   0.0606  -0.0426  -0.0680   0.0282   0.00    2.2
2173 370070.000    541527.7454  -5479446.0185   3208362.1548   2   8   0.0597   0.1173   0.0600  -0.0420  -0.0672   0.0279   0.00    2.2
2173 370071.000    541527.7422  -5479446.0097   3208362.1475   2   8   0.0593   0.1160   0.0594  -0.0414  -0.0664   0.0275   0.00    2.2
2173 370072.000    541527.7431  -5479446.0118   3208362.1468   2   8   0.0588   0.1147   0.0588  -0.0409  -0.0656   0.0272   0.00    2.1
2173 370073.000    541527.7404  -5479446.0123   3208362.1495   2   8   0.0584   0.1134   0.0583  -0.0403  -0.0647   0.0268   0.00    2.1
2173 370074.000    541527.7441  -5479446.0155   3208362.1536   2   8   0.0580   0.1122   0.0577  -0.0398  -0.0640   0.0264   0.00    2.1
2173 370075.000    541527.7425  -5479446.0097   3208362.1527   2   7   0.0576   0.1110   0.0574  -0.0393  -0.0634   0.0262   0.00    1.5
2173 370076.000    541527.7438  -5479446.0120   3208362.1540   2   7   0.0572   0.1099   0.0569  -0.0388  -0.0626   0.0258   0.00    1.9
2173 370077.000    541527.7440  -5479446.0088   3208362.1526   2   8   0.0567   0.1086   0.0564  -0.0381  -0.0619   0.0254   0.00    1.4
2173 370078.000    541527.7422  -5479446.0098   3208362.1551   2   8   0.0562   0.1073   0.0559  -0.0373  -0.0610   0.0249   0.00    1.5
2173 370079.000    541527.7406  -5479446.0088   3208362.1577   2   8   0.0558   0.1061   0.0554  -0.0366  -0.0603   0.0245   0.00    1.8
2173 370080.000    541527.7397  -5479446.0082   3208362.1555   2   8   0.0553   0.1049   0.0549  -0.0360  -0.0595   0.0240   0.00    2.0
2173 370081.000    541527.7381  -5479446.0137   3208362.1568   2   9   0.0549   0.1038   0.0544  -0.0353  -0.0588   0.0237   0.00    1.4
2173 370082.000    541527.7402  -5479446.0052   3208362.1531   2   9   0.0544   0.1026   0.0539  -0.0347  -0.0580   0.0233   0.00    1.6
2173 370083.000    541527.7380  -5479446.0097   3208362.1569   2   9   0.0541   0.1015   0.0534  -0.0340  -0.0573   0.0229   0.00    1.8
2173 370084.000    541527.7357  -5479445.9966   3208362.1495   2   9   0.0536   0.1004   0.0528  -0.0335  -0.0566   0.0225   0.00    1.9
2173 370085.000    541527.7338  -5479445.9963   3208362.1487   2   9   0.0532   0.0993   0.0524  -0.0329  -0.0559   0.0221   0.00    2.1
2173 370086.000    541527.7334  -5479445.9919   3208362.1479   2   9   0.0528   0.0982   0.0519  -0.0323  -0.0552   0.0217   0.00    2.2
2173 370087.000    541527.7323  -5479445.9862   3208362.1461   2   9   0.0525   0.0972   0.0514  -0.0317  -0.0546   0.0213   0.00    2.3
2173 370088.000    541527.7328  -5479445.9812   3208362.1464   2   9   0.0521   0.0961   0.0510  -0.0311  -0.0539   0.0210   0.00    2.4
2173 370089.000    541527.7300  -5479445.9851   3208362.1454   2   9   0.0517   0.0951   0.0506  -0.0306  -0.0532   0.0206   0.00    2.4
2173 370090.000    541527.7303  -5479445.9748   3208362.1381   2   9   0.0514   0.0941   0.0501  -0.0300  -0.0526   0.0203   0.00    2.4
2173 370091.000    541527.7278  -5479445.9711   3208362.1391   2   9   0.0510   0.0931   0.0498  -0.0295  -0.0519   0.0200   0.00    2.4
2173 370092.000    541527.7271  -5479445.9680   3208362.1366   2   9   0.0507   0.0922   0.0493  -0.0289  -0.0513   0.0196   0.00    2.4
2173 370093.000    541527.7251  -5479445.9645   3208362.1371   2   9   0.0504   0.0912   0.0487  -0.0284  -0.0507   0.0194   0.00    2.5
2173 370094.000    541527.7235  -5479445.9629   3208362.1342   2   9   0.0500   0.0903   0.0484  -0.0279  -0.0501   0.0190   0.00    2.4
2173 370095.000    541527.7242  -5479445.9568   3208362.1318   2   9   0.0497   0.0893   0.0481  -0.0274  -0.0495   0.0186   0.00    2.5
2173 370096.000    541527.7238  -5479445.9559   3208362.1288   2   9   0.0494   0.0884   0.0477  -0.0269  -0.0489   0.0183   0.00    2.4
2173 370097.000    541527.7238  -5479445.9498   3208362.1279   2   9   0.0490   0.0875   0.0472  -0.0264  -0.0484   0.0180   0.00    2.4
2173 370098.000    541527.7208  -5479445.9520   3208362.1300   2   9   0.0487   0.0866   0.0468  -0.0260  -0.0478   0.0178   0.00    2.5
2173 370099.000    541527.7215  -5479445.9469   3208362.1284   2   9   0.0484   0.0858   0.0465  -0.0255  -0.0472   0.0175   0.00    2.5
2173 370100.000    541527.7201  -5479445.9554   3208362.1299   2   9   0.0481   0.0849   0.0461  -0.0250  -0.0467   0.0172   0.00    2.5
2173 370101.000    541527.7215  -5479445.9493   3208362.1280   2   9   0.0479   0.0840   0.0457  -0.0246  -0.0461   0.0169   0.00    2.5
2173 370102.000    541527.7213  -5479445.9445   3208362.1270   2   9   0.0476   0.0832   0.0454  -0.0241  -0.0456   0.0166   0.00    2.5
2173 370103.000    541527.7189  -5479445.9420   3208362.1233   2   9   0.0473   0.0824   0.0450  -0.0237  -0.0451   0.0163   0.00    2.5
2173 370104.000    541527.7181  -5479445.9420   3208362.1233   2   9   0.0470   0.0816   0.0446  -0.0232  -0.0445   0.0161   0.00    2.5
2173 370105.000    541527.7166  -5479445.9292   3208362.1171   2   9   0.0468   0.0808   0.0444  -0.0228  -0.0440   0.0158   0.00    2.5
2173 370106.000    541527.7161  -5479445.9326   3208362.1182   2   9   0.0465   0.0800   0.0440  -0.0224  -0.0435   0.0155   0.00    2.5
2173 370107.000    541527.7141  -5479445.9308   3208362.1155   2   9   0.0462   0.0792   0.0437  -0.0219  -0.0430   0.0151   0.00    2.5
2173 370108.000    541527.7132  -5479445.9237   3208362.1141   2   9   0.0460   0.0784   0.0434  -0.0215  -0.0425   0.0149   0.00    2.5
2173 370109.000    541527.7108  -5479445.9159   3208362.1119   2   9   0.0457   0.0777   0.0430  -0.0211  -0.0420   0.0148   0.00    2.5
2173 370110.000    541527.7118  -5479445.9156   3208362.1107   2   9   0.0455   0.0769   0.0427  -0.0207  -0.0415   0.0145   0.00    2.5
2173 370111.000    541527.7104  -5479445.9099   3208362.1097   2   9   0.0452   0.0762   0.0424  -0.0203  -0.0410   0.0143   0.00    2.5
2173 370112.000    541527.7087  -5479445.9053   3208362.1083   2   9   0.0450   0.0755   0.0421  -0.0199  -0.0406   0.0139   0.00    2.5
2173 370113.000    541527.7110  -5479445.9068   3208362.1058   2   9   0.0447   0.0748   0.0418  -0.0195  -0.0401   0.0136   0.00    2.5
2173 370114.000    541527.7081  -5479445.8974   3208362.1016   2   9   0.0445   0.0741   0.0414  -0.0191  -0.0397   0.0136   0.00    2.5
2173 370115.000    541527.7089  -5479445.8904   3208362.0977   2   9   0.0443   0.0734   0.0411  -0.0187  -0.0392   0.0134   0.00    2.5
2173 370116.000    541527.7074  -5479445.8812   3208362.0945   2   9   0.0440   0.0727   0.0409  -0.0184  -0.0388   0.0131   0.00    2.5
2173 370117.000    541527.7063  -5479445.8796   3208362.0931   2   9   0.0439   0.0720   0.0405  -0.0179  -0.0383   0.0129   0.00    2.5
2173 370118.000    541527.7039  -5479445.8730   3208362.0920   2   9   0.0437   0.0714   0.0403  -0.0176  -0.0379   0.0124   0.00    2.5
2173 370119.000    541527.7008  -5479445.8661   3208362.0882   2   9   0.0434   0.0707   0.0399  -0.0172  -0.0375   0.0124   0.00    2.5
2173 370120.000    541527.7012  -5479445.8595   3208362.0845   2   9   0.0432   0.0701   0.0397  -0.0169  -0.0371   0.0123   0.00    2.4
2173 370121.000    541527.6981  -5479445.8590   3208362.0841   2   9   0.0430   0.0694   0.0395  -0.0165  -0.0366   0.0118   0.00    2.4
2173 370122.000    541527.7004  -5479445.8573   3208362.0852   2   9   0.0428   0.0688   0.0392  -0.0161  -0.0362   0.0118   0.00    2.4
2173 370123.000    541527.7008  -5479445.8562   3208362.0815   2   9   0.0426   0.0682   0.0389  -0.0158  -0.0358   0.0115   0.00    2.3
2173 370124.000    541527.7000  -5479445.8456   3208362.0804   2   9   0.0424   0.0676   0.0386  -0.0154  -0.0354   0.0115   0.00    2.3
2173 370125.000    541527.6966  -5479445.8431   3208362.0737   2   9   0.0422   0.0670   0.0383  -0.0151  -0.0350   0.0112   0.00    2.3
2173 370126.000    541527.6966  -5479445.8342   3208362.0718   2   9   0.0420   0.0664   0.0381  -0.0147  -0.0347   0.0110   0.00    2.3
2173 370127.000    541527.6966  -5479445.8329   3208362.0724   2   9   0.0418   0.0658   0.0378  -0.0143  -0.0343   0.0108   0.00    2.2
2173 370128.000    541527.6946  -5479445.8281   3208362.0691   2   9   0.0416   0.0652   0.0375  -0.0140  -0.0339   0.0107   0.00    2.2
2173 370129.000    541527.6938  -5479445.8205   3208362.0674   2   9   0.0414   0.0646   0.0374  -0.0137  -0.0335   0.0104   0.00    2.2
2173 370130.000    541527.6930  -5479445.8229   3208362.0671   2   9   0.0412   0.0641   0.0371  -0.0133  -0.0332   0.0102   0.00    2.2
2173 370131.000    541527.6920  -5479445.8164   3208362.0664   2   9   0.0410   0.0635   0.0369  -0.0130  -0.0328   0.0100   0.00    2.2
2173 370132.000    541527.6923  -5479445.8158   3208362.0637   2   9   0.0409   0.0630   0.0365  -0.0126  -0.0325   0.0098   0.00    2.1
2173 370133.000    541527.6893  -5479445.8152   3208362.0645   2   9   0.0407   0.0624   0.0364  -0.0122  -0.0321   0.0097   0.00    2.1
2173 370134.000    541527.6901  -5479445.8091   3208362.0602   2   9   0.0405   0.0619   0.0361  -0.0119  -0.0318   0.0095   0.00    2.1
2173 370135.000    541527.6918  -5479445.8139   3208362.0604   2   9   0.0403   0.0614   0.0359  -0.0116  -0.0314   0.0093   0.00    2.1
2173 370136.000    541527.6903  -5479445.8147   3208362.0608   2   9   0.0402   0.0608   0.0357  -0.0113  -0.0310   0.0090   0.00    2.1
2173 370137.000    541527.6898  -5479445.8027   3208362.0585   2   9   0.0400   0.0603   0.0354  -0.0109  -0.0307   0.0091   0.00    2.1
2173 370138.000    541527.6899  -5479445.8133   3208362.0611   2   9   0.0398   0.0598   0.0353  -0.0106  -0.0304   0.0087   0.00    2.1
2173 370139.000    541527.6913  -5479445.8146   3208362.0624   2   9   0.0397   0.0593   0.0350  -0.0103  -0.0301   0.0085   0.00    2.1
2173 370140.000    541527.6886  -5479445.8165   3208362.0639   2   9   0.0395   0.0588   0.0348  -0.0100  -0.0297   0.0084   0.00    2.0
2173 370141.000    541527.6889  -5479445.8088   3208362.0592   2   9   0.0394   0.0584   0.0347  -0.0096  -0.0294   0.0081   0.00    2.0
2173 370142.000    541527.6882  -5479445.8131   3208362.0612   2   9   0.0392   0.0579   0.0345  -0.0092  -0.0291   0.0080   0.00    2.0
2173 370143.000    541527.6907  -5479445.8090   3208362.0601   2   9   0.0391   0.0574   0.0342  -0.0088  -0.0288   0.0078   0.00    2.0
2173 370144.000    541527.6893  -5479445.8099   3208362.0596   2   9   0.0389   0.0569   0.0340  -0.0085  -0.0285   0.0077   0.00    2.0
2173 370145.000    541527.6885  -5479445.8080   3208362.0584   2   9   0.0387   0.0565   0.0337  -0.0082  -0.0282   0.0078   0.00    2.0
2173 370146.000    541527.6876  -5479445.8068   3208362.0562   2   9   0.0386   0.0560   0.0336  -0.0078  -0.0279   0.0075   0.00    2.0
2173 370147.000    541527.6875  -5479445.8043   3208362.0555   2   9   0.0385   0.0556   0.0334  -0.0074  -0.0276   0.0073   0.00    2.0
2173 370148.000    541527.6883  -5479445.7977   3208362.0554   2   9   0.0383   0.0551   0.0332  -0.0071  -0.0273   0.0069   0.00    2.0
2173 370149.000    541527.6881  -5479445.8013   3208362.0554   2   9   0.0381   0.0547   0.0330  -0.0067  -0.0271   0.0069   0.00    2.0
2173 370150.000    541527.6882  -5479445.7984   3208362.0551   2   9   0.0380   0.0543   0.0327  -0.0062  -0.0268   0.0066   0.00    1.9
2173 370151.000    541527.6881  -5479445.8016   3208362.0548   2   9   0.0379   0.0538   0.0326  -0.0059  -0.0265   0.0065   0.00    1.9
2173 370152.000    541527.6854  -5479445.8018   3208362.0529   2   9   0.0377   0.0534   0.0323  -0.0054  -0.0262   0.0064   0.00    1.9
2173 370153.000    541527.6871  -5479445.7983   3208362.0512   2   9   0.0376   0.0530   0.0322  -0.0050  -0.0259   0.0064   0.00    1.9
2173 370154.000    541527.6866  -5479445.7941   3208362.0514   2   9   0.0374   0.0526   0.0321  -0.0046  -0.0257   0.0057   0.00    1.9
2173 370155.000    541527.6854  -5479445.7975   3208362.0523   2   9   0.0373   0.0522   0.0318  -0.0039  -0.0254   0.0059   0.00    1.9
2173 370156.000    541527.6852  -5479445.7925   3208362.0503   2   9   0.0371   0.0518   0.0318  -0.0034  -0.0251   0.0057   0.00    1.9
2173 370157.000    541527.6857  -5479445.7990   3208362.0531   2   9   0.0370   0.0514   0.0317  -0.0026  -0.0249   0.0053   0.00    1.9
2173 370158.000    541527.6852  -5479445.7971   3208362.0518   2   9   0.0369   0.0510   0.0313  -0.0019  -0.0246   0.0057   0.00    1.9
2173 370159.000    541527.6862  -5479445.7952   3208362.0507   2   9   0.0368   0.0506   0.0311   0.0014  -0.0244   0.0053   0.00    1.9
2173 370160.000    541527.6826  -5479445.7937   3208362.0494   2   9   0.0366   0.0502   0.0311   0.0021  -0.0242   0.0049   0.00    1.9
2173 370161.000    541527.6846  -5479445.7909   3208362.0470   2   9   0.0365   0.0499   0.0308   0.0031  -0.0239   0.0053   0.00    1.8
2173 370162.000    541527.6830  -5479445.7865   3208362.0461   2   9   0.0364   0.0495   0.0307   0.0037  -0.0236   0.0050   0.00    1.8
2173 370163.000    541527.6854  -5479445.7907   3208362.0464   2   9   0.0362   0.0491   0.0305   0.0039  -0.0234   0.0045   0.00    1.8
2173 370164.000    541527.6838  -5479445.7859   3208362.0457   2   9   0.0361   0.0488   0.0303   0.0045  -0.0232   0.0047   0.00    1.8
2173 370165.000    541527.6844  -5479445.7849   3208362.0447   2   9   0.0360   0.0484   0.0302   0.0048  -0.0230   0.0044   0.00    1.8
2173 370166.000    541527.6856  -5479445.7833   3208362.0425   2   9   0.0359   0.0481   0.0301   0.0050  -0.0227   0.0041   0.00    1.8
2173 370167.000    541527.6834  -5479445.7810   3208362.0417   2   9   0.0357   0.0477   0.0299   0.0053  -0.0225   0.0039   0.00    1.8
2173 370168.000    541527.6840  -5479445.7780   3208362.0401   2   9   0.0357   0.0474   0.0298   0.0057  -0.0223   0.0036   0.00    1.8
2173 370169.000    541527.6830  -5479445.7759   3208362.0384   2   9   0.0355   0.0470   0.0295   0.0059  -0.0220   0.0035   0.00    1.8
2173 370170.000    541527.6832  -5479445.7758   3208362.0375   2   9   0.0354   0.0467   0.0294   0.0061  -0.0218   0.0038   0.00    1.8
2173 370171.000    541527.6832  -5479445.7738   3208362.0368   2   9   0.0353   0.0464   0.0292   0.0062  -0.0216   0.0034   0.00    1.8
2173 370172.000    541527.6818  -5479445.7726   3208362.0385   2   9   0.0352   0.0461   0.0291   0.0066  -0.0214   0.0033   0.00    1.8
2173 370173.000    541527.6823  -5479445.7740   3208362.0366   2   9   0.0351   0.0457   0.0290   0.0067  -0.0212   0.0029   0.00    1.8
2173 370174.000    541527.6808  -5479445.7729   3208362.0341   2   9   0.0350   0.0454   0.0288   0.0069  -0.0209   0.0025   0.00    1.8
2173 370175.000    541527.6805  -5479445.7645   3208362.0322   2   9   0.0349   0.0451   0.0287   0.0071  -0.0208   0.0026   0.00    1.8
2173 370176.000    541527.6785  -5479445.7659   3208362.0353   2   9   0.0348   0.0448   0.0285   0.0073  -0.0206   0.0025   0.00    1.8
2173 370177.000    541527.6808  -5479445.7677   3208362.0347   2   9   0.0347   0.0445   0.0285   0.0074  -0.0204   0.0006   0.00    1.8
2173 370178.000    541527.6802  -5479445.7653   3208362.0355   2   9   0.0346   0.0442   0.0283   0.0077  -0.0202   0.0015   0.00    1.8
2173 370179.000    541527.6779  -5479445.7631   3208362.0330   2   9   0.0345   0.0439   0.0280   0.0078  -0.0200   0.0022   0.00    1.8
2173 370180.000    541527.6777  -5479445.7677   3208362.0378   2   9   0.0343   0.0436   0.0279   0.0078  -0.0198   0.0021   0.00    1.8
2173 370181.000    541527.6783  -5479445.7646   3208362.0343   2   9   0.0342   0.0433   0.0278   0.0080  -0.0196   0.0017   0.00    1.8
2173 370182.000    541527.6785  -5479445.7643   3208362.0357   2   9   0.0341   0.0430   0.0276   0.0082  -0.0194   0.0017   0.00    1.8
2173 370183.000    541527.6782  -5479445.7642   3208362.0343   2   9   0.0340   0.0427   0.0275   0.0082  -0.0192  -0.0021   0.00    1.8
2173 370184.000    541527.6752  -5479445.7638   3208362.0349   2   9   0.0339   0.0425   0.0274   0.0083  -0.0190   0.0007   0.00    1.7
2173 370185.000    541527.6783  -5479445.7693   3208362.0386   2   9   0.0338   0.0422   0.0273   0.0085  -0.0188  -0.0020   0.00    1.8
2173 370186.000    541527.6785  -5479445.7704   3208362.0377   2   9   0.0337   0.0419   0.0271   0.0085  -0.0187  -0.0016   0.00    1.8
2173 370187.000    541527.6758  -5479445.7643   3208362.0349   2   9   0.0336   0.0416   0.0270   0.0087  -0.0185  -0.0009   0.00    1.8
2173 370188.000    541527.6770  -5479445.7762   3208362.0441   2   9   0.0335   0.0414   0.0268   0.0087  -0.0183  -0.0023   0.00    1.8
2173 370189.000    541527.6761  -5479445.7748   3208362.0428   2   9   0.0335   0.0411   0.0267   0.0089  -0.0182  -0.0019   0.00    1.8
2173 370190.000    541527.6753  -5479445.7811   3208362.0443   2   9   0.0333   0.0409   0.0267   0.0089  -0.0180  -0.0023   0.00    1.8
2173 370191.000    541527.6785  -5479445.7803   3208362.0436   2   9   0.0332   0.0406   0.0264   0.0091  -0.0178  -0.0010   0.00    1.7
2173 370192.000    541527.6778  -5479445.7842   3208362.0466   2   9   0.0332   0.0403   0.0264   0.0091  -0.0177  -0.0028   0.00    1.7
2173 370193.000    541527.6763  -5479445.7819   3208362.0475   2   9   0.0330   0.0401   0.0263   0.0092  -0.0175  -0.0020   0.00    1.7
2173 370194.000    541527.6756  -5479445.7822   3208362.0456   2   9   0.0330   0.0398   0.0261   0.0092  -0.0173  -0.0029   0.00    1.7
2173 370195.000    541527.6769  -5479445.7844   3208362.0481   2   9   0.0329   0.0396   0.0260   0.0094  -0.0172  -0.0028   0.00    1.7
2173 370196.000    541527.6747  -5479445.7820   3208362.0473   2   9   0.0328   0.0393   0.0260   0.0095  -0.0170  -0.0030   0.00    1.7
2173 370197.000    541527.6751  -5479445.7856   3208362.0505   2   9   0.0327   0.0391   0.0258   0.0095  -0.0168  -0.0033   0.00    1.7
2173 370198.000    541527.6736  -5479445.7829   3208362.0515   2   9   0.0326   0.0389   0.0256   0.0096  -0.0167  -0.0032   0.00    1.7
2173 370199.000    541527.6769  -5479445.7864   3208362.0510   2   9   0.0325   0.0386   0.0256   0.0096  -0.0165  -0.0028   0.00    1.7
2173 370200.000    541527.6757  -5479445.7893   3208362.0539   2   9   0.0324   0.0384   0.0253   0.0097  -0.0164  -0.0024   0.00    1.7
2173 370201.000    541527.6756  -5479445.7905   3208362.0570   2   9   0.0323   0.0382   0.0253   0.0098  -0.0163  -0.0032   0.00    1.7
2173 370202.000    541527.6756  -5479445.7957   3208362.0601   2   9   0.0322   0.0379   0.0252   0.0098  -0.0161  -0.0033   0.00    1.7
2173 370203.000    541527.6750  -5479445.7958   3208362.0602   2   9   0.0321   0.0377   0.0251   0.0099  -0.0159  -0.0039   0.00    1.7
2173 370204.000    541527.6755  -5479445.7938   3208362.0583   2   9   0.0321   0.0375   0.0250   0.0099  -0.0158  -0.0035   0.00    1.7
2173 370205.000    541527.6747  -5479445.7959   3208362.0589   2   9   0.0320   0.0373   0.0249   0.0100  -0.0157  -0.0036   0.00    1.7
2173 370206.000    541527.6744  -5479445.7994   3208362.0604   2   9   0.0319   0.0371   0.0247   0.0101  -0.0155  -0.0037   0.00    1.7
2173 370207.000    541527.6753  -5479445.7959   3208362.0616   2   9   0.0318   0.0368   0.0246   0.0101  -0.0154  -0.0036   0.00    1.7
2173 370208.000    541527.6724  -5479445.7973   3208362.0626   2   9   0.0317   0.0366   0.0245   0.0101  -0.0152  -0.0033   0.00    1.7
2173 370209.000    541527.6758  -5479445.7976   3208362.0642   2   9   0.0317   0.0364   0.0244   0.0101  -0.0152  -0.0041   0.00    1.7
2173 370210.000    541527.6724  -5479445.7951   3208362.0634   2   9   0.0316   0.0362   0.0243   0.0102  -0.0150  -0.0034   0.00    1.7
2173 370211.000    541527.6749  -5479445.8006   3208362.0649   2   9   0.0315   0.0360   0.0242   0.0103  -0.0148  -0.0040   0.00    1.7
2173 370212.000    541527.6747  -5479445.8010   3208362.0672   2   9   0.0314   0.0358   0.0241   0.0103  -0.0147  -0.0041   0.00    1.7
2173 370213.000    541527.6743  -5479445.8031   3208362.0685   2   9   0.0313   0.0356   0.0239   0.0103  -0.0146  -0.0033   0.00    1.7
2173 370214.000    541527.6761  -5479445.7993   3208362.0679   2   9   0.0312   0.0354   0.0239   0.0104  -0.0144  -0.0038   0.00    1.7
2173 370215.000    541527.6732  -5479445.8020   3208362.0682   2   9   0.0312   0.0352   0.0238   0.0104  -0.0144  -0.0037   0.00    1.7
2173 370216.000    541527.6739  -5479445.8009   3208362.0681   2   9   0.0311   0.0350   0.0236   0.0105  -0.0142  -0.0036   0.00    1.7
2173 370217.000    541527.6756  -5479445.8025   3208362.0673   2   9   0.0310   0.0348   0.0238   0.0104  -0.0141  -0.0044   0.00    1.7
2173 370218.000    541527.6733  -5479445.8058   3208362.0708   2   9   0.0309   0.0347   0.0236   0.0105  -0.0139  -0.0043   0.00    1.7
2173 370219.000    541527.6727  -5479445.8025   3208362.0691   2   9   0.0309   0.0345   0.0235   0.0105  -0.0138  -0.0040   0.00    1.7
2173 370220.000    541527.6723  -5479445.8056   3208362.0720   2   9   0.0308   0.0343   0.0234   0.0106  -0.0138  -0.0046   0.00    1.7
2173 370221.000    541527.6747  -5479445.8077   3208362.0729   2   9   0.0307   0.0341   0.0233   0.0105  -0.0136  -0.0042   0.00    1.7
2173 370222.000    541527.6722  -5479445.8062   3208362.0740   2   9   0.0306   0.0339   0.0230   0.0106  -0.0135  -0.0044   0.00    1.7
2173 370223.000    541527.6708  -5479445.8062   3208362.0731   2   9   0.0305   0.0337   0.0230   0.0106  -0.0134  -0.0042   0.00    1.7
2173 370224.000    541527.6745  -5479445.8131   3208362.0747   2   9   0.0305   0.0336   0.0230   0.0106  -0.0133  -0.0045   0.00    1.7
2173 370225.000    541527.6735  -5479445.8079   3208362.0727   2   9   0.0304   0.0334   0.0229   0.0107  -0.0131  -0.0040   0.00    1.7
2173 370226.000    541527.6726  -5479445.8082   3208362.0739   2   9   0.0304   0.0332   0.0227   0.0107  -0.0131  -0.0044   0.00    1.7
2173 370227.000    541527.6755  -5479445.8117   3208362.0763   2   9   0.0303   0.0330   0.0227   0.0107  -0.0130  -0.0044   0.00    1.7
2173 370228.000    541527.6763  -5479445.8157   3208362.0796   2   9   0.0302   0.0329   0.0227   0.0108  -0.0128  -0.0043   0.00    1.7
2173 370229.000    541527.6748  -5479445.8163   3208362.0773   2   9   0.0301   0.0327   0.0224   0.0108  -0.0128  -0.0042   0.00    1.7
2173 370230.000    541527.6749  -5479445.8164   3208362.0764   2   9   0.0301   0.0325   0.0225   0.0108  -0.0127  -0.0042   0.00    1.7
2173 370231.000    541527.6741  -5479445.8209   3208362.0817   2   9   0.0300   0.0324   0.0224   0.0108  -0.0125  -0.0048   0.00    1.7
2173 370232.000    541527.6762  -5479445.8194   3208362.0799   2   9   0.0299   0.0322   0.0221   0.0107  -0.0124  -0.0041   0.00    1.7
2173 370233.000    541527.6753  -5479445.8177   3208362.0791   2   9   0.0298   0.0320   0.0222   0.0109  -0.0124  -0.0044   0.00    1.7
2173 370234.000    541527.6763  -5479445.8219   3208362.0825   2   9   0.0297   0.0319   0.0221   0.0108  -0.0122  -0.0043   0.00    1.7
2173 370235.000    541527.6760  -5479445.8278   3208362.0845   2   9   0.0298   0.0317   0.0220   0.0108  -0.0121  -0.0043   0.00    1.7
2173 370236.000    541527.6760  -5479445.8251   3208362.0863   2   9   0.0296   0.0316   0.0220   0.0109  -0.0120  -0.0047   0.00    1.7
2173 370237.000    541527.6757  -5479445.8262   3208362.0855   2   9   0.0296   0.0314   0.0217   0.0109  -0.0120  -0.0043   0.00    1.7
2173 370238.000    541527.6741  -5479445.8233   3208362.0828   2   9   0.0295   0.0312   0.0218   0.0108  -0.0119  -0.0047   0.00    1.7
2173 370239.000    541527.6764  -5479445.8323   3208362.0884   2   9   0.0295   0.0311   0.0216   0.0109  -0.0118  -0.0045   0.00    1.7
2173 370240.000    541527.6749  -5479445.8323   3208362.0886   2   9   0.0293   0.0309   0.0214   0.0109  -0.0117  -0.0043   0.00    1.7
2173 370241.000    541527.6759  -5479445.8319   3208362.0868   2   9   0.0293   0.0308   0.0214   0.0109  -0.0115  -0.0042   0.00    1.7
2173 370242.000    541527.6746  -5479445.8349   3208362.0896   2   9   0.0293   0.0307   0.0213   0.0110  -0.0114  -0.0043   0.00    1.7
2173 370243.000    541527.6760  -5479445.8416   3208362.0919   2   9   0.0292   0.0305   0.0213   0.0110  -0.0114  -0.0047   0.00    1.7
2173 370244.000    541527.6742  -5479445.8457   3208362.0947   2   9   0.0291   0.0304   0.0211   0.0110  -0.0114  -0.0045   0.00    1.7
2173 370245.000    541527.6755  -5479445.8397   3208362.0924   2   9   0.0290   0.0302   0.0211   0.0110  -0.0112  -0.0044   0.00    1.7
2173 370246.000    541527.6738  -5479445.8452   3208362.0931   2   9   0.0290   0.0301   0.0211   0.0110  -0.0111  -0.0045   0.00    1.7
2173 370247.000    541527.6750  -5479445.8452   3208362.0951   2   9   0.0289   0.0300   0.0210   0.0110  -0.0111  -0.0044   0.00    1.8
2173 370248.000    541527.6750  -5479445.8488   3208362.0959   2   9   0.0289   0.0298   0.0210   0.0110  -0.0109  -0.0046   0.00    1.8
2173 370249.000    541527.6741  -5479445.8474   3208362.0973   2   9   0.0288   0.0297   0.0209   0.0110  -0.0109  -0.0046   0.00    1.8
2173 370250.000    541527.6758  -5479445.8509   3208362.1001   2   9   0.0287   0.0295   0.0207   0.0110  -0.0108  -0.0043   0.00    1.8
2173 370251.000    541527.6726  -5479445.8541   3208362.1027   2   9   0.0287   0.0294   0.0207   0.0111  -0.0107  -0.0046   0.00    1.8
2173 370252.000    541527.6729  -5479445.8526   3208362.1040   2   9   0.0286   0.0293   0.0206   0.0110  -0.0106  -0.0045   0.00    1.8
2173 370253.000    541527.6737  -5479445.8550   3208362.1063   2   9   0.0286   0.0291   0.0205   0.0110  -0.0105  -0.0045   0.00    1.8
2173 370254.000    541527.6712  -5479445.8500   3208362.1043   2   9   0.0286   0.0290   0.0204   0.0111  -0.0105  -0.0046   0.00    1.8
2173 370255.000    541527.6730  -5479445.8525   3208362.1032   2   9   0.0284   0.0289   0.0202   0.0111  -0.0104  -0.0042   0.00    1.8
2173 370256.000    541527.6736  -5479445.8505   3208362.1022   2   9   0.0284   0.0287   0.0203   0.0110  -0.0104  -0.0042   0.00    1.8
2173 370257.000    541527.6745  -5479445.8536   3208362.1068   2   9   0.0283   0.0286   0.0201   0.0110  -0.0103  -0.0044   0.00    1.8
2173 370258.000    541527.6744  -5479445.8581   3208362.1103   2   9   0.0283   0.0285   0.0201   0.0111  -0.0102  -0.0048   0.00    1.8
2173 370259.000    541527.6728  -5479445.8550   3208362.1081   2   9   0.0282   0.0284   0.0202   0.0110  -0.0101  -0.0048   0.00    1.8
2173 370260.000    541527.6708  -5479445.8528   3208362.1105   2   9   0.0281   0.0283   0.0200   0.0111  -0.0100  -0.0046   0.00    1.8
2173 370261.000    541527.6732  -5479445.8540   3208362.1092   2   9   0.0281   0.0281   0.0200   0.0110  -0.0100  -0.0041   0.00    1.8
2173 370262.000    541527.6721  -5479445.8541   3208362.1097   2   9   0.0281   0.0280   0.0198   0.0111  -0.0098  -0.0045   0.00    1.8
2173 370263.000    541527.6723  -5479445.8535   3208362.1112   2   9   0.0279   0.0279   0.0198   0.0111  -0.0098  -0.0046   0.00    1.9
2173 370264.000    541527.6699  -5479445.8551   3208362.1125   2   9   0.0279   0.0278   0.0198   0.0110  -0.0098  -0.0045   0.00    1.9
2173 370265.000    541527.6720  -5479445.8529   3208362.1098   2   9   0.0279   0.0276   0.0197   0.0111  -0.0097  -0.0045   0.00    1.9
2173 370266.000    541527.6711  -5479445.8543   3208362.1125   2   9   0.0278   0.0275   0.0195   0.0111  -0.0096  -0.0046   0.00    1.9
2173 370267.000    541527.6707  -5479445.8540   3208362.1116   2   9   0.0278   0.0274   0.0195   0.0111  -0.0096  -0.0049   0.00    1.9
2173 370268.000    541527.6706  -5479445.8536   3208362.1085   2   9   0.0277   0.0273   0.0195   0.0111  -0.0095  -0.0048   0.00    1.9
2173 370269.000    541527.6706  -5479445.8503   3208362.1127   2   9   0.0276   0.0272   0.0195   0.0111  -0.0095  -0.0048   0.00    1.9
2173 370270.000    541527.6710  -5479445.8479   3208362.1097   2   9   0.0276   0.0271   0.0192   0.0110  -0.0094  -0.0043   0.00    1.9
2173 370271.000    541527.6689  -5479445.8483   3208362.1075   2   9   0.0275   0.0270   0.0191   0.0111  -0.0093  -0.0045   0.00    1.9
2173 370272.000    541527.6699  -5479445.8510   3208362.1101   2   9   0.0275   0.0269   0.0190   0.0110  -0.0093  -0.0045   0.00    1.9
2173 370273.000    541527.6694  -5479445.8467   3208362.1083   2   9   0.0274   0.0268   0.0192   0.0111  -0.0091  -0.0046   0.00    1.9
2173 370274.000    541527.6698  -5479445.8508   3208362.1109   2   9   0.0274   0.0267   0.0190   0.0111  -0.0091  -0.0046   0.00    1.9
2173 370275.000    541527.6707  -5479445.8480   3208362.1100   2   9   0.0273   0.0265   0.0189   0.0110  -0.0090  -0.0044   0.00    1.9
2173 370276.000    541527.6691  -5479445.8427   3208362.1075   2   9   0.0273   0.0265   0.0190   0.0111  -0.0089  -0.0047   0.00    1.9
2173 370277.000    541527.6680  -5479445.8470   3208362.1097   2   9   0.0272   0.0263   0.0188   0.0111  -0.0090  -0.0046   0.00    1.9
2173 370278.000    541527.6695  -5479445.8466   3208362.1104   2   9   0.0272   0.0262   0.0188   0.0110  -0.0089  -0.0047   0.00    1.9
2173 370279.000    541527.6699  -5479445.8464   3208362.1109   2   9   0.0271   0.0261   0.0187   0.0111  -0.0088  -0.0043   0.00    1.9
2173 370280.000    541527.6694  -5479445.8484   3208362.1131   2   9   0.0271   0.0260   0.0187   0.0111  -0.0087  -0.0046   0.00    1.9
2173 370281.000    541527.6692  -5479445.8426   3208362.1127   2   9   0.0270   0.0259   0.0187   0.0111  -0.0086  -0.0046   0.00    1.9
2173 370282.000    541527.6681  -5479445.8423   3208362.1113   2   9   0.0269   0.0258   0.0185   0.0111  -0.0086  -0.0044   0.00    1.9
2173 370283.000    541527.6696  -5479445.8458   3208362.1150   2   9   0.0270   0.0257   0.0186   0.0110  -0.0086  -0.0048   0.00    1.9
2173 370284.000    541527.6678  -5479445.8436   3208362.1150   2   9   0.0269   0.0256   0.0184   0.0110  -0.0085  -0.0046   0.00    1.9
2173 370285.000    541527.6670  -5479445.8446   3208362.1147   2   9   0.0268   0.0256   0.0182   0.0111  -0.0084  -0.0042   0.00    1.9
2173 370286.000    541527.6682  -5479445.8465   3208362.1155   2   9   0.0268   0.0254   0.0184   0.0110  -0.0084  -0.0046   0.00    2.0
2173 370287.000    541527.6669  -5479445.8431   3208362.1159   2   9   0.0267   0.0254   0.0182   0.0110  -0.0084  -0.0043   0.00    2.0
2173 370288.000    541527.6671  -5479445.8418   3208362.1154   2   9   0.0266   0.0253   0.0181   0.0111  -0.0083  -0.0044   0.00    2.0
2173 370289.000    541527.6692  -5479445.8467   3208362.1211   2   9   0.0267   0.0252   0.0180   0.0111  -0.0084  -0.0044   0.00    2.0
2173 370290.000    541527.6665  -5479445.8413   3208362.1168   2   9   0.0265   0.0251   0.0179   0.0111  -0.0082  -0.0042   0.00    2.0
2173 370291.000    541527.6681  -5479445.8462   3208362.1210   2   9   0.0266   0.0250   0.0182   0.0111  -0.0082  -0.0047   0.00    2.0
2173 370292.000    541527.6680  -5479445.8462   3208362.1241   2   9   0.0265   0.0249   0.0180   0.0110  -0.0082  -0.0049   0.00    2.0
2173 370293.000    541527.6673  -5479445.8418   3208362.1220   2   9   0.0264   0.0248   0.0178   0.0110  -0.0081  -0.0041   0.00    2.0
2173 370294.000    541527.6663  -5479445.8440   3208362.1206   2   9   0.0264   0.0247   0.0178   0.0110  -0.0081  -0.0047   0.00    2.0
2173 370295.000    541527.6652  -5479445.8408   3208362.1179   2   9   0.0263   0.0246   0.0179   0.0110  -0.0079  -0.0045   0.00    2.0
2173 370296.000    541527.6679  -5479445.8459   3208362.1244   2   9   0.0262   0.0245   0.0176   0.0110  -0.0079  -0.0045   0.00    2.0
2173 370297.000    541527.6641  -5479445.8382   3208362.1229   2   9   0.0262   0.0244   0.0176   0.0110  -0.0078  -0.0046   0.00    2.0
2173 370298.000    541527.6644  -5479445.8441   3208362.1250   2   9   0.0262   0.0244   0.0176   0.0109  -0.0079  -0.0044   0.00    2.0
2173 370299.000    541527.6646  -5479445.8448   3208362.1254   2   9   0.0261   0.0243   0.0175   0.0110  -0.0078  -0.0043   0.00    2.0
2173 370300.000    541527.6666  -5479445.8500   3208362.1258   2   9   0.0261   0.0242   0.0175   0.0110  -0.0077  -0.0045   0.00    2.0
2173 370301.000    541527.6607  -5479445.8418   3208362.1243   2   9   0.0261   0.0241   0.0176   0.0110  -0.0077  -0.0048   0.00    2.1
2173 370302.000    541527.6638  -5479445.8481   3208362.1265   2   9   0.0260   0.0240   0.0173   0.0110  -0.0077  -0.0042   0.00    2.1
2173 370303.000    541527.6625  -5479445.8464   3208362.1261   2   9   0.0259   0.0240   0.0175   0.0110  -0.0076  -0.0047   0.00    2.1
2173 370304.000    541527.6617  -5479445.8457   3208362.1275   2   9   0.0259   0.0239   0.0173   0.0110  -0.0076  -0.0046   0.00    2.1
2173 370305.000    541527.6617  -5479445.8479   3208362.1280   2   9   0.0259   0.0238   0.0171   0.0110  -0.0076  -0.0043   0.00    2.1
2173 370306.000    541527.6592  -5479445.8476   3208362.1253   2   9   0.0258   0.0237   0.0174   0.0109  -0.0075  -0.0046   0.00    2.1
2173 370307.000    541527.6600  -5479445.8478   3208362.1257   2   9   0.0258   0.0236   0.0169   0.0110  -0.0075  -0.0041   0.00    2.1
2173 370308.000    541527.6613  -5479445.8455   3208362.1255   2   9   0.0257   0.0235   0.0170   0.0109  -0.0075  -0.0044   0.00    2.1
2173 370309.000    541527.6585  -5479445.8434   3208362.1260   2   9   0.0257   0.0235   0.0170   0.0109  -0.0075  -0.0042   0.00    2.1
2173 370310.000    541527.6606  -5479445.8497   3208362.1263   2   9   0.0256   0.0234   0.0169   0.0109  -0.0073  -0.0045   0.00    2.1
2173 370311.000    541527.6584  -5479445.8456   3208362.1277   2   9   0.0256   0.0233   0.0170   0.0109  -0.0073  -0.0046   0.00    2.1
2173 370312.000    541527.6577  -5479445.8453   3208362.1267   2   9   0.0255   0.0232   0.0168   0.0108  -0.0073  -0.0047   0.00    2.1
2173 370313.000    541527.6582  -5479445.8417   3208362.1265   2   9   0.0256   0.0232   0.0169   0.0109  -0.0073  -0.0046   0.00    2.1
2173 370314.000    541527.6577  -5479445.8452   3208362.1277   2   9   0.0255   0.0231   0.0168   0.0109  -0.0071  -0.0045   0.00    2.1
2173 370315.000    541527.6572  -5479445.8488   3208362.1296   2   9   0.0254   0.0230   0.0167   0.0108  -0.0072  -0.0045   0.00    2.2
2173 370316.000    541527.6560  -5479445.8467   3208362.1279   2   9   0.0254   0.0229   0.0167   0.0108  -0.0072  -0.0043   0.00    2.2
2173 370317.000    541527.6587  -5479445.8507   3208362.1300   2   9   0.0253   0.0229   0.0165   0.0108  -0.0071  -0.0042   0.00    2.2
2173 370318.000    541527.6561  -5479445.8471   3208362.1274   2   9   0.0252   0.0228   0.0165   0.0108  -0.0070  -0.0043   0.00    2.2
2173 370319.000    541527.6549  -5479445.8439   3208362.1279   2   9   0.0252   0.0227   0.0166   0.0108  -0.0071  -0.0042   0.00    2.2
2173 370320.000    541527.6568  -5479445.8520   3208362.1325   2   9   0.0252   0.0226   0.0164   0.0109  -0.0070  -0.0041   0.00    2.2
2173 370321.000    541527.6556  -5479445.8539   3208362.1337   2   9   0.0251   0.0226   0.0164   0.0108  -0.0069  -0.0044   0.00    2.2
2173 370322.000    541527.6538  -5479445.8453   3208362.1288   2   9   0.0251   0.0225   0.0163   0.0109  -0.0070  -0.0041   0.00    2.2
2173 370323.000    541527.6565  -5479445.8502   3208362.1295   2   9   0.0251   0.0224   0.0164   0.0108  -0.0069  -0.0046   0.00    2.2
2173 370324.000    541527.6507  -5479445.8435   3208362.1291   2   9   0.0250   0.0224   0.0163   0.0108  -0.0070  -0.0043   0.00    2.2
2173 370325.000    541527.6538  -5479445.8465   3208362.1285   2   9   0.0250   0.0223   0.0161   0.0108  -0.0069  -0.0042   0.00    2.2
2173 370326.000    541527.6520  -5479445.8453   3208362.1271   2   9   0.0250   0.0222   0.0161   0.0108  -0.0069  -0.0043   0.00    2.2
2173 370327.000    541527.6515  -5479445.8447   3208362.1273   2   9   0.0249   0.0222   0.0161   0.0108  -0.0068  -0.0044   0.00    2.3
2173 370328.000    541527.6507  -5479445.8439   3208362.1264   2   9   0.0249   0.0221   0.0160   0.0108  -0.0067  -0.0042   0.00    2.3
2173 370329.000    541527.6495  -5479445.8412   3208362.1264   2   9   0.0249   0.0220   0.0160   0.0108  -0.0067  -0.0043   0.00    2.3
2173 370330.000    541527.6510  -5479445.8422   3208362.1274   2   9   0.0248   0.0220   0.0160   0.0107  -0.0067  -0.0040   0.00    2.3
2173 370331.000    541527.6505  -5479445.8458   3208362.1277   2   9   0.0247   0.0219   0.0161   0.0107  -0.0066  -0.0048   0.00    2.3
2173 370332.000    541527.6484  -5479445.8458   3208362.1289   2   9   0.0247   0.0218   0.0160   0.0107  -0.0067  -0.0043   0.00    2.3
2173 370333.000    541527.6505  -5479445.8452   3208362.1280   2   9   0.0247   0.0218   0.0160   0.0108  -0.0066  -0.0044   0.00    2.3
2173 370334.000    541527.6490  -5479445.8414   3208362.1283   2   9   0.0247   0.0217   0.0157   0.0107  -0.0066  -0.0043   0.00    2.3
2173 370335.000    541527.6485  -5479445.8427   3208362.1288   2   9   0.0246   0.0217   0.0157   0.0107  -0.0066  -0.0041   0.00    2.3
2173 370336.000    541527.6498  -5479445.8480   3208362.1309   2   9   0.0246   0.0216   0.0159   0.0106  -0.0066  -0.0048   0.00    2.3
2173 370337.000    541527.6485  -5479445.8421   3208362.1285   2   9   0.0245   0.0215   0.0155   0.0107  -0.0066  -0.0044   0.00    2.3
2173 370338.000    541527.6472  -5479445.8414   3208362.1286   2   9   0.0245   0.0215   0.0154   0.0107  -0.0066  -0.0038   0.00    2.3
2173 370339.000    541527.6459  -5479445.8390   3208362.1291   2   9   0.0244   0.0214   0.0156   0.0107  -0.0065  -0.0040   0.00    2.3
2173 370340.000    541527.6474  -5479445.8416   3208362.1295   2   9   0.0244   0.0213   0.0156   0.0106  -0.0064  -0.0043   0.00    2.4
2173 370341.000    541527.6465  -5479445.8431   3208362.1313   2   9   0.0244   0.0213   0.0155   0.0107  -0.0065  -0.0044   0.00    2.4
2173 370342.000    541527.6481  -5479445.8418   3208362.1299   2   9   0.0243   0.0212   0.0154   0.0106  -0.0065  -0.0042   0.00    2.4
2173 370343.000    541527.6469  -5479445.8451   3208362.1318   2   9   0.0243   0.0212   0.0154   0.0106  -0.0065  -0.0044   0.00    2.4
2173 370344.000    541527.6128  -5479445.8595   3208362.1046   1   8   0.0049   0.0106   0.0055  -0.0028  -0.0063   0.0020   0.00   54.1
2173 370345.000    541527.6127  -5479445.8569   3208362.1046   1   8   0.0046   0.0106   0.0057  -0.0025  -0.0062   0.0024   0.00   54.1
2173 370346.000    541527.6121  -5479445.8601   3208362.1051   1   8   0.0047   0.0106   0.0061  -0.0027  -0.0063   0.0018   0.00   54.2
2173 370347.000    541527.6129  -5479445.8574   3208362.1054   1   8   0.0045   0.0106   0.0061  -0.0029  -0.0061   0.0020   0.00   54.3
2173 370348.000    541527.6114  -5479445.8570   3208362.1051   1   8   0.0044   0.0106   0.0059  -0.0027  -0.0062   0.0022   0.00   54.3
2173 370349.000    541527.6464  -5479445.8407   3208362.1319   2   8   0.0240   0.0209   0.0153   0.0106  -0.0067  -0.0040   0.00    1.5
2173 370350.000    541527.6452  -5479445.8375   3208362.1320   2   8   0.0241   0.0208   0.0152   0.0106  -0.0065  -0.0039   0.00    1.9
2173 370351.000    541527.6460  -5479445.8372   3208362.1325   2   9   0.0240   0.0208   0.0154   0.0106  -0.0065  -0.0038   0.00    1.2
2173 370352.000    541527.6445  -5479445.8348   3208362.1305   2   9   0.0240   0.0207   0.0152   0.0106  -0.0064  -0.0041   0.00    1.5
2173 370353.000    541527.6452  -5479445.8381   3208362.1333   2   9   0.0239   0.0207   0.0151   0.0106  -0.0065  -0.0039   0.00    1.8
2173 370354.000    541527.6451  -5479445.8349   3208362.1314   2   9   0.0239   0.0206   0.0149   0.0106  -0.0065  -0.0039   0.00    1.9
2173 370355.000    541527.6454  -5479445.8355   3208362.1335   2   9   0.0239   0.0206   0.0152   0.0106  -0.0064  -0.0044   0.00    1.4
2173 370356.000    541527.6458  -5479445.8324   3208362.1326   2   9   0.0238   0.0205   0.0151   0.0105  -0.0065  -0.0043   0.00    1.7
2173 370357.000    541527.6456  -5479445.8340   3208362.1315   2   9   0.0237   0.0204   0.0149   0.0105  -0.0064  -0.0040   0.00    2.0
2173 370358.000    541527.6460  -5479445.8404   3208362.1346   2   9   0.0237   0.0204   0.0148   0.0106  -0.0064  -0.0039   0.00    2.3
2173 370359.000    541527.6462  -5479445.8363   3208362.1351   2   9   0.0237   0.0203   0.0148   0.0105  -0.0065  -0.0040   0.00    2.5
2173 370360.000    541527.6458  -5479445.8327   3208362.1352   2   9   0.0236   0.0203   0.0148   0.0106  -0.0063  -0.0041   0.00    2.7
2173 370361.000    541527.6469  -5479445.8369   3208362.1349   2   9   0.0235   0.0203   0.0147   0.0106  -0.0064  -0.0041   0.00    2.7
2173 370362.000    541527.6465  -5479445.8350   3208362.1338   2   9   0.0236   0.0202   0.0149   0.0105  -0.0064  -0.0044   0.00    2.8
2173 370363.000    541527.6479  -5479445.8354   3208362.1352   2   9   0.0236   0.0201   0.0147   0.0105  -0.0064  -0.0041   0.00    2.9
2173 370364.000    541527.6456  -5479445.8311   3208362.1308   2   9   0.0235   0.0201   0.0148   0.0105  -0.0065  -0.0043   0.00    1.2
2173 370365.000    541527.6455  -5479445.8246   3208362.1249   2   9   0.0235   0.0201   0.0149   0.0105  -0.0064  -0.0042   0.00    1.5
2173 370366.000    541527.6470  -5479445.8305   3208362.1288   2   9   0.0235   0.0200   0.0145   0.0105  -0.0064  -0.0040   0.00    1.6
2173 370367.000    541527.6465  -5479445.8264   3208362.1261   2   9   0.0234   0.0200   0.0143   0.0105  -0.0064  -0.0038   0.00    1.8
2173 370368.000    541527.6456  -5479445.8292   3208362.1279   2   9   0.0234   0.0199   0.0149   0.0104  -0.0063  -0.0046   0.00    1.9
2173 370369.000    541527.6468  -5479445.8298   3208362.1275   2   9   0.0234   0.0199   0.0144   0.0105  -0.0063  -0.0041   0.00    1.9
2173 370370.000    541527.6477  -5479445.8315   3208362.1283   2   9   0.0234   0.0198   0.0145   0.0105  -0.0064  -0.0040   0.00    2.0
2173 370371.000    541527.6465  -5479445.8327   3208362.1293   2   9   0.0233   0.0198   0.0145   0.0105  -0.0062  -0.0039   0.00    2.1
2173 370372.000    541527.6463  -5479445.8256   3208362.1275   2   9   0.0233   0.0198   0.0144   0.0105  -0.0063  -0.0043   0.00    2.1
2173 370373.000    541527.6443  -5479445.8286   3208362.1281   2   9   0.0232   0.0197   0.0146   0.0105  -0.0063  -0.0041   0.00    2.2
2173 370374.000    541527.6461  -5479445.8302   3208362.1292   2   9   0.0232   0.0196   0.0145   0.0104  -0.0062  -0.0042   0.00    2.3
2173 370375.000    541527.6471  -5479445.8329   3208362.1304   2   9   0.0231   0.0196   0.0141   0.0105  -0.0063  -0.0039   0.00    2.3
2173 370376.000    541527.6458  -5479445.8284   3208362.1267   2   9   0.0232   0.0196   0.0144   0.0104  -0.0062  -0.0042   0.00    2.4
2173 370377.000    541527.6468  -5479445.8309   3208362.1263   2   9   0.0231   0.0195   0.0143   0.0104  -0.0062  -0.0043   0.00    2.4
2173 370378.000    541527.6457  -5479445.8301   3208362.1252   2   9   0.0231   0.0195   0.0142   0.0104  -0.0063  -0.0040   0.00    2.4
2173 370379.000    541527.6469  -5479445.8297   3208362.1239   2   9   0.0230   0.0194   0.0140   0.0104  -0.0062  -0.0042   0.00    2.4
2173 370380.000    541527.6475  -5479445.8338   3208362.1264   2   9   0.0230   0.0194   0.0140   0.0104  -0.0063  -0.0040   0.00    2.5
2173 370381.000    541527.6481  -5479445.8305   3208362.1226   2   9   0.0230   0.0194   0.0138   0.0103  -0.0063  -0.0044   0.00    2.4
2173 370382.000    541527.6470  -5479445.8333   3208362.1251   2   9   0.0229   0.0193   0.0141   0.0103  -0.0062  -0.0039   0.00    2.5
2173 370383.000    541527.6464  -5479445.8332   3208362.1237   2   9   0.0229   0.0193   0.0139   0.0104  -0.0060  -0.0041   0.00    2.4
2173 370384.000    541527.6468  -5479445.8354   3208362.1241   2   9   0.0229   0.0192   0.0138   0.0103  -0.0062  -0.0041   0.00    2.4
2173 370385.000    541527.6473  -5479445.8355   3208362.1231   2   9   0.0228   0.0192   0.0139   0.0104  -0.0063  -0.0040   0.00    2.4
2173 370386.000    541527.6480  -5479445.8383   3208362.1265   2   9   0.0228   0.0192   0.0141   0.0103  -0.0064  -0.0039   0.00    1.0
2173 370387.000    541527.6469  -5479445.8383   3208362.1261   2   9   0.0228   0.0191   0.0138   0.0103  -0.0063  -0.0040   0.00    1.1
2173 370388.000    541527.6474  -5479445.8389   3208362.1251   2   9   0.0227   0.0191   0.0139   0.0103  -0.0062  -0.0040   0.00    1.1
2173 370389.000    541527.6476  -5479445.8440   3208362.1271   2   9   0.0227   0.0190   0.0140   0.0103  -0.0062  -0.0041   0.00    1.1
2173 370390.000    541527.6465  -5479445.8400   3208362.1233   2   9   0.0227   0.0190   0.0141   0.0103  -0.0060  -0.0043   0.00    1.1
2173 370391.000    541527.6457  -5479445.8357   3208362.1236   2   9   0.0227   0.0190   0.0137   0.0104  -0.0061  -0.0040   0.00    1.2
2173 370392.000    541527.6094  -5479445.8603   3208362.1033   1   8   0.0044   0.0106   0.0053  -0.0028  -0.0063   0.0027   0.00   56.8
2173 370393.000    541527.6120  -5479445.8606   3208362.1039   1   8   0.0045   0.0106   0.0057  -0.0028  -0.0063   0.0024   0.00   56.9
2173 370394.000    541527.6118  -5479445.8608   3208362.1048   1   8   0.0046   0.0106   0.0056  -0.0027  -0.0063   0.0025   0.00   57.1
2173 370395.000    541527.6107  -5479445.8591   3208362.1056   1   8   0.0045   0.0107   0.0056  -0.0029  -0.0062   0.0015   0.00   57.3
2173 370396.000    541527.6117  -5479445.8604   3208362.1045   1   8   0.0044   0.0106   0.0060  -0.0029  -0.0063   0.0015   0.00   57.6
2173 370397.000    541527.6124  -5479445.8620   3208362.1042   1   8   0.0045   0.0106   0.0054  -0.0028  -0.0063   0.0017   0.00   57.9
2173 370398.000    541527.6112  -5479445.8589   3208362.1054   1   8   0.0046   0.0107   0.0058  -0.0028  -0.0063   0.0018   0.00   58.1
2173 370399.000    541527.6099  -5479445.8596   3208362.1050   1   8   0.0042   0.0106   0.0060  -0.0029  -0.0063   0.0018   0.00   58.4
2173 370400.000    541527.6132  -5479445.8627   3208362.1076   1   8   0.0045   0.0106   0.0057  -0.0027  -0.0063   0.0023   0.00   58.5
2173 370401.000    541527.6106  -5479445.8622   3208362.1046   1   8   0.0046   0.0106   0.0057  -0.0030  -0.0063   0.0024   0.00   58.6
2173 370402.000    541527.6120  -5479445.8615   3208362.1046   1   8   0.0043   0.0106   0.0056  -0.0029  -0.0063   0.0020   0.00   58.8
2173 370403.000    541527.6441  -5479445.8423   3208362.1210   2   8   0.0223   0.0185   0.0137   0.0102  -0.0063  -0.0041   0.00    1.5
2173 370404.000    541527.6448  -5479445.8391   3208362.1183   2   8   0.0222   0.0185   0.0136   0.0102  -0.0062  -0.0037   0.00    2.0
2173 370405.000    541527.6436  -5479445.8417   3208362.1217   2   9   0.0222   0.0185   0.0136   0.0102  -0.0063  -0.0041   0.00    1.3
2173 370406.000    541527.6441  -5479445.8405   3208362.1173   2   9   0.0222   0.0184   0.0134   0.0103  -0.0062  -0.0036   0.00    1.3
2173 370407.000    541527.6452  -5479445.8398   3208362.1193   2   9   0.0223   0.0184   0.0136   0.0102  -0.0063  -0.0040   0.00    1.3
2173 370408.000    541527.6456  -5479445.8439   3208362.1177   2   9   0.0222   0.0183   0.0136   0.0102  -0.0063  -0.0041   0.00    1.3
2173 370409.000    541527.6443  -5479445.8431   3208362.1170   2   9   0.0221   0.0183   0.0132   0.0101  -0.0061  -0.0039   0.00    1.5
2173 370410.000    541527.6422  -5479445.8369   3208362.1148   2   9   0.0221   0.0183   0.0132   0.0102  -0.0060  -0.0039   0.00    1.8
2173 370411.000    541527.6440  -5479445.8383   3208362.1167   2   9   0.0221   0.0182   0.0132   0.0102  -0.0060  -0.0042   0.00    2.0
2173 370412.000    541527.6448  -5479445.8398   3208362.1155   2   9   0.0221   0.0182   0.0133   0.0101  -0.0061  -0.0041   0.00    2.2
2173 370413.000    541527.6427  -5479445.8360   3208362.1143   2   9   0.0221   0.0181   0.0130   0.0101  -0.0061  -0.0038   0.00    2.3
2173 370414.000    541527.6443  -5479445.8445   3208362.1164   2   9   0.0220   0.0181   0.0133   0.0102  -0.0059  -0.0042   0.00    2.5
2173 370415.000    541527.6437  -5479445.8414   3208362.1154   2   9   0.0220   0.0181   0.0131   0.0101  -0.0059  -0.0042   0.00    2.6
2173 370416.000    541527.6432  -5479445.8399   3208362.1138   2   9   0.0220   0.0181   0.0129   0.0101  -0.0060  -0.0040   0.00    2.7
2173 370417.000    541527.6430  -5479445.8367   3208362.1123   2   9   0.0219   0.0180   0.0130   0.0101  -0.0060  -0.0040   0.00    2.8
2173 370418.000    541527.6429  -5479445.8355   3208362.1118   2   9   0.0219   0.0180   0.0131   0.0101  -0.0060  -0.0041   0.00    2.9
2173 370419.000    541527.6430  -5479445.8445   3208362.1139   2   9   0.0219   0.0180   0.0130   0.0101  -0.0059  -0.0039   0.00    3.0
2173 370420.000    541527.6440  -5479445.8371   3208362.1108   2   9   0.0219   0.0179   0.0129   0.0101  -0.0060  -0.0040   0.00    3.0
2173 370421.000    541527.6136  -5479445.8517   3208362.0901   1   9   0.0046   0.0106   0.0049  -0.0027  -0.0060   0.0018   0.00    3.0
2173 370422.000    541527.6119  -5479445.8560   3208362.0909   1   9   0.0043   0.0106   0.0048  -0.0026  -0.0062   0.0019   0.00    3.0
2173 370423.000    541527.6106  -5479445.8488   3208362.0899   1   9   0.0047   0.0106   0.0051  -0.0026  -0.0061   0.0022   0.00    3.1
2173 370424.000    541527.6127  -5479445.8520   3208362.0904   1   9   0.0043   0.0106   0.0051  -0.0027  -0.0060   0.0019   0.00    3.1
2173 370425.000    541527.6150  -5479445.8557   3208362.0910   1   9   0.0046   0.0106   0.0054  -0.0026  -0.0059   0.0014   0.00    3.1
2173 370426.000    541527.6146  -5479445.8491   3208362.0877   1   9   0.0044   0.0106   0.0055  -0.0026  -0.0061   0.0007   0.00    3.1
2173 370427.000    541527.6137  -5479445.8522   3208362.0895   1   9   0.0044   0.0106   0.0051  -0.0027  -0.0060   0.0010   0.00    3.1
2173 370428.000    541527.6138  -5479445.8534   3208362.0900   1   9   0.0044   0.0106   0.0053  -0.0025  -0.0060   0.0006   0.00    3.1
2173 370429.000    541527.6126  -5479445.8511   3208362.0894   1   9   0.0045   0.0106   0.0052  -0.0026  -0.0060   0.0017   0.00    3.1
