% program   : rnx2rtkp ver.2.4.3 b31
% inp file  : ngs/21_08_31_08_18_08_txlu.obs
% inp file  : ngs/21_08_31_08_18_08_txlu_SNTX.obs
% inp file  : ngs/21_08_31_08_18_08_brdc.nav
% obs start : 2021/08/31 08:00:00.0 GPST (week2173 201600.0s)
% obs end   : 2021/08/31 08:59:59.0 GPST (week2173 205199.0s)
% ref pos   : -1092200.8902  -5208620.0908   3503609.0493
%
% (x/y/z-ecef=WGS84,Q=1:fix,2:float,3:sbas,4:dgps,5:single,6:ppp,ns=# of satellites)
%  GPST              x-ecef(m)      y-ecef(m)      z-ecef(m)   Q  ns   sdx(m)   sdy(m)   sdz(m)  sdxy(m)  sdyz(m)  sdzx(m) age(s)  ratio
2173 202665.000  -1092364.6434  -5209400.9650   3504137.7118   2   9   0.3855   0.8130   0.6553   0.2727  -0.5448  -0.1374 -30.00    1.4
2173 202666.000  -1092364.5243  -5209400.8922   3504137.6296   2   9   0.2745   0.5785   0.4664   0.1942  -0.3875  -0.0968 -29.00    1.4
2173 202667.000  -1092364.5029  -5209400.8569   3504137.5577   2   9   0.2247   0.4736   0.3819   0.1590  -0.3173  -0.0790 -28.00    1.3
2173 202668.000  -1092364.5097  -5209400.8850   3504137.5434   2   9   0.1950   0.4109   0.3314   0.1379  -0.2753  -0.0685 -27.00    1.3
2173 202669.000  -1092364.5157  -5209400.8644   3504137.5259   2   9   0.1746   0.3680   0.2968   0.1235  -0.2465  -0.0614 -26.00    1.2
2173 202670.000  -1092364.5207  -5209400.8788   3504137.5353   2   9   0.1595   0.3362   0.2712   0.1128  -0.2253  -0.0561 -25.00    1.2
2173 202671.000  -1092364.5195  -5209400.8747   3504137.5185   2   9   0.1478   0.3115   0.2513   0.1045  -0.2087  -0.0520 -24.00    1.2
2173 202672.000  -1092364.5308  -5209400.8436   3504137.5096   2   9   0.1383   0.2915   0.2352   0.0978  -0.1954  -0.0487 -23.00    1.2
2173 202673.000  -1092364.5451  -5209400.8487   3504137.4888   2   9   0.1305   0.2750   0.2219   0.0922  -0.1843  -0.0459 -22.00    1.2
2173 202674.000  -1092364.5495  -5209400.8228   3504137.4818   2   9   0.1238   0.2609   0.2106   0.0875  -0.1749  -0.0436 -21.00    1.2
2173 202675.000  -1092364.5628  -5209400.8158   3504137.4758   2   9   0.1181   0.2488   0.2008   0.0834  -0.1668  -0.0416 -20.00    1.2
2173 202676.000  -1092364.5682  -5209400.8239   3504137.4841   2   9   0.1131   0.2382   0.1923   0.0799  -0.1597  -0.0398 -19.00    1.1
2173 202677.000  -1092364.5724  -5209400.8409   3504137.4836   2   9   0.1086   0.2289   0.1848   0.0767  -0.1534  -0.0382 -18.00    1.1
2173 202678.000  -1092364.5792  -5209400.8429   3504137.4811   2   9   0.1047   0.2205   0.1781   0.0739  -0.1478  -0.0368 -17.00    1.0
2173 202679.000  -1092364.5829  -5209400.8510   3504137.4792   2   9   0.1011   0.2130   0.1720   0.0714  -0.1428  -0.0355 -16.00    1.0
2173 202680.000  -1092364.5903  -5209400.8331   3504137.4739   2   9   0.0979   0.2062   0.1665   0.0691  -0.1383  -0.0344 -15.00    1.1
2173 202681.000  -1092364.5988  -5209400.8483   3504137.4782   2   9   0.0949   0.2000   0.1615   0.0670  -0.1341  -0.0333 -14.00    1.2
2173 202682.000  -1092364.6088  -5209400.8420   3504137.4774   2   9   0.0922   0.1943   0.1569   0.0651  -0.1303  -0.0323 -13.00    1.2
2173 202683.000  -1092364.6145  -5209400.8313   3504137.4775   2   9   0.0897   0.1891   0.1527   0.0633  -0.1268  -0.0314 -12.00    1.3
2173 202684.000  -1092364.6175  -5209400.8293   3504137.4769   2   9   0.0874   0.1842   0.1488   0.0617  -0.1235  -0.0306 -11.00    1.4
2173 202685.000  -1092364.6169  -5209400.8293   3504137.4778   2   9   0.0853   0.1797   0.1452   0.0602  -0.1205  -0.0298 -10.00    1.5
2173 202686.000  -1092364.6193  -5209400.8263   3504137.4840   2   9   0.0833   0.1755   0.1418   0.0588  -0.1177  -0.0291  -9.00    1.6
2173 202687.000  -1092364.6243  -5209400.8236   3504137.4830   2   9   0.0814   0.1716   0.1386   0.0575  -0.1150  -0.0284  -8.00    1.7
2173 202688.000  -1092364.6250  -5209400.8271   3504137.4820   2   9   0.0797   0.1679   0.1356   0.0562  -0.1126  -0.0278  -7.00    1.8
2173 202689.000  -1092364.6315  -5209400.8290   3504137.4822   2   9   0.0780   0.1644   0.1328   0.0551  -0.1102  -0.0272  -6.00    2.0
2173 202690.000  -1092364.6337  -5209400.8213   3504137.4744   2   9   0.0765   0.1612   0.1302   0.0540  -0.1081  -0.0266  -5.00    2.1
2173 202691.000  -1092364.6393  -5209400.8180   3504137.4641   2   9   0.0750   0.1581   0.1277   0.0529  -0.1060  -0.0261  -4.00    2.2
2173 202692.000  -1092364.6472  -5209400.8190   3504137.4617   2   9   0.0737   0.1552   0.1254   0.0520  -0.1041  -0.0256  -3.00    2.3
2173 202693.000  -1092364.6479  -5209400.8091   3504137.4542   2   9   0.0724   0.1525   0.1231   0.0510  -0.1022  -0.0251  -2.00    2.4
2173 202694.000  -1092364.6535  -5209400.8033   3504137.4529   2   9   0.0712   0.1499   0.1210   0.0502  -0.1005  -0.0247  -1.00    2.5
2173 202695.000  -1092364.6575  -5209400.7908   3504137.4382   2   9   0.0700   0.1474   0.1190   0.0493  -0.0988  -0.0244   0.00    2.6
2173 202696.000  -1092364.6652  -5209400.7764   3504137.4299   2   9   0.0689   0.1451   0.1171   0.0485  -0.0973  -0.0239   0.00    2.6
2173 202697.000  -1092364.6715  -5209400.7766   3504137.4229   2   9   0.0678   0.1429   0.1153   0.0478  -0.0958  -0.0236   0.00    2.7
2173 202698.000  -1092364.6762  -5209400.7731   3504137.4239   2   9   0.0668   0.1407   0.1136   0.0471  -0.0943  -0.0232   0.00    2.7
2173 202699.000  -1092364.6782  -5209400.7724   3504137.4273   2   9   0.0659   0.1387   0.1119   0.0464  -0.0929  -0.0229   0.00    2.7
2173 202700.000  -1092364.6834  -5209400.7682   3504137.4170   2   9   0.0649   0.1367   0.1103   0.0457  -0.0916  -0.0225   0.00    2.6
2173 202701.000  -1092364.6855  -5209400.7594   3504137.4124   2   9   0.0640   0.1349   0.1088   0.0451  -0.0904  -0.0222   0.00    2.6
2173 202702.000  -1092364.6891  -5209400.7613   3504137.4112   2   9   0.0632   0.1330   0.1073   0.0445  -0.0892  -0.0219   0.00    2.5
2173 202703.000  -1092364.6934  -5209400.7655   3504137.4124   2   9   0.0624   0.1313   0.1059   0.0439  -0.0880  -0.0217   0.00    2.5
2173 202704.000  -1092364.6952  -5209400.7617   3504137.4152   2   9   0.0616   0.1296   0.1045   0.0433  -0.0869  -0.0214   0.00    2.5
2173 202705.000  -1092364.6991  -5209400.7576   3504137.4068   2   9   0.0609   0.1280   0.1032   0.0428  -0.0858  -0.0211   0.00    2.5
2173 202706.000  -1092364.7021  -5209400.7546   3504137.4084   2   9   0.0601   0.1265   0.1019   0.0422  -0.0847  -0.0209   0.00    2.5
2173 202707.000  -1092364.7060  -5209400.7488   3504137.4177   2   9   0.0594   0.1250   0.1007   0.0417  -0.0837  -0.0206   0.00    2.5
2173 202708.000  -1092364.7030  -5209400.7449   3504137.4120   2   9   0.0588   0.1235   0.0995   0.0412  -0.0827  -0.0205   0.00    2.4
2173 202709.000  -1092364.7047  -5209400.7477   3504137.4107   2   9   0.0581   0.1221   0.0983   0.0407  -0.0818  -0.0202   0.00    2.4
2173 202710.000  -1092364.7054  -5209400.7408   3504137.4102   2   9   0.0574   0.1208   0.0972   0.0403  -0.0809  -0.0200   0.00    2.4
2173 202711.000  -1092364.7073  -5209400.7341   3504137.4092   2   9   0.0568   0.1194   0.0961   0.0398  -0.0800  -0.0198   0.00    2.4
2173 202712.000  -1092364.7069  -5209400.7333   3504137.4065   2   9   0.0562   0.1182   0.0950   0.0394  -0.0791  -0.0196   0.00    2.4
2173 202713.000  -1092364.7053  -5209400.7241   3504137.4071   2   9   0.0556   0.1169   0.0940   0.0390  -0.0782  -0.0193   0.00    2.4
2173 202714.000  -1092364.7023  -5209400.7157   3504137.4119   2   9   0.0551   0.1157   0.0930   0.0385  -0.0774  -0.0193   0.00    2.4
2173 202715.000  -1092364.6995  -5209400.7148   3504137.4091   2   9   0.0545   0.1145   0.0920   0.0382  -0.0766  -0.0191   0.00    2.3
2173 202716.000  -1092364.6999  -5209400.7102   3504137.4036   2   9   0.0540   0.1134   0.0910   0.0378  -0.0759  -0.0189   0.00    2.3
2173 202717.000  -1092364.6981  -5209400.7083   3504137.4039   2   9   0.0535   0.1123   0.0901   0.0374  -0.0751  -0.0186   0.00    2.3
2173 202718.000  -1092364.6974  -5209400.7025   3504137.3974   2   9   0.0530   0.1112   0.0892   0.0370  -0.0743  -0.0186   0.00    2.3
2173 202719.000  -1092364.7010  -5209400.7042   3504137.3976   2   9   0.0525   0.1102   0.0883   0.0367  -0.0736  -0.0184   0.00    2.3
2173 202720.000  -1092364.7035  -5209400.7049   3504137.4029   2   9   0.0520   0.1091   0.0874   0.0363  -0.0729  -0.0183   0.00    2.3
2173 202721.000  -1092364.7005  -5209400.7099   3504137.3993   2   9   0.0515   0.1081   0.0865   0.0359  -0.0722  -0.0180   0.00    2.3
2173 202722.000  -1092364.7011  -5209400.7053   3504137.4041   2   9   0.0511   0.1072   0.0857   0.0356  -0.0716  -0.0179   0.00    2.3
2173 202723.000  -1092364.7031  -5209400.7070   3504137.4094   2   9   0.0506   0.1062   0.0849   0.0353  -0.0709  -0.0177   0.00    2.3
2173 202724.000  -1092364.7049  -5209400.7126   3504137.4174   2   9   0.0503   0.1053   0.0841   0.0349  -0.0703  -0.0177   0.00    2.3
2173 202725.000  -1092364.7009  -5209400.7124   3504137.4164   2   9   0.0498   0.1044   0.0833   0.0346  -0.0696  -0.0176   0.00    2.3
2173 202726.000  -1092364.7003  -5209400.7107   3504137.4222   2   9   0.0494   0.1035   0.0825   0.0343  -0.0690  -0.0174   0.00    2.3
2173 202727.000  -1092364.6999  -5209400.7120   3504137.4217   2   9   0.0490   0.1026   0.0818   0.0340  -0.0684  -0.0172   0.00    2.3
2173 202728.000  -1092364.7007  -5209400.7052   3504137.4192   2   9   0.0486   0.1018   0.0810   0.0337  -0.0678  -0.0171   0.00    2.3
2173 202729.000  -1092364.6996  -5209400.7011   3504137.4238   2   9   0.0482   0.1009   0.0803   0.0334  -0.0672  -0.0170   0.00    2.3
2173 202730.000  -1092364.6996  -5209400.7008   3504137.4232   2   9   0.0478   0.1001   0.0795   0.0331  -0.0666  -0.0169   0.00    2.3
2173 202731.000  -1092364.6977  -5209400.6989   3504137.4278   2   9   0.0475   0.0993   0.0788   0.0329  -0.0661  -0.0168   0.00    2.3
2173 202732.000  -1092364.6989  -5209400.6955   3504137.4268   2   9   0.0471   0.0985   0.0782   0.0326  -0.0655  -0.0167   0.00    2.3
2173 202733.000  -1092364.6978  -5209400.7015   3504137.4330   2   9   0.0468   0.0978   0.0775   0.0323  -0.0650  -0.0165   0.00    2.3
2173 202734.000  -1092364.6956  -5209400.7001   3504137.4353   2   9   0.0464   0.0970   0.0768   0.0321  -0.0645  -0.0165   0.00    2.4
2173 202735.000  -1092364.6992  -5209400.7032   3504137.4395   2   9   0.0461   0.0963   0.0762   0.0318  -0.0640  -0.0164   0.00    2.4
2173 202736.000  -1092364.6984  -5209400.7049   3504137.4427   2   9   0.0457   0.0955   0.0755   0.0316  -0.0634  -0.0162   0.00    2.4
2173 202737.000  -1092364.6975  -5209400.7043   3504137.4515   2   9   0.0455   0.0948   0.0748   0.0313  -0.0629  -0.0162   0.00    2.4
2173 202738.000  -1092364.6970  -5209400.7038   3504137.4528   2   9   0.0451   0.0941   0.0742   0.0311  -0.0625  -0.0160   0.00    2.4
2173 202739.000  -1092364.6970  -5209400.7021   3504137.4564   2   9   0.0448   0.0934   0.0736   0.0308  -0.0620  -0.0160   0.00    2.4
2173 202740.000  -1092364.6975  -5209400.7016   3504137.4563   2   9   0.0445   0.0928   0.0730   0.0306  -0.0615  -0.0159   0.00    2.4
2173 202741.000  -1092364.6963  -5209400.7005   3504137.4587   2   9   0.0442   0.0921   0.0724   0.0304  -0.0610  -0.0157   0.00    2.4
2173 202742.000  -1092364.6982  -5209400.7081   3504137.4654   2   9   0.0439   0.0914   0.0718   0.0301  -0.0605  -0.0157   0.00    2.4
2173 202743.000  -1092364.6941  -5209400.7062   3504137.4637   2   9   0.0436   0.0908   0.0712   0.0299  -0.0601  -0.0156   0.00    2.4
2173 202744.000  -1092364.6974  -5209400.7006   3504137.4689   2   9   0.0433   0.0902   0.0707   0.0297  -0.0596  -0.0155   0.00    2.4
2173 202745.000  -1092364.6982  -5209400.6974   3504137.4704   2   9   0.0431   0.0896   0.0701   0.0294  -0.0592  -0.0155   0.00    2.4
2173 202746.000  -1092364.7004  -5209400.6991   3504137.4766   2   9   0.0428   0.0889   0.0695   0.0292  -0.0588  -0.0153   0.00    2.4
2173 202747.000  -1092364.7021  -5209400.6996   3504137.4812   2   9   0.0425   0.0884   0.0690   0.0290  -0.0583  -0.0153   0.00    2.4
2173 202748.000  -1092364.7004  -5209400.6973   3504137.4818   2   9   0.0422   0.0878   0.0684   0.0288  -0.0579  -0.0152   0.00    2.4
2173 202749.000  -1092364.7005  -5209400.6892   3504137.4885   2   9   0.0419   0.0872   0.0678   0.0286  -0.0575  -0.0152   0.00    2.4
2173 202750.000  -1092364.7031  -5209400.6907   3504137.4946   2   9   0.0417   0.0866   0.0673   0.0284  -0.0571  -0.0151   0.00    2.4
2173 202751.000  -1092364.7058  -5209400.7000   3504137.5024   2   9   0.0415   0.0860   0.0668   0.0282  -0.0567  -0.0150   0.00    2.4
2173 202752.000  -1092364.7047  -5209400.6976   3504137.5060   2   9   0.0412   0.0855   0.0663   0.0280  -0.0563  -0.0148   0.00    2.4
2173 202753.000  -1092364.7051  -5209400.6944   3504137.5057   2   9   0.0410   0.0849   0.0658   0.0278  -0.0559  -0.0149   0.00    2.4
2173 202754.000  -1092364.7054  -5209400.6941   3504137.5087   2   9   0.0408   0.0844   0.0652   0.0276  -0.0555  -0.0148   0.00    2.4
2173 202755.000  -1092364.7076  -5209400.6972   3504137.5152   2   9   0.0405   0.0839   0.0648   0.0274  -0.0551  -0.0147   0.00    2.4
2173 202756.000  -1092364.7049  -5209400.6950   3504137.5208   2   9   0.0403   0.0833   0.0643   0.0272  -0.0547  -0.0147   0.00    2.4
2173 202757.000  -1092364.7042  -5209400.7019   3504137.5287   2   9   0.0400   0.0828   0.0637   0.0270  -0.0544  -0.0145   0.00    2.4
2173 202758.000  -1092364.7039  -5209400.6985   3504137.5255   2   9   0.0398   0.0823   0.0633   0.0268  -0.0540  -0.0145   0.00    2.3
2173 202759.000  -1092364.7081  -5209400.6996   3504137.5299   2   9   0.0397   0.0818   0.0628   0.0267  -0.0536  -0.0145   0.00    2.3
2173 202760.000  -1092364.7095  -5209400.6985   3504137.5345   2   9   0.0394   0.0813   0.0623   0.0265  -0.0532  -0.0144   0.00    2.3
2173 202761.000  -1092364.7125  -5209400.6989   3504137.5362   2   9   0.0392   0.0808   0.0618   0.0263  -0.0529  -0.0143   0.00    2.3
2173 202762.000  -1092364.7143  -5209400.6977   3504137.5390   2   9   0.0390   0.0803   0.0614   0.0261  -0.0525  -0.0143   0.00    2.3
2173 202763.000  -1092364.7134  -5209400.6969   3504137.5434   2   9   0.0387   0.0799   0.0609   0.0260  -0.0522  -0.0141   0.00    2.3
2173 202764.000  -1092364.7130  -5209400.6976   3504137.5514   2   9   0.0385   0.0794   0.0605   0.0258  -0.0519  -0.0142   0.00    2.3
2173 202765.000  -1092364.7160  -5209400.6940   3504137.5481   2   9   0.0383   0.0789   0.0600   0.0256  -0.0515  -0.0140   0.00    2.3
2173 202766.000  -1092364.7190  -5209400.7005   3504137.5537   2   9   0.0381   0.0784   0.0596   0.0254  -0.0512  -0.0141   0.00    2.3
2173 202767.000  -1092364.7181  -5209400.6970   3504137.5527   2   9   0.0379   0.0780   0.0592   0.0253  -0.0508  -0.0140   0.00    2.3
2173 202768.000  -1092364.7207  -5209400.6961   3504137.5575   2   9   0.0377   0.0776   0.0587   0.0251  -0.0505  -0.0139   0.00    2.3
2173 202769.000  -1092364.7205  -5209400.6965   3504137.5615   2   9   0.0376   0.0771   0.0583   0.0249  -0.0502  -0.0138   0.00    2.3
2173 202770.000  -1092364.7231  -5209400.6960   3504137.5672   2   9   0.0373   0.0767   0.0579   0.0248  -0.0499  -0.0137   0.00    2.3
2173 202771.000  -1092364.7230  -5209400.7032   3504137.5743   2   9   0.0371   0.0762   0.0574   0.0246  -0.0496  -0.0138   0.00    2.3
2173 202772.000  -1092364.7239  -5209400.7043   3504137.5774   2   9   0.0371   0.0758   0.0570   0.0245  -0.0492  -0.0138   0.00    2.3
2173 202773.000  -1092364.7264  -5209400.7059   3504137.5786   2   9   0.0368   0.0754   0.0566   0.0242  -0.0489  -0.0136   0.00    2.3
2173 202774.000  -1092364.7274  -5209400.7048   3504137.5830   2   9   0.0366   0.0750   0.0562   0.0241  -0.0486  -0.0137   0.00    2.3
2173 202775.000  -1092364.7304  -5209400.7058   3504137.5885   2   9   0.0364   0.0745   0.0558   0.0240  -0.0483  -0.0136   0.00    2.3
2173 202776.000  -1092364.7277  -5209400.7088   3504137.5899   2   9   0.0363   0.0741   0.0554   0.0239  -0.0480  -0.0136   0.00    2.3
2173 202777.000  -1092364.7283  -5209400.7050   3504137.5968   2   9   0.0361   0.0737   0.0550   0.0237  -0.0477  -0.0135   0.00    2.3
2173 202778.000  -1092364.7294  -5209400.7073   3504137.6007   2   9   0.0359   0.0733   0.0546   0.0235  -0.0474  -0.0134   0.00    2.3
2173 202779.000  -1092364.7281  -5209400.6999   3504137.6029   2   9   0.0357   0.0729   0.0543   0.0234  -0.0471  -0.0134   0.00    2.3
2173 202780.000  -1092364.7304  -5209400.6998   3504137.6069   2   9   0.0356   0.0725   0.0539   0.0232  -0.0468  -0.0133   0.00    2.3
2173 202781.000  -1092364.7299  -5209400.6979   3504137.6085   2   9   0.0353   0.0722   0.0535   0.0231  -0.0466  -0.0132   0.00    2.3
2173 202782.000  -1092364.7296  -5209400.7023   3504137.6167   2   9   0.0353   0.0718   0.0531   0.0230  -0.0463  -0.0132   0.00    2.3
2173 202783.000  -1092364.7303  -5209400.6974   3504137.6183   2   9   0.0351   0.0714   0.0527   0.0228  -0.0460  -0.0131   0.00    2.3
2173 202784.000  -1092364.7295  -5209400.6962   3504137.6221   2   9   0.0349   0.0710   0.0524   0.0226  -0.0457  -0.0131   0.00    2.3
2173 202785.000  -1092364.7307  -5209400.7034   3504137.6274   2   9   0.0347   0.0706   0.0520   0.0225  -0.0455  -0.0130   0.00    2.3
2173 202786.000  -1092364.7306  -5209400.6990   3504137.6287   2   9   0.0346   0.0703   0.0516   0.0224  -0.0452  -0.0131   0.00    2.3
2173 202787.000  -1092364.7282  -5209400.6993   3504137.6341   2   9   0.0345   0.0699   0.0513   0.0223  -0.0449  -0.0130   0.00    2.3
2173 202788.000  -1092364.7292  -5209400.7005   3504137.6324   2   9   0.0343   0.0695   0.0509   0.0221  -0.0446  -0.0129   0.00    2.3
2173 202789.000  -1092364.7292  -5209400.6943   3504137.6308   2   9   0.0342   0.0692   0.0506   0.0220  -0.0444  -0.0129   0.00    2.3
2173 202790.000  -1092364.7291  -5209400.6948   3504137.6362   2   9   0.0341   0.0688   0.0503   0.0218  -0.0441  -0.0129   0.00    2.3
2173 202791.000  -1092364.7294  -5209400.6921   3504137.6393   2   9   0.0339   0.0685   0.0499   0.0216  -0.0439  -0.0128   0.00    2.3
2173 202792.000  -1092364.7305  -5209400.6898   3504137.6398   2   9   0.0337   0.0681   0.0496   0.0215  -0.0436  -0.0128   0.00    2.3
2173 202793.000  -1092364.7312  -5209400.6932   3504137.6454   2   9   0.0336   0.0678   0.0492   0.0213  -0.0434  -0.0127   0.00    2.3
2173 202794.000  -1092364.7310  -5209400.6950   3504137.6463   2   9   0.0334   0.0675   0.0489   0.0213  -0.0431  -0.0126   0.00    2.3
2173 202795.000  -1092364.7310  -5209400.6926   3504137.6470   2   9   0.0333   0.0671   0.0485   0.0211  -0.0429  -0.0127   0.00    2.3
2173 202796.000  -1092364.7342  -5209400.6930   3504137.6505   2   9   0.0332   0.0668   0.0482   0.0210  -0.0426  -0.0127   0.00    2.3
2173 202797.000  -1092364.7325  -5209400.6895   3504137.6484   2   9   0.0330   0.0664   0.0479   0.0209  -0.0424  -0.0125   0.00    2.3
2173 202798.000  -1092364.7340  -5209400.6959   3504137.6516   2   9   0.0328   0.0661   0.0476   0.0207  -0.0421  -0.0124   0.00    2.3
2173 202799.000  -1092364.7356  -5209400.6939   3504137.6554   2   9   0.0328   0.0658   0.0473   0.0206  -0.0419  -0.0126   0.00    2.3
2173 202800.000  -1092364.7360  -5209400.6978   3504137.6554   2   9   0.0327   0.0655   0.0470   0.0205  -0.0417  -0.0124   0.00    2.3
2173 202801.000  -1092364.7362  -5209400.6894   3504137.6514   2   9   0.0325   0.0651   0.0467   0.0204  -0.0414  -0.0123   0.00    2.3
2173 202802.000  -1092364.7360  -5209400.6895   3504137.6547   2   9   0.0323   0.0649   0.0464   0.0202  -0.0412  -0.0123   0.00    2.3
2173 202803.000  -1092364.7354  -5209400.6895   3504137.6564   2   9   0.0321   0.0645   0.0460   0.0201  -0.0410  -0.0122   0.00    2.3
2173 202804.000  -1092364.7358  -5209400.6814   3504137.6538   2   9   0.0321   0.0642   0.0457   0.0200  -0.0407  -0.0123   0.00    2.3
2173 202805.000  -1092364.7336  -5209400.6818   3504137.6569   2   9   0.0319   0.0639   0.0454   0.0198  -0.0405  -0.0121   0.00    2.3
2173 202806.000  -1092364.7358  -5209400.6825   3504137.6589   2   9   0.0318   0.0636   0.0452   0.0197  -0.0403  -0.0122   0.00    2.3
2173 202807.000  -1092364.7343  -5209400.6802   3504137.6553   2   9   0.0316   0.0633   0.0448   0.0197  -0.0401  -0.0121   0.00    2.3
2173 202808.000  -1092364.7315  -5209400.6716   3504137.6521   2   9   0.0315   0.0630   0.0445   0.0196  -0.0398  -0.0120   0.00    2.3
2173 202809.000  -1092364.7304  -5209400.6745   3504137.6587   2   9   0.0315   0.0627   0.0442   0.0194  -0.0396  -0.0121   0.00    2.3
2173 202810.000  -1092364.7319  -5209400.6743   3504137.6594   2   9   0.0313   0.0624   0.0440   0.0192  -0.0394  -0.0120   0.00    2.3
2173 202811.000  -1092364.7341  -5209400.6723   3504137.6614   2   9   0.0312   0.0621   0.0437   0.0191  -0.0392  -0.0120   0.00    2.3
2173 202812.000  -1092364.7321  -5209400.6678   3504137.6616   2   9   0.0311   0.0618   0.0434   0.0190  -0.0390  -0.0120   0.00    2.3
2173 202813.000  -1092364.7309  -5209400.6640   3504137.6564   2   9   0.0309   0.0615   0.0431   0.0189  -0.0388  -0.0118   0.00    2.3
2173 202814.000  -1092364.7361  -5209400.6687   3504137.6639   2   9   0.0308   0.0613   0.0429   0.0188  -0.0386  -0.0119   0.00    2.3
2173 202815.000  -1092364.7339  -5209400.6627   3504137.6611   2   9   0.0307   0.0610   0.0426   0.0187  -0.0384  -0.0118   0.00    2.3
2173 202816.000  -1092364.7345  -5209400.6652   3504137.6658   2   9   0.0306   0.0607   0.0423   0.0186  -0.0382  -0.0117   0.00    2.3
2173 202817.000  -1092364.7348  -5209400.6655   3504137.6714   2   9   0.0305   0.0604   0.0421   0.0185  -0.0379  -0.0117   0.00    2.3
2173 202818.000  -1092364.7358  -5209400.6687   3504137.6696   2   9   0.0305   0.0601   0.0418   0.0183  -0.0377  -0.0118   0.00    2.3
2173 202819.000  -1092364.7346  -5209400.6681   3504137.6713   2   9   0.0303   0.0599   0.0415   0.0182  -0.0376  -0.0117   0.00    2.3
2173 202820.000  -1092364.7366  -5209400.6708   3504137.6716   2   9   0.0301   0.0596   0.0413   0.0180  -0.0374  -0.0118   0.00    2.3
2173 202821.000  -1092364.7362  -5209400.6687   3504137.6719   2   9   0.0300   0.0593   0.0410   0.0180  -0.0372  -0.0117   0.00    2.3
2173 202822.000  -1092364.7347  -5209400.6667   3504137.6743   2   9   0.0300   0.0591   0.0408   0.0179  -0.0370  -0.0115   0.00    2.3
2173 202823.000  -1092364.7350  -5209400.6702   3504137.6723   2   9   0.0298   0.0588   0.0405   0.0178  -0.0368  -0.0114   0.00    2.3
2173 202824.000  -1092364.7338  -5209400.6688   3504137.6723   2   9   0.0297   0.0585   0.0402   0.0176  -0.0366  -0.0114   0.00    2.3
2173 202825.000  -1092364.7351  -5209400.6713   3504137.6745   2   9   0.0296   0.0583   0.0400   0.0175  -0.0364  -0.0115   0.00    2.3
2173 202826.000  -1092364.7356  -5209400.6650   3504137.6706   2   9   0.0295   0.0580   0.0398   0.0174  -0.0362  -0.0113   0.00    2.3
2173 202827.000  -1092364.7371  -5209400.6702   3504137.6715   2   9   0.0295   0.0578   0.0395   0.0173  -0.0361  -0.0116   0.00    2.3
2173 202828.000  -1092364.7381  -5209400.6691   3504137.6776   2   9   0.0293   0.0575   0.0393   0.0171  -0.0359  -0.0112   0.00    2.3
2173 202829.000  -1092364.7384  -5209400.6763   3504137.6780   2   9   0.0291   0.0572   0.0391   0.0171  -0.0357  -0.0112   0.00    2.3
2173 202830.000  -1092364.7382  -5209400.6735   3504137.6810   2   9   0.0290   0.0570   0.0388   0.0170  -0.0355  -0.0111   0.00    2.3
2173 202831.000  -1092364.7403  -5209400.6711   3504137.6831   2   9   0.0290   0.0567   0.0386   0.0169  -0.0353  -0.0113   0.00    2.3
2173 202832.000  -1092364.7401  -5209400.6701   3504137.6797   2   9   0.0289   0.0565   0.0384   0.0168  -0.0351  -0.0112   0.00    2.3
2173 202833.000  -1092364.7392  -5209400.6717   3504137.6817   2   9   0.0287   0.0562   0.0381   0.0167  -0.0350  -0.0111   0.00    2.3
2173 202834.000  -1092364.7396  -5209400.6692   3504137.6826   2   9   0.0287   0.0560   0.0379   0.0166  -0.0348  -0.0111   0.00    2.3
2173 202835.000  -1092364.7400  -5209400.6700   3504137.6807   2   9   0.0286   0.0558   0.0377   0.0164  -0.0346  -0.0111   0.00    2.3
2173 202836.000  -1092364.7425  -5209400.6758   3504137.6886   2   9   0.0284   0.0555   0.0374   0.0164  -0.0344  -0.0110   0.00    2.3
2173 202837.000  -1092364.7399  -5209400.6689   3504137.6883   2   9   0.0284   0.0553   0.0372   0.0162  -0.0343  -0.0110   0.00    2.3
2173 202838.000  -1092364.7398  -5209400.6688   3504137.6850   2   9   0.0284   0.0551   0.0370   0.0161  -0.0341  -0.0110   0.00    2.3
2173 202839.000  -1092364.7419  -5209400.6679   3504137.6884   2   9   0.0283   0.0548   0.0368   0.0161  -0.0339  -0.0110   0.00    2.3
2173 202840.000  -1092364.7416  -5209400.6687   3504137.6933   2   9   0.0281   0.0546   0.0366   0.0160  -0.0338  -0.0108   0.00    2.3
2173 202841.000  -1092364.7410  -5209400.6685   3504137.6928   2   9   0.0281   0.0544   0.0364   0.0158  -0.0336  -0.0109   0.00    2.3
2173 202842.000  -1092364.7395  -5209400.6669   3504137.6936   2   9   0.0279   0.0541   0.0362   0.0157  -0.0334  -0.0107   0.00    2.3
2173 202843.000  -1092364.7398  -5209400.6629   3504137.6884   2   9   0.0278   0.0539   0.0360   0.0157  -0.0333  -0.0108   0.00    2.3
2173 202844.000  -1092364.7389  -5209400.6652   3504137.6935   2   9   0.0279   0.0537   0.0358   0.0156  -0.0331  -0.0108   0.00    2.3
2173 202845.000  -1092364.7389  -5209400.6613   3504137.6935   2   9   0.0277   0.0534   0.0355   0.0155  -0.0329  -0.0108   0.00    2.3
2173 202846.000  -1092364.7387  -5209400.6585   3504137.6914   2   9   0.0276   0.0532   0.0353   0.0153  -0.0328  -0.0108   0.00    2.3
2173 202847.000  -1092364.7388  -5209400.6581   3504137.6951   2   9   0.0275   0.0530   0.0351   0.0152  -0.0326  -0.0106   0.00    2.3
2173 202848.000  -1092364.7408  -5209400.6583   3504137.6933   2   9   0.0274   0.0528   0.0349   0.0151  -0.0325  -0.0106   0.00    2.3
2173 202849.000  -1092364.7426  -5209400.6568   3504137.6926   2   9   0.0274   0.0526   0.0347   0.0151  -0.0323  -0.0107   0.00    2.3
2173 202850.000  -1092364.7425  -5209400.6601   3504137.6993   2   9   0.0272   0.0524   0.0345   0.0150  -0.0322  -0.0106   0.00    2.3
2173 202851.000  -1092364.7436  -5209400.6625   3504137.6986   2   9   0.0270   0.0521   0.0343   0.0149  -0.0320  -0.0104   0.00    2.3
2173 202852.000  -1092364.7456  -5209400.6604   3504137.7017   2   9   0.0270   0.0519   0.0341   0.0148  -0.0318  -0.0106   0.00    2.3
2173 202853.000  -1092364.7455  -5209400.6614   3504137.7003   2   9   0.0270   0.0517   0.0339   0.0147  -0.0317  -0.0106   0.00    2.3
2173 202854.000  -1092364.7440  -5209400.6611   3504137.7033   2   9   0.0268   0.0515   0.0337   0.0147  -0.0316  -0.0104   0.00    2.3
2173 202855.000  -1092364.7438  -5209400.6628   3504137.7106   2   9   0.0267   0.0513   0.0335   0.0144  -0.0314  -0.0103   0.00    2.3
2173 202856.000  -1092364.7425  -5209400.6623   3504137.7068   2   9   0.0267   0.0511   0.0334   0.0144  -0.0312  -0.0103   0.00    2.3
2173 202857.000  -1092364.7418  -5209400.6630   3504137.7063   2   9   0.0267   0.0509   0.0332   0.0143  -0.0311  -0.0104   0.00    2.3
2173 202858.000  -1092364.7448  -5209400.6652   3504137.7098   2   9   0.0265   0.0507   0.0330   0.0143  -0.0310  -0.0103   0.00    2.3
2173 202859.000  -1092364.7448  -5209400.6666   3504137.7138   2   9   0.0265   0.0505   0.0329   0.0142  -0.0308  -0.0104   0.00    2.3
2173 202860.000  -1092364.7424  -5209400.6614   3504137.7093   2   9   0.0264   0.0503   0.0327   0.0139  -0.0307  -0.0102   0.00    2.3
2173 202861.000  -1092364.7434  -5209400.6626   3504137.7133   2   9   0.0262   0.0501   0.0325   0.0140  -0.0306  -0.0100   0.00    2.3
2173 202862.000  -1092364.7441  -5209400.6681   3504137.7180   2   9   0.0262   0.0499   0.0323   0.0139  -0.0304  -0.0101   0.00    2.3
2173 202863.000  -1092364.7442  -5209400.6639   3504137.7143   2   9   0.0261   0.0497   0.0321   0.0137  -0.0303  -0.0102   0.00    2.4
2173 202864.000  -1092364.7466  -5209400.6674   3504137.7215   2   9   0.0261   0.0495   0.0320   0.0137  -0.0301  -0.0101   0.00    2.4
2173 202865.000  -1092364.7466  -5209400.6680   3504137.7209   2   9   0.0259   0.0493   0.0318   0.0135  -0.0300  -0.0101   0.00    2.4
2173 202866.000  -1092364.7461  -5209400.6699   3504137.7229   2   9   0.0258   0.0491   0.0316   0.0134  -0.0299  -0.0098   0.00    2.4
2173 202867.000  -1092364.7469  -5209400.6722   3504137.7242   2   9   0.0259   0.0489   0.0315   0.0135  -0.0297  -0.0101   0.00    2.4
2173 202868.000  -1092364.7476  -5209400.6756   3504137.7240   2   9   0.0258   0.0487   0.0313   0.0133  -0.0296  -0.0100   0.00    2.4
2173 202869.000  -1092364.7466  -5209400.6679   3504137.7248   2   9   0.0256   0.0485   0.0311   0.0132  -0.0295  -0.0099   0.00    2.4
2173 202870.000  -1092364.7458  -5209400.6692   3504137.7265   2   9   0.0257   0.0483   0.0310   0.0131  -0.0293  -0.0099   0.00    2.4
2173 202871.000  -1092364.7452  -5209400.6727   3504137.7271   2   9   0.0255   0.0481   0.0308   0.0130  -0.0292  -0.0098   0.00    2.4
2173 202872.000  -1092364.7459  -5209400.6721   3504137.7302   2   9   0.0254   0.0479   0.0306   0.0130  -0.0291  -0.0098   0.00    2.4
2173 202873.000  -1092364.7466  -5209400.6717   3504137.7299   2   9   0.0254   0.0478   0.0305   0.0128  -0.0290  -0.0098   0.00    2.4
2173 202874.000  -1092364.7486  -5209400.6694   3504137.7278   2   9   0.0252   0.0476   0.0303   0.0128  -0.0288  -0.0097   0.00    2.4
2173 202875.000  -1092364.7473  -5209400.6665   3504137.7296   2   9   0.0253   0.0474   0.0301   0.0127  -0.0287  -0.0099   0.00    2.4
2173 202876.000  -1092364.7496  -5209400.6753   3504137.7327   2   9   0.0251   0.0472   0.0299   0.0126  -0.0286  -0.0096   0.00    2.4
2173 202877.000  -1092364.7488  -5209400.6715   3504137.7305   2   9   0.0251   0.0471   0.0298   0.0125  -0.0284  -0.0096   0.00    2.4
2173 202878.000  -1092364.7501  -5209400.6753   3504137.7357   2   9   0.0249   0.0469   0.0296   0.0124  -0.0283  -0.0096   0.00    2.4
2173 202879.000  -1092364.7502  -5209400.6748   3504137.7312   2   9   0.0249   0.0467   0.0295   0.0124  -0.0282  -0.0096   0.00    2.4
2173 202880.000  -1092364.7504  -5209400.6757   3504137.7377   2   9   0.0249   0.0465   0.0294   0.0123  -0.0280  -0.0096   0.00    2.4
2173 202881.000  -1092364.7516  -5209400.6733   3504137.7361   2   9   0.0248   0.0463   0.0292   0.0121  -0.0279  -0.0095   0.00    2.4
2173 202882.000  -1092364.7549  -5209400.6725   3504137.7346   2   9   0.0248   0.0462   0.0291   0.0121  -0.0278  -0.0096   0.00    2.4
2173 202883.000  -1092364.7532  -5209400.6745   3504137.7385   2   9   0.0246   0.0460   0.0289   0.0120  -0.0277  -0.0095   0.00    2.5
2173 202884.000  -1092364.7563  -5209400.6796   3504137.7415   2   9   0.0245   0.0458   0.0287   0.0121  -0.0276  -0.0093   0.00    2.5
2173 202885.000  -1092364.7560  -5209400.6746   3504137.7415   2   9   0.0245   0.0456   0.0286   0.0119  -0.0275  -0.0093   0.00    2.5
2173 202886.000  -1092364.7536  -5209400.6771   3504137.7370   2   9   0.0244   0.0455   0.0285   0.0118  -0.0273  -0.0094   0.00    2.5
2173 202887.000  -1092364.7543  -5209400.6774   3504137.7408   2   9   0.0243   0.0453   0.0284   0.0117  -0.0272  -0.0094   0.00    2.5
2173 202888.000  -1092364.7531  -5209400.6763   3504137.7405   2   9   0.0243   0.0451   0.0282   0.0116  -0.0271  -0.0092   0.00    2.5
2173 202889.000  -1092364.7529  -5209400.6770   3504137.7406   2   9   0.0242   0.0450   0.0281   0.0115  -0.0270  -0.0093   0.00    2.5
2173 202890.000  -1092364.7521  -5209400.6780   3504137.7416   2   9   0.0243   0.0448   0.0279   0.0115  -0.0269  -0.0094   0.00    2.5
2173 202891.000  -1092364.7521  -5209400.6753   3504137.7391   2   9   0.0242   0.0446   0.0278   0.0114  -0.0268  -0.0092   0.00    2.5
2173 202892.000  -1092364.7517  -5209400.6753   3504137.7415   2   9   0.0239   0.0445   0.0276   0.0114  -0.0267  -0.0091   0.00    2.5
2173 202893.000  -1092364.7523  -5209400.6767   3504137.7441   2   9   0.0239   0.0443   0.0275   0.0111  -0.0266  -0.0091   0.00    2.5
2173 202894.000  -1092364.7506  -5209400.6748   3504137.7452   2   9   0.0239   0.0441   0.0274   0.0111  -0.0265  -0.0093   0.00    2.5
2173 202895.000  -1092364.7509  -5209400.6718   3504137.7417   2   9   0.0239   0.0440   0.0273   0.0110  -0.0264  -0.0091   0.00    2.5
2173 202896.000  -1092364.7530  -5209400.6711   3504137.7410   2   9   0.0239   0.0438   0.0272   0.0109  -0.0263  -0.0094   0.00    2.5
2173 202897.000  -1092364.7525  -5209400.6683   3504137.7421   2   9   0.0238   0.0437   0.0270   0.0109  -0.0262  -0.0092   0.00    2.5
2173 202898.000  -1092364.7520  -5209400.6695   3504137.7429   2   9   0.0236   0.0435   0.0269   0.0108  -0.0260  -0.0089   0.00    2.5
2173 202899.000  -1092364.7510  -5209400.6656   3504137.7412   2   9   0.0235   0.0434   0.0268   0.0107  -0.0259  -0.0091   0.00    2.5
2173 202900.000  -1092364.7518  -5209400.6695   3504137.7425   2   9   0.0235   0.0432   0.0266   0.0106  -0.0258  -0.0089   0.00    2.5
2173 202901.000  -1092364.7521  -5209400.6651   3504137.7401   2   9   0.0235   0.0430   0.0265   0.0105  -0.0257  -0.0091   0.00    2.5
2173 202902.000  -1092364.7507  -5209400.6723   3504137.7438   2   9   0.0233   0.0429   0.0264   0.0105  -0.0256  -0.0088   0.00    2.5
2173 202903.000  -1092364.7532  -5209400.6686   3504137.7426   2   9   0.0233   0.0427   0.0262   0.0104  -0.0255  -0.0088   0.00    2.5
2173 202904.000  -1092364.7534  -5209400.6664   3504137.7416   2   9   0.0233   0.0426   0.0261   0.0103  -0.0254  -0.0088   0.00    2.5
2173 202905.000  -1092364.7513  -5209400.6636   3504137.7427   2   9   0.0233   0.0424   0.0260   0.0102  -0.0253  -0.0089   0.00    2.5
2173 202906.000  -1092364.7521  -5209400.6620   3504137.7427   2   9   0.0231   0.0423   0.0258   0.0102  -0.0252  -0.0086   0.00    2.5
2173 202907.000  -1092364.7518  -5209400.6603   3504137.7427   2   9   0.0232   0.0421   0.0258   0.0102  -0.0251  -0.0088   0.00    2.5
2173 202908.000  -1092364.7519  -5209400.6539   3504137.7397   2   9   0.0230   0.0420   0.0256   0.0100  -0.0250  -0.0086   0.00    2.5
2173 202909.000  -1092364.7518  -5209400.6555   3504137.7429   2   9   0.0231   0.0418   0.0256   0.0100  -0.0249  -0.0088   0.00    2.5
2173 202910.000  -1092364.7521  -5209400.6560   3504137.7413   2   9   0.0228   0.0417   0.0254   0.0099  -0.0248  -0.0085   0.00    2.6
2173 202911.000  -1092364.7520  -5209400.6525   3504137.7387   2   9   0.0228   0.0416   0.0253   0.0097  -0.0247  -0.0086   0.00    2.6
2173 202912.000  -1092364.7513  -5209400.6494   3504137.7388   2   9   0.0228   0.0414   0.0251   0.0097  -0.0246  -0.0087   0.00    2.6
2173 202913.000  -1092364.7523  -5209400.6500   3504137.7406   2   9   0.0226   0.0412   0.0250   0.0098  -0.0245  -0.0085   0.00    2.6
2173 202914.000  -1092364.7516  -5209400.6450   3504137.7377   2   9   0.0226   0.0411   0.0250   0.0096  -0.0244  -0.0085   0.00    2.6
2173 202915.000  -1092364.7509  -5209400.6477   3504137.7384   2   9   0.0227   0.0410   0.0248   0.0095  -0.0243  -0.0087   0.00    2.6
2173 202916.000  -1092364.7532  -5209400.6488   3504137.7373   2   9   0.0225   0.0408   0.0247   0.0093  -0.0242  -0.0084   0.00    2.6
2173 202917.000  -1092364.7523  -5209400.6460   3504137.7359   2   9   0.0225   0.0407   0.0247   0.0094  -0.0241  -0.0086   0.00    2.6
2173 202918.000  -1092364.7532  -5209400.6442   3504137.7367   2   9   0.0224   0.0406   0.0245   0.0094  -0.0240  -0.0085   0.00    2.6
2173 202919.000  -1092364.7536  -5209400.6462   3504137.7332   2   9   0.0224   0.0404   0.0244   0.0092  -0.0239  -0.0085   0.00    2.6
2173 202920.000  -1092364.7530  -5209400.6435   3504137.7329   2   9   0.0223   0.0403   0.0243   0.0091  -0.0239  -0.0085   0.00    2.6
2173 202921.000  -1092364.7534  -5209400.6432   3504137.7312   2   9   0.0222   0.0401   0.0242   0.0091  -0.0238  -0.0084   0.00    2.6
2173 202922.000  -1092364.7533  -5209400.6444   3504137.7339   2   9   0.0222   0.0400   0.0240   0.0090  -0.0237  -0.0084   0.00    2.6
2173 202923.000  -1092364.7521  -5209400.6435   3504137.7306   2   9   0.0224   0.0399   0.0241   0.0089  -0.0236  -0.0087   0.00    2.6
2173 202924.000  -1092364.7534  -5209400.6410   3504137.7292   2   9   0.0221   0.0397   0.0239   0.0088  -0.0235  -0.0084   0.00    2.6
2173 202925.000  -1092364.7527  -5209400.6458   3504137.7306   2   9   0.0219   0.0396   0.0237   0.0088  -0.0234  -0.0081   0.00    2.6
2173 202926.000  -1092364.7519  -5209400.6434   3504137.7308   2   9   0.0220   0.0395   0.0237   0.0088  -0.0234  -0.0082   0.00    2.6
2173 202927.000  -1092364.7512  -5209400.6389   3504137.7281   2   9   0.0219   0.0393   0.0236   0.0086  -0.0233  -0.0079   0.00    2.6
2173 202928.000  -1092364.7514  -5209400.6391   3504137.7245   2   9   0.0219   0.0392   0.0235   0.0086  -0.0231  -0.0083   0.00    2.6
2173 202929.000  -1092364.7530  -5209400.6395   3504137.7269   2   9   0.0218   0.0391   0.0234   0.0085  -0.0231  -0.0083   0.00    2.6
2173 202930.000  -1092364.7507  -5209400.6362   3504137.7268   2   9   0.0217   0.0390   0.0232   0.0084  -0.0230  -0.0081   0.00    2.6
2173 202931.000  -1092364.7506  -5209400.6367   3504137.7278   2   9   0.0218   0.0388   0.0231   0.0083  -0.0229  -0.0083   0.00    2.6
2173 202932.000  -1092364.7509  -5209400.6334   3504137.7235   2   9   0.0217   0.0387   0.0230   0.0083  -0.0228  -0.0080   0.00    2.6
2173 202933.000  -1092364.7515  -5209400.6318   3504137.7254   2   9   0.0216   0.0386   0.0230   0.0082  -0.0227  -0.0080   0.00    2.6
2173 202934.000  -1092364.7498  -5209400.6331   3504137.7262   2   9   0.0216   0.0384   0.0228   0.0082  -0.0226  -0.0081   0.00    2.6
2173 202935.000  -1092364.7502  -5209400.6352   3504137.7269   2   9   0.0216   0.0383   0.0227   0.0080  -0.0226  -0.0081   0.00    2.6
2173 202936.000  -1092364.7511  -5209400.6313   3504137.7267   2   9   0.0213   0.0382   0.0227   0.0080  -0.0225  -0.0078   0.00    2.6
2173 202937.000  -1092364.7504  -5209400.6352   3504137.7248   2   9   0.0214   0.0381   0.0226   0.0079  -0.0224  -0.0081   0.00    2.6
2173 202938.000  -1092364.7520  -5209400.6327   3504137.7236   2   9   0.0214   0.0379   0.0225   0.0078  -0.0223  -0.0079   0.00    2.6
2173 202939.000  -1092364.7498  -5209400.6290   3504137.7243   2   9   0.0214   0.0378   0.0224   0.0078  -0.0222  -0.0081   0.00    2.6
2173 202940.000  -1092364.7500  -5209400.6347   3504137.7260   2   9   0.0212   0.0377   0.0223   0.0077  -0.0222  -0.0078   0.00    2.6
2173 202941.000  -1092364.7493  -5209400.6304   3504137.7236   2   9   0.0212   0.0376   0.0222   0.0077  -0.0221  -0.0080   0.00    2.6
2173 202942.000  -1092364.7481  -5209400.6295   3504137.7238   2   9   0.0211   0.0375   0.0221   0.0076  -0.0220  -0.0077   0.00    2.6
2173 202943.000  -1092364.7485  -5209400.6271   3504137.7222   2   9   0.0212   0.0373   0.0221   0.0076  -0.0219  -0.0078   0.00    2.6
2173 202944.000  -1092364.7481  -5209400.6259   3504137.7231   2   9   0.0211   0.0372   0.0219   0.0075  -0.0218  -0.0078   0.00    2.6
2173 202945.000  -1092364.7471  -5209400.6255   3504137.7215   2   9   0.0209   0.0371   0.0218   0.0072  -0.0217  -0.0075   0.00    2.6
2173 202946.000  -1092364.7491  -5209400.6242   3504137.7187   2   9   0.0211   0.0370   0.0218   0.0073  -0.0217  -0.0079   0.00    2.6
2173 202947.000  -1092364.7484  -5209400.6250   3504137.7194   2   9   0.0208   0.0369   0.0217   0.0072  -0.0216  -0.0076   0.00    2.6
2173 202948.000  -1092364.7465  -5209400.6262   3504137.7208   2   9   0.0208   0.0367   0.0216   0.0071  -0.0216  -0.0077   0.00    2.6
2173 202949.000  -1092364.7464  -5209400.6243   3504137.7214   2   9   0.0208   0.0366   0.0215   0.0072  -0.0214  -0.0077   0.00    2.6
2173 202950.000  -1092364.7465  -5209400.6228   3504137.7165   2   9   0.0208   0.0365   0.0215   0.0071  -0.0214  -0.0079   0.00    2.6
2173 202951.000  -1092364.7463  -5209400.6231   3504137.7164   2   9   0.0207   0.0364   0.0214   0.0069  -0.0213  -0.0078   0.00    2.6
2173 202952.000  -1092364.7445  -5209400.6276   3504137.7187   2   9   0.0208   0.0363   0.0213   0.0068  -0.0212  -0.0078   0.00    2.6
2173 202953.000  -1092364.7455  -5209400.6235   3504137.7194   2   9   0.0207   0.0362   0.0212   0.0067  -0.0212  -0.0078   0.00    2.6
2173 202954.000  -1092364.7415  -5209400.6214   3504137.7173   2   9   0.0206   0.0361   0.0211   0.0068  -0.0211  -0.0076   0.00    2.6
2173 202955.000  -1092364.7429  -5209400.6216   3504137.7180   2   9   0.0203   0.0360   0.0209   0.0066  -0.0211  -0.0075   0.00    2.6
2173 202956.000  -1092364.7406  -5209400.6223   3504137.7184   2   9   0.0205   0.0358   0.0210   0.0066  -0.0209  -0.0076   0.00    2.6
2173 202957.000  -1092364.7402  -5209400.6214   3504137.7201   2   9   0.0204   0.0357   0.0209   0.0065  -0.0208  -0.0077   0.00    2.6
2173 202958.000  -1092364.7396  -5209400.6206   3504137.7228   2   9   0.0205   0.0356   0.0209   0.0063  -0.0208  -0.0079   0.00    2.6
2173 202959.000  -1092364.7409  -5209400.6193   3504137.7206   2   9   0.0203   0.0355   0.0207   0.0064  -0.0208  -0.0074   0.00    2.6
2173 202960.000  -1092364.7403  -5209400.6213   3504137.7205   2   9   0.0202   0.0354   0.0206   0.0064  -0.0207  -0.0072   0.00    2.6
2173 202961.000  -1092364.7402  -5209400.6238   3504137.7225   2   9   0.0202   0.0353   0.0206   0.0062  -0.0206  -0.0074   0.00    2.7
2173 202962.000  -1092364.7399  -5209400.6225   3504137.7255   2   9   0.0201   0.0352   0.0204   0.0063  -0.0205  -0.0072   0.00    2.7
2173 202963.000  -1092364.7392  -5209400.6204   3504137.7237   2   9   0.0202   0.0351   0.0204   0.0062  -0.0204  -0.0074   0.00    2.7
2173 202964.000  -1092364.7391  -5209400.6194   3504137.7244   2   9   0.0201   0.0350   0.0203   0.0061  -0.0204  -0.0074   0.00    2.7
2173 202965.000  -1092364.7370  -5209400.6171   3504137.7220   2   9   0.0201   0.0349   0.0203   0.0060  -0.0203  -0.0073   0.00    2.7
2173 202966.000  -1092364.7380  -5209400.6182   3504137.7241   2   9   0.0201   0.0348   0.0202   0.0058  -0.0202  -0.0075   0.00    2.7
2173 202967.000  -1092364.7372  -5209400.6164   3504137.7229   2   9   0.0199   0.0347   0.0201   0.0060  -0.0202  -0.0070   0.00    2.7
2173 202968.000  -1092364.7357  -5209400.6180   3504137.7248   2   9   0.0199   0.0346   0.0200   0.0059  -0.0201  -0.0074   0.00    2.7
2173 202969.000  -1092364.7361  -5209400.6154   3504137.7229   2   9   0.0200   0.0344   0.0200   0.0057  -0.0201  -0.0076   0.00    2.7
2173 202970.000  -1092364.7358  -5209400.6179   3504137.7272   2   9   0.0197   0.0343   0.0198   0.0058  -0.0200  -0.0070   0.00    2.7
2173 202971.000  -1092364.7340  -5209400.6149   3504137.7268   2   9   0.0198   0.0342   0.0198   0.0056  -0.0199  -0.0073   0.00    2.7
2173 202972.000  -1092364.7332  -5209400.6116   3504137.7288   2   9   0.0199   0.0341   0.0198   0.0055  -0.0199  -0.0072   0.00    2.7
2173 202973.000  -1092364.7336  -5209400.6086   3504137.7277   2   9   0.0197   0.0340   0.0197   0.0056  -0.0198  -0.0072   0.00    2.7
2173 202974.000  -1092364.7330  -5209400.6122   3504137.7310   2   9   0.0197   0.0339   0.0196   0.0054  -0.0197  -0.0072   0.00    2.6
2173 202975.000  -1092364.7296  -5209400.6084   3504137.7255   2   9   0.0195   0.0338   0.0195   0.0053  -0.0196  -0.0070   0.00    2.6
2173 202976.000  -1092364.7300  -5209400.6117   3504137.7289   2   9   0.0197   0.0337   0.0195   0.0054  -0.0196  -0.0074   0.00    2.6
2173 202977.000  -1092364.7301  -5209400.6064   3504137.7245   2   9   0.0195   0.0336   0.0193   0.0053  -0.0196  -0.0072   0.00    2.6
2173 202978.000  -1092364.7275  -5209400.6092   3504137.7333   2   9   0.0194   0.0335   0.0193   0.0052  -0.0195  -0.0070   0.00    2.6
2173 202979.000  -1092364.7279  -5209400.6046   3504137.7310   2   9   0.0194   0.0334   0.0192   0.0048  -0.0194  -0.0071   0.00    2.6
2173 202980.000  -1092364.7284  -5209400.6051   3504137.7302   2   9   0.0195   0.0334   0.0192   0.0049  -0.0194  -0.0069   0.00    2.6
2173 202981.000  -1092364.7292  -5209400.6051   3504137.7293   2   9   0.0194   0.0333   0.0191   0.0051  -0.0193  -0.0070   0.00    2.6
2173 202982.000  -1092364.7288  -5209400.6050   3504137.7305   2   9   0.0193   0.0332   0.0190   0.0050  -0.0192  -0.0070   0.00    2.6
2173 202983.000  -1092364.7279  -5209400.6057   3504137.7319   2   9   0.0192   0.0331   0.0190   0.0046  -0.0192  -0.0068   0.00    2.6
2173 202984.000  -1092364.7272  -5209400.6048   3504137.7353   2   9   0.0193   0.0330   0.0189   0.0049  -0.0191  -0.0071   0.00    2.6
2173 202985.000  -1092364.7256  -5209400.6064   3504137.7347   2   9   0.0192   0.0329   0.0188   0.0046  -0.0190  -0.0067   0.00    2.6
2173 202986.000  -1092364.7276  -5209400.6057   3504137.7322   2   9   0.0192   0.0328   0.0188   0.0046  -0.0190  -0.0071   0.00    2.6
2173 202987.000  -1092364.7265  -5209400.6033   3504137.7345   2   9   0.0191   0.0327   0.0188   0.0044  -0.0189  -0.0069   0.00    2.6
2173 202988.000  -1092364.7257  -5209400.6058   3504137.7363   2   9   0.0191   0.0326   0.0187   0.0044  -0.0188  -0.0070   0.00    2.6
2173 202989.000  -1092364.7268  -5209400.6001   3504137.7328   2   9   0.0191   0.0325   0.0186   0.0042  -0.0188  -0.0067   0.00    2.6
2173 202990.000  -1092364.7251  -5209400.5951   3504137.7318   2   9   0.0191   0.0324   0.0186   0.0043  -0.0188  -0.0069   0.00    2.6
2173 202991.000  -1092364.7271  -5209400.6005   3504137.7368   2   9   0.0190   0.0323   0.0184   0.0042  -0.0187  -0.0069   0.00    2.6
2173 202992.000  -1092364.7263  -5209400.5984   3504137.7337   2   9   0.0189   0.0322   0.0184   0.0042  -0.0186  -0.0067   0.00    2.6
2173 202993.000  -1092364.7267  -5209400.5963   3504137.7344   2   9   0.0189   0.0321   0.0183   0.0041  -0.0186  -0.0069   0.00    2.6
2173 202994.000  -1092364.7259  -5209400.5964   3504137.7376   2   9   0.0189   0.0321   0.0182   0.0040  -0.0185  -0.0068   0.00    2.6
2173 202995.000  -1092364.7265  -5209400.5984   3504137.7358   2   9   0.0189   0.0320   0.0182   0.0038  -0.0184  -0.0070   0.00    2.6
2173 202996.000  -1092364.7250  -5209400.5953   3504137.7355   2   9   0.0188   0.0318   0.0182   0.0039  -0.0184  -0.0068   0.00    2.6
2173 202997.000  -1092364.7246  -5209400.5944   3504137.7336   2   9   0.0188   0.0318   0.0181   0.0037  -0.0184  -0.0068   0.00    2.6
2173 202998.000  -1092364.7231  -5209400.5896   3504137.7340   2   9   0.0187   0.0317   0.0180   0.0040  -0.0183  -0.0066   0.00    2.6
2173 202999.000  -1092364.7244  -5209400.5926   3504137.7329   2   9   0.0188   0.0316   0.0180   0.0039  -0.0182  -0.0067   0.00    2.6
2173 203000.000  -1092364.7259  -5209400.5941   3504137.7351   2   9   0.0187   0.0315   0.0179   0.0035  -0.0181  -0.0067   0.00    2.6
2173 203001.000  -1092364.7259  -5209400.5933   3504137.7353   2   9   0.0187   0.0314   0.0178   0.0036  -0.0181  -0.0068   0.00    2.6
2173 203002.000  -1092364.7254  -5209400.5902   3504137.7333   2   9   0.0186   0.0313   0.0178   0.0033  -0.0181  -0.0069   0.00    2.6
2173 203003.000  -1092364.7250  -5209400.5927   3504137.7333   2   9   0.0186   0.0312   0.0178   0.0035  -0.0180  -0.0067   0.00    2.6
2173 203004.000  -1092364.7251  -5209400.5906   3504137.7335   2   9   0.0183   0.0312   0.0175   0.0033  -0.0180  -0.0064   0.00    2.6
2173 203005.000  -1092364.7240  -5209400.5858   3504137.7351   2   9   0.0184   0.0311   0.0176   0.0033  -0.0179  -0.0064   0.00    2.6
2173 203006.000  -1092364.7232  -5209400.5919   3504137.7350   2   9   0.0182   0.0310   0.0175   0.0026  -0.0179  -0.0064   0.00    2.6
2173 203007.000  -1092364.7251  -5209400.5890   3504137.7337   2   9   0.0184   0.0309   0.0175   0.0028  -0.0178  -0.0065   0.00    2.6
2173 203008.000  -1092364.7239  -5209400.5845   3504137.7323   2   9   0.0182   0.0308   0.0174   0.0031  -0.0178  -0.0063   0.00    2.6
2173 203009.000  -1092364.7238  -5209400.5866   3504137.7320   2   9   0.0183   0.0307   0.0174   0.0030  -0.0177  -0.0065   0.00    2.6
2173 203010.000  -1092364.7235  -5209400.5850   3504137.7295   2   9   0.0183   0.0307   0.0174   0.0027  -0.0176  -0.0065   0.00    2.6
2173 203011.000  -1092364.7231  -5209400.5856   3504137.7296   2   9   0.0182   0.0306   0.0173   0.0031  -0.0176  -0.0064   0.00    2.6
2173 203012.000  -1092364.7222  -5209400.5810   3504137.7284   2   9   0.0182   0.0305   0.0172   0.0025  -0.0175  -0.0063   0.00    2.6
2173 203013.000  -1092364.7221  -5209400.5813   3504137.7296   2   9   0.0182   0.0304   0.0173   0.0023  -0.0175  -0.0065   0.00    2.6
2173 203014.000  -1092364.7223  -5209400.5811   3504137.7279   2   9   0.0181   0.0303   0.0171   0.0024  -0.0174  -0.0064   0.00    2.6
2173 203015.000  -1092364.7210  -5209400.5834   3504137.7302   2   9   0.0182   0.0303   0.0171   0.0023  -0.0174  -0.0064   0.00    2.6
2173 203016.000  -1092364.7226  -5209400.5806   3504137.7268   2   9   0.0181   0.0302   0.0170   0.0028  -0.0174  -0.0064   0.00    2.6
2173 203017.000  -1092364.7205  -5209400.5760   3504137.7265   2   9   0.0181   0.0301   0.0170   0.0016  -0.0173  -0.0063   0.00    2.6
2173 203018.000  -1092364.7193  -5209400.5784   3504137.7277   2   9   0.0181   0.0300   0.0171   0.0022  -0.0172  -0.0064   0.00    2.6
2173 203019.000  -1092364.7201  -5209400.5723   3504137.7255   2   9   0.0180   0.0299   0.0168   0.0021  -0.0172  -0.0063   0.00    2.6
2173 203020.000  -1092364.7210  -5209400.5748   3504137.7279   2   9   0.0179   0.0299   0.0169   0.0021  -0.0171  -0.0064   0.00    2.6
2173 203021.000  -1092364.7200  -5209400.5734   3504137.7248   2   9   0.0178   0.0298   0.0167   0.0020  -0.0171  -0.0060   0.00    2.6
2173 203022.000  -1092364.7188  -5209400.5740   3504137.7263   2   9   0.0178   0.0297   0.0167   0.0018  -0.0171  -0.0060   0.00    2.6
2173 203023.000  -1092364.7181  -5209400.5657   3504137.7207   2   9   0.0178   0.0296   0.0167   0.0014  -0.0170  -0.0064   0.00    2.6
2173 203024.000  -1092364.7200  -5209400.5642   3504137.7225   2   9   0.0179   0.0295   0.0166   0.0014  -0.0170  -0.0063   0.00    2.6
2173 203025.000  -1092364.7165  -5209400.5655   3504137.7232   2   9   0.0178   0.0295   0.0166   0.0014  -0.0169  -0.0062   0.00    2.6
2173 203026.000  -1092364.7174  -5209400.5645   3504137.7245   2   9   0.0176   0.0294   0.0165   0.0007  -0.0169  -0.0059   0.00    2.6
2173 203027.000  -1092364.7166  -5209400.5646   3504137.7224   2   9   0.0176   0.0293   0.0165   0.0010  -0.0169  -0.0061   0.00    2.6
2173 203028.000  -1092364.7156  -5209400.5674   3504137.7235   2   9   0.0177   0.0293   0.0165   0.0003  -0.0168  -0.0063   0.00    2.6
2173 203029.000  -1092364.7159  -5209400.5670   3504137.7226   2   9   0.0177   0.0292   0.0164   0.0009  -0.0167  -0.0063   0.00    2.6
2173 203030.000  -1092364.7146  -5209400.5655   3504137.7212   2   9   0.0176   0.0291   0.0163  -0.0009  -0.0167  -0.0062   0.00    2.6
2173 203031.000  -1092364.7167  -5209400.5611   3504137.7197   2   9   0.0175   0.0290   0.0162  -0.0011  -0.0166  -0.0061   0.00    2.6
2173 203032.000  -1092364.7149  -5209400.5636   3504137.7223   2   9   0.0175   0.0290   0.0162  -0.0007  -0.0166  -0.0061   0.00    2.6
2173 203033.000  -1092364.7157  -5209400.5616   3504137.7224   2   9   0.0174   0.0289   0.0162  -0.0017  -0.0166  -0.0062   0.00    2.6
2173 203034.000  -1092364.7132  -5209400.5607   3504137.7208   2   9   0.0174   0.0288   0.0162  -0.0009  -0.0165  -0.0058   0.00    2.6
2173 203035.000  -1092364.7139  -5209400.5615   3504137.7219   2   9   0.0173   0.0288   0.0161  -0.0011  -0.0164  -0.0059   0.00    2.6
2173 203036.000  -1092364.7116  -5209400.5600   3504137.7222   2   9   0.0173   0.0287   0.0160  -0.0019  -0.0164  -0.0057   0.00    2.6
2173 203037.000  -1092364.7140  -5209400.5563   3504137.7192   2   9   0.0173   0.0286   0.0160  -0.0018  -0.0164  -0.0060   0.00    2.6
2173 203038.000  -1092364.7142  -5209400.5622   3504137.7197   2   9   0.0173   0.0285   0.0160  -0.0017  -0.0163  -0.0061   0.00    2.6
2173 203039.000  -1092364.7133  -5209400.5578   3504137.7175   2   9   0.0173   0.0284   0.0159  -0.0012  -0.0163  -0.0061   0.00    2.6
2173 203040.000  -1092364.7129  -5209400.5570   3504137.7193   2   9   0.0173   0.0284   0.0158  -0.0021  -0.0162  -0.0058   0.00    2.6
2173 203041.000  -1092364.7116  -5209400.5574   3504137.7182   2   9   0.0173   0.0283   0.0158  -0.0013  -0.0162  -0.0060   0.00    2.6
2173 203042.000  -1092364.7124  -5209400.5567   3504137.7172   2   9   0.0172   0.0282   0.0157  -0.0019  -0.0162  -0.0061   0.00    2.6
2173 203043.000  -1092364.7075  -5209400.5526   3504137.7163   2   9   0.0171   0.0281   0.0158  -0.0022  -0.0162  -0.0059   0.00    2.6
2173 203044.000  -1092364.7107  -5209400.5547   3504137.7173   2   9   0.0172   0.0281   0.0157  -0.0022  -0.0161  -0.0062   0.00    2.6
2173 203045.000  -1092364.7097  -5209400.5565   3504137.7185   2   9   0.0170   0.0280   0.0157  -0.0025  -0.0161  -0.0059   0.00    2.6
2173 203046.000  -1092364.7074  -5209400.5524   3504137.7161   2   9   0.0171   0.0280   0.0156  -0.0023  -0.0159  -0.0060   0.00    2.6
2173 203047.000  -1092364.7075  -5209400.5529   3504137.7163   2   9   0.0170   0.0279   0.0155  -0.0027  -0.0159  -0.0058   0.00    2.6
2173 203048.000  -1092364.7075  -5209400.5545   3504137.7152   2   9   0.0172   0.0279   0.0156  -0.0028  -0.0159  -0.0060   0.00    2.6
2173 203049.000  -1092364.7083  -5209400.5498   3504137.7137   2   9   0.0170   0.0277   0.0155  -0.0026  -0.0159  -0.0059   0.00    2.6
2173 203050.000  -1092364.7060  -5209400.5515   3504137.7146   2   9   0.0168   0.0277   0.0154  -0.0028  -0.0158  -0.0057   0.00    2.6
2173 203051.000  -1092364.7073  -5209400.5508   3504137.7108   2   9   0.0170   0.0276   0.0153  -0.0021  -0.0158  -0.0057   0.00    2.6
2173 203052.000  -1092364.7062  -5209400.5500   3504137.7132   2   9   0.0168   0.0276   0.0154  -0.0031  -0.0157  -0.0057   0.00    2.6
2173 203053.000  -1092364.7064  -5209400.5473   3504137.7120   2   9   0.0168   0.0275   0.0153  -0.0032  -0.0157  -0.0056   0.00    2.6
2173 203054.000  -1092364.7033  -5209400.5493   3504137.7134   2   9   0.0169   0.0274   0.0152  -0.0026  -0.0156  -0.0060   0.00    2.5
2173 203055.000  -1092364.7045  -5209400.5500   3504137.7146   2   9   0.0167   0.0273   0.0152  -0.0029  -0.0156  -0.0057   0.00    2.5
2173 203056.000  -1092364.7033  -5209400.5493   3504137.7150   2   9   0.0168   0.0273   0.0152  -0.0028  -0.0156  -0.0057   0.00    2.5
2173 203057.000  -1092364.7038  -5209400.5473   3504137.7122   2   9   0.0168   0.0272   0.0152  -0.0029  -0.0155  -0.0060   0.00    2.5
2173 203058.000  -1092364.7030  -5209400.5461   3504137.7122   2   9   0.0167   0.0272   0.0151  -0.0030  -0.0155  -0.0057   0.00    2.5
2173 203059.000  -1092364.7021  -5209400.5474   3504137.7144   2   9   0.0167   0.0271   0.0151  -0.0030  -0.0154  -0.0056   0.00    2.5
2173 203060.000  -1092364.7028  -5209400.5474   3504137.7142   2   9   0.0166   0.0270   0.0151  -0.0031  -0.0154  -0.0057   0.00    2.5
2173 203061.000  -1092364.7022  -5209400.5454   3504137.7146   2   9   0.0165   0.0269   0.0150  -0.0028  -0.0154  -0.0054   0.00    2.5
2173 203062.000  -1092364.7020  -5209400.5431   3504137.7134   2   9   0.0165   0.0269   0.0148  -0.0030  -0.0153  -0.0056   0.00    2.5
2173 203063.000  -1092364.7014  -5209400.5441   3504137.7136   2   9   0.0164   0.0269   0.0148  -0.0033  -0.0153  -0.0054   0.00    2.5
2173 203064.000  -1092364.7025  -5209400.5448   3504137.7130   2   9   0.0166   0.0268   0.0150  -0.0035  -0.0152  -0.0060   0.00    2.5
2173 203065.000  -1092364.7006  -5209400.5409   3504137.7124   2   9   0.0164   0.0267   0.0148  -0.0034  -0.0152  -0.0055   0.00    2.5
2173 203066.000  -1092364.6978  -5209400.5399   3504137.7111   2   9   0.0164   0.0267   0.0149  -0.0035  -0.0152  -0.0056   0.00    2.5
2173 203067.000  -1092364.6999  -5209400.5428   3504137.7116   2   9   0.0165   0.0266   0.0148  -0.0033  -0.0151  -0.0058   0.00    2.5
2173 203068.000  -1092364.6987  -5209400.5408   3504137.7121   2   9   0.0165   0.0265   0.0148  -0.0032  -0.0151  -0.0057   0.00    2.5
2173 203069.000  -1092364.6976  -5209400.5403   3504137.7118   2   9   0.0163   0.0265   0.0147  -0.0033  -0.0151  -0.0054   0.00    2.5
2173 203070.000  -1092364.6974  -5209400.5371   3504137.7115   2   9   0.0163   0.0264   0.0147  -0.0036  -0.0151  -0.0054   0.00    2.5
2173 203071.000  -1092364.6955  -5209400.5395   3504137.7114   2   9   0.0163   0.0264   0.0146  -0.0037  -0.0149  -0.0052   0.00    2.5
2173 203072.000  -1092364.6962  -5209400.5399   3504137.7119   2   9   0.0165   0.0263   0.0146  -0.0037  -0.0150  -0.0058   0.00    2.5
2173 203073.000  -1092364.6952  -5209400.5368   3504137.7121   2   9   0.0162   0.0262   0.0145  -0.0036  -0.0150  -0.0054   0.00    2.5
2173 203074.000  -1092364.6956  -5209400.5357   3504137.7141   2   9   0.0164   0.0262   0.0145  -0.0035  -0.0149  -0.0056   0.00    2.5
2173 203075.000  -1092364.6937  -5209400.5362   3504137.7124   2   9   0.0163   0.0261   0.0145  -0.0038  -0.0149  -0.0055   0.00    2.5
2173 203076.000  -1092364.6938  -5209400.5354   3504137.7122   2   9   0.0162   0.0260   0.0145  -0.0036  -0.0148  -0.0057   0.00    2.5
2173 203077.000  -1092364.6924  -5209400.5339   3504137.7131   2   9   0.0161   0.0260   0.0144  -0.0037  -0.0148  -0.0055   0.00    2.5
2173 203078.000  -1092364.6926  -5209400.5360   3504137.7122   2   9   0.0161   0.0259   0.0143  -0.0036  -0.0147  -0.0053   0.00    2.5
2173 203079.000  -1092364.6929  -5209400.5358   3504137.7113   2   9   0.0161   0.0259   0.0144  -0.0038  -0.0147  -0.0054   0.00    2.5
2173 203080.000  -1092364.6898  -5209400.5321   3504137.7109   2   9   0.0160   0.0258   0.0144  -0.0038  -0.0147  -0.0054   0.00    2.5
2173 203081.000  -1092364.6905  -5209400.5292   3504137.7103   2   9   0.0161   0.0258   0.0142  -0.0038  -0.0146  -0.0055   0.00    2.5
2173 203082.000  -1092364.6909  -5209400.5297   3504137.7117   2   9   0.0160   0.0257   0.0142  -0.0039  -0.0146  -0.0054   0.00    2.5
2173 203083.000  -1092364.6894  -5209400.5264   3504137.7117   2   9   0.0160   0.0256   0.0142  -0.0035  -0.0145  -0.0054   0.00    2.5
2173 203084.000  -1092364.6890  -5209400.5296   3504137.7128   2   9   0.0160   0.0256   0.0141  -0.0040  -0.0145  -0.0054   0.00    2.5
2173 203085.000  -1092364.6892  -5209400.5295   3504137.7139   2   9   0.0159   0.0255   0.0141  -0.0038  -0.0145  -0.0052   0.00    2.5
2173 203086.000  -1092364.6878  -5209400.5286   3504137.7115   2   9   0.0158   0.0255   0.0141  -0.0039  -0.0145  -0.0053   0.00    2.5
2173 203087.000  -1092364.6885  -5209400.5260   3504137.7122   2   9   0.0158   0.0255   0.0140  -0.0040  -0.0144  -0.0049   0.00    2.5
2173 203088.000  -1092364.6854  -5209400.5238   3504137.7098   2   9   0.0157   0.0254   0.0140  -0.0040  -0.0144  -0.0053   0.00    2.5
2173 203089.000  -1092364.6870  -5209400.5251   3504137.7120   2   9   0.0159   0.0253   0.0140  -0.0039  -0.0143  -0.0054   0.00    2.5
2173 203090.000  -1092364.6856  -5209400.5227   3504137.7102   2   9   0.0158   0.0253   0.0140  -0.0040  -0.0143  -0.0052   0.00    2.5
2173 203091.000  -1092364.6862  -5209400.5210   3504137.7093   2   9   0.0158   0.0252   0.0140  -0.0044  -0.0143  -0.0053   0.00    2.5
2173 203092.000  -1092364.6849  -5209400.5199   3504137.7081   2   9   0.0158   0.0251   0.0139  -0.0042  -0.0143  -0.0051   0.00    2.5
2173 203093.000  -1092364.6870  -5209400.5202   3504137.7073   2   9   0.0157   0.0251   0.0139  -0.0040  -0.0143  -0.0053   0.00    2.5
2173 203094.000  -1092364.6857  -5209400.5180   3504137.7058   2   9   0.0156   0.0250   0.0139  -0.0041  -0.0142  -0.0050   0.00    2.5
2173 203095.000  -1092364.6863  -5209400.5193   3504137.7100   2   9   0.0157   0.0250   0.0139  -0.0040  -0.0142  -0.0054   0.00    2.5
2173 203096.000  -1092364.6836  -5209400.5189   3504137.7085   2   9   0.0157   0.0249   0.0138  -0.0042  -0.0141  -0.0051   0.00    2.5
2173 203097.000  -1092364.6841  -5209400.5202   3504137.7092   2   9   0.0155   0.0249   0.0137  -0.0042  -0.0141  -0.0050   0.00    2.5
