     2.11           OBSERVATION DATA    M (MIXED)           RINEX VERSION / TYPE
CONVBIN 2.4.3                           20210902 201838 UTC PGM / RUN BY / DATE 
log: logs/21_09_02_06_16_41_fmyr_SW.rtcm                    COMMENT             
format: RTCM 3, station ID: 1722                            COMMENT             
1722                                                        MARKER NAME         
                                                            MARKER NUMBER       
                                                            OBSERVER / AGENCY   
                    SWFT                                    REC # / TYPE / VERS 
                    NULL                                    ANT # / TYPE        
   813911.2619 -5693305.6189  2748430.1503                  APPROX POSITION XYZ 
        0.0000        0.0000        0.0000                  ANTENNA: DELTA H/E/N
     1     1                                                WAVELENGTH FACT L1/2
     5    C1    L1    P2    L2    C2                        # / TYPES OF OBSERV 
  2021     9     2     6    16   46.0000000     GPS         TIME OF FIRST OBS   
  2021     9     2     6    46   44.0000000     GPS         TIME OF LAST OBS    
                                                            END OF HEADER       
 21  9  2  6 16 46.0000000  0 15G 4G 7G 8G 9G16G21G27E 2E 3E 5E 8E12
                                E24E25E36
  21724333.073   114162137.833    21724334.252    88957510.640                  
  22007628.384   115650879.579    22007627.812    90117571.226                  
  20271298.764   106526352.921    20271301.159    83007537.653                  
  21148209.344   111134559.075    21148211.274    86598349.864                  
  24073396.369   126506553.891    24073395.833    98576536.183                  
  22523356.656   118361035.480    22523356.048    92229378.214                  
  21826982.301   114701535.796    21826984.141    89377813.449                  
  25648331.794   134782866.011                                                  
  24725897.144   129935452.043                                                  
  26007549.224   136670583.903                                                  
  25071457.245   131751391.394                                                  
  26005039.359   136657417.893                                                  
  27121844.771   142526297.665                                                  
  24498835.648   128742239.000                                                  
  26315150.160   138286992.317                                                  
 21  9  2  6 16 47.0000000  0 15G 4G 7G 8G 9G16G21G27E 2E 3E 5E 8E12
                                E24E25E36
  21724858.672   114164899.879    21724859.852    88959662.884                  
  22007150.924   115648370.523    22007150.352    90115616.122                  
  20271489.034   106527352.872    20271491.446    83008316.836                  
  21148368.879   111135397.523    21148370.827    86599003.200                  
  24073876.956   126509079.473    24073876.438    98578504.167                  
  22522924.047   118358762.007    22522923.403    92227606.679                  
  21827511.617   114704317.445    21827513.475    89379980.966                  
  25648160.752   134781967.163                                                  
  24726083.000   129936428.728                                                  
  26008070.107   136673321.063                                                  
  25071194.838   131750012.476                                                  
  26005254.217   136658547.013                                                  
  27122094.026   142527607.415                                                  
  24498888.647   128742517.517                                                  
  26314632.351   138284271.180                                                  
 21  9  2  6 16 48.0000000  0 15G 4G 7G 8G 9G16G21G27E 2E 3E 5E 8E12
                                E24E25E36
  21725384.343   114167662.284    21725385.540    88961815.407                  
  22006673.482   115645861.558    22006672.928    90113661.087                  
  20271679.446   106528353.443    20271681.840    83009096.499                  
  21148528.556   111136236.578    21148530.504    86599657.007                  
  24074357.561   126511604.989    24074357.043    98580472.106                  
  22522491.438   118356488.755    22522490.812    92225835.313                  
  21828041.040   114707099.505    21828042.881    89382148.804                  
  25647989.727   134781068.312                                                  
  24726268.927   129937405.805                                                  
  26008590.989   136676058.302                                                  
  25070932.521   131748633.948                                                  
  26005469.181   136659676.579                                                  
  27122343.245   142528917.118                                                  
  24498941.647   128742796.020                                                  
  26314114.543   138281550.086                                                  
 21  9  2  6 16 49.0000000  0 16G 4G 7G 8G 9G16G21G27G30E 2E 3E 5E 8
                                E12E24E25E36
  21725910.086   114170425.073    21725911.283    88963968.230                  
  22006196.057   115643352.692    22006195.503    90111706.122                  
  20271869.965   106529354.597    20271872.360    83009876.624                  
  21148688.341   111137076.253    21148690.289    86600311.304                  
  24074838.113   126514130.408    24074837.595    98582439.960                  
  22522058.918   118354215.760    22522058.275    92224064.149                  
  21828570.517   114709881.954    21828572.358    89384316.945                  
  24751192.855   130068354.727    24751195.160   101351954.403                  
  25647818.685   134780169.487                                                  
  24726454.943   129938383.290                                                  
  26009111.853   136678795.626                                                  
  25070670.257   131747255.799                                                  
  26005684.199   136660806.547                                                  
  27122592.465   142530226.786                                                  
  24498994.646   128743074.516                                                  
  26313596.734   138278829.051                                                  
 21  9  2  6 16 50.0000000  0 16G 4G 7G 8G 9G16G21G27G30E 2E 3E 5E 8
                                E12E24E25E36
  21726435.899   114173188.238    21726437.079    88966121.343                  
  22005718.668   115640843.918    22005718.096    90109751.235                  
  20272060.574   106530356.356    20272063.004    83010657.211                  
  21148848.233   111137916.547    21148850.181    86600966.074                  
  24075318.682   126516655.738    24075318.164    98584407.755                  
  22521626.416   118351943.007    22521625.809    92222293.176                  
  21829100.084   114712664.800    21829101.924    89386485.398                  
  24750619.956   130065344.109    24750622.261   101349608.469                  
  25647647.643   134779270.672                                                  
  24726641.014   129939361.183                                                  
  26009632.788   136681533.026                                                  
  25070408.083   131745878.049                                                  
  26005899.306   136661936.941                                                  
  27122841.684   142531536.407                                                  
  24499047.628   128743352.990                                                  
  26313078.961   138276108.046                                                  
 21  9  2  6 16 51.0000000  0 16G 4G 7G 8G 9G16G21G27G30E 2E 3E 5E 8
                                E12E24E25E36
  21726961.785   114175951.781    21726962.982    88968274.753                  
  22005241.261   115638335.237    22005240.708    90107796.422                  
  20272251.344   106531358.720    20272253.738    83011438.278                  
  21149008.268   111138757.446    21149010.198    86601621.319                  
  24075799.216   126519181.007    24075798.698    98586375.492                  
  22521193.986   118349670.499    22521193.343    92220522.392                  
  21829629.704   114715448.043    21829631.562    89388654.156                  
  24750047.039   130062333.411    24750049.344   101347262.469                  
  25647476.600   134778371.859                                                  
  24726827.173   129940339.476                                                  
  26010153.706   136684270.523                                                  
  25070145.980   131744500.687                                                  
  26006114.485   136663067.745                                                  
  27123090.885   142532845.969                                                  
  24499100.628   128743631.437                                                  
  26312561.188   138273387.093                                                  
 21  9  2  6 16 52.0000000  0 21G 4G 7G 8G 9G16G21G27G30C24C26C33C34
                                C35E 2E 3E 5E 8E12E24E25E36
  21727487.742   114178715.703    21727488.921    88970428.461                  
  22004763.908   115635826.654    22004763.337    90105841.677                  
  20272442.185   106532361.688    20272444.597    83012219.810                  
  21149168.392   111139598.966    21149170.340    86602277.050                  
  24076279.732   126521706.179    24076279.214    98588343.161                  
  22520761.573   118347398.227    22520760.948    92218751.785                  
  21830159.413   114718231.681    21830161.253    89390823.223                  
  24749474.123   130059322.629    24749476.428   101344916.402                  
                 119200129.847                   119200129.847    22891126.201  
                 118171801.855                   118171801.855    22693651.000  
                 132613463.726                   132613463.726    25467055.666  
                 127102683.747                   127102683.747    24408735.013  
                 125953264.767                   125953264.767    24187999.973  
  25647305.558   134777473.070                                                  
  24727013.422   129941318.173                                                  
  26010674.660   136687008.085                                                  
  25069883.966   131743123.714                                                  
  26006329.753   136664198.969                                                  
  27123340.069   142534155.473                                                  
  24499153.591   128743909.886                                                  
  26312043.398   138270666.176                                                  
 21  9  2  6 16 53.0000000  0 21G 4G 7G 8G 9G16G21G27G30C24C26C33C34
                                C35E 2E 3E 5E 8E12E24E25E36
  21728013.788   114181480.000    21728014.967    88972582.456                  
  22004286.537   115633318.152    22004285.984    90103887.000                  
  20272633.151   106533365.257    20272635.564    83013001.812                  
  21149328.642   111140441.097    21149330.572    86602933.258                  
  24076760.266   126524231.281    24076759.748    98590310.773                  
  22520329.214   118345126.195    22520328.607    92216981.375                  
  21830689.194   114721015.715    21830691.034    89392992.603                  
  24748901.152   130056311.750    24748903.457   101342570.265                  
                 119199075.344                   119199075.344    22890923.691  
                 118172474.911                   118172474.911    22693780.247  
                 132614712.753                   132614712.753    25467295.522  
                 127099561.434                   127099561.434    24408135.400  
                 125955358.484                   125955358.484    24188402.062  
  25647134.534   134776574.289                                                  
  24727199.742   129942297.266                                                  
  26011195.595   136689745.731                                                  
  25069622.007   131741747.130                                                  
  26006545.093   136665330.607                                                  
  27123589.252   142535464.956                                                  
  24499206.573   128744188.322                                                  
  26311525.643   138267945.297                                                  
 21  9  2  6 16 54.0000000  0 21G 4G 7G 8G 9G16G21G27G30C24C26C33C34
                                C35E 2E 3E 5E 8E12E24E25E36
  21728539.888   114184244.676    21728541.067    88974736.747                  
  22003809.220   115630809.759    22003808.666    90101932.410                  
  20272824.261   106534369.461    20272826.655    83013784.308                  
  21149489.016   111141283.856    21149490.964    86603589.953                  
  24077240.764   126526756.300    24077240.246    98592278.320                  
  22519896.927   118342854.395    22519896.284    92215211.141                  
  21831219.064   114723800.140    21831220.904    89395162.284                  
  24748328.200   130053300.809    24748330.505   101340224.078                  
                 119198020.910                   119198020.910    22890721.199  
                 118173148.133                   118173148.133    22693909.547  
                 132615962.095                   132615962.095    25467535.432  
                 127096439.290                   127096439.290    24407535.841  
                 125957452.606                   125957452.606    24188804.222  
  25646963.491   134775675.526                                                  
  24727386.134   129943276.785                                                  
  26011716.584   136692483.448                                                  
  25069360.118   131740370.947                                                  
  26006760.522   136666462.661                                                  
  27123838.418   142536774.380                                                  
  24499259.555   128744466.739                                                  
  26311007.888   138265224.470                                                  
 21  9  2  6 16 55.0000000  0 21G 4G 7G 8G 9G16G21G27G30C24C26C33C34
                                C35E 2E 3E 5E 8E12E24E25E36
  21729066.041   114187009.710    21729067.220    88976891.321                  
  22003331.903   115628301.443    22003331.349    90099977.878                  
  20273015.459   106535374.266    20273017.854    83014567.273                  
  21149649.498   111142127.220    21149651.446    86604247.117                  
  24077721.244   126529281.238    24077720.726    98594245.804                  
  22519464.658   118340582.844    22519464.014    92213441.102                  
  21831749.006   114726584.970    21831750.846    89397332.281                  
  24747755.212   130050289.763    24747757.517   101337877.808                  
                 119196966.540                   119196966.540    22890518.726  
                 118173821.520                   118173821.520    22694038.847  
                 132617211.742                   132617211.742    25467775.413  
                 127093317.317                   127093317.317    24406936.299  
                 125959547.126                   125959547.126    24189206.436  
  25646792.485   134774776.767                                                  
  24727572.597   129944256.683                                                  
  26012237.556   136695221.257                                                  
  25069098.319   131738995.139                                                  
  26006976.022   136667595.130                                                  
  27124087.602   142538083.763                                                  
  24499312.536   128744745.136                                                  
  26310490.133   138262503.679                                                  
 21  9  2  6 16 56.0000000  0 21G 4G 7G 8G 9G16G21G27G30C24C26C33C34
                                C35E 2E 3E 5E 8E12E24E25E36
  21729592.284   114189775.134    21729593.463    88979046.195                  
  22002854.603   115625793.226    22002854.031    90098023.426                  
  20273206.783   106536379.655    20273209.177    83015350.695                  
  21149810.105   111142971.187    21149812.035    86604904.757                  
  24078201.706   126531806.090    24078201.188    98596213.219                  
  22519032.442   118338311.540    22519031.798    92211671.254                  
  21832279.001   114729370.193    21832280.859    89399502.583                  
  24747182.224   130047278.643    24747184.529   101335531.485                  
                 119195912.235                   119195912.235    22890316.234  
                 118174495.071                   118174495.071    22694168.201  
                 132618461.708                   132618461.708    25468015.465  
                 127090195.510                   127090195.510    24406336.776  
                 125961642.051                   125961642.051    24189608.757  
  25646621.442   134773878.015                                                  
  24727759.132   129945236.988                                                  
  26012758.563   136697959.144                                                  
  25068836.574   131737619.725                                                  
  26007191.594   136668728.032                                                  
  27124336.767   142539393.082                                                  
  24499365.518   128745023.518                                                  
  26309972.378   138259782.923                                                  
 21  9  2  6 16 57.0000000  0 21G 4G 7G 8G 9G16G21G27G30C24C26C33C34
                                C35E 2E 3E 5E 8E12E24E25E36
  21730118.598   114192540.931    21730119.777    88981201.363                  
  22002377.322   115623285.106    22002376.768    90096069.046                  
  20273398.214   106537385.657    20273400.626    83016134.593                  
  21149970.819   111143815.769    21149972.767    86605562.874                  
  24078682.133   126534330.866    24078681.615    98598180.579                  
  22518600.261   118336040.476    22518599.636    92209901.597                  
  21832809.085   114732155.800    21832810.944    89401673.188                  
  24746609.200   130044267.439    24746611.505   101333185.090                  
                 119194857.996                   119194857.996    22890113.796  
                 118175168.790                   118175168.790    22694297.573  
                 132619711.983                   132619711.983    25468255.553  
                 127087073.875                   127087073.875    24405737.306  
                 125963737.371                   125963737.371    24190011.131  
  25646450.418   134772979.276                                                  
  24727945.774   129946217.707                                                  
  26013279.588   136700697.113                                                  
  25068574.918   131736244.698                                                  
  26007407.255   136669861.337                                                  
  27124585.897   142540702.371                                                  
  24499418.500   128745301.892                                                  
  26309454.659   138257062.231                                                  
 21  9  2  6 16 58.0000000  0 21G 4G 7G 8G 9G16G21G27G30C24C26C33C34
                                C35E 2E 3E 5E 8E12E24E25E36
  21730644.984   114195307.101    21730646.163    88983356.820                  
  22001900.058   115620777.077    22001899.504    90094114.738                  
  20273589.752   106538392.249    20273592.182    83016918.948                  
  21150131.658   111144660.969    21150133.606    86606221.470                  
  24079162.577   126536855.563    24079162.059    98600147.875                  
  22518168.135   118333769.656    22518167.527    92208132.124                  
  21833339.241   114734941.812    21833341.100    89403844.104                  
  24746036.176   130041256.137    24746038.481   101330838.621                  
                 119193803.821                   119193803.821    22889911.340  
                 118175842.669                   118175842.669    22694426.980  
                 132620962.569                   132620962.569    25468495.713  
                 127083952.411                   127083952.411    24405137.853  
                 125965833.095                   125965833.095    24190413.595  
  25646279.394   134772080.551                                                  
  24728132.487   129947198.825                                                  
  26013800.613   136703435.159                                                  
  25068313.333   131734870.068                                                  
  26007623.006   136670995.046                                                  
  27124835.045   142542011.602                                                  
  24499471.463   128745580.251                                                  
  26308936.940   138254341.569                                                  
 21  9  2  6 16 59.0000000  0 21G 4G 7G 8G 9G16G21G27G30C24C26C33C34
                                C35E 2E 3E 5E 8E12E24E25E36
  21731171.441   114198073.649    21731172.620    88985512.570                  
  22001422.812   115618269.142    22001422.258    90092160.501                  
  20273781.433   106539399.452    20273783.845    83017703.786                  
  21150292.622   111145506.783    21150294.552    86606880.543                  
  24079643.004   126539380.171    24079642.486    98602115.101                  
  22517736.062   118331499.077    22517735.436    92206362.849                  
  21833869.487   114737728.224    21833871.345    89406015.332                  
  24745463.117   130038244.765    24745465.422   101328492.097                  
                 119192749.716                   119192749.716    22889708.919  
                 118176516.714                   118176516.714    22694556.441  
                 132622213.472                   132622213.472    25468735.944  
                 127080831.116                   127080831.116    24404538.437  
                 125967929.220                   125967929.220    24190816.149  
  25646108.387   134771181.841                                                  
  24728319.254   129948180.351                                                  
  26014321.656   136706173.278                                                  
  25068051.820   131733495.813                                                  
  26007838.828   136672129.187                                                  
  27125084.157   142543320.776                                                  
  24499524.427   128745858.577                                                  
  26308419.220   138251620.954                                                  
 21  9  2  6 17  0.0000000  0 21G 4G 7G 8G 9G16G21G27G30C24C26C33C34
                                C35E 2E 3E 5E 8E12E24E25E36
  21731697.951   114200840.566    21731699.167    88987668.610                  
  22000945.584   115615761.300    22000945.012    90090206.341                  
  20273973.221   106540407.273    20273975.615    83018489.097                  
  21150453.676   111146353.207    21150455.623    86607540.097                  
  24080123.395   126541904.707    24080122.876    98604082.269                  
  22517304.042   118329228.750    22517303.399    92204593.758                  
  21834399.804   114740515.028    21834401.644    89408186.868                  
  24744890.057   130035233.302    24744892.362   101326145.505                  
                 119191695.672                   119191695.672    22889506.499  
                 118177190.927                   118177190.927    22694685.902  
                 132623464.683                   132623464.683    25468976.247  
                 127077709.993                   127077709.993    24403939.056  
                 125970025.741                   125970025.741    24191218.756  
  25645937.363   134770283.137                                                  
  24728506.093   129949162.265                                                  
  26014842.734   136708911.485                                                  
  25067790.396   131732121.960                                                  
  26008054.721   136673263.759                                                  
  27125333.305   142544629.925                                                  
  24499577.409   128746136.907                                                  
  26307901.501   138248900.380                                                  
 21  9  2  6 17  1.0000000  0 21G 4G 7G 8G 9G16G21G27G30C24C26C33C34
                                C35E 2E 3E 5E 8E12E24E25E36
  21732224.552   114203607.860    21732225.767    88989824.942                  
  22000468.374   115613253.547    22000467.820    90088252.245                  
  20274165.116   106541415.708    20274167.529    83019274.886                  
  21150614.872   111147200.241    21150616.820    86608200.126                  
  24080603.785   126544429.154    24080603.267    98606049.368                  
  22516872.041   118326958.643    22516871.416    92202824.844                  
  21834930.174   114743302.223    21834932.032    89410358.710                  
  24744316.980   130032221.751    24744319.285   101323798.840                  
                 119190641.695                   119190641.695    22889304.097  
                 118177865.297                   118177865.297    22694815.417  
                 132624716.206                   132624716.206    25469216.585  
                 127074589.035                   127074589.035    24403339.712  
                 125972122.663                   125972122.663    24191621.434  
  25645766.356   134769384.450                                                  
  24728693.039   129950144.595                                                  
  26015363.813   136711649.769                                                  
  25067529.026   131730748.485                                                  
  26008270.704   136674398.730                                                  
  27125582.399   142545939.012                                                  
  24499630.355   128746415.216                                                  
  26307383.800   138246179.859                                                  
 21  9  2  6 17  2.0000000  0 21G 4G 7G 8G 9G16G21G27G30C24C26C33C34
                                C35E 2E 3E 5E 8E12E24E25E36
  21732751.241   114206375.526    21732752.420    88991981.567                  
  21999991.182   115610745.888    21999990.628    90086298.227                  
  20274357.119   106542424.730    20274359.513    83020061.144                  
  21150776.176   111148047.895    21150778.123    86608860.633                  
  24081084.158   126546953.525    24081083.640    98608016.410                  
  22516440.129   118324688.792    22516439.486    92201056.128                  
  21835460.634   114746089.823    21835462.492    89412530.868                  
  24743743.902   130029210.124    24743746.171   101321452.121                  
                 119189587.785                   119189587.785    22889101.694  
                 118178539.839                   118178539.839    22694944.967  
                 132625968.042                   132625968.042    25469456.977  
                 127071468.251                   127071468.251    24402740.402  
                 125974219.989                   125974219.989    24192024.220  
  25645595.332   134768485.770                                                  
  24728880.038   129951127.327                                                  
  26015884.891   136714388.140                                                  
  25067267.745   131729375.419                                                  
  26008486.759   136675534.121                                                  
  27125831.493   142547248.075                                                  
  24499683.319   128746693.516                                                  
  26306866.116   138243459.379                                                  
 21  9  2  6 17  3.0000000  0 21G 4G 7G 8G 9G16G21G27G30C24C26C33C34
                                C35E 2E 3E 5E 8E12E24E25E36
  21733277.984   114209143.579    21733279.163    88994138.487                  
  21999514.025   115608238.319    21999513.453    90084344.278                  
  20274549.247   106543434.348    20274551.659    83020847.859                  
  21150937.604   111148896.162    21150939.534    86609521.618                  
  24081564.513   126549477.805    24081563.995    98609983.382                  
  22516008.217   118322419.186    22516007.573    92199287.605                  
  21835991.183   114748877.816    21835993.041    89414703.328                  
  24743170.771   130026198.399    24743173.076   101319105.323                  
                 119188533.942                   119188533.942    22888899.327  
                 118179214.544                   118179214.544    22695074.518  
                 132627220.193                   132627220.193    25469697.441  
                 127068347.637                   127068347.637    24402141.111  
                 125976317.711                   125976317.711    24192427.059  
  25645424.325   134767587.107                                                  
  24729067.127   129952110.461                                                  
  26016406.024   136717126.579                                                  
  25067006.518   131728002.728                                                  
  26008702.902   136676669.917                                                  
  27126080.605   142548557.071                                                  
  24499736.264   128746971.796                                                  
  26306348.433   138240738.934                                                  
 21  9  2  6 17  4.0000000  0 21G 4G 7G 8G 9G16G21G27G30C24C26C33C34
                                C35E 2E 3E 5E 8E12E24E25E36
  21733804.781   114211911.988    21733805.978    88996295.691                  
  21999036.869   115605730.851    21999036.297    90082390.406                  
  20274741.482   106544444.564    20274743.876    83021635.040                  
  21151099.123   111149745.036    21151101.052    86610183.078                  
  24082044.869   126552002.003    24082044.332    98611950.294                  
  22515576.358   118320149.804    22515575.733    92197519.257                  
  21836521.804   114751666.208    21836523.644    89416876.101                  
  24742597.658   130023186.605    24742599.963   101316758.468                  
                 119187480.165                   119187480.165    22888696.961  
                 118179889.409                   118179889.409    22695204.122  
                 132628472.648                   132628472.648    25469937.958  
                 127065227.191                   127065227.191    24401541.873  
                 125978415.837                   125978415.837    24192829.988  
  25645253.319   134766688.449                                                  
  24729254.287   129953093.991                                                  
  26016927.138   136719865.109                                                  
  25066745.380   131726630.427                                                  
  26008919.117   136677806.141                                                  
  27126329.682   142549866.023                                                  
  24499789.228   128747250.066                                                  
  26305830.767   138238018.530                                                  
 21  9  2  6 17  5.0000000  0 21G 4G 7G 8G 9G16G21G27G30C24C26C33C34
                                C35E 2E 3E 5E 8E12E24E25E36
  21734331.685   114214680.790    21734332.864    88998453.195                  
  21998559.712   115603223.476    21998559.158    90080436.610                  
  20274933.842   106545455.405    20274936.236    83022422.706                  
  21151260.784   111150594.515    21151262.713    86610845.012                  
  24082525.188   126554526.124    24082524.652    98613917.140                  
  22515144.553   118317880.651    22515143.946    92195751.090                  
  21837052.478   114754454.994    21837054.336    89419049.176                  
  24742024.527   130020174.716    24742026.796   101314411.542                  
                 119186426.453                   119186426.453    22888494.594  
                 118180564.445                   118180564.445    22695333.762  
                 132629725.421                   132629725.421    25470178.546  
                 127062106.919                   127062106.919    24400942.654  
                 125980514.358                   125980514.358    24193232.988  
  25645082.312   134765789.801                                                  
  24729441.518   129954077.932                                                  
  26017448.288   136722603.707                                                  
  25066484.313   131725258.517                                                  
  26009135.404   136678942.777                                                  
  27126578.758   142551174.910                                                  
  24499842.156   128747528.317                                                  
  26305313.102   138235298.188                                                  
 21  9  2  6 17  6.0000000  0 21G 4G 7G 8G 9G16G21G27G30C24C26C33C34
                                C35E 2E 3E 5E 8E12E24E25E36
  21734858.642   114217449.973    21734859.821    89000611.004                  
  21998082.591   115600716.193    21998082.037    90078482.878                  
  20275126.327   106546466.862    20275128.721    83023210.855                  
  21151422.534   111151444.624    21151424.500    86611507.433                  
  24083005.507   126557050.172    24083004.953    98615883.930                  
  22514712.802   118315611.753    22514712.176    92193983.118                  
  21837583.242   114757244.157    21837585.100    89421222.555                  
  24741451.360   130017162.749    24741453.647   101312064.554                  
                 119185372.804                   119185372.804    22888292.263  
                 118181239.644                   118181239.644    22695463.419  
                 132630978.505                   132630978.505    25470419.188  
                 127058986.813                   127058986.813    24400343.487  
                 125982613.286                   125982613.286    24193636.059  
  25644911.306   134764891.153                                                  
  24729628.839   129955062.226                                                  
  26017969.438   136725342.401                                                  
  25066223.336   131723886.997                                                  
  26009351.780   136680079.831                                                  
  27126827.834   142552483.785                                                  
  24499895.120   128747806.561                                                  
  26304795.436   138232577.886                                                  
 21  9  2  6 17  7.0000000  0 21G 4G 7G 8G 9G16G21G27G30C24C26C33C34
                                C35E 2E 3E 5E 8E12E24E25E36
  21735385.653   114220219.546    21735386.868    89002769.113                  
  21997605.506   115598209.000    21997604.935    90076529.224                  
  20275318.901   106547478.930    20275321.296    83023999.481                  
  21151584.445   111152295.344    21151586.375    86612170.332                  
  24083485.773   126559574.124    24083485.255    98617850.643                  
  22514281.104   118313343.111    22514280.461    92192215.340                  
  21838114.077   114760033.717    21838115.935    89423396.238                  
  24740878.175   130014150.696    24740880.481   101309717.505                  
                 119184319.225                   119184319.225    22888089.932  
                 118181915.009                   118181915.009    22695593.113  
                 132632231.900                   132632231.900    25470659.884  
                 127055866.879                   127055866.879    24399744.321  
                 125984712.604                   125984712.604    24194039.220  
  25644740.299   134763992.513                                                  
  24729816.196   129956046.903                                                  
  26018490.606   136728081.172                                                  
  25065962.413   131722515.864                                                  
  26009568.245   136681217.306                                                  
  27127076.893   142553792.596                                                  
  24499948.066   128748084.788                                                  
  26304277.806   138229857.667                                                  
 21  9  2  6 17  8.0000000  0 21G 4G 7G 8G 9G16G21G27G30C24C26C33C34
                                C35E 2E 3E 5E 8E12E24E25E36
  21735912.754   114222989.408    21735913.933    89004927.444                  
  21997128.421   115595701.910    21997127.832    90074575.645                  
  20275511.601   106548491.535    20275513.995    83024788.519                  
  21151746.446   111153146.681    21151748.376    86612833.710                  
  24083966.057   126562098.016    24083965.538    98619817.313                  
  22513849.424   118311074.665    22513848.799    92190447.722                  
  21838645.001   114762823.694    21838646.841    89425570.246                  
  24740304.973   130011138.558    24740307.278   101307370.382                  
                 119183265.711                   119183265.711    22887887.619  
                 118182590.540                   118182590.540    22695722.842  
                 132633485.606                   132633485.606    25470900.633  
                 127052747.116                   127052747.116    24399145.209  
                 125986812.332                   125986812.332    24194442.435  
  25644569.292   134763093.938                                                  
  24730003.696   129957032.191                                                  
  26019011.774   136730819.989                                                  
  25065701.579   131721145.142                                                  
  26009784.764   136682355.191                                                  
  27127325.933   142555101.375                                                  
  24500000.994   128748362.988                                                  
  26303760.141   138227137.375                                                  
 21  9  2  6 17  9.0000000  0 21G 4G 7G 8G 9G16G21G27G30C24C26C33C34
                                C35E 2E 3E 5E 8E12E24E25E36
  21736439.926   114225759.703    21736441.105    89007086.116                  
  21996651.336   115593194.911    21996650.782    90072622.141                  
  20275704.408   106549504.765    20275706.820    83025578.054                  
  21151908.554   111153998.627    21151910.501    86613497.567                  
  24084446.322   126564621.809    24084445.804    98621783.907                  
  22513417.798   118308806.492    22513417.173    92188680.317                  
  21839175.979   114765614.055    21839177.837    89427744.551                  
  24739731.788   130008126.341    24739734.076   101305023.200                  
                 119182212.263                   119182212.263    22887685.324  
                 118183266.233                   118183266.233    22695852.607  
                 132634739.620                   132634739.620    25471141.454  
                 127049627.528                   127049627.528    24398546.114  
                 125988912.453                   125988912.453    24194845.756  
  25644398.304   134762195.331                                                  
  24730191.249   129958017.714                                                  
  26019532.978   136733558.910                                                  
  25065440.798   131719774.796                                                  
  26010001.373   136683493.505                                                  
  27127574.974   142556410.077                                                  
  24500053.940   128748641.180                                                  
  26303242.529   138224417.206                                                  
 21  9  2  6 17 10.0000000  0 21G 4G 7G 8G 9G16G21G27G30C24C26C33C34
                                C35E 2E 3E 5E 8E12E24E25E36
  21736967.151   114228530.368    21736968.348    89009245.074                  
  21996174.305   115590688.008    21996173.733    90070668.711                  
  20275897.339   106550518.608    20275899.734    83026368.059                  
  21152070.804   111154851.187    21152072.734    86614161.897                  
  24084926.588   126567145.520    24084926.052    98623750.433                  
  22512986.243   118306538.562    22512985.600    92186913.097                  
  21839707.046   114768404.810    21839708.905    89429919.165                  
  24739158.568   130005114.035    24739160.855   101302675.949                  
                 119181158.879                   119181158.879    22887483.029  
                 118183942.089                   118183942.089    22695982.407  
                 132635993.949                   132635993.949    25471382.347  
                 127046508.106                   127046508.106    24397947.055  
                 125991012.978                   125991012.978    24195249.132  
  25644227.315   134761296.741                                                  
  24730378.856   129959003.668                                                  
  26020054.199   136736297.915                                                  
  25065180.125   131718404.842                                                  
  26010218.088   136684632.232                                                  
  27127824.014   142557718.750                                                  
  24500106.886   128748919.360                                                  
  26302724.881   138221697.090                                                  
 21  9  2  6 17 11.0000000  0 21G 4G 7G 8G 9G16G21G27G30C24C26C33C34
                                C35E 2E 3E 5E 8E12E24E25E36
  21737494.484   114231301.406    21737495.663    89011404.324                  
  21995697.255   115588181.200    21995696.702    90068715.351                  
  20276090.378   106551533.070    20276092.773    83027158.552                  
  21152233.162   111155704.361    21152235.092    86614826.708                  
  24085406.800   126569669.149    24085406.282    98625716.894                  
  22512554.706   118304270.855    22512554.081    92185146.055                  
  21840238.185   114771195.954    21840240.044    89432094.083                  
  24738585.312   130002101.645    24738587.617   101300328.636                  
                 119180105.562                   119180105.562    22887280.733  
                 118184618.117                   118184618.117    22696112.226  
                 132637248.591                   132637248.591    25471623.275  
                 127043388.855                   127043388.855    24397348.032  
                 125993113.898                   125993113.898    24195652.596  
  25644056.326   134760398.163                                                  
  24730566.552   129959990.024                                                  
  26020575.421   136739036.991                                                  
  25064919.487   131717035.271                                                  
  26010434.839   136685771.370                                                  
  27128073.037   142559027.356                                                  
  24500159.796   128749197.516                                                  
  26302207.287   138218976.991                                                  
 21  9  2  6 17 12.0000000  0 21G 4G 7G 8G 9G16G21G27G30C24C26C33C34
                                C35E 2E 3E 5E 8E12E24E25E36
  21738021.852   114234072.816    21738023.032    89013563.862                  
  21995220.260   115585674.492    21995219.706    90066762.074                  
  20276283.543   106552548.122    20276285.937    83027949.499                  
  21152395.627   111156558.136    21152397.557    86615491.989                  
  24085887.012   126572192.695    24085886.494    98627683.292                  
  22512123.223   118302003.413    22512122.598    92183379.214                  
  21840769.396   114773987.501    21840771.236    89434269.312                  
  24738012.056   129999089.176    24738014.361   101297981.253                  
                 119179052.312                   119179052.312    22887078.474  
                 118185294.305                   118185294.305    22696242.080  
                 132638503.539                   132638503.539    25471864.274  
                 127040269.772                   127040269.772    24396749.062  
                 125995215.220                   125995215.220    24196056.132  
  25643885.320   134759499.597                                                  
  24730754.338   129960976.782                                                  
  26021096.678   136741776.152                                                  
  25064658.939   131715666.092                                                  
  26010651.698   136686910.922                                                  
  27128322.060   142560335.950                                                  
  24500212.742   128749475.664                                                  
  26301689.657   138216256.945                                                  
 21  9  2  6 17 13.0000000  0 21G 4G 7G 8G 9G16G21G27G30C24C26C33C34
                                C35E 2E 3E 5E 8E12E24E25E36
  21738549.328   114236844.579    21738550.507    89015723.664                  
  21994743.264   115583167.845    21994742.692    90064808.832                  
  20276476.814   106553563.800    20276479.226    83028740.938                  
  21152558.200   111157412.594    21152560.147    86616157.828                  
  24086367.224   126574716.227    24086366.706    98629649.714                  
  22511691.776   118299736.208    22511691.168    92181612.554                  
  21841300.677   114776779.423    21841302.536    89436444.829                  
  24737438.800   129996076.644    24737441.087   101295633.840                  
                 119177999.129                   119177999.129    22886876.215  
                 118185970.661                   118185970.661    22696371.952  
                 132639758.800                   132639758.800    25472105.345  
                 127037150.867                   127037150.867    24396150.092  
                 125997316.937                   125997316.937    24196459.740  
  25643714.331   134758601.098                                                  
  24730942.177   129961963.949                                                  
  26021617.935   136744515.183                                                  
  25064398.480   131714297.152                                                  
  26010868.628   136688050.844                                                  
  27128571.065   142561644.450                                                  
  24500265.652   128749753.846                                                  
  26301172.063   138213536.958                                                  
 21  9  2  6 17 14.0000000  0 21G 4G 7G 8G 9G16G21G27G30C24C26C33C34
                                C35E 2E 3E 5E 8E12E24E25E36
  21739076.839   114239616.743    21739078.019    89017883.794                  
  21994266.286   115580661.327    21994265.714    90062855.703                  
  20276670.193   106554580.069    20276672.605    83029532.837                  
  21152720.897   111158267.593    21152722.845    86616824.059                  
  24086847.401   126577239.606    24086846.883    98631615.979                  
  22511260.399   118297469.253    22511259.774    92179846.098                  
  21841832.048   114779571.753    21841833.907    89438620.668                  
  24736865.508   129993064.005    24736867.795   101293286.328                  
                 119176946.012                   119176946.012    22886673.973  
                 118186647.181                   118186647.181    22696501.877  
                 132641014.376                   132641014.376    25472346.452  
                 127034032.128                   127034032.128    24395551.176  
                 125999419.058                   125999419.058    24196863.437  
  25643543.342   134757702.558                                                  
  24731130.123   129962951.517                                                  
  26022139.192   136747254.509                                                  
  25064138.075   131712928.757                                                  
  26011085.647   136689191.235                                                  
  27128820.052   142562952.938                                                  
  24500318.580   128750031.962                                                  
  26300654.487   138210817.003                                                  
 21  9  2  6 17 15.0000000  0 21G 4G 7G 8G 9G16G21G27G30C24C26C33C34
                                C35E 2E 3E 5E 8E12E24E25E36
  21739604.422   114242389.275    21739605.620    89020044.206                  
  21993789.326   115578154.909    21993788.754    90060902.645                  
  20276863.696   106555596.941    20276866.126    83030325.204                  
  21152883.720   111159123.219    21152885.667    86617490.778                  
  24087327.559   126579762.909    24087327.041    98633582.196                  
  22510829.059   118295202.544    22510828.416    92178079.831                  
  21842363.473   114782364.480    21842365.332    89440796.821                  
  24736292.198   129990051.277    24736294.503   101290938.750                  
                 119175892.960                   119175892.960    22886471.767  
                 118187323.863                   118187323.863    22696631.839  
                 132642270.257                   132642270.257    25472587.648  
                 127030913.564                   127030913.564    24394952.296  
                 126001521.577                   126001521.577    24197267.206  
  25643372.354   134756804.018                                                  
  24731318.123   129963939.493                                                  
  26022660.503   136749993.884                                                  
  25063877.759   131711560.746                                                  
  26011302.720   136690332.043                                                  
  27129069.038   142564261.364                                                  
  24500371.508   128750310.062                                                  
  26300136.892   138208097.124                                                  
 21  9  2  6 17 16.0000000  0 21G 4G 7G 8G 9G16G21G27G30C24C26C33C34
                                C35E 2E 3E 5E 8E12E24E25E36
  21740132.095   114245162.179    21740133.274    89022204.910                  
  21993312.384   115575648.582    21993311.812    90058949.663                  
  20277057.325   106556614.414    20277059.719    83031118.040                  
  21153046.667   111159979.462    21153048.597    86618157.981                  
  24087807.718   126582286.124    24087807.200    98635548.335                  
  22510397.754   118292936.085    22510397.147    92176313.757                  
  21842895.005   114785157.605    21842896.864    89442973.282                  
  24735718.888   129987038.482    24735721.175   101288591.118                  
                 119174839.977                   119174839.977    22886269.543  
                 118188000.716                   118188000.716    22696761.818  
                 132643526.452                   132643526.452    25472828.880  
                 127027795.168                   127027795.168    24394353.433  
                 126003624.495                   126003624.495    24197671.045  
  25643201.383   134755905.505                                                  
  24731506.195   129964927.859                                                  
  26023181.796   136752733.356                                                  
  25063617.497   131710193.138                                                  
  26011519.882   136691473.265                                                  
  27129318.025   142565569.758                                                  
  24500424.418   128750588.157                                                  
  26299619.316   138205377.272                                                  
 21  9  2  6 17 17.0000000  0 21G 4G 7G 8G 9G16G21G27G30C24C26C33C34
                                C35E 2E 3E 5E 8E12E24E25E36
  21740659.838   114247935.462    21740661.018    89024365.910                  
  21992835.460   115573142.349    21992834.906    90056996.754                  
  20277251.061   106557632.468    20277253.455    83031911.329                  
  21153209.722   111160836.312    21153211.652    86618825.656                  
  24088287.858   126584809.265    24088287.340    98637514.417                  
  22509966.521   118290669.863    22509965.878    92174547.874                  
  21843426.573   114787951.124    21843428.431    89445150.050                  
  24735145.543   129984025.592    24735147.848   101286243.414                  
                 119173787.059                   119173787.059    22886067.337  
                 118188677.730                   118188677.730    22696891.815  
                 132644782.956                   132644782.956    25473070.183  
                 127024676.940                   127024676.940    24393754.625  
                 126005727.811                   126005727.811    24198074.957  
  25643030.394   134755006.997                                                  
  24731694.355   129965916.648                                                  
  26023703.125   136755472.910                                                  
  25063357.324   131708825.917                                                  
  26011737.134   136692614.906                                                  
  27129566.977   142566878.109                                                  
  24500477.346   128750866.231                                                  
  26299101.758   138202657.449                                                  
 21  9  2  6 17 18.0000000  0 21G 4G 7G 8G 9G16G21G27G30C24C26C33C34
                                C35E 2E 3E 5E 8E12E24E25E36
  21741187.636   114250709.114    21741188.815    89026527.200                  
  21992358.554   115570636.206    21992358.000    90055043.919                  
  20277444.904   106558651.112    20277447.298    83032705.077                  
  21153372.884   111161693.772    21153374.814    86619493.809                  
  24088767.981   126587332.333    24088767.463    98639480.442                  
  22509535.324   118288403.891    22509534.681    92172782.179                  
  21843958.266   114790745.047    21843960.106    89447327.133                  
  24734572.197   129981012.618    24734574.502   101283895.640                  
                 119172734.207                   119172734.207    22885865.167  
                 118189354.909                   118189354.909    22697021.884  
                 132646039.773                   132646039.773    25473311.540  
                 127021558.890                   127021558.890    24393155.816  
                 126007831.532                   126007831.532    24198478.958  
  25642859.423   134754108.507                                                  
  24731882.588   129966905.824                                                  
  26024224.454   136758212.543                                                  
  25063097.222   131707459.089                                                  
  26011954.457   136693756.961                                                  
  27129815.946   142568186.406                                                  
  24500530.239   128751144.288                                                  
  26298584.199   138199937.688                                                  
 21  9  2  6 17 19.0000000  0 21G 4G 7G 8G 9G16G21G27G30C24C26C33C34
                                C35E 2E 3E 5E 8E12E24E25E36
  21741715.522   114253483.142    21741716.702    89028688.778                  
  21991881.683   115568130.161    21991881.111    90053091.156                  
  20277638.854   106559670.360    20277641.267    83033499.297                  
  21153536.154   111162551.843    21153538.101    86620162.438                  
  24089248.086   126589855.313    24089247.568    98641446.405                  
  22509104.162   118286138.159    22509103.519    92171016.679                  
  21844489.976   114793539.340    21844491.835    89449504.504                  
  24733998.834   129977999.562    24734001.121   101281547.808                  
                 119171681.422                   119171681.422    22885662.979  
                 118190032.257                   118190032.257    22697151.953  
                 132647296.899                   132647296.899    25473552.968  
