% program   : rnx2rtkp ver.2.4.3 b31
% inp file  : ngs/21_08_29_00_11_03_sdrc.obs
% inp file  : ngs/21_08_29_00_11_03_sdrc_P1.obs
% inp file  : ngs/21_08_29_00_11_03_brdc.nav
% obs start : 2021/08/29 00:00:00.0 GPST (week2173      0.0s)
% obs end   : 2021/08/29 00:59:59.0 GPST (week2173   3599.0s)
% ref pos   :  -984722.2920  -4485919.5240   4412120.1800
%
% (x/y/z-ecef=WGS84,Q=1:fix,2:float,3:sbas,4:dgps,5:single,6:ppp,ns=# of satellites)
%  GPST              x-ecef(m)      y-ecef(m)      z-ecef(m)   Q  ns   sdx(m)   sdy(m)   sdz(m)  sdxy(m)  sdyz(m)  sdzx(m) age(s)  ratio
2173    638.000  -1050083.7911  -4468051.1071   4415386.5549   2   8   0.4141   0.8766   1.1013   0.4167  -0.8160  -0.3140 -30.00    1.6
2173    639.000  -1050083.7600  -4468050.9034   4415386.4426   2   8   0.2947   0.6236   0.7834   0.2967  -0.5806  -0.2242 -29.00    1.5
2173    640.000  -1050083.7466  -4468050.8631   4415386.3492   2   8   0.2413   0.5106   0.6413   0.2429  -0.4753  -0.1837 -28.00    1.5
2173    641.000  -1050083.7334  -4468050.7994   4415386.2990   2   8   0.2093   0.4429   0.5563   0.2107  -0.4123  -0.1593 -27.00    1.5
2173    642.000  -1050083.7546  -4468050.8369   4415386.3446   2   8   0.1874   0.3967   0.4982   0.1887  -0.3692  -0.1426 -26.00    1.5
2173    643.000  -1050083.7562  -4468050.8784   4415386.3585   2   8   0.1713   0.3625   0.4552   0.1724  -0.3374  -0.1303 -25.00    1.4
2173    644.000  -1050083.7378  -4468050.8677   4415386.3679   2   8   0.1587   0.3358   0.4217   0.1597  -0.3126  -0.1207 -24.00    1.4
2173    645.000  -1050083.7636  -4468050.8832   4415386.3383   2   8   0.1485   0.3143   0.3947   0.1495  -0.2925  -0.1129 -23.00    1.4
2173    646.000  -1050083.7627  -4468050.8844   4415386.3333   2   8   0.1400   0.2964   0.3722   0.1410  -0.2759  -0.1065 -22.00    1.3
2173    647.000  -1050083.7597  -4468050.8797   4415386.3383   2   8   0.1329   0.2813   0.3532   0.1337  -0.2618  -0.1010 -21.00    1.3
2173    648.000  -1050083.7582  -4468050.8779   4415386.3160   2   8   0.1267   0.2683   0.3367   0.1275  -0.2496  -0.0963 -20.00    1.3
2173    649.000  -1050083.7590  -4468050.9093   4415386.3383   2   8   0.1213   0.2568   0.3224   0.1221  -0.2389  -0.0922 -19.00    1.3
2173    650.000  -1050083.7616  -4468050.9035   4415386.3445   2   8   0.1165   0.2468   0.3096   0.1173  -0.2295  -0.0886 -18.00    1.2
2173    651.000  -1050083.7504  -4468050.8710   4415386.3189   2   8   0.1123   0.2377   0.2983   0.1130  -0.2211  -0.0854 -17.00    1.2
2173    652.000  -1050083.7542  -4468050.8782   4415386.3245   2   8   0.1085   0.2296   0.2880   0.1092  -0.2135  -0.0825 -16.00    1.2
2173    653.000  -1050083.7467  -4468050.8754   4415386.3171   2   8   0.1050   0.2223   0.2787   0.1057  -0.2067  -0.0799 -15.00    1.1
2173    654.000  -1050083.7496  -4468050.8912   4415386.3375   2   8   0.1018   0.2155   0.2703   0.1025  -0.2004  -0.0775 -14.00    1.1
2173    655.000  -1050083.7485  -4468050.8924   4415386.3470   2   8   0.0989   0.2094   0.2625   0.0995  -0.1946  -0.0753 -13.00    1.1
2173    656.000  -1050083.7573  -4468050.9098   4415386.3480   2   8   0.0962   0.2037   0.2553   0.0969  -0.1893  -0.0733 -12.00    1.0
2173    657.000  -1050083.7634  -4468050.9186   4415386.3492   2   8   0.0937   0.1984   0.2486   0.0944  -0.1843  -0.0714 -11.00    1.0
2173    658.000  -1050083.7631  -4468050.9141   4415386.3313   2   8   0.0914   0.1935   0.2424   0.0920  -0.1798  -0.0697 -10.00    1.0
2173    659.000  -1050083.7676  -4468050.9138   4415386.3350   2   8   0.0893   0.1890   0.2366   0.0899  -0.1755  -0.0680  -9.00    1.0
2173    660.000  -1050083.7631  -4468050.8997   4415386.3175   2   8   0.0873   0.1847   0.2311   0.0879  -0.1714  -0.0665  -8.00    1.1
2173    661.000  -1050083.7546  -4468050.8822   4415386.3103   2   8   0.0854   0.1807   0.2260   0.0860  -0.1676  -0.0651  -7.00    1.1
2173    662.000  -1050083.7540  -4468050.8819   4415386.3027   2   8   0.0837   0.1769   0.2212   0.0842  -0.1641  -0.0637  -6.00    1.2
2173    663.000  -1050083.7516  -4468050.8697   4415386.2791   2   8   0.0820   0.1734   0.2166   0.0825  -0.1607  -0.0624  -5.00    1.3
2173    664.000  -1050083.7495  -4468050.8692   4415386.2841   2   8   0.0804   0.1700   0.2122   0.0809  -0.1575  -0.0612  -4.00    1.4
2173    665.000  -1050083.7515  -4468050.8576   4415386.2538   2   8   0.0789   0.1668   0.2081   0.0794  -0.1544  -0.0601  -3.00    1.5
2173    666.000  -1050083.7427  -4468050.8399   4415386.2331   2   8   0.0776   0.1638   0.2042   0.0780  -0.1515  -0.0590  -2.00    1.6
2173    667.000  -1050083.7406  -4468050.8287   4415386.2151   2   8   0.0762   0.1609   0.2005   0.0766  -0.1488  -0.0579  -1.00    1.6
2173    668.000  -1050083.7376  -4468050.8161   4415386.1994   2   8   0.0750   0.1582   0.1970   0.0754  -0.1462  -0.0569   0.00    1.6
2173    669.000  -1050083.7571  -4468051.0566   4415386.3038   2   8   0.4125   0.8736   1.0988   0.4146  -0.8127  -0.3133   0.00    1.2
2173    670.000  -1050083.7196  -4468050.7101   4415385.7569   2   8   0.4124   0.8736   1.0988   0.4146  -0.8127  -0.3133   0.00    1.4
2173    671.000  -1050083.7157  -4468050.4967   4415385.9342   2   8   0.4124   0.8735   1.0988   0.4145  -0.8126  -0.3133   0.00    1.4
2173    672.000  -1050083.7475  -4468050.6361   4415386.2833   2   8   0.4124   0.8735   1.0987   0.4144  -0.8125  -0.3132   0.00    1.3
2173    673.000  -1050083.5717  -4468050.5733   4415386.2370   2   8   0.4123   0.8734   1.0987   0.4144  -0.8124  -0.3132   0.00    1.2
2173    674.000  -1050083.7866  -4468051.0451   4415386.8735   2   8   0.4123   0.8733   1.0987   0.4143  -0.8124  -0.3132   0.00    1.2
2173    675.000  -1050083.7185  -4468050.7526   4415386.3981   2   8   0.4123   0.8733   1.0986   0.4143  -0.8123  -0.3132   0.00    1.1
2173    676.000  -1050083.6251  -4468050.7143   4415386.4390   2   8   0.4122   0.8732   1.0986   0.4142  -0.8122  -0.3131   0.00    1.0
2173    677.000  -1050083.7943  -4468050.9670   4415386.6961   2   8   0.4122   0.8732   1.0986   0.4142  -0.8122  -0.3131   0.00    1.0
2173    678.000  -1050083.5928  -4468051.0192   4415386.2561   2   8   0.4121   0.8731   1.0985   0.4141  -0.8121  -0.3131   0.00    1.0
2173    679.000  -1050083.8267  -4468051.1727   4415386.8426   2   8   0.4121   0.8731   1.0985   0.4141  -0.8120  -0.3131   0.00    1.1
2173    680.000  -1050083.5629  -4468050.5781   4415386.0741   2   8   0.4121   0.8730   1.0985   0.4140  -0.8119  -0.3130   0.00    1.0
2173    681.000  -1050083.8415  -4468051.2592   4415386.4405   2   8   0.4120   0.8730   1.0984   0.4140  -0.8119  -0.3130   0.00    1.0
2173    682.000  -1050083.7564  -4468051.2834   4415386.6163   2   8   0.4120   0.8729   1.0984   0.4139  -0.8118  -0.3130   0.00    1.0
2173    683.000  -1050083.6943  -4468051.1679   4415386.6295   2   8   0.4120   0.8729   1.0984   0.4139  -0.8117  -0.3129   0.00    1.2
2173    684.000  -1050083.7841  -4468051.0438   4415386.5769   2   8   0.4119   0.8728   1.0984   0.4138  -0.8116  -0.3129   0.00    1.1
2173    685.000  -1050083.6475  -4468051.0826   4415386.6897   2   8   0.4119   0.8728   1.0983   0.4138  -0.8116  -0.3129   0.00    1.3
2173    686.000  -1050083.6518  -4468050.5249   4415386.0482   2   8   0.4119   0.8727   1.0983   0.4137  -0.8115  -0.3129   0.00    1.2
2173    687.000  -1050083.6506  -4468050.6805   4415386.5939   2   8   0.4118   0.8727   1.0983   0.4136  -0.8114  -0.3128   0.00    1.0
2173    688.000  -1050083.5649  -4468050.7152   4415386.1246   2   8   0.4118   0.8726   1.0982   0.4136  -0.8114  -0.3128   0.00    1.1
2173    689.000  -1050083.6226  -4468050.8881   4415386.5982   2   8   0.4118   0.8726   1.0982   0.4135  -0.8113  -0.3128   0.00    1.1
2173    690.000  -1050083.6505  -4468050.8596   4415386.9373   2   8   0.4117   0.8725   1.0982   0.4135  -0.8112  -0.3128   0.00    1.0
2173    691.000  -1050083.7153  -4468050.8453   4415386.6761   2   8   0.4117   0.8725   1.0981   0.4134  -0.8111  -0.3127   0.00    1.1
2173    692.000  -1050083.6637  -4468050.8431   4415386.6314   2   8   0.4117   0.8724   1.0981   0.4134  -0.8111  -0.3127   0.00    1.1
2173    693.000  -1050083.6276  -4468050.9649   4415386.5680   2   8   0.4116   0.8723   1.0981   0.4133  -0.8110  -0.3127   0.00    1.0
2173    694.000  -1050083.5769  -4468050.8560   4415386.4577   2   8   0.4116   0.8723   1.0980   0.4133  -0.8109  -0.3127   0.00    1.0
2173    695.000  -1050083.5848  -4468050.8447   4415386.2998   2   8   0.2925   0.6197   0.7798   0.2939  -0.5761  -0.2231   1.00    1.0
2173    696.000  -1050083.5604  -4468050.7031   4415386.2389   2   8   0.2393   0.5067   0.6374   0.2404  -0.4709  -0.1827   2.00    1.0
2173    697.000  -1050083.6059  -4468050.7637   4415386.3004   2   8   0.2074   0.4391   0.5522   0.2084  -0.4080  -0.1584   3.00    1.1
2173    698.000  -1050083.6471  -4468050.8111   4415386.2834   2   8   0.1856   0.3929   0.4938   0.1865  -0.3649  -0.1418   4.00    1.1
2173    699.000  -1050083.6530  -4468050.8319   4415386.2921   2   8   0.1695   0.3587   0.4507   0.1703  -0.3330  -0.1294   5.00    1.1
2173    700.000  -1050083.6691  -4468050.8376   4415386.3148   2   8   0.1570   0.3322   0.4171   0.1577  -0.3083  -0.1198   6.00    1.1
2173    701.000  -1050083.6545  -4468050.8231   4415386.3394   2   8   0.1469   0.3108   0.3901   0.1475  -0.2883  -0.1121   7.00    1.1
2173    702.000  -1050083.6623  -4468050.8057   4415386.3129   2   8   0.1385   0.2930   0.3677   0.1391  -0.2718  -0.1056   8.00    1.1
2173    703.000  -1050083.6724  -4468050.8223   4415386.3159   2   8   0.1315   0.2781   0.3488   0.1320  -0.2578  -0.1002   9.00    1.1
2173    704.000  -1050083.6736  -4468050.7922   4415386.2838   2   8   0.1254   0.2652   0.3325   0.1259  -0.2458  -0.0955  10.00    1.1
2173    705.000  -1050083.6801  -4468050.7931   4415386.2659   2   8   0.1201   0.2540   0.3184   0.1206  -0.2354  -0.0914  11.00    1.1
2173    706.000  -1050083.6809  -4468050.7907   4415386.2742   2   8   0.1155   0.2442   0.3060   0.1159  -0.2262  -0.0878  12.00    1.1
2173    707.000  -1050083.6799  -4468050.8051   4415386.2622   2   8   0.1113   0.2355   0.2949   0.1117  -0.2180  -0.0846  13.00    1.1
2173    708.000  -1050083.7035  -4468051.0666   4415386.2003   2   8   0.4111   0.8716   1.0975   0.4125  -0.8099  -0.3123   0.00    1.0
2173    709.000  -1050083.7920  -4468051.2413   4415386.5069   2   8   0.4111   0.8715   1.0975   0.4125  -0.8098  -0.3123   0.00    1.0
2173    710.000  -1050083.5929  -4468050.9929   4415385.8938   2   8   0.4110   0.8715   1.0975   0.4124  -0.8097  -0.3122   0.00    1.0
2173    711.000  -1050083.7995  -4468051.2034   4415386.5723   2   8   0.4110   0.8714   1.0974   0.4124  -0.8097  -0.3122   0.00    1.1
2173    712.000  -1050083.8971  -4468051.0601   4415386.3798   2   8   0.4110   0.8713   1.0974   0.4123  -0.8096  -0.3122   0.00    1.1
2173    713.000  -1050083.8853  -4468051.3582   4415386.4040   2   8   0.4109   0.8713   1.0974   0.4123  -0.8095  -0.3122   0.00    1.2
2173    714.000  -1050083.8444  -4468051.3731   4415386.7885   2   8   0.4109   0.8712   1.0973   0.4122  -0.8094  -0.3121   0.00    1.2
2173    715.000  -1050083.6754  -4468051.1121   4415386.1417   2   8   0.4109   0.8712   1.0973   0.4122  -0.8094  -0.3121   0.00    1.1
2173    716.000  -1050083.8579  -4468051.2452   4415386.7284   2   8   0.4108   0.8711   1.0973   0.4121  -0.8093  -0.3121   0.00    1.1
2173    717.000  -1050083.8363  -4468050.8215   4415385.8951   2   8   0.4108   0.8711   1.0972   0.4121  -0.8092  -0.3120   0.00    1.0
2173    718.000  -1050083.6788  -4468050.9117   4415386.2245   2   8   0.4108   0.8710   1.0972   0.4120  -0.8091  -0.3120   0.00    1.1
2173    719.000  -1050083.8254  -4468051.2146   4415386.3633   2   8   0.4107   0.8710   1.0972   0.4120  -0.8091  -0.3120   0.00    1.1
2173    720.000  -1050083.6387  -4468050.8600   4415385.8887   2   8   0.4107   0.8709   1.0971   0.4119  -0.8090  -0.3120   0.00    1.0
2173    721.000  -1050083.6060  -4468050.7854   4415386.4437   2   8   0.4107   0.8709   1.0971   0.4118  -0.8089  -0.3119   0.00    1.1
2173    722.000  -1050083.7951  -4468050.9648   4415386.3477   2   8   0.4106   0.8708   1.0970   0.4118  -0.8088  -0.3119   0.00    1.0
2173    723.000  -1050083.6571  -4468050.6077   4415386.0280   2   8   0.4106   0.8708   1.0970   0.4117  -0.8088  -0.3119   0.00    1.1
2173    724.000  -1050083.6874  -4468050.8776   4415386.3375   2   8   0.4106   0.8707   1.0970   0.4117  -0.8087  -0.3119   0.00    1.0
2173    725.000  -1050083.7269  -4468050.8500   4415386.2073   2   8   0.2918   0.6185   0.7791   0.2928  -0.5745  -0.2226   1.00    1.0
2173    726.000  -1050083.7425  -4468050.9285   4415386.2487   2   8   0.2387   0.5057   0.6368   0.2395  -0.4696  -0.1823   2.00    1.0
2173    727.000  -1050083.7560  -4468050.9771   4415386.2012   2   8   0.2069   0.4383   0.5517   0.2076  -0.4068  -0.1580   3.00    1.0
2173    728.000  -1050083.7553  -4468051.0031   4415386.1878   2   8   0.1851   0.3921   0.4934   0.1858  -0.3639  -0.1414   4.00    1.0
2173    729.000  -1050083.7908  -4468051.0724   4415386.2228   2   8   0.1691   0.3580   0.4503   0.1696  -0.3321  -0.1291   5.00    1.1
2173    730.000  -1050083.8085  -4468051.0727   4415386.2338   2   8   0.1566   0.3315   0.4168   0.1571  -0.3074  -0.1195   6.00    1.0
2173    731.000  -1050083.8283  -4468051.1220   4415386.3114   2   8   0.1465   0.3102   0.3897   0.1469  -0.2875  -0.1118   7.00    1.0
2173    732.000  -1050083.8539  -4468051.1978   4415386.3534   2   8   0.1382   0.2925   0.3674   0.1386  -0.2710  -0.1054   8.00    1.0
2173    733.000  -1050083.8543  -4468051.2091   4415386.3689   2   8   0.1311   0.2776   0.3485   0.1315  -0.2571  -0.0999   9.00    1.0
2173    734.000  -1050083.8568  -4468051.2371   4415386.4016   2   8   0.1251   0.2647   0.3322   0.1254  -0.2451  -0.0953  10.00    1.0
2173    735.000  -1050083.8597  -4468051.2451   4415386.4262   2   8   0.1198   0.2536   0.3181   0.1201  -0.2347  -0.0912  11.00    1.0
2173    736.000  -1050083.8639  -4468051.2579   4415386.4333   2   8   0.1152   0.2438   0.3057   0.1154  -0.2256  -0.0876  12.00    1.0
2173    737.000  -1050083.8568  -4468051.2414   4415386.4182   2   8   0.1111   0.2350   0.2946   0.1113  -0.2174  -0.0844  13.00    1.0
2173    738.000  -1050083.7646  -4468051.4104   4415386.3314   2   8   0.4101   0.8700   1.0965   0.4110  -0.8076  -0.3115   0.00    1.0
2173    739.000  -1050083.7685  -4468051.5820   4415387.0404   2   8   0.4101   0.8699   1.0964   0.4109  -0.8075  -0.3115   0.00    1.1
2173    740.000  -1050083.6481  -4468051.4086   4415386.8494   2   8   0.4100   0.8699   1.0964   0.4109  -0.8075  -0.3115   0.00    1.1
2173    741.000  -1050083.6716  -4468051.0667   4415386.6612   2   8   0.4100   0.8698   1.0963   0.4108  -0.8074  -0.3114   0.00    1.1
2173    742.000  -1050083.6125  -4468051.4063   4415387.0861   2   8   0.4100   0.8698   1.0963   0.4108  -0.8073  -0.3114   0.00    1.0
2173    743.000  -1050083.6576  -4468051.0732   4415386.8543   2   8   0.4099   0.8697   1.0963   0.4107  -0.8072  -0.3114   0.00    1.0
2173    744.000  -1050083.7686  -4468051.3076   4415386.9768   2   8   0.4099   0.8697   1.0962   0.4106  -0.8072  -0.3114   0.00    1.0
2173    745.000  -1050083.6005  -4468051.3825   4415386.9825   2   8   0.4099   0.8696   1.0962   0.4106  -0.8071  -0.3113   0.00    1.1
2173    746.000  -1050083.5085  -4468051.2341   4415386.7114   2   8   0.4098   0.8695   1.0961   0.4105  -0.8070  -0.3113   0.00    1.1
2173    747.000  -1050083.7054  -4468051.3293   4415386.4877   2   8   0.4098   0.8695   1.0961   0.4105  -0.8069  -0.3113   0.00    1.1
2173    748.000  -1050083.6766  -4468051.4307   4415386.9426   2   8   0.4098   0.8694   1.0961   0.4104  -0.8069  -0.3113   0.00    1.0
2173    749.000  -1050083.7703  -4468051.5053   4415387.0055   2   8   0.4097   0.8694   1.0960   0.4104  -0.8068  -0.3112   0.00    1.0
2173    750.000  -1050083.6720  -4468051.1706   4415386.7292   2   8   0.4097   0.8693   1.0960   0.4103  -0.8067  -0.3112   0.00    1.0
2173    751.000  -1050083.7166  -4468051.4189   4415386.7201   2   8   0.4097   0.8693   1.0960   0.4103  -0.8066  -0.3112   0.00    1.0
2173    752.000  -1050083.5326  -4468050.6815   4415386.0890   2   8   0.4096   0.8692   1.0959   0.4102  -0.8065  -0.3112   0.00    1.0
2173    753.000  -1050083.6889  -4468051.2811   4415386.8822   2   8   0.4096   0.8692   1.0959   0.4102  -0.8065  -0.3111   0.00    1.1
2173    754.000  -1050083.6184  -4468050.9312   4415386.7870   2   8   0.4096   0.8691   1.0958   0.4101  -0.8064  -0.3111   0.00    1.0
2173    755.000  -1050083.6282  -4468050.9374   4415386.7715   2   8   0.2911   0.6174   0.7783   0.2917  -0.5728  -0.2220   1.00    1.1
2173    756.000  -1050083.5880  -4468050.9760   4415386.7220   2   8   0.2381   0.5048   0.6362   0.2386  -0.4683  -0.1818   2.00    1.1
2173    757.000  -1050083.6378  -4468051.0658   4415386.7147   2   8   0.2064   0.4374   0.5511   0.2068  -0.4057  -0.1576   3.00    1.0
2173    758.000  -1050083.6464  -4468051.0708   4415386.7463   2   8   0.1847   0.3914   0.4929   0.1850  -0.3628  -0.1411   4.00    1.0
2173    759.000  -1050083.6626  -4468051.0935   4415386.7847   2   8   0.1686   0.3574   0.4498   0.1690  -0.3312  -0.1288   5.00    1.0
2173    760.000  -1050083.6776  -4468051.1547   4415386.8127   2   8   0.1562   0.3309   0.4163   0.1565  -0.3065  -0.1192   6.00    1.0
2173    761.000  -1050083.7272  -4468051.2171   4415386.8422   2   8   0.1461   0.3096   0.3894   0.1464  -0.2867  -0.1115   7.00    1.0
2173    762.000  -1050083.7385  -4468051.2580   4415386.8562   2   8   0.1378   0.2920   0.3670   0.1380  -0.2702  -0.1051   8.00    1.0
2173    763.000  -1050083.7354  -4468051.2904   4415386.8992   2   8   0.1308   0.2771   0.3481   0.1310  -0.2564  -0.0997   9.00    1.0
2173    764.000  -1050083.7319  -4468051.3131   4415386.9265   2   8   0.1248   0.2642   0.3319   0.1249  -0.2444  -0.0950  10.00    1.0
2173    765.000  -1050083.7244  -4468051.3329   4415386.9560   2   8   0.1195   0.2531   0.3178   0.1196  -0.2340  -0.0910  11.00    1.0
2173    766.000  -1050083.7297  -4468051.3639   4415387.0095   2   8   0.1149   0.2433   0.3054   0.1150  -0.2249  -0.0874  12.00    1.0
2173    767.000  -1050083.7375  -4468051.3962   4415387.0270   2   8   0.1108   0.2346   0.2943   0.1109  -0.2168  -0.0842  13.00    1.0
2173    768.000  -1050083.9009  -4468051.7816   4415387.6000   2   8   0.4091   0.8684   1.0953   0.4094  -0.8053  -0.3108   0.00    1.1
2173    769.000  -1050083.8269  -4468051.9651   4415387.4381   2   8   0.4091   0.8683   1.0952   0.4094  -0.8052  -0.3107   0.00    1.1
2173    770.000  -1050083.7410  -4468051.4393   4415387.1734   2   8   0.4090   0.8683   1.0952   0.4093  -0.8051  -0.3107   0.00    1.1
2173    771.000  -1050083.7459  -4468051.8981   4415387.6882   2   8   0.4090   0.8682   1.0952   0.4093  -0.8051  -0.3107   0.00    1.0
2173    772.000  -1050083.7340  -4468051.8380   4415387.8833   2   8   0.4090   0.8682   1.0951   0.4092  -0.8050  -0.3107   0.00    1.3
2173    773.000  -1050083.7017  -4468051.7794   4415387.8675   2   8   0.4089   0.8681   1.0951   0.4092  -0.8049  -0.3106   0.00    1.3
2173    774.000  -1050083.9725  -4468051.9595   4415388.0112   2   8   0.4089   0.8681   1.0950   0.4091  -0.8048  -0.3106   0.00    1.4
2173    775.000  -1050083.7961  -4468052.0893   4415388.5641   2   8   0.4089   0.8680   1.0950   0.4090  -0.8047  -0.3106   0.00    1.4
2173    776.000  -1050083.6239  -4468051.5150   4415387.5843   2   8   0.4088   0.8680   1.0949   0.4090  -0.8047  -0.3106   0.00    1.2
2173    777.000  -1050083.9223  -4468051.6711   4415387.7259   2   8   0.4088   0.8679   1.0949   0.4089  -0.8046  -0.3105   0.00    1.1
2173    778.000  -1050083.7340  -4468051.4060   4415387.4864   2   8   0.4088   0.8679   1.0949   0.4089  -0.8045  -0.3105   0.00    1.3
2173    779.000  -1050083.8999  -4468051.4803   4415387.6686   2   8   0.4087   0.8678   1.0948   0.4088  -0.8044  -0.3105   0.00    1.0
2173    780.000  -1050083.9022  -4468051.7377   4415387.9672   2   8   0.4087   0.8678   1.0948   0.4088  -0.8043  -0.3105   0.00    1.0
2173    781.000  -1050084.0067  -4468051.5328   4415387.4642   2   8   0.4087   0.8677   1.0947   0.4087  -0.8043  -0.3104   0.00    1.0
2173    782.000  -1050084.0133  -4468051.8386   4415387.7504   2   8   0.4086   0.8676   1.0947   0.4087  -0.8042  -0.3104   0.00    1.1
2173    783.000  -1050083.9477  -4468051.9401   4415387.7538   2   8   0.4086   0.8676   1.0947   0.4086  -0.8041  -0.3104   0.00    1.2
2173    784.000  -1050083.9700  -4468051.8368   4415387.6795   2   8   0.4086   0.8675   1.0946   0.4086  -0.8040  -0.3104   0.00    1.2
2173    785.000  -1050084.0325  -4468052.1360   4415387.9053   2   8   0.4085   0.8675   1.0946   0.4085  -0.8039  -0.3103   0.00    1.3
2173    786.000  -1050084.0146  -4468052.3141   4415388.1398   2   8   0.2904   0.6162   0.7774   0.2905  -0.5711  -0.2215   1.00    1.2
2173    787.000  -1050084.0893  -4468052.1735   4415387.8314   2   8   0.2375   0.5038   0.6355   0.2377  -0.4668  -0.1814   2.00    1.3
2173    788.000  -1050084.0464  -4468052.0892   4415387.6717   2   8   0.2059   0.4366   0.5505   0.2060  -0.4044  -0.1572   3.00    1.3
2173    789.000  -1050084.0977  -4468052.0507   4415387.6281   2   8   0.1842   0.3906   0.4923   0.1843  -0.3617  -0.1407   4.00    1.3
2173    790.000  -1050084.0893  -4468051.9756   4415387.5872   2   8   0.1682   0.3567   0.4493   0.1683  -0.3302  -0.1285   5.00    1.4
2173    791.000  -1050084.0908  -4468051.9999   4415387.6255   2   8   0.1558   0.3303   0.4159   0.1559  -0.3056  -0.1189   6.00    1.5
2173    792.000  -1050084.1060  -4468051.9655   4415387.5483   2   8   0.1458   0.3090   0.3889   0.1458  -0.2858  -0.1112   7.00    1.6
2173    793.000  -1050084.1048  -4468051.9768   4415387.5552   2   8   0.1375   0.2914   0.3666   0.1375  -0.2694  -0.1049   8.00    1.6
2173    794.000  -1050084.0933  -4468051.9687   4415387.5764   2   8   0.1305   0.2765   0.3477   0.1305  -0.2556  -0.0995   9.00    1.7
2173    795.000  -1050084.0645  -4468051.9129   4415387.5476   2   8   0.1245   0.2637   0.3315   0.1244  -0.2437  -0.0948  10.00    1.7
2173    796.000  -1050084.0542  -4468051.8839   4415387.5028   2   8   0.1192   0.2526   0.3174   0.1192  -0.2333  -0.0908  11.00    1.7
2173    797.000  -1050084.0648  -4468051.8864   4415387.4960   2   8   0.1146   0.2428   0.3050   0.1145  -0.2242  -0.0872  12.00    1.8
2173    798.000  -1050084.2666  -4468052.0717   4415387.3706   2   8   0.4081   0.8668   1.0940   0.4079  -0.8029  -0.3100   0.00    1.5
2173    799.000  -1050083.8205  -4468051.4002   4415387.0145   2   8   0.4081   0.8668   1.0940   0.4078  -0.8028  -0.3100   0.00    1.9
2173    800.000  -1050083.9672  -4468051.4096   4415387.1001   2   8   0.4081   0.8667   1.0939   0.4078  -0.8027  -0.3100   0.00    1.8
2173    801.000  -1050083.9383  -4468051.3649   4415387.0672   2   8   0.4080   0.8666   1.0939   0.4077  -0.8027  -0.3099   0.00    2.0
2173    802.000  -1050083.9084  -4468051.5412   4415387.4693   2   8   0.4080   0.8666   1.0938   0.4077  -0.8026  -0.3099   0.00    1.9
2173    803.000  -1050083.8646  -4468051.2945   4415387.1976   2   8   0.4080   0.8665   1.0938   0.4076  -0.8025  -0.3099   0.00    1.8
2173    804.000  -1050084.0173  -4468051.6499   4415387.4124   2   8   0.4079   0.8665   1.0937   0.4076  -0.8024  -0.3099   0.00    2.0
2173    805.000  -1050083.9763  -4468051.4452   4415387.1225   2   8   0.4079   0.8664   1.0937   0.4075  -0.8023  -0.3099   0.00    2.0
2173    806.000  -1050084.0180  -4468051.5069   4415386.9812   2   8   0.2899   0.6154   0.7768   0.2898  -0.5699  -0.2212   1.00    2.5
2173    807.000  -1050083.9590  -4468051.4053   4415386.8558   2   8   0.2371   0.5032   0.6350   0.2371  -0.4659  -0.1811   2.00    2.7
2173    808.000  -1050083.9506  -4468051.3762   4415386.8307   2   8   0.2055   0.4361   0.5501   0.2055  -0.4036  -0.1570   3.00    2.6
2173    809.000  -1050083.9017  -4468051.3860   4415386.9488   2   8   0.1839   0.3902   0.4920   0.1839  -0.3610  -0.1405   4.00    2.6
2173    810.000  -1050083.8784  -4468051.3891   4415386.9737   2   8   0.1680   0.3562   0.4490   0.1679  -0.3295  -0.1283   5.00    2.7
2173    811.000  -1050083.8607  -4468051.3528   4415387.0063   2   8   0.1556   0.3299   0.4156   0.1555  -0.3050  -0.1188   6.00    2.7
2173    812.000  -1050083.8374  -4468051.3651   4415387.0604   2   8   0.1456   0.3086   0.3886   0.1455  -0.2852  -0.1111   7.00    2.8
2173    813.000  -1050083.8076  -4468051.3470   4415387.0498   2   8   0.1373   0.2910   0.3663   0.1372  -0.2689  -0.1047   8.00    2.9
2173    814.000  -1050083.7881  -4468051.2986   4415387.0004   2   8   0.1303   0.2762   0.3475   0.1302  -0.2551  -0.0993   9.00    2.9
2173    815.000  -1050083.8036  -4468051.3177   4415387.0590   2   8   0.1243   0.2634   0.3313   0.1241  -0.2432  -0.0947  10.00    2.9
2173    816.000  -1050083.8046  -4468051.3376   4415387.0681   2   8   0.1190   0.2523   0.3172   0.1189  -0.2329  -0.0906  11.00    2.9
2173    817.000  -1050083.7924  -4468051.3413   4415387.0485   2   8   0.1144   0.2425   0.3048   0.1143  -0.2238  -0.0870  12.00    2.9
2173    818.000  -1050083.5365  -4468051.8151   4415387.8093   2   8   0.4075   0.8658   1.0931   0.4069  -0.8013  -0.3095   0.00    1.1
2173    819.000  -1050083.5538  -4468051.9525   4415387.9351   2   8   0.4075   0.8657   1.0931   0.4068  -0.8012  -0.3095   0.00    1.1
2173    820.000  -1050083.6556  -4468051.7169   4415388.0464   2   8   0.4074   0.8656   1.0930   0.4068  -0.8011  -0.3095   0.00    1.0
2173    821.000  -1050083.4642  -4468051.2901   4415388.2808   2   8   0.4074   0.8656   1.0930   0.4067  -0.8010  -0.3095   0.00    1.1
2173    822.000  -1050083.4961  -4468051.4865   4415387.9759   2   8   0.4074   0.8655   1.0929   0.4067  -0.8009  -0.3095   0.00    1.0
2173    823.000  -1050083.5708  -4468051.6654   4415387.5853   2   8   0.4073   0.8655   1.0929   0.4066  -0.8009  -0.3094   0.00    1.4
2173    824.000  -1050083.9025  -4468051.7450   4415386.8281   2   8   0.4073   0.8654   1.0928   0.4066  -0.8008  -0.3094   0.00    1.1
2173    825.000  -1050083.5629  -4468051.4492   4415386.6980   2   8   0.4073   0.8654   1.0928   0.4065  -0.8007  -0.3094   0.00    1.1
2173    826.000  -1050083.6096  -4468051.3665   4415386.5603   2   8   0.2895   0.6147   0.7762   0.2891  -0.5687  -0.2208   1.00    1.1
2173    827.000  -1050083.6664  -4468051.4322   4415386.6185   2   8   0.2368   0.5026   0.6345   0.2365  -0.4649  -0.1808   2.00    1.0
2173    828.000  -1050083.6963  -4468051.4730   4415386.7155   2   8   0.2052   0.4355   0.5496   0.2050  -0.4028  -0.1568   3.00    1.0
2173    829.000  -1050083.7712  -4468051.5938   4415386.7473   2   8   0.1836   0.3897   0.4916   0.1834  -0.3602  -0.1403   4.00    1.1
2173    830.000  -1050083.8010  -4468051.6281   4415386.7625   2   8   0.1677   0.3558   0.4486   0.1675  -0.3288  -0.1281   5.00    1.1
2173    831.000  -1050083.8240  -4468051.6767   4415386.7749   2   8   0.1553   0.3295   0.4152   0.1551  -0.3044  -0.1186   6.00    1.1
2173    832.000  -1050083.8465  -4468051.6773   4415386.7473   2   8   0.1453   0.3082   0.3883   0.1451  -0.2846  -0.1109   7.00    1.1
2173    833.000  -1050083.8560  -4468051.7180   4415386.7540   2   8   0.1371   0.2907   0.3660   0.1368  -0.2683  -0.1045   8.00    1.1
2173    834.000  -1050083.8562  -4468051.7004   4415386.7589   2   8   0.1301   0.2758   0.3472   0.1298  -0.2545  -0.0992   9.00    1.2
2173    835.000  -1050083.8524  -4468051.7162   4415386.7804   2   8   0.1241   0.2631   0.3310   0.1238  -0.2427  -0.0945  10.00    1.2
2173    836.000  -1050083.8601  -4468051.7452   4415386.8048   2   8   0.1188   0.2520   0.3169   0.1186  -0.2324  -0.0905  11.00    1.2
2173    837.000  -1050083.8640  -4468051.7653   4415386.8261   2   8   0.1143   0.2423   0.3046   0.1140  -0.2233  -0.0869  12.00    1.2
2173    838.000  -1050083.8796  -4468051.6832   4415387.0389   2   8   0.4069   0.8647   1.0922   0.4059  -0.7996  -0.3091   0.00    1.4
2173    839.000  -1050083.9811  -4468051.5043   4415387.0839   2   8   0.4068   0.8646   1.0921   0.4058  -0.7995  -0.3091   0.00    1.4
2173    840.000  -1050083.8533  -4468052.1517   4415387.7964   2   8   0.4068   0.8646   1.0921   0.4058  -0.7994  -0.3090   0.00    1.5
2173    841.000  -1050083.8867  -4468051.6580   4415387.1460   2   8   0.4068   0.8645   1.0920   0.4057  -0.7994  -0.3090   0.00    1.5
2173    842.000  -1050083.9281  -4468051.7689   4415387.2319   2   8   0.4067   0.8645   1.0920   0.4057  -0.7993  -0.3090   0.00    1.3
2173    843.000  -1050083.9400  -4468051.8639   4415387.4725   2   8   0.4067   0.8644   1.0919   0.4056  -0.7992  -0.3090   0.00    1.4
2173    844.000  -1050083.9751  -4468051.7244   4415387.2407   2   8   0.4067   0.8644   1.0919   0.4056  -0.7991  -0.3089   0.00    1.3
2173    845.000  -1050083.8288  -4468051.4577   4415386.8053   2   8   0.4067   0.8643   1.0918   0.4055  -0.7990  -0.3089   0.00    1.6
2173    846.000  -1050083.7805  -4468051.3008   4415386.5490   2   8   0.4066   0.8643   1.0918   0.4055  -0.7989  -0.3089   0.00    1.6
2173    847.000  -1050083.8880  -4468051.5092   4415386.5383   2   8   0.4066   0.8642   1.0917   0.4054  -0.7988  -0.3089   0.00    1.5
2173    848.000  -1050083.5083  -4468050.8106   4415386.1914   2   8   0.4066   0.8642   1.0917   0.4054  -0.7988  -0.3089   0.00    1.6
2173    849.000  -1050083.6809  -4468050.5466   4415386.2098   2   8   0.4065   0.8641   1.0917   0.4053  -0.7987  -0.3088   0.00    1.4
2173    850.000  -1050083.6427  -4468050.9077   4415386.3362   2   8   0.4065   0.8641   1.0916   0.4053  -0.7986  -0.3088   0.00    1.4
2173    851.000  -1050083.9042  -4468051.3722   4415386.6865   2   8   0.4065   0.8640   1.0916   0.4052  -0.7985  -0.3088   0.00    1.5
2173    852.000  -1050083.8747  -4468051.2959   4415386.5149   2   8   0.4064   0.8640   1.0915   0.4052  -0.7984  -0.3088   0.00    1.2
2173    853.000  -1050083.9547  -4468051.5115   4415386.6694   2   8   0.4064   0.8639   1.0915   0.4051  -0.7983  -0.3087   0.00    1.4
2173    854.000  -1050084.0220  -4468051.7582   4415387.2149   2   8   0.4064   0.8639   1.0914   0.4051  -0.7983  -0.3087   0.00    1.3
2173    855.000  -1050083.9424  -4468051.2645   4415386.4988   2   8   0.4063   0.8638   1.0914   0.4050  -0.7982  -0.3087   0.00    1.3
2173    856.000  -1050083.8311  -4468051.2405   4415386.6431   2   8   0.4063   0.8638   1.0913   0.4050  -0.7981  -0.3087   0.00    1.1
2173    857.000  -1050083.9664  -4468051.3059   4415386.7144   2   8   0.2888   0.6135   0.7751   0.2880  -0.5669  -0.2203   1.00    1.3
2173    858.000  -1050083.9767  -4468051.2954   4415386.5568   2   8   0.2362   0.5016   0.6336   0.2356  -0.4634  -0.1804   2.00    1.5
2173    859.000  -1050083.9801  -4468051.3290   4415386.5520   2   8   0.2047   0.4347   0.5489   0.2042  -0.4015  -0.1564   3.00    1.5
2173    860.000  -1050083.9298  -4468051.2210   4415386.4614   2   8   0.1832   0.3889   0.4909   0.1827  -0.3591  -0.1400   4.00    1.5
2173    861.000  -1050083.9225  -4468051.2060   4415386.4374   2   8   0.1673   0.3551   0.4481   0.1668  -0.3277  -0.1278   5.00    1.5
2173    862.000  -1050083.9089  -4468051.2452   4415386.4520   2   8   0.1549   0.3288   0.4147   0.1545  -0.3034  -0.1183   6.00    1.5
2173    863.000  -1050083.9247  -4468051.3078   4415386.5258   2   8   0.1450   0.3076   0.3878   0.1445  -0.2837  -0.1107   7.00    1.5
2173    864.000  -1050083.9651  -4468051.3695   4415386.6025   2   8   0.1367   0.2901   0.3656   0.1363  -0.2675  -0.1043   8.00    1.5
2173    865.000  -1050083.9733  -4468051.3777   4415386.6370   2   8   0.1298   0.2753   0.3468   0.1293  -0.2537  -0.0989   9.00    1.4
2173    866.000  -1050083.9837  -4468051.3656   4415386.6266   2   8   0.1238   0.2626   0.3306   0.1234  -0.2419  -0.0943  10.00    1.4
2173    867.000  -1050083.9793  -4468051.3900   4415386.6692   2   8   0.1186   0.2515   0.3165   0.1181  -0.2316  -0.0903  11.00    1.4
2173    868.000  -1050084.0958  -4468051.9416   4415387.6265   2   8   0.4060   0.8631   1.0907   0.4044  -0.7971  -0.3084   0.00    1.2
2173    869.000  -1050084.1664  -4468051.6128   4415387.1183   2   8   0.4059   0.8631   1.0907   0.4044  -0.7970  -0.3084   0.00    1.2
2173    870.000  -1050084.1747  -4468052.1403   4415387.3836   2   8   0.4059   0.8630   1.0906   0.4043  -0.7969  -0.3084   0.00    1.2
2173    871.000  -1050084.1976  -4468052.0550   4415387.1100   2   8   0.4059   0.8630   1.0906   0.4043  -0.7968  -0.3083   0.00    1.1
2173    872.000  -1050084.1234  -4468052.0160   4415387.3742   2   8   0.4058   0.8629   1.0905   0.4042  -0.7967  -0.3083   0.00    1.1
2173    873.000  -1050084.0037  -4468051.8542   4415386.9113   2   8   0.4058   0.8629   1.0905   0.4042  -0.7966  -0.3083   0.00    1.1
2173    874.000  -1050084.0322  -4468051.8475   4415386.7426   2   8   0.4058   0.8628   1.0904   0.4041  -0.7965  -0.3083   0.00    1.2
2173    875.000  -1050084.1075  -4468052.1609   4415387.0236   2   8   0.4057   0.8628   1.0904   0.4041  -0.7965  -0.3082   0.00    1.1
2173    876.000  -1050083.9245  -4468051.7212   4415386.7835   2   8   0.4057   0.8627   1.0903   0.4040  -0.7964  -0.3082   0.00    1.2
2173    877.000  -1050084.0562  -4468051.7199   4415386.8202   2   8   0.2884   0.6127   0.7744   0.2873  -0.5657  -0.2200   1.00    1.1
2173    878.000  -1050084.0318  -4468051.7426   4415386.8342   2   8   0.2358   0.5010   0.6331   0.2350  -0.4624  -0.1801   2.00    1.2
2173    879.000  -1050084.0580  -4468051.8447   4415386.9074   2   8   0.2044   0.4341   0.5484   0.2037  -0.4006  -0.1562   3.00    1.2
2173    880.000  -1050084.0513  -4468051.8669   4415386.9110   2   8   0.1829   0.3884   0.4905   0.1823  -0.3583  -0.1398   4.00    1.2
2173    881.000  -1050084.0518  -4468051.8921   4415386.9326   2   8   0.1671   0.3547   0.4477   0.1664  -0.3270  -0.1276   5.00    1.2
2173    882.000  -1050084.0108  -4468051.8408   4415386.9362   2   8   0.1547   0.3284   0.4143   0.1541  -0.3027  -0.1181   6.00    1.2
2173    883.000  -1050083.9959  -4468051.8558   4415386.9799   2   8   0.1448   0.3073   0.3875   0.1442  -0.2831  -0.1105   7.00    1.2
2173    884.000  -1050083.9709  -4468051.8274   4415386.9603   2   8   0.1365   0.2898   0.3652   0.1360  -0.2669  -0.1042   8.00    1.1
2173    885.000  -1050083.9597  -4468051.7996   4415386.9613   2   8   0.1296   0.2750   0.3465   0.1290  -0.2532  -0.0988   9.00    1.1
2173    886.000  -1050083.9564  -4468051.7663   4415386.9450   2   8   0.1236   0.2623   0.3303   0.1231  -0.2414  -0.0942  10.00    1.1
2173    887.000  -1050083.9538  -4468051.7462   4415386.9378   2   8   0.1184   0.2512   0.3163   0.1179  -0.2311  -0.0901  11.00    1.1
2173    888.000  -1050083.7732  -4468051.4810   4415386.5472   2   8   0.4054   0.8621   1.0897   0.4034  -0.7953  -0.3080   0.00    1.2
2173    889.000  -1050083.7645  -4468051.6221   4415386.5133   2   8   0.4053   0.8620   1.0896   0.4034  -0.7952  -0.3079   0.00    1.3
2173    890.000  -1050083.9648  -4468051.8207   4415386.9764   2   8   0.4053   0.8620   1.0896   0.4033  -0.7952  -0.3079   0.00    1.1
2173    891.000  -1050083.8598  -4468052.0164   4415387.0085   2   8   0.4053   0.8619   1.0895   0.4033  -0.7951  -0.3079   0.00    1.2
2173    892.000  -1050083.8129  -4468051.9147   4415387.0924   2   8   0.4052   0.8619   1.0895   0.4032  -0.7950  -0.3079   0.00    1.1
2173    893.000  -1050083.8396  -4468051.4705   4415386.3214   2   8   0.4052   0.8618   1.0894   0.4032  -0.7949  -0.3079   0.00    1.2
2173    894.000  -1050083.6673  -4468051.4667   4415386.4847   2   8   0.4052   0.8618   1.0894   0.4031  -0.7948  -0.3078   0.00    1.1
2173    895.000  -1050083.6960  -4468051.3812   4415386.4364   2   8   0.4051   0.8617   1.0893   0.4031  -0.7947  -0.3078   0.00    1.0
2173    896.000  -1050083.6213  -4468051.2979   4415386.7654   2   8   0.4051   0.8617   1.0893   0.4030  -0.7946  -0.3078   0.00    1.2
2173    897.000  -1050083.6574  -4468051.2809   4415386.4736   2   8   0.2879   0.6120   0.7737   0.2866  -0.5644  -0.2197   1.00    1.2
2173    898.000  -1050083.6700  -4468051.3083   4415386.5512   2   8   0.2355   0.5004   0.6325   0.2344  -0.4614  -0.1799   2.00    1.2
2173    899.000  -1050083.6985  -4468051.2853   4415386.5176   2   8   0.2041   0.4336   0.5479   0.2032  -0.3997  -0.1560   3.00    1.2
2173    900.000  -1050083.7214  -4468051.3310   4415386.4953   2   8   0.1827   0.3880   0.4900   0.1818  -0.3575  -0.1396   4.00    1.2
2173    901.000  -1050083.7508  -4468051.3231   4415386.4213   2   8   0.1668   0.3542   0.4472   0.1660  -0.3263  -0.1274   5.00    1.2
2173    902.000  -1050083.7217  -4468051.2945   4415386.4038   2   8   0.1545   0.3280   0.4140   0.1537  -0.3020  -0.1180   6.00    1.3
2173    903.000  -1050083.7025  -4468051.2502   4415386.3315   2   8   0.1446   0.3069   0.3871   0.1438  -0.2825  -0.1103   7.00    1.3
2173    904.000  -1050083.7017  -4468051.2131   4415386.2772   2   8   0.1363   0.2894   0.3649   0.1356  -0.2663  -0.1040   8.00    1.3
2173    905.000  -1050083.6976  -4468051.1882   4415386.2469   2   8   0.1294   0.2746   0.3461   0.1287  -0.2526  -0.0987   9.00    1.3
2173    906.000  -1050083.6901  -4468051.1866   4415386.2455   2   8   0.1234   0.2620   0.3300   0.1228  -0.2409  -0.0940  10.00    1.4
2173    907.000  -1050083.6745  -4468051.1661   4415386.2364   2   8   0.1182   0.2509   0.3160   0.1176  -0.2306  -0.0900  11.00    1.4
2173    908.000  -1050083.7246  -4468051.5384   4415386.4236   2   8   0.4048   0.8610   1.0886   0.4025  -0.7936  -0.3075   0.00    1.1
2173    909.000  -1050083.6974  -4468051.2479   4415386.5428   2   8   0.4047   0.8610   1.0886   0.4024  -0.7935  -0.3075   0.00    1.0
2173    910.000  -1050083.7662  -4468051.3952   4415386.2075   2   8   0.4047   0.8609   1.0885   0.4024  -0.7934  -0.3075   0.00    1.1
2173    911.000  -1050083.7526  -4468051.0973   4415386.3088   2   8   0.4047   0.8609   1.0885   0.4023  -0.7933  -0.3075   0.00    1.1
2173    912.000  -1050083.6024  -4468051.1467   4415386.4764   2   8   0.4046   0.8608   1.0884   0.4023  -0.7932  -0.3074   0.00    1.0
2173    913.000  -1050083.6887  -4468051.4655   4415386.6382   2   8   0.4046   0.8608   1.0884   0.4022  -0.7931  -0.3074   0.00    1.1
2173    914.000  -1050083.7719  -4468051.6044   4415386.9531   2   8   0.4046   0.8607   1.0883   0.4022  -0.7931  -0.3074   0.00    1.1
2173    915.000  -1050083.6591  -4468051.4775   4415387.0603   2   8   0.4046   0.8607   1.0883   0.4021  -0.7930  -0.3074   0.00    1.0
2173    916.000  -1050083.7165  -4468051.2913   4415386.7642   2   8   0.4045   0.8606   1.0882   0.4021  -0.7929  -0.3074   0.00    1.1
2173    917.000  -1050083.7654  -4468051.1061   4415386.5011   2   8   0.2875   0.6112   0.7730   0.2859  -0.5632  -0.2194   1.00    1.1
2173    918.000  -1050083.7518  -4468051.2282   4415386.6429   2   8   0.2352   0.4998   0.6319   0.2339  -0.4604  -0.1796   2.00    1.1
2173    919.000  -1050083.7415  -4468051.2244   4415386.6163   2   8   0.2038   0.4331   0.5474   0.2027  -0.3988  -0.1557   3.00    1.1
2173    920.000  -1050083.7431  -4468051.2523   4415386.6050   2   8   0.1824   0.3875   0.4896   0.1814  -0.3567  -0.1394   4.00    1.1
2173    921.000  -1050083.6995  -4468051.2239   4415386.5693   2   8   0.1666   0.3538   0.4468   0.1656  -0.3256  -0.1273   5.00    1.1
2173    922.000  -1050083.6711  -4468051.2249   4415386.6099   2   8   0.1543   0.3276   0.4136   0.1534  -0.3014  -0.1178   6.00    1.1
2173    923.000  -1050083.6550  -4468051.2063   4415386.6262   2   8   0.1444   0.3065   0.3868   0.1435  -0.2819  -0.1102   7.00    1.1
2173    924.000  -1050083.6464  -4468051.1933   4415386.5731   2   8   0.1361   0.2891   0.3646   0.1353  -0.2657  -0.1039   8.00    1.0
2173    925.000  -1050083.6391  -4468051.1736   4415386.5401   2   8   0.1292   0.2743   0.3458   0.1284  -0.2521  -0.0985   9.00    1.0
2173    926.000  -1050083.6292  -4468051.1548   4415386.4942   2   8   0.1232   0.2616   0.3297   0.1225  -0.2403  -0.0939  10.00    1.0
2173    927.000  -1050083.6165  -4468051.1433   4415386.4676   2   8   0.1181   0.2506   0.3157   0.1173  -0.2301  -0.0899  11.00    1.0
2173    928.000  -1050083.5723  -4468050.9759   4415385.9961   2   8   0.4042   0.8600   1.0875   0.4015  -0.7918  -0.3071   0.00    1.1
2173    929.000  -1050083.4669  -4468050.8426   4415385.6110   2   8   0.4042   0.8599   1.0875   0.4015  -0.7917  -0.3071   0.00    1.1
2173    930.000  -1050083.6151  -4468050.9085   4415385.6689   2   8   0.4041   0.8599   1.0874   0.4014  -0.7916  -0.3071   0.00    1.1
2173    931.000  -1050083.6388  -4468050.8060   4415385.8399   2   8   0.4041   0.8598   1.0874   0.4014  -0.7915  -0.3070   0.00    1.2
2173    932.000  -1050083.5825  -4468050.8976   4415385.8717   2   8   0.4041   0.8598   1.0873   0.4013  -0.7914  -0.3070   0.00    1.1
2173    933.000  -1050083.4838  -4468050.8298   4415385.9758   2   8   0.4040   0.8597   1.0873   0.4013  -0.7914  -0.3070   0.00    1.1
2173    934.000  -1050083.3890  -4468051.0041   4415386.2120   2   8   0.4040   0.8597   1.0872   0.4012  -0.7913  -0.3070   0.00    1.1
2173    935.000  -1050083.5705  -4468050.9940   4415385.9359   2   8   0.4040   0.8596   1.0872   0.4012  -0.7912  -0.3070   0.00    1.2
2173    936.000  -1050083.5378  -4468050.9750   4415386.1746   2   8   0.4040   0.8596   1.0871   0.4011  -0.7911  -0.3069   0.00    1.1
2173    937.000  -1050083.5712  -4468051.0882   4415386.1373   2   8   0.4039   0.8595   1.0870   0.4011  -0.7910  -0.3069   0.00    1.1
2173    938.000  -1050083.7237  -4468051.4195   4415386.1382   2   8   0.4039   0.8595   1.0870   0.4010  -0.7909  -0.3069   0.00    1.3
2173    939.000  -1050083.5702  -4468050.9994   4415385.9138   2   8   0.4039   0.8594   1.0869   0.4010  -0.7908  -0.3069   0.00    1.1
2173    940.000  -1050083.5983  -4468051.1464   4415385.9252   2   8   0.4038   0.8594   1.0869   0.4009  -0.7907  -0.3069   0.00    1.2
2173    941.000  -1050083.7045  -4468050.7736   4415385.3717   2   8   0.4038   0.8593   1.0868   0.4009  -0.7906  -0.3068   0.00    1.2
2173    942.000  -1050083.6644  -4468050.9855   4415385.6063   2   8   0.4038   0.8593   1.0868   0.4008  -0.7905  -0.3068   0.00    1.1
2173    943.000  -1050083.7251  -4468051.2603   4415385.7803   2   8   0.4038   0.8592   1.0867   0.4008  -0.7905  -0.3068   0.00    1.3
2173    944.000  -1050083.6181  -4468051.0623   4415385.8620   2   8   0.4037   0.8592   1.0866   0.4008  -0.7904  -0.3068   0.00    1.2
2173    945.000  -1050083.6568  -4468051.1793   4415385.8307   2   8   0.4037   0.8591   1.0866   0.4007  -0.7903  -0.3068   0.00    1.2
2173    946.000  -1050083.5238  -4468050.9626   4415385.7785   2   8   0.4037   0.8591   1.0865   0.4007  -0.7902  -0.3067   0.00    1.1
2173    947.000  -1050083.4831  -4468050.9707   4415385.7426   2   8   0.4036   0.8590   1.0865   0.4006  -0.7901  -0.3067   0.00    1.1
2173    948.000  -1050083.4443  -4468051.0220   4415385.6863   2   8   0.2869   0.6101   0.7718   0.2849  -0.5612  -0.2189   1.00    1.1
2173    949.000  -1050083.4363  -4468050.9569   4415385.7363   2   8   0.2346   0.4988   0.6309   0.2330  -0.4588  -0.1793   2.00    1.1
2173    950.000  -1050083.4203  -4468050.9323   4415385.7352   2   8   0.2034   0.4322   0.5466   0.2020  -0.3974  -0.1554   3.00    1.1
2173    951.000  -1050083.4295  -4468050.9457   4415385.7597   2   8   0.1820   0.3867   0.4888   0.1807  -0.3555  -0.1391   4.00    1.1
2173    952.000  -1050083.4292  -4468050.8739   4415385.6680   2   8   0.1662   0.3531   0.4461   0.1650  -0.3244  -0.1270   5.00    1.1
2173    953.000  -1050083.4546  -4468050.8755   4415385.6455   2   8   0.1539   0.3270   0.4129   0.1528  -0.3003  -0.1176   6.00    1.0
2173    954.000  -1050083.4566  -4468050.8791   4415385.6779   2   8   0.1440   0.3059   0.3862   0.1430  -0.2809  -0.1100   7.00    1.0
2173    955.000  -1050083.4459  -4468050.8570   4415385.6851   2   8   0.1358   0.2885   0.3640   0.1348  -0.2648  -0.1037   8.00    1.0
2173    956.000  -1050083.4482  -4468050.8833   4415385.7091   2   8   0.1289   0.2738   0.3453   0.1279  -0.2512  -0.0983   9.00    1.0
2173    957.000  -1050083.4426  -4468050.8493   4415385.6763   2   8   0.1230   0.2611   0.3292   0.1220  -0.2395  -0.0937  10.00    1.0
2173    958.000  -1050083.4873  -4468051.0782   4415386.0547   2   8   0.4033   0.8584   1.0858   0.4001  -0.7891  -0.3065   0.00    1.1
2173    959.000  -1050083.5928  -4468050.9291   4415385.8423   2   8   0.4033   0.8584   1.0858   0.4000  -0.7890  -0.3065   0.00    1.0
2173    960.000  -1050083.6161  -4468050.7783   4415386.0491   2   8   0.4033   0.8583   1.0857   0.4000  -0.7889  -0.3065   0.00    1.1
2173    961.000  -1050083.4961  -4468050.6456   4415385.6280   2   8   0.4032   0.8583   1.0857   0.4000  -0.7888  -0.3064   0.00    1.0
2173    962.000  -1050083.3661  -4468050.4699   4415385.3973   2   8   0.4032   0.8582   1.0856   0.3999  -0.7887  -0.3064   0.00    1.1
2173    963.000  -1050083.4117  -4468050.5959   4415385.3031   2   8   0.4032   0.8582   1.0856   0.3999  -0.7886  -0.3064   0.00    1.0
2173    964.000  -1050083.4614  -4468050.7467   4415385.5706   2   8   0.4032   0.8581   1.0855   0.3998  -0.7885  -0.3064   0.00    1.0
2173    965.000  -1050083.1925  -4468050.1519   4415384.7555   2   8   0.4031   0.8581   1.0854   0.3998  -0.7884  -0.3064   0.00    1.0
2173    966.000  -1050083.4454  -4468050.7626   4415385.2523   2   8   0.4031   0.8580   1.0854   0.3997  -0.7884  -0.3063   0.00    1.0
2173    967.000  -1050083.4242  -4468050.7155   4415385.1000   2   8   0.4031   0.8580   1.0853   0.3997  -0.7883  -0.3063   0.00    1.0
2173    968.000  -1050083.4176  -4468050.5581   4415385.0367   2   8   0.2865   0.6093   0.7710   0.2842  -0.5599  -0.2186   1.00    1.0
2173    969.000  -1050083.4039  -4468050.5602   4415385.0856   2   8   0.2343   0.4982   0.6303   0.2325  -0.4577  -0.1790   2.00    1.1
2173    970.000  -1050083.3912  -4468050.5024   4415385.0417   2   8   0.2031   0.4317   0.5460   0.2015  -0.3965  -0.1552   3.00    1.1
2173    971.000  -1050083.4212  -4468050.5734   4415385.1071   2   8   0.1817   0.3863   0.4883   0.1803  -0.3546  -0.1389   4.00    1.1
2173    972.000  -1050083.4117  -4468050.5827   4415385.1348   2   8   0.1660   0.3527   0.4457   0.1646  -0.3237  -0.1268   5.00    1.2
2173    973.000  -1050083.4079  -4468050.5945   4415385.1436   2   8   0.1537   0.3266   0.4125   0.1525  -0.2996  -0.1174   6.00    1.2
2173    974.000  -1050083.4071  -4468050.6068   4415385.1476   2   8   0.1438   0.3056   0.3858   0.1426  -0.2802  -0.1098   7.00    1.2
2173    975.000  -1050083.4063  -4468050.6257   4415385.1656   2   8   0.1357   0.2882   0.3637   0.1345  -0.2642  -0.1035   8.00    1.2
2173    976.000  -1050083.3989  -4468050.6133   4415385.1813   2   8   0.1287   0.2735   0.3449   0.1276  -0.2506  -0.0982   9.00    1.2
2173    977.000  -1050083.4009  -4468050.6256   4415385.2037   2   8   0.1228   0.2608   0.3289   0.1217  -0.2389  -0.0936  10.00    1.2
2173    978.000  -1050083.5036  -4468050.7825   4415385.5641   2   8   0.4028   0.8574   1.0847   0.3992  -0.7873  -0.3061   0.00    1.1
2173    979.000  -1050083.5999  -4468051.0429   4415386.0544   2   8   0.4027   0.8574   1.0846   0.3991  -0.7872  -0.3061   0.00    1.1
2173    980.000  -1050083.5765  -4468051.1169   4415385.8623   2   8   0.4027   0.8573   1.0845   0.3991  -0.7871  -0.3061   0.00    1.0
2173    981.000  -1050083.6642  -4468051.0916   4415385.8844   2   8   0.4027   0.8573   1.0845   0.3990  -0.7870  -0.3060   0.00    1.0
2173    982.000  -1050083.7292  -4468051.7112   4415386.3510   2   8   0.4027   0.8572   1.0844   0.3990  -0.7869  -0.3060   0.00    1.2
2173    983.000  -1050083.5743  -4468051.0271   4415386.0812   2   8   0.4026   0.8572   1.0844   0.3989  -0.7868  -0.3060   0.00    1.1
2173    984.000  -1050083.5267  -4468050.8722   4415385.7001   2   8   0.4026   0.8571   1.0843   0.3989  -0.7867  -0.3060   0.00    1.1
2173    985.000  -1050083.6038  -4468051.4302   4415386.4725   2   8   0.4026   0.8571   1.0842   0.3988  -0.7866  -0.3060   0.00    1.1
2173    986.000  -1050083.5621  -4468051.1128   4415385.9981   2   8   0.4026   0.8570   1.0842   0.3988  -0.7865  -0.3059   0.00    1.1
2173    987.000  -1050083.4465  -4468051.0898   4415385.7625   2   8   0.4025   0.8570   1.0841   0.3987  -0.7864  -0.3059   0.00    1.1
2173    988.000  -1050083.5019  -4468051.0098   4415385.8700   2   8   0.2861   0.6086   0.7702   0.2836  -0.5586  -0.2184   1.00    1.1
2173    989.000  -1050083.5393  -4468051.1036   4415385.9360   2   8   0.2340   0.4976   0.6296   0.2319  -0.4566  -0.1788   2.00    1.1
2173    990.000  -1050083.5503  -4468051.0995   4415385.9295   2   8   0.2028   0.4312   0.5454   0.2010  -0.3956  -0.1550   3.00    1.0
2173    991.000  -1050083.5741  -4468051.1167   4415385.9568   2   8   0.1815   0.3858   0.4878   0.1799  -0.3538  -0.1387   4.00    1.0
2173    992.000  -1050083.5662  -4468051.1339   4415385.9792   2   8   0.1658   0.3523   0.4452   0.1643  -0.3229  -0.1267   5.00    1.0
2173    993.000  -1050083.5638  -4468051.1117   4415386.0204   2   8   0.1535   0.3262   0.4121   0.1521  -0.2989  -0.1173   6.00    1.0
2173    994.000  -1050083.5461  -4468051.1089   4415386.0291   2   8   0.1436   0.3052   0.3854   0.1423  -0.2796  -0.1097   7.00    1.1
2173    995.000  -1050083.5472  -4468051.1114   4415386.0441   2   8   0.1355   0.2878   0.3633   0.1342  -0.2635  -0.1034   8.00    1.1
2173    996.000  -1050083.5486  -4468051.1212   4415386.0710   2   8   0.1286   0.2731   0.3446   0.1273  -0.2500  -0.0981   9.00    1.1
2173    997.000  -1050083.5517  -4468051.1464   4415386.1330   2   8   0.1226   0.2605   0.3285   0.1215  -0.2384  -0.0935  10.00    1.1
2173    998.000  -1050083.5139  -4468051.1439   4415386.4776   2   8   0.4022   0.8564   1.0835   0.3982  -0.7854  -0.3057   0.00    1.0
2173    999.000  -1050083.4951  -4468051.0508   4415386.5643   2   8   0.4022   0.8563   1.0834   0.3982  -0.7853  -0.3057   0.00    1.0
2173   1000.000  -1050083.2977  -4468050.6883   4415386.3859   2   8   0.4022   0.8563   1.0833   0.3982  -0.7852  -0.3057   0.00    1.1
2173   1001.000  -1050083.4828  -4468051.1577   4415386.6600   2   8   0.4021   0.8562   1.0833   0.3981  -0.7851  -0.3057   0.00    1.0
2173   1002.000  -1050083.5238  -4468050.8806   4415386.0177   2   8   0.4021   0.8562   1.0832   0.3981  -0.7850  -0.3056   0.00    1.0
2173   1003.000  -1050083.5271  -4468050.7086   4415386.0044   2   8   0.4021   0.8561   1.0832   0.3980  -0.7849  -0.3056   0.00    1.0
2173   1004.000  -1050083.5647  -4468051.1091   4415386.3773   2   8   0.4021   0.8561   1.0831   0.3980  -0.7848  -0.3056   0.00    1.0
2173   1005.000  -1050083.4866  -4468051.1447   4415386.1875   2   8   0.4020   0.8560   1.0830   0.3979  -0.7847  -0.3056   0.00    1.1
2173   1006.000  -1050083.5000  -4468050.9743   4415386.4555   2   8   0.4020   0.8560   1.0830   0.3979  -0.7846  -0.3056   0.00    1.0
2173   1007.000  -1050083.5947  -4468050.9750   4415386.3396   2   8   0.4020   0.8559   1.0829   0.3978  -0.7845  -0.3055   0.00    1.0
2173   1008.000  -1050083.6351  -4468051.3113   4415386.3776   2   8   0.4020   0.8559   1.0828   0.3978  -0.7844  -0.3055   0.00    1.0
2173   1009.000  -1050083.6614  -4468051.1934   4415386.0972   2   8   0.4019   0.8558   1.0828   0.3977  -0.7844  -0.3055   0.00    1.0
2173   1010.000  -1050083.6298  -4468051.2771   4415386.6130   2   8   0.4019   0.8558   1.0827   0.3977  -0.7843  -0.3055   0.00    1.0
2173   1011.000  -1050083.6299  -4468051.4327   4415386.5559   2   8   0.4019   0.8557   1.0827   0.3977  -0.7842  -0.3055   0.00    1.0
2173   1012.000  -1050083.7151  -4468051.3278   4415386.8141   2   8   0.4019   0.8557   1.0826   0.3976  -0.7841  -0.3055   0.00    1.0
2173   1013.000  -1050083.5154  -4468051.2019   4415386.4368   2   8   0.4018   0.8556   1.0825   0.3976  -0.7840  -0.3054   0.00    1.0
2173   1014.000  -1050083.4731  -4468051.0346   4415386.3547   2   8   0.4018   0.8556   1.0825   0.3975  -0.7839  -0.3054   0.00    1.1
2173   1015.000  -1050083.5481  -4468050.9083   4415386.1493   2   8   0.4018   0.8555   1.0824   0.3975  -0.7838  -0.3054   0.00    1.1
2173   1016.000  -1050083.5460  -4468051.0024   4415386.2011   2   8   0.4017   0.8555   1.0823   0.3974  -0.7837  -0.3054   0.00    1.1
2173   1017.000  -1050083.5714  -4468050.7517   4415386.0740   2   8   0.4017   0.8554   1.0823   0.3974  -0.7836  -0.3054   0.00    1.0
2173   1018.000  -1050083.5818  -4468050.9672   4415385.9447   2   8   0.4017   0.8554   1.0822   0.3973  -0.7835  -0.3053   0.00    1.1
2173   1019.000  -1050083.4638  -4468050.9478   4415386.0088   2   8   0.4017   0.8553   1.0822   0.3973  -0.7834  -0.3053   0.00    1.2
2173   1020.000  -1050083.4239  -4468051.1459   4415386.5009   2   8   0.4016   0.8553   1.0821   0.3972  -0.7833  -0.3053   0.00    1.2
2173   1021.000  -1050083.4594  -4468051.0126   4415386.7316   2   8   0.4016   0.8552   1.0820   0.3972  -0.7832  -0.3053   0.00    1.0
2173   1022.000  -1050083.5359  -4468050.9588   4415386.4462   2   8   0.4016   0.8552   1.0820   0.3972  -0.7831  -0.3053   0.00    1.1
2173   1023.000  -1050083.5977  -4468051.3694   4415386.8678   2   8   0.4016   0.8551   1.0819   0.3971  -0.7830  -0.3052   0.00    1.0
2173   1024.000  -1050083.6558  -4468051.0809   4415386.4594   2   8   0.4015   0.8551   1.0818   0.3971  -0.7829  -0.3052   0.00    1.0
2173   1025.000  -1050083.7260  -4468051.2129   4415386.8085   2   8   0.4015   0.8550   1.0818   0.3970  -0.7828  -0.3052   0.00    1.0
2173   1026.000  -1050083.4266  -4468051.1752   4415386.2064   2   8   0.4015   0.8550   1.0817   0.3970  -0.7827  -0.3052   0.00    1.1
2173   1027.000  -1050083.5452  -4468051.2060   4415386.5116   2   8   0.4015   0.8549   1.0817   0.3969  -0.7826  -0.3052   0.00    1.1
2173   1028.000  -1050083.4997  -4468051.2367   4415386.4048   2   8   0.4014   0.8549   1.0816   0.3969  -0.7826  -0.3052   0.00    1.1
2173   1029.000  -1050083.6641  -4468051.0370   4415386.3635   2   8   0.4014   0.8548   1.0815   0.3968  -0.7825  -0.3051   0.00    1.0
2173   1030.000  -1050083.4585  -4468051.0427   4415386.0608   2   8   0.4014   0.8548   1.0815   0.3968  -0.7824  -0.3051   0.00    1.0
2173   1031.000  -1050083.4585  -4468051.2185   4415385.9893   2   8   0.4013   0.8547   1.0814   0.3967  -0.7823  -0.3051   0.00    1.0
2173   1032.000  -1050083.5516  -4468051.0824   4415385.8516   2   8   0.4013   0.8547   1.0813   0.3967  -0.7822  -0.3051   0.00    1.1
2173   1033.000  -1050083.2973  -4468051.0994   4415386.2392   2   8   0.4013   0.8546   1.0813   0.3967  -0.7821  -0.3051   0.00    1.0
2173   1034.000  -1050083.4199  -4468051.1607   4415385.9856   2   8   0.4013   0.8546   1.0812   0.3966  -0.7820  -0.3050   0.00    1.0
2173   1035.000  -1050083.4476  -4468051.1408   4415386.2031   2   8   0.4012   0.8545   1.0811   0.3966  -0.7819  -0.3050   0.00    1.0
2173   1036.000  -1050083.5114  -4468051.2015   4415386.2827   2   8   0.4012   0.8545   1.0811   0.3965  -0.7818  -0.3050   0.00    1.0
2173   1037.000  -1050083.6475  -4468051.3591   4415386.1807   2   8   0.4012   0.8544   1.0810   0.3965  -0.7817  -0.3050   0.00    1.0
2173   1038.000  -1050083.7216  -4468051.3849   4415386.1114   2   8   0.4012   0.8544   1.0809   0.3964  -0.7816  -0.3050   0.00    1.1
2173   1039.000  -1050083.6885  -4468051.3106   4415385.8170   2   8   0.4011   0.8543   1.0809   0.3964  -0.7815  -0.3050   0.00    1.1
2173   1040.000  -1050083.6304  -4468051.0725   4415386.2490   2   8   0.4011   0.8543   1.0808   0.3963  -0.7814  -0.3049   0.00    1.0
2173   1041.000  -1050083.6343  -4468051.3168   4415386.2023   2   8   0.4011   0.8542   1.0808   0.3963  -0.7813  -0.3049   0.00    1.0
2173   1042.000  -1050083.7087  -4468051.0013   4415385.9894   2   8   0.4011   0.8542   1.0807   0.3963  -0.7812  -0.3049   0.00    1.1
2173   1043.000  -1050083.6787  -4468051.3808   4415386.6806   2   8   0.4010   0.8541   1.0806   0.3962  -0.7811  -0.3049   0.00    1.3
2173   1044.000  -1050083.6515  -4468051.4226   4415386.2604   2   8   0.4010   0.8541   1.0806   0.3962  -0.7810  -0.3049   0.00    1.1
2173   1045.000  -1050083.6199  -4468051.0358   4415386.1307   2   8   0.4010   0.8540   1.0805   0.3961  -0.7809  -0.3049   0.00    1.2
2173   1046.000  -1050083.6184  -4468051.2559   4415386.2828   2   8   0.4010   0.8540   1.0804   0.3961  -0.7808  -0.3048   0.00    1.1
2173   1047.000  -1050083.5464  -4468050.7353   4415386.0773   2   8   0.4009   0.8539   1.0804   0.3960  -0.7807  -0.3048   0.00    1.0
2173   1048.000  -1050083.4974  -4468050.9279   4415385.9621   2   8   0.4009   0.8539   1.0803   0.3960  -0.7806  -0.3048   0.00    1.3
2173   1049.000  -1050083.7970  -4468051.1336   4415386.0344   2   8   0.4009   0.8538   1.0802   0.3959  -0.7805  -0.3048   0.00    1.3
2173   1050.000  -1050083.7574  -4468051.0277   4415386.1333   2   8   0.4009   0.8538   1.0802   0.3959  -0.7804  -0.3048   0.00    1.4
2173   1051.000  -1050083.7855  -4468051.0861   4415386.0126   2   8   0.4008   0.8537   1.0801   0.3958  -0.7803  -0.3047   0.00    1.4
2173   1052.000  -1050083.6564  -4468051.0147   4415386.2676   2   8   0.4008   0.8537   1.0800   0.3958  -0.7802  -0.3047   0.00    1.4
2173   1053.000  -1050083.5458  -4468050.6471   4415385.7901   2   8   0.4008   0.8536   1.0800   0.3958  -0.7801  -0.3047   0.00    1.4
2173   1054.000  -1050083.5184  -4468050.6299   4415385.7221   2   8   0.4007   0.8536   1.0799   0.3957  -0.7801  -0.3047   0.00    1.4
2173   1055.000  -1050083.5927  -4468050.5933   4415385.6133   2   8   0.4007   0.8535   1.0798   0.3957  -0.7800  -0.3047   0.00    1.4
2173   1056.000  -1050083.4861  -4468050.7793   4415385.6647   2   8   0.4007   0.8535   1.0798   0.3956  -0.7799  -0.3047   0.00    1.3
2173   1057.000  -1050083.5994  -4468050.3308   4415385.1275   2   8   0.4007   0.8534   1.0797   0.3956  -0.7798  -0.3046   0.00    1.4
2173   1058.000  -1050083.5299  -4468050.3312   4415385.3329   2   8   0.4006   0.8534   1.0796   0.3955  -0.7797  -0.3046   0.00    1.4
2173   1059.000  -1050083.5643  -4468050.5403   4415385.4843   2   8   0.2848   0.6060   0.7670   0.2813  -0.5538  -0.2175   1.00    1.4
2173   1060.000  -1050083.5750  -4468050.7084   4415385.6082   2   8   0.2329   0.4955   0.6271   0.2301  -0.4527  -0.1781   2.00    1.4
2173   1061.000  -1050083.6211  -4468050.7224   4415385.5435   2   8   0.2019   0.4294   0.5432   0.1994  -0.3922  -0.1544   3.00    1.5
2173   1062.000  -1050083.6337  -4468050.7317   4415385.5832   2   8   0.1807   0.3842   0.4859   0.1784  -0.3508  -0.1382   4.00    1.5
2173   1063.000  -1050083.6377  -4468050.7408   4415385.6322   2   8   0.1650   0.3508   0.4435   0.1629  -0.3202  -0.1261   5.00    1.6
2173   1064.000  -1050083.6358  -4468050.7611   4415385.6690   2   8   0.1528   0.3248   0.4105   0.1509  -0.2964  -0.1168   6.00    1.7
2173   1065.000  -1050083.6455  -4468050.7730   4415385.6805   2   8   0.1430   0.3039   0.3839   0.1412  -0.2772  -0.1092   7.00    1.7
2173   1066.000  -1050083.6691  -4468050.7775   4415385.6776   2   8   0.1348   0.2866   0.3618   0.1331  -0.2613  -0.1030   8.00    1.7
2173   1067.000  -1050083.6665  -4468050.7644   4415385.6625   2   8   0.1280   0.2720   0.3432   0.1263  -0.2479  -0.0977   9.00    1.8
2173   1068.000  -1050083.6760  -4468050.7456   4415385.6483   2   8   0.1221   0.2594   0.3272   0.1205  -0.2363  -0.0931  10.00    1.8
2173   1069.000  -1050083.6740  -4468050.7521   4415385.6671   2   8   0.1169   0.2485   0.3133   0.1154  -0.2263  -0.0891  11.00    1.8
2173   1070.000  -1050083.6910  -4468050.7798   4415385.7108   2   8   0.1124   0.2389   0.3011   0.1109  -0.2175  -0.0856  12.00    1.8
