% program   : rnx2rtkp ver.2.4.3 b31
% inp file  : ngs/21_09_02_07_16_57_scwt.obs
% inp file  : ngs/21_09_02_07_16_57_scwt_SW.obs
% inp file  : ngs/21_09_02_07_16_57_brdc.nav
% obs start : 2021/09/02 07:00:00.0 GPST (week2173 370800.0s)
% obs end   : 2021/09/02 07:59:59.0 GPST (week2173 374399.0s)
% ref pos   :   877834.0614  -5342142.3465   3360930.2191
%
% (x/y/z-ecef=WGS84,Q=1:fix,2:float,3:sbas,4:dgps,5:single,6:ppp,ns=# of satellites)
%  GPST              x-ecef(m)      y-ecef(m)      z-ecef(m)   Q  ns   sdx(m)   sdy(m)   sdz(m)  sdxy(m)  sdyz(m)  sdzx(m) age(s)  ratio
2173 371792.000    869160.3813  -5289361.8574   3444970.6507   2   6   0.5226   1.5620   0.6139  -0.3588  -0.7574   0.2134 -30.00    1.1
2173 371793.000    869160.4353  -5289361.7520   3444970.6438   2   6   0.3725   1.1117   0.4365  -0.2583  -0.5389   0.1528 -29.00    1.0
2173 371794.000    869160.4486  -5289361.6070   3444970.5922   2   6   0.3051   0.9102   0.3574  -0.2120  -0.4412   0.1252 -28.00    1.0
2173 371795.000    869160.4373  -5289361.6237   3444970.5969   2   6   0.2647   0.7896   0.3101  -0.1839  -0.3829   0.1086 -27.00    1.0
2173 371796.000    869160.4427  -5289361.6637   3444970.6232   2   6   0.2371   0.7071   0.2778  -0.1646  -0.3429   0.0972 -26.00    1.0
2173 371797.000    869160.4589  -5289361.6713   3444970.6538   2   6   0.2167   0.6460   0.2539  -0.1503  -0.3134   0.0888 -25.00    1.0
2173 371798.000    869160.4575  -5289361.6967   3444970.6577   2   6   0.2007   0.5985   0.2352  -0.1391  -0.2903   0.0822 -24.00    1.0
2173 371799.000    869160.4394  -5289361.7217   3444970.6487   2   6   0.1879   0.5600   0.2202  -0.1301  -0.2717   0.0769 -23.00    1.1
2173 371800.000    869160.4337  -5289361.7700   3444970.6600   2   6   0.1772   0.5281   0.2077  -0.1227  -0.2563   0.0725 -22.00    1.1
2173 371801.000    869160.4360  -5289361.7765   3444970.6658   2   6   0.1681   0.5010   0.1971  -0.1164  -0.2432   0.0687 -21.00    1.1
2173 371802.000    869160.4292  -5289361.7551   3444970.6540   2   6   0.1604   0.4776   0.1880  -0.1109  -0.2319   0.0655 -20.00    1.1
2173 371803.000    869160.4356  -5289361.7583   3444970.6441   2   6   0.1535   0.4572   0.1800  -0.1062  -0.2220   0.0627 -19.00    1.1
2173 371804.000    869160.4395  -5289361.7728   3444970.6415   2   6   0.1475   0.4391   0.1729  -0.1020  -0.2132   0.0603 -18.00    1.2
2173 371805.000    869160.4406  -5289361.7792   3444970.6381   2   6   0.1421   0.4229   0.1666  -0.0983  -0.2053   0.0581 -17.00    1.2
2173 371806.000    869160.4325  -5289361.7857   3444970.6329   2   6   0.1373   0.4084   0.1609  -0.0950  -0.1983   0.0561 -16.00    1.1
2173 371807.000    869160.4331  -5289361.7777   3444970.6232   2   6   0.1329   0.3951   0.1557  -0.0920  -0.1919   0.0543 -15.00    1.1
2173 371808.000    869160.4367  -5289361.7639   3444970.6153   2   6   0.1289   0.3831   0.1510  -0.0893  -0.1860   0.0527 -14.00    1.1
2173 371809.000    869160.4421  -5289361.7616   3444970.6196   2   6   0.1253   0.3720   0.1467  -0.0868  -0.1806   0.0512 -13.00    1.1
2173 371810.000    869160.4349  -5289361.7738   3444970.6239   2   6   0.1219   0.3617   0.1427  -0.0845  -0.1756   0.0498 -12.00    1.0
2173 371811.000    869160.4366  -5289361.7485   3444970.6266   2   6   0.1188   0.3522   0.1390  -0.0823  -0.1710   0.0485 -11.00    1.0
2173 371812.000    869160.4391  -5289361.7428   3444970.6300   2   6   0.1159   0.3434   0.1355  -0.0804  -0.1667   0.0473 -10.00    1.0
2173 371813.000    869160.4339  -5289361.7580   3444970.6353   2   6   0.1132   0.3351   0.1323  -0.0785  -0.1627   0.0462  -9.00    1.0
2173 371814.000    869160.4399  -5289361.7636   3444970.6428   2   6   0.1106   0.3273   0.1293  -0.0768  -0.1589   0.0452  -8.00    1.0
2173 371815.000    869160.4427  -5289361.7895   3444970.6499   2   6   0.1083   0.3200   0.1265  -0.0751  -0.1553   0.0442  -7.00    1.0
2173 371816.000    869160.4563  -5289361.8168   3444970.6625   2   6   0.1061   0.3131   0.1238  -0.0736  -0.1519   0.0433  -6.00    1.0
2173 371817.000    869160.4669  -5289361.8494   3444970.6709   2   6   0.1040   0.3066   0.1213  -0.0721  -0.1488   0.0424  -5.00    1.1
2173 371818.000    869160.4674  -5289361.8923   3444970.6824   2   6   0.1020   0.3004   0.1189  -0.0707  -0.1457   0.0416  -4.00    1.1
2173 371819.000    869160.4702  -5289361.9112   3444970.6889   2   6   0.1001   0.2946   0.1167  -0.0693  -0.1429   0.0408  -3.00    1.1
2173 371820.000    869160.4757  -5289361.9338   3444970.6967   2   6   0.0984   0.2890   0.1146  -0.0680  -0.1401   0.0400  -2.00    1.1
2173 371821.000    869160.4765  -5289361.9712   3444970.7068   2   6   0.0967   0.2838   0.1125  -0.0668  -0.1375   0.0393  -1.00    1.2
2173 371822.000    869160.4848  -5289362.0016   3444970.7205   2   6   0.0951   0.2788   0.1107  -0.0656  -0.1351   0.0386   0.00    1.2
2173 371823.000    869160.4854  -5289362.0131   3444970.7248   2   6   0.0936   0.2740   0.1088  -0.0645  -0.1328   0.0380   0.00    1.2
2173 371824.000    869160.4926  -5289362.0289   3444970.7341   2   6   0.0922   0.2695   0.1071  -0.0634  -0.1306   0.0373   0.00    1.3
2173 371825.000    869160.5000  -5289362.0617   3444970.7440   2   6   0.0908   0.2652   0.1055  -0.0624  -0.1284   0.0367   0.00    1.4
2173 371826.000    869160.5102  -5289362.0706   3444970.7536   2   6   0.0895   0.2610   0.1039  -0.0614  -0.1264   0.0362   0.00    1.4
2173 371827.000    869160.5229  -5289362.0825   3444970.7662   2   6   0.0883   0.2570   0.1024  -0.0604  -0.1244   0.0355   0.00    1.4
2173 371828.000    869160.5311  -5289362.0629   3444970.7673   2   6   0.0871   0.2531   0.1009  -0.0595  -0.1225   0.0351   0.00    1.4
2173 371829.000    869160.5409  -5289362.0458   3444970.7651   2   6   0.0859   0.2494   0.0995  -0.0586  -0.1207   0.0345   0.00    1.4
2173 371830.000    869160.5426  -5289361.9943   3444970.7532   2   6   0.0848   0.2458   0.0981  -0.0577  -0.1189   0.0340   0.00    1.3
2173 371831.000    869160.5445  -5289361.9677   3444970.7500   2   6   0.0837   0.2423   0.0968  -0.0569  -0.1171   0.0335   0.00    1.3
2173 371832.000    869160.5427  -5289361.9259   3444970.7370   2   6   0.0827   0.2389   0.0956  -0.0560  -0.1154   0.0330   0.00    1.2
2173 371833.000    869160.5463  -5289361.8899   3444970.7272   2   6   0.0817   0.2356   0.0943  -0.0552  -0.1138   0.0326   0.00    1.2
2173 371834.000    869160.5462  -5289361.8226   3444970.7108   2   8   0.0803   0.2283   0.0929  -0.0535  -0.1111   0.0322   0.00    1.2
2173 371835.000    869160.5424  -5289361.7848   3444970.7075   2   8   0.0790   0.2217   0.0916  -0.0520  -0.1085   0.0319   0.00    1.5
2173 371836.000    869160.5446  -5289361.7537   3444970.7081   2   8   0.0777   0.2156   0.0903  -0.0506  -0.1062   0.0315   0.00    1.7
2173 371837.000    869160.5486  -5289361.7262   3444970.7099   2   8   0.0765   0.2101   0.0890  -0.0493  -0.1040   0.0312   0.00    1.9
2173 371838.000    869160.5506  -5289361.6970   3444970.7091   2   8   0.0754   0.2049   0.0879  -0.0481  -0.1019   0.0309   0.00    2.0
2173 371839.000    869160.5534  -5289361.6567   3444970.7038   2   8   0.0743   0.2000   0.0867  -0.0469  -0.1000   0.0306   0.00    2.0
2173 371840.000    869160.5578  -5289361.6261   3444970.7001   2   8   0.0732   0.1955   0.0856  -0.0459  -0.0981   0.0303   0.00    2.0
2173 371841.000    869160.5616  -5289361.6173   3444970.6990   2   8   0.0722   0.1912   0.0846  -0.0449  -0.0963   0.0301   0.00    1.9
2173 371842.000    869160.5652  -5289361.6038   3444970.6996   2   8   0.0713   0.1871   0.0836  -0.0440  -0.0946   0.0298   0.00    1.9
2173 371843.000    869160.5651  -5289361.5908   3444970.7004   2   8   0.0703   0.1833   0.0826  -0.0431  -0.0930   0.0295   0.00    1.9
2173 371844.000    869160.5669  -5289361.5709   3444970.7002   2   8   0.0695   0.1797   0.0816  -0.0422  -0.0915   0.0293   0.00    1.8
2173 371845.000    869160.5676  -5289361.5474   3444970.7020   2   8   0.0686   0.1762   0.0806  -0.0414  -0.0900   0.0290   0.00    1.8
2173 371846.000    869160.5694  -5289361.5197   3444970.7011   2   8   0.0678   0.1729   0.0797  -0.0407  -0.0885   0.0287   0.00    1.7
2173 371847.000    869160.5695  -5289361.4916   3444970.6990   2   8   0.0670   0.1697   0.0789  -0.0399  -0.0871   0.0284   0.00    1.7
2173 371848.000    869160.5646  -5289361.4713   3444970.6945   2   8   0.0662   0.1667   0.0780  -0.0392  -0.0858   0.0282   0.00    1.6
2173 371849.000    869160.5620  -5289361.4466   3444970.6849   2   8   0.0655   0.1638   0.0771  -0.0386  -0.0845   0.0280   0.00    1.6
2173 371850.000    869160.5590  -5289361.4315   3444970.6812   2   8   0.0648   0.1611   0.0763  -0.0379  -0.0832   0.0277   0.00    1.6
2173 371851.000    869160.5577  -5289361.4264   3444970.6787   2   8   0.0641   0.1584   0.0754  -0.0373  -0.0820   0.0276   0.00    1.6
2173 371852.000    869160.5554  -5289361.4287   3444970.6780   2   8   0.0634   0.1558   0.0747  -0.0367  -0.0808   0.0273   0.00    1.5
2173 371853.000    869160.5570  -5289361.4217   3444970.6778   2   8   0.0628   0.1533   0.0739  -0.0360  -0.0796   0.0271   0.00    1.5
2173 371854.000    869160.5556  -5289361.4230   3444970.6816   2   8   0.0621   0.1509   0.0732  -0.0355  -0.0785   0.0268   0.00    1.5
2173 371855.000    869160.5555  -5289361.4454   3444970.6920   2   8   0.0615   0.1486   0.0724  -0.0349  -0.0774   0.0266   0.00    1.5
2173 371856.000    869160.5526  -5289361.4496   3444970.6926   2   8   0.0609   0.1463   0.0717  -0.0344  -0.0763   0.0263   0.00    1.5
2173 371857.000    869160.5523  -5289361.4600   3444970.6958   2   8   0.0604   0.1442   0.0710  -0.0339  -0.0753   0.0261   0.00    1.5
2173 371858.000    869160.5495  -5289361.4746   3444970.7018   2   8   0.0598   0.1421   0.0703  -0.0334  -0.0742   0.0259   0.00    1.5
2173 371859.000    869160.5490  -5289361.4686   3444970.7019   2   8   0.0592   0.1400   0.0696  -0.0329  -0.0733   0.0257   0.00    1.5
2173 371860.000    869160.5440  -5289361.4573   3444970.6995   2   8   0.0587   0.1380   0.0689  -0.0324  -0.0723   0.0254   0.00    1.4
2173 371861.000    869160.5395  -5289361.4501   3444970.6959   2   8   0.0582   0.1361   0.0683  -0.0320  -0.0713   0.0252   0.00    1.4
2173 371862.000    869160.5359  -5289361.4456   3444970.6949   2   8   0.0577   0.1342   0.0676  -0.0315  -0.0704   0.0250   0.00    1.4
2173 371863.000    869160.5358  -5289361.4308   3444970.6866   2   8   0.0572   0.1324   0.0670  -0.0310  -0.0694   0.0249   0.00    1.4
2173 371864.000    869160.5334  -5289361.4257   3444970.6809   2   8   0.0567   0.1306   0.0664  -0.0306  -0.0685   0.0245   0.00    1.4
2173 371865.000    869160.5315  -5289361.4250   3444970.6794   2   8   0.0563   0.1289   0.0657  -0.0302  -0.0676   0.0244   0.00    1.4
2173 371866.000    869160.5257  -5289361.4193   3444970.6765   2   8   0.0558   0.1271   0.0652  -0.0298  -0.0667   0.0241   0.00    1.3
2173 371867.000    869160.5261  -5289361.4194   3444970.6748   2   8   0.0554   0.1255   0.0646  -0.0293  -0.0659   0.0239   0.00    1.3
2173 371868.000    869160.5276  -5289361.4283   3444970.6775   2   8   0.0549   0.1239   0.0640  -0.0289  -0.0650   0.0238   0.00    1.3
2173 371869.000    869160.5267  -5289361.4327   3444970.6789   2   8   0.0545   0.1223   0.0634  -0.0286  -0.0642   0.0236   0.00    1.3
2173 371870.000    869160.5252  -5289361.4345   3444970.6826   2   8   0.0541   0.1208   0.0628  -0.0282  -0.0634   0.0234   0.00    1.3
2173 371871.000    869160.5239  -5289361.4378   3444970.6833   2   8   0.0537   0.1192   0.0623  -0.0278  -0.0625   0.0232   0.00    1.3
2173 371872.000    869160.5234  -5289361.4449   3444970.6862   2   8   0.0533   0.1178   0.0618  -0.0274  -0.0618   0.0230   0.00    1.3
2173 371873.000    869160.5230  -5289361.4450   3444970.6856   2   8   0.0529   0.1163   0.0612  -0.0270  -0.0610   0.0229   0.00    1.3
2173 371874.000    869160.5174  -5289361.4409   3444970.6844   2   8   0.0525   0.1149   0.0606  -0.0267  -0.0602   0.0226   0.00    1.3
2173 371875.000    869160.5152  -5289361.4419   3444970.6818   2   8   0.0522   0.1135   0.0601  -0.0263  -0.0595   0.0224   0.00    1.3
2173 371876.000    869160.5135  -5289361.4466   3444970.6789   2   8   0.0518   0.1122   0.0596  -0.0259  -0.0587   0.0223   0.00    1.2
2173 371877.000    869160.5119  -5289361.4393   3444970.6755   2   8   0.0514   0.1108   0.0591  -0.0256  -0.0580   0.0221   0.00    1.2
2173 371878.000    869160.5063  -5289361.4316   3444970.6688   2   8   0.0511   0.1095   0.0586  -0.0253  -0.0573   0.0219   0.00    1.2
2173 371879.000    869160.5053  -5289361.4209   3444970.6610   2   8   0.0507   0.1083   0.0581  -0.0249  -0.0565   0.0217   0.00    1.2
2173 371880.000    869160.5027  -5289361.4066   3444970.6545   2   8   0.0504   0.1070   0.0576  -0.0246  -0.0559   0.0215   0.00    1.2
2173 371881.000    869160.5022  -5289361.4014   3444970.6525   2   8   0.0501   0.1058   0.0571  -0.0243  -0.0552   0.0213   0.00    1.2
2173 371882.000    869160.4995  -5289361.3894   3444970.6487   2   8   0.0497   0.1046   0.0567  -0.0240  -0.0545   0.0212   0.00    1.2
2173 371883.000    869160.4988  -5289361.3831   3444970.6458   2   8   0.0494   0.1034   0.0561  -0.0236  -0.0538   0.0211   0.00    1.2
2173 371884.000    869160.4959  -5289361.3813   3444970.6424   2   8   0.0491   0.1022   0.0557  -0.0234  -0.0531   0.0209   0.00    1.2
2173 371885.000    869160.4936  -5289361.3821   3444970.6415   2   8   0.0488   0.1011   0.0553  -0.0230  -0.0525   0.0207   0.00    1.2
2173 371886.000    869160.4954  -5289361.3834   3444970.6403   2   8   0.0485   0.1000   0.0548  -0.0228  -0.0519   0.0205   0.00    1.2
2173 371887.000    869160.4960  -5289361.3934   3444970.6409   2   8   0.0482   0.0989   0.0544  -0.0224  -0.0512   0.0203   0.00    1.2
2173 371888.000    869160.4967  -5289361.3782   3444970.6413   2   8   0.0479   0.0978   0.0539  -0.0221  -0.0506   0.0203   0.00    1.2
2173 371889.000    869160.4932  -5289361.3603   3444970.6403   2   8   0.0477   0.0967   0.0535  -0.0218  -0.0500   0.0201   0.00    1.2
2173 371890.000    869160.4923  -5289361.3376   3444970.6369   2   8   0.0473   0.0957   0.0531  -0.0215  -0.0494   0.0199   0.00    1.1
2173 371891.000    869160.4902  -5289361.3136   3444970.6321   2   8   0.0471   0.0946   0.0527  -0.0212  -0.0488   0.0198   0.00    1.1
2173 371892.000    869160.4894  -5289361.2920   3444970.6290   2   8   0.0468   0.0936   0.0522  -0.0209  -0.0482   0.0196   0.00    1.1
2173 371893.000    869160.4864  -5289361.2596   3444970.6207   2   8   0.0465   0.0926   0.0518  -0.0207  -0.0476   0.0195   0.00    1.1
2173 371894.000    869160.4790  -5289361.2278   3444970.6099   2   8   0.0463   0.0917   0.0515  -0.0204  -0.0470   0.0193   0.00    1.1
2173 371895.000    869160.4897  -5289361.2137   3444970.6007   2   8   0.0460   0.0907   0.0510  -0.0202  -0.0464   0.0192   0.00    1.1
2173 371896.000    869160.4823  -5289361.1935   3444970.5909   2   8   0.0458   0.0898   0.0506  -0.0199  -0.0459   0.0190   0.00    1.0
2173 371897.000    869160.4801  -5289361.1887   3444970.5900   2   8   0.0455   0.0888   0.0503  -0.0196  -0.0453   0.0188   0.00    1.0
2173 371898.000    869160.4782  -5289361.1849   3444970.5848   2   8   0.0453   0.0879   0.0498  -0.0194  -0.0448   0.0187   0.00    1.0
2173 371899.000    869160.4794  -5289361.2013   3444970.5892   2   8   0.0450   0.0870   0.0495  -0.0191  -0.0443   0.0186   0.00    1.0
2173 371900.000    869160.4765  -5289361.2200   3444970.5903   2   8   0.0448   0.0862   0.0491  -0.0189  -0.0437   0.0184   0.00    1.0
2173 371901.000    869160.4776  -5289361.2425   3444970.5954   2   8   0.0445   0.0853   0.0487  -0.0186  -0.0432   0.0184   0.00    1.0
2173 371902.000    869160.4790  -5289361.2582   3444970.6044   2   8   0.0443   0.0844   0.0484  -0.0184  -0.0427   0.0181   0.00    1.0
2173 371903.000    869160.4788  -5289361.2716   3444970.6116   2   8   0.0441   0.0836   0.0479  -0.0182  -0.0421   0.0181   0.00    1.0
2173 371904.000    869160.4782  -5289361.2723   3444970.6146   2   8   0.0439   0.0828   0.0476  -0.0179  -0.0417   0.0179   0.00    1.0
2173 371905.000    869160.4796  -5289361.2729   3444970.6189   2   8   0.0437   0.0819   0.0473  -0.0176  -0.0412   0.0178   0.00    1.0
2173 371906.000    869160.4810  -5289361.2668   3444970.6216   2   8   0.0434   0.0811   0.0470  -0.0174  -0.0407   0.0176   0.00    1.0
2173 371907.000    869160.4769  -5289361.2711   3444970.6197   2   8   0.0432   0.0803   0.0466  -0.0172  -0.0402   0.0175   0.00    1.0
2173 371908.000    869160.4751  -5289361.2792   3444970.6221   2   8   0.0430   0.0796   0.0463  -0.0170  -0.0397   0.0174   0.00    1.0
2173 371909.000    869160.4733  -5289361.2882   3444970.6264   2   8   0.0428   0.0788   0.0460  -0.0168  -0.0392   0.0172   0.00    1.0
2173 371910.000    869160.4707  -5289361.3019   3444970.6296   2   8   0.0426   0.0781   0.0456  -0.0166  -0.0387   0.0171   0.00    1.0
2173 371911.000    869160.4687  -5289361.3125   3444970.6298   2   8   0.0424   0.0773   0.0453  -0.0163  -0.0383   0.0170   0.00    1.0
2173 371912.000    869160.4689  -5289361.3227   3444970.6375   2   8   0.0422   0.0766   0.0449  -0.0161  -0.0378   0.0169   0.00    1.0
2173 371913.000    869160.4683  -5289361.3261   3444970.6390   2   8   0.0420   0.0759   0.0446  -0.0158  -0.0374   0.0168   0.00    1.0
2173 371914.000    869160.4685  -5289361.3324   3444970.6413   2   8   0.0418   0.0751   0.0443  -0.0157  -0.0370   0.0166   0.00    1.0
2173 371915.000    869160.4642  -5289361.3460   3444970.6433   2   8   0.0416   0.0745   0.0440  -0.0155  -0.0365   0.0166   0.00    1.0
2173 371916.000    869160.4648  -5289361.3526   3444970.6490   2   8   0.0414   0.0738   0.0437  -0.0152  -0.0361   0.0164   0.00    1.0
2173 371917.000    869160.4648  -5289361.3602   3444970.6514   2   8   0.0412   0.0731   0.0434  -0.0151  -0.0357   0.0163   0.00    1.0
2173 371918.000    869160.4666  -5289361.3731   3444970.6563   2   8   0.0410   0.0724   0.0431  -0.0148  -0.0352   0.0162   0.00    1.0
2173 371919.000    869160.4661  -5289361.3742   3444970.6603   2   8   0.0409   0.0718   0.0428  -0.0147  -0.0348   0.0161   0.00    1.0
2173 371920.000    869160.4639  -5289361.3805   3444970.6639   2   8   0.0407   0.0711   0.0425  -0.0144  -0.0344   0.0160   0.00    1.0
2173 371921.000    869160.4603  -5289361.3874   3444970.6644   2   8   0.0405   0.0705   0.0422  -0.0143  -0.0340   0.0159   0.00    1.0
2173 371922.000    869160.4594  -5289361.3991   3444970.6668   2   8   0.0404   0.0698   0.0420  -0.0141  -0.0336   0.0158   0.00    1.0
2173 371923.000    869160.4573  -5289361.4134   3444970.6673   2   8   0.0401   0.0692   0.0417  -0.0139  -0.0332   0.0156   0.00    1.0
2173 371924.000    869160.4552  -5289361.4426   3444970.6762   2   8   0.0400   0.0686   0.0414  -0.0137  -0.0328   0.0156   0.00    1.0
2173 371925.000    869160.4579  -5289361.4690   3444970.6844   2   8   0.0398   0.0680   0.0411  -0.0135  -0.0325   0.0155   0.00    1.0
2173 371926.000    869160.4568  -5289361.5000   3444970.6963   2   8   0.0397   0.0674   0.0409  -0.0134  -0.0321   0.0153   0.00    1.0
2173 371927.000    869160.4559  -5289361.5314   3444970.7113   2   8   0.0395   0.0668   0.0406  -0.0131  -0.0317   0.0152   0.00    1.0
2173 371928.000    869160.4566  -5289361.5612   3444970.7273   2   8   0.0393   0.0662   0.0403  -0.0130  -0.0313   0.0152   0.00    1.0
2173 371929.000    869160.4570  -5289361.5825   3444970.7390   2   8   0.0391   0.0657   0.0400  -0.0127  -0.0310   0.0151   0.00    1.0
2173 371930.000    869160.4554  -5289361.5966   3444970.7470   2   8   0.0390   0.0651   0.0398  -0.0126  -0.0306   0.0150   0.00    1.0
2173 371931.000    869160.4545  -5289361.6099   3444970.7566   2   8   0.0389   0.0646   0.0395  -0.0125  -0.0303   0.0149   0.00    1.0
2173 371932.000    869160.4534  -5289361.6174   3444970.7610   2   8   0.0387   0.0640   0.0393  -0.0123  -0.0299   0.0148   0.00    1.0
2173 371933.000    869160.4508  -5289361.6247   3444970.7657   2   8   0.0386   0.0635   0.0391  -0.0121  -0.0296   0.0146   0.00    1.0
2173 371934.000    869160.4528  -5289361.6504   3444970.7970   2   8   0.0384   0.0629   0.0388  -0.0119  -0.0292   0.0145   0.00    1.1
2173 371935.000    869160.4523  -5289361.6614   3444970.8125   2   8   0.0383   0.0624   0.0386  -0.0117  -0.0288   0.0145   0.00    1.1
2173 371936.000    869160.4549  -5289361.6721   3444970.8312   2   8   0.0381   0.0619   0.0383  -0.0115  -0.0285   0.0144   0.00    1.1
2173 371937.000    869160.4569  -5289361.6862   3444970.8483   2   8   0.0380   0.0614   0.0381  -0.0114  -0.0282   0.0143   0.00    1.1
2173 371938.000    869160.4564  -5289361.6953   3444970.8646   2   8   0.0378   0.0609   0.0378  -0.0113  -0.0279   0.0142   0.00    1.1
2173 371939.000    869160.4581  -5289361.6989   3444970.8796   2   8   0.0377   0.0604   0.0376  -0.0111  -0.0275   0.0141   0.00    1.1
2173 371940.000    869160.4591  -5289361.7075   3444970.8994   2   8   0.0375   0.0599   0.0373  -0.0109  -0.0272   0.0142   0.00    1.1
2173 371941.000    869160.4584  -5289361.7145   3444970.9160   2   8   0.0374   0.0594   0.0372  -0.0107  -0.0269   0.0140   0.00    1.1
2173 371942.000    869160.4550  -5289361.7278   3444970.9322   2   8   0.0372   0.0590   0.0369  -0.0106  -0.0266   0.0139   0.00    1.1
2173 371943.000    869160.4555  -5289361.7302   3444970.9461   2   8   0.0371   0.0585   0.0367  -0.0103  -0.0263   0.0139   0.00    1.1
2173 371944.000    869160.4558  -5289361.7382   3444970.9676   2   8   0.0370   0.0580   0.0364  -0.0104  -0.0259   0.0138   0.00    1.1
2173 371945.000    869160.4538  -5289361.7385   3444970.9809   2   8   0.0368   0.0576   0.0363  -0.0100  -0.0257   0.0137   0.00    1.1
2173 371946.000    869160.4508  -5289361.7348   3444970.9866   2   8   0.0368   0.0571   0.0360  -0.0100  -0.0254   0.0135   0.00    1.1
2173 371947.000    869160.4511  -5289361.7445   3444970.9997   2   8   0.0366   0.0567   0.0358  -0.0098  -0.0251   0.0134   0.00    1.1
2173 371948.000    869160.4482  -5289361.7425   3444971.0042   2   8   0.0365   0.0562   0.0357  -0.0097  -0.0248   0.0133   0.00    1.1
2173 371949.000    869160.4491  -5289361.7506   3444971.0149   2   8   0.0364   0.0558   0.0354  -0.0095  -0.0245   0.0132   0.00    1.1
2173 371950.000    869160.4461  -5289361.7598   3444971.0255   2   8   0.0362   0.0554   0.0352  -0.0094  -0.0243   0.0131   0.00    1.1
2173 371951.000    869160.4490  -5289361.7696   3444971.0368   2   8   0.0361   0.0549   0.0350  -0.0093  -0.0240   0.0132   0.00    1.2
2173 371952.000    869160.4510  -5289361.7662   3444971.0466   2   8   0.0359   0.0545   0.0347  -0.0091  -0.0237   0.0131   0.00    1.2
2173 371953.000    869160.4542  -5289361.7598   3444971.0567   2   8   0.0358   0.0541   0.0345  -0.0089  -0.0234   0.0131   0.00    1.2
2173 371954.000    869160.4555  -5289361.7515   3444971.0650   2   8   0.0357   0.0537   0.0344  -0.0087  -0.0232   0.0130   0.00    1.2
2173 371955.000    869160.4520  -5289361.7440   3444971.0721   2   8   0.0356   0.0533   0.0342  -0.0087  -0.0229   0.0128   0.00    1.2
2173 371956.000    869160.4519  -5289361.7374   3444971.0777   2   8   0.0354   0.0529   0.0339  -0.0085  -0.0227   0.0129   0.00    1.2
2173 371957.000    869160.4508  -5289361.7385   3444971.1024   2   8   0.0353   0.0525   0.0337  -0.0085  -0.0224   0.0129   0.00    1.2
2173 371958.000    869160.4497  -5289361.7374   3444971.1070   2   8   0.0352   0.0521   0.0336  -0.0083  -0.0221   0.0127   0.00    1.2
2173 371959.000    869160.4492  -5289361.7415   3444971.1121   2   8   0.0351   0.0518   0.0334  -0.0081  -0.0219   0.0125   0.00    1.2
2173 371960.000    869160.4483  -5289361.7416   3444971.1201   2   8   0.0350   0.0514   0.0332  -0.0081  -0.0217   0.0126   0.00    1.2
2173 371961.000    869160.4479  -5289361.7382   3444971.1250   2   8   0.0349   0.0510   0.0331  -0.0078  -0.0213   0.0124   0.00    1.2
2173 371962.000    869160.4501  -5289361.7309   3444971.1319   2   8   0.0348   0.0507   0.0328  -0.0076  -0.0211   0.0124   0.00    1.2
2173 371963.000    869160.4530  -5289361.7250   3444971.1396   2   8   0.0346   0.0503   0.0327  -0.0077  -0.0209   0.0124   0.00    1.2
2173 371964.000    869160.4533  -5289361.7144   3444971.1484   2   8   0.0346   0.0499   0.0325  -0.0073  -0.0206   0.0123   0.00    1.2
2173 371965.000    869160.4543  -5289361.7055   3444971.1525   2   8   0.0345   0.0496   0.0324  -0.0073  -0.0204   0.0122   0.00    1.2
2173 371966.000    869160.4567  -5289361.7082   3444971.1606   2   8   0.0343   0.0492   0.0322  -0.0073  -0.0202   0.0119   0.00    1.2
2173 371967.000    869160.4566  -5289361.6973   3444971.1657   2   8   0.0342   0.0489   0.0320  -0.0071  -0.0200   0.0119   0.00    1.2
2173 371968.000    869160.4587  -5289361.6974   3444971.1730   2   8   0.0341   0.0485   0.0318  -0.0070  -0.0197   0.0119   0.00    1.2
2173 371969.000    869160.4589  -5289361.6866   3444971.1763   2   8   0.0340   0.0482   0.0316  -0.0068  -0.0195   0.0120   0.00    1.2
2173 371970.000    869160.4609  -5289361.6787   3444971.1848   2   8   0.0339   0.0479   0.0314  -0.0067  -0.0193   0.0118   0.00    1.2
2173 371971.000    869160.4614  -5289361.6653   3444971.1911   2   8   0.0338   0.0476   0.0313  -0.0065  -0.0191   0.0118   0.00    1.2
2173 371972.000    869160.4641  -5289361.6597   3444971.1963   2   8   0.0337   0.0472   0.0311  -0.0065  -0.0188   0.0116   0.00    1.2
2173 371973.000    869160.4628  -5289361.6527   3444971.2002   2   8   0.0336   0.0469   0.0309  -0.0063  -0.0186   0.0117   0.00    1.2
2173 371974.000    869160.4639  -5289361.6421   3444971.2028   2   8   0.0335   0.0466   0.0308  -0.0060  -0.0184   0.0117   0.00    1.2
2173 371975.000    869160.4640  -5289361.6364   3444971.2066   2   8   0.0334   0.0463   0.0306  -0.0059  -0.0182   0.0116   0.00    1.2
2173 371976.000    869160.4640  -5289361.6314   3444971.2108   2   8   0.0333   0.0460   0.0305  -0.0060  -0.0181   0.0113   0.00    1.2
2173 371977.000    869160.4610  -5289361.6161   3444971.2074   2   8   0.0332   0.0457   0.0303  -0.0057  -0.0179   0.0115   0.00    1.2
2173 371978.000    869160.4595  -5289361.6129   3444971.2086   2   8   0.0331   0.0454   0.0302  -0.0056  -0.0176   0.0114   0.00    1.2
2173 371979.000    869160.4581  -5289361.6150   3444971.2102   2   8   0.0330   0.0451   0.0300  -0.0055  -0.0174   0.0113   0.00    1.2
2173 371980.000    869160.4568  -5289361.6229   3444971.2134   2   8   0.0329   0.0448   0.0298  -0.0050  -0.0173   0.0114   0.00    1.2
2173 371981.000    869160.4568  -5289361.6321   3444971.2171   2   8   0.0328   0.0445   0.0297  -0.0053  -0.0170   0.0112   0.00    1.2
2173 371982.000    869160.4587  -5289361.6380   3444971.2229   2   8   0.0327   0.0442   0.0296  -0.0053  -0.0169   0.0112   0.00    1.2
2173 371983.000    869160.4600  -5289361.6446   3444971.2274   2   8   0.0326   0.0439   0.0294  -0.0049  -0.0167   0.0111   0.00    1.2
2173 371984.000    869160.4610  -5289361.6449   3444971.2304   2   8   0.0325   0.0437   0.0293  -0.0047  -0.0165   0.0111   0.00    1.2
2173 371985.000    869160.4623  -5289361.6459   3444971.2339   2   8   0.0325   0.0434   0.0292  -0.0046  -0.0163   0.0110   0.00    1.2
2173 371986.000    869160.4635  -5289361.6477   3444971.2368   2   8   0.0324   0.0431   0.0290  -0.0044  -0.0161   0.0110   0.00    1.2
2173 371987.000    869160.4642  -5289361.6509   3444971.2407   2   8   0.0323   0.0428   0.0288  -0.0043  -0.0159   0.0109   0.00    1.2
2173 371988.000    869160.4632  -5289361.6510   3444971.2443   2   8   0.0322   0.0426   0.0286  -0.0042  -0.0158   0.0109   0.00    1.1
2173 371989.000    869160.4610  -5289361.6453   3444971.2436   2   8   0.0321   0.0423   0.0285  -0.0042  -0.0155   0.0108   0.00    1.1
2173 371990.000    869160.4592  -5289361.6429   3444971.2428   2   8   0.0320   0.0420   0.0284  -0.0043  -0.0155   0.0108   0.00    1.1
2173 371991.000    869160.4601  -5289361.6396   3444971.2425   2   8   0.0319   0.0418   0.0282  -0.0040  -0.0152   0.0108   0.00    1.1
2173 371992.000    869160.4618  -5289361.6406   3444971.2447   2   8   0.0319   0.0415   0.0281  -0.0039  -0.0151   0.0108   0.00    1.1
2173 371993.000    869160.4654  -5289361.6479   3444971.2473   2   8   0.0318   0.0413   0.0280  -0.0035  -0.0149   0.0106   0.00    1.1
2173 371994.000    869160.4654  -5289361.6433   3444971.2449   2   8   0.0317   0.0410   0.0278  -0.0034  -0.0148   0.0105   0.00    1.1
2173 371995.000    869160.4669  -5289361.6485   3444971.2473   2   8   0.0316   0.0408   0.0277  -0.0033  -0.0146   0.0104   0.00    1.1
2173 371996.000    869160.4699  -5289361.6485   3444971.2526   2   8   0.0315   0.0405   0.0276  -0.0033  -0.0144   0.0105   0.00    1.1
2173 371997.000    869160.4720  -5289361.6459   3444971.2556   2   8   0.0314   0.0403   0.0274  -0.0033  -0.0142   0.0106   0.00    1.1
2173 371998.000    869160.4735  -5289361.6371   3444971.2602   2   8   0.0314   0.0401   0.0274  -0.0025  -0.0141   0.0104   0.00    1.1
2173 371999.000    869160.4767  -5289361.6286   3444971.2669   2   8   0.0312   0.0398   0.0272  -0.0030  -0.0140   0.0104   0.00    1.1
2173 372000.000    869160.4775  -5289361.6162   3444971.2648   2   8   0.0312   0.0396   0.0271  -0.0024  -0.0138   0.0104   0.00    1.1
2173 372001.000    869160.4791  -5289361.6016   3444971.2686   2   8   0.0312   0.0393   0.0269  -0.0023  -0.0136   0.0102   0.00    1.1
2173 372002.000    869160.4808  -5289361.5965   3444971.2743   2   8   0.0311   0.0391   0.0268  -0.0020  -0.0135   0.0102   0.00    1.1
2173 372003.000    869160.4813  -5289361.5946   3444971.2790   2   8   0.0309   0.0389   0.0267  -0.0021  -0.0134   0.0101   0.00    1.1
2173 372004.000    869160.4847  -5289361.5912   3444971.2846   2   8   0.0308   0.0387   0.0265  -0.0021  -0.0132   0.0101   0.00    1.1
2173 372005.000    869160.4815  -5289361.5902   3444971.2885   2   8   0.0308   0.0385   0.0264  -0.0022  -0.0131   0.0101   0.00    1.1
2173 372006.000    869160.4821  -5289361.5950   3444971.2896   2   8   0.0307   0.0382   0.0263  -0.0015  -0.0129   0.0102   0.00    1.1
2173 372007.000    869160.4808  -5289361.5876   3444971.2842   2   8   0.0307   0.0380   0.0261  -0.0012  -0.0127   0.0100   0.00    1.1
2173 372008.000    869160.4823  -5289361.5838   3444971.2827   2   8   0.0305   0.0378   0.0260  -0.0009  -0.0126   0.0101   0.00    1.1
2173 372009.000    869160.4790  -5289361.5833   3444971.2730   2   8   0.0305   0.0376   0.0259   0.0003  -0.0125   0.0100   0.00    1.1
2173 372010.000    869160.4797  -5289361.5865   3444971.2697   2   8   0.0304   0.0374   0.0258   0.0006  -0.0124   0.0098   0.00    1.1
2173 372011.000    869160.4793  -5289361.5956   3444971.2701   2   8   0.0304   0.0372   0.0258   0.0016  -0.0123   0.0098   0.00    1.1
2173 372012.000    869160.4812  -5289361.5995   3444971.2690   2   8   0.0302   0.0369   0.0256  -0.0009  -0.0120   0.0095   0.00    1.1
2173 372013.000    869160.4814  -5289361.6106   3444971.2686   2   8   0.0302   0.0368   0.0256   0.0017  -0.0119   0.0095   0.00    1.1
2173 372014.000    869160.4822  -5289361.6159   3444971.2694   2   8   0.0301   0.0365   0.0254   0.0014  -0.0119   0.0096   0.00    1.1
2173 372015.000    869160.4875  -5289361.6296   3444971.2732   2   8   0.0301   0.0363   0.0254   0.0021  -0.0117   0.0095   0.00    1.1
2173 372016.000    869160.4893  -5289361.6382   3444971.2828   2   8   0.0300   0.0362   0.0253   0.0026  -0.0115   0.0096   0.00    1.1
2173 372017.000    869160.4907  -5289361.6396   3444971.2870   2   8   0.0299   0.0360   0.0250   0.0024  -0.0114   0.0097   0.00    1.1
2173 372018.000    869160.4929  -5289361.6403   3444971.2933   2   8   0.0298   0.0358   0.0249   0.0024  -0.0113   0.0096   0.00    1.1
2173 372019.000    869160.4938  -5289361.6371   3444971.2970   2   8   0.0298   0.0356   0.0248   0.0022  -0.0111   0.0094   0.00    1.1
2173 372020.000    869160.4968  -5289361.6384   3444971.3012   2   8   0.0297   0.0354   0.0247   0.0025  -0.0111   0.0095   0.00    1.1
2173 372021.000    869160.4936  -5289361.6344   3444971.3002   2   8   0.0296   0.0352   0.0246   0.0029  -0.0109   0.0095   0.00    1.1
2173 372022.000    869160.4941  -5289361.6342   3444971.2999   2   8   0.0295   0.0350   0.0245   0.0027  -0.0108   0.0093   0.00    1.1
2173 372023.000    869160.4931  -5289361.6315   3444971.2995   2   8   0.0295   0.0348   0.0244   0.0029  -0.0108   0.0092   0.00    1.1
2173 372024.000    869160.4923  -5289361.6293   3444971.2989   2   8   0.0294   0.0347   0.0243   0.0031  -0.0105   0.0093   0.00    1.1
2173 372025.000    869160.4922  -5289361.6324   3444971.3037   2   8   0.0293   0.0345   0.0241   0.0027  -0.0105   0.0093   0.00    1.1
2173 372026.000    869160.4943  -5289361.6270   3444971.3058   2   8   0.0293   0.0343   0.0241   0.0032  -0.0104   0.0094   0.00    1.1
2173 372027.000    869160.4954  -5289361.6257   3444971.3097   2   8   0.0292   0.0341   0.0240   0.0035  -0.0102   0.0091   0.00    1.1
2173 372028.000    869160.4954  -5289361.6268   3444971.3137   2   8   0.0291   0.0340   0.0239   0.0032  -0.0101   0.0092   0.00    1.0
2173 372029.000    869160.4930  -5289361.6212   3444971.3139   2   8   0.0290   0.0338   0.0237   0.0030  -0.0101   0.0093   0.00    1.0
2173 372030.000    869160.4932  -5289361.6200   3444971.3147   2   8   0.0290   0.0336   0.0237   0.0034  -0.0099   0.0090   0.00    1.0
2173 372031.000    869160.4940  -5289361.6193   3444971.3179   2   8   0.0289   0.0334   0.0237   0.0033  -0.0098   0.0090   0.00    1.0
2173 372032.000    869160.4911  -5289361.6193   3444971.3184   2   8   0.0289   0.0333   0.0235   0.0035  -0.0097   0.0091   0.00    1.0
2173 372033.000    869160.4903  -5289361.6203   3444971.3202   2   8   0.0289   0.0331   0.0234   0.0036  -0.0096   0.0090   0.00    1.0
2173 372034.000    869160.4922  -5289361.6244   3444971.3203   2   8   0.0287   0.0329   0.0232   0.0036  -0.0096   0.0090   0.00    1.0
2173 372035.000    869160.4916  -5289361.6265   3444971.3190   2   8   0.0286   0.0328   0.0231   0.0036  -0.0094   0.0092   0.00    1.0
2173 372036.000    869160.4894  -5289361.6299   3444971.3188   2   8   0.0286   0.0326   0.0230   0.0038  -0.0092   0.0091   0.00    1.0
2173 372037.000    869160.4908  -5289361.6334   3444971.3206   2   8   0.0285   0.0325   0.0231   0.0039  -0.0092   0.0088   0.00    1.0
2173 372038.000    869160.4908  -5289361.6348   3444971.3206   2   8   0.0284   0.0323   0.0228   0.0038  -0.0091   0.0089   0.00    1.0
2173 372039.000    869160.4916  -5289361.6400   3444971.3201   2   8   0.0285   0.0321   0.0229   0.0038  -0.0089   0.0086   0.00    1.0
2173 372040.000    869160.4911  -5289361.6447   3444971.3213   2   8   0.0284   0.0320   0.0227   0.0038  -0.0089   0.0089   0.00    1.0
2173 372041.000    869160.4909  -5289361.6547   3444971.3226   2   8   0.0283   0.0318   0.0226   0.0038  -0.0088   0.0087   0.00    1.0
2173 372042.000    869160.4913  -5289361.6629   3444971.3230   2   8   0.0282   0.0317   0.0225   0.0042  -0.0087   0.0089   0.00    1.0
2173 372043.000    869160.4903  -5289361.6692   3444971.3231   2   8   0.0282   0.0315   0.0224   0.0041  -0.0087   0.0088   0.00    1.0
2173 372044.000    869160.4928  -5289361.6783   3444971.3280   2   8   0.0281   0.0314   0.0223   0.0040  -0.0085   0.0087   0.00    1.0
2173 372045.000    869160.4934  -5289361.6804   3444971.3271   2   8   0.0281   0.0312   0.0222   0.0041  -0.0084   0.0086   0.00    1.0
2173 372046.000    869160.4937  -5289361.6832   3444971.3303   2   8   0.0280   0.0311   0.0222   0.0042  -0.0084   0.0085   0.00    1.0
2173 372047.000    869160.4972  -5289361.6874   3444971.3348   2   8   0.0280   0.0310   0.0221   0.0041  -0.0083   0.0084   0.00    1.0
2173 372048.000    869160.4989  -5289361.6831   3444971.3357   2   8   0.0279   0.0308   0.0220   0.0043  -0.0081   0.0088   0.00    1.0
2173 372049.000    869160.5014  -5289361.6805   3444971.3379   2   8   0.0278   0.0307   0.0219   0.0041  -0.0080   0.0083   0.00    1.0
2173 372050.000    869160.5042  -5289361.6760   3444971.3395   2   8   0.0278   0.0305   0.0218   0.0043  -0.0079   0.0085   0.00    1.0
2173 372051.000    869160.5044  -5289361.6751   3444971.3418   2   8   0.0277   0.0304   0.0217   0.0044  -0.0080   0.0084   0.00    1.0
2173 372052.000    869160.5041  -5289361.6711   3444971.3391   2   8   0.0277   0.0303   0.0216   0.0044  -0.0079   0.0086   0.00    1.0
2173 372053.000    869160.5058  -5289361.6688   3444971.3410   2   8   0.0277   0.0301   0.0216   0.0046  -0.0077   0.0084   0.00    1.0
2173 372054.000    869160.5048  -5289361.6665   3444971.3411   2   8   0.0275   0.0300   0.0215   0.0044  -0.0076   0.0084   0.00    1.0
2173 372055.000    869160.5021  -5289361.6703   3444971.3413   2   8   0.0275   0.0299   0.0213   0.0046  -0.0076   0.0085   0.00    1.0
2173 372056.000    869160.5011  -5289361.6717   3444971.3386   2   8   0.0274   0.0297   0.0213   0.0045  -0.0074   0.0084   0.00    1.0
2173 372057.000    869160.4995  -5289361.6769   3444971.3388   2   8   0.0274   0.0296   0.0212   0.0047  -0.0074   0.0084   0.00    1.0
2173 372058.000    869160.5017  -5289361.6817   3444971.3384   2   8   0.0273   0.0294   0.0213   0.0044  -0.0073   0.0080   0.00    1.1
2173 372059.000    869160.5066  -5289361.6856   3444971.3413   2   8   0.0273   0.0293   0.0211   0.0047  -0.0072   0.0082   0.00    1.1
2173 372060.000    869160.5089  -5289361.6882   3444971.3415   2   8   0.0272   0.0292   0.0210   0.0045  -0.0072   0.0083   0.00    1.1
2173 372061.000    869160.5111  -5289361.6906   3444971.3458   2   8   0.0272   0.0291   0.0209   0.0048  -0.0072   0.0083   0.00    1.1
2173 372062.000    869160.5140  -5289361.6932   3444971.3474   2   8   0.0271   0.0289   0.0208   0.0045  -0.0070   0.0082   0.00    1.1
2173 372063.000    869160.5153  -5289361.6964   3444971.3517   2   8   0.0270   0.0288   0.0208   0.0047  -0.0071   0.0081   0.00    1.1
2173 372064.000    869160.5151  -5289361.6958   3444971.3543   2   8   0.0270   0.0287   0.0208   0.0048  -0.0069   0.0083   0.00    1.1
2173 372065.000    869160.5140  -5289361.6921   3444971.3542   2   8   0.0269   0.0286   0.0205   0.0046  -0.0069   0.0081   0.00    1.1
2173 372066.000    869160.5139  -5289361.6914   3444971.3568   2   8   0.0269   0.0284   0.0205   0.0044  -0.0068   0.0080   0.00    1.1
2173 372067.000    869160.5118  -5289361.6887   3444971.3593   2   8   0.0269   0.0283   0.0205   0.0046  -0.0068   0.0081   0.00    1.1
2173 372068.000    869160.5120  -5289361.6820   3444971.3603   2   8   0.0268   0.0282   0.0205   0.0047  -0.0066   0.0080   0.00    1.1
2173 372069.000    869160.5089  -5289361.6829   3444971.3594   2   8   0.0267   0.0281   0.0204   0.0048  -0.0064   0.0078   0.00    1.1
2173 372070.000    869160.5075  -5289361.6810   3444971.3575   2   8   0.0266   0.0280   0.0203   0.0047  -0.0065   0.0081   0.00    1.1
2173 372071.000    869160.5045  -5289361.6851   3444971.3563   2   8   0.0266   0.0279   0.0201   0.0047  -0.0064   0.0082   0.00    1.0
2173 372072.000    869160.5014  -5289361.6902   3444971.3570   2   8   0.0266   0.0277   0.0201   0.0048  -0.0062   0.0078   0.00    1.0
2173 372073.000    869160.5027  -5289361.6912   3444971.3547   2   8   0.0265   0.0276   0.0200   0.0048  -0.0065   0.0079   0.00    1.0
2173 372074.000    869160.5018  -5289361.7005   3444971.3583   2   8   0.0265   0.0275   0.0199   0.0047  -0.0062   0.0080   0.00    1.0
2173 372075.000    869160.5043  -5289361.7042   3444971.3618   2   8   0.0265   0.0274   0.0198   0.0048  -0.0062   0.0081   0.00    1.0
2173 372076.000    869160.5052  -5289361.7088   3444971.3650   2   8   0.0264   0.0273   0.0199   0.0047  -0.0061   0.0079   0.00    1.0
2173 372077.000    869160.5072  -5289361.7057   3444971.3703   2   8   0.0264   0.0272   0.0198   0.0046  -0.0060   0.0075   0.00    1.0
2173 372078.000    869160.5067  -5289361.7084   3444971.3726   2   8   0.0263   0.0270   0.0197   0.0048  -0.0060   0.0079   0.00    1.0
2173 372079.000    869160.5098  -5289361.7054   3444971.3718   2   8   0.0262   0.0270   0.0196   0.0048  -0.0061   0.0077   0.00    1.0
2173 372080.000    869160.5101  -5289361.7068   3444971.3707   2   8   0.0262   0.0269   0.0196   0.0048  -0.0058   0.0076   0.00    1.0
2173 372081.000    869160.5088  -5289361.7044   3444971.3713   2   8   0.0262   0.0268   0.0195   0.0051  -0.0058   0.0078   0.00    1.0
2173 372082.000    869160.5122  -5289361.7058   3444971.3757   2   8   0.0261   0.0266   0.0195   0.0050  -0.0058   0.0076   0.00    1.0
2173 372083.000    869160.5127  -5289361.7036   3444971.3767   2   8   0.0261   0.0265   0.0194   0.0049  -0.0058   0.0079   0.00    1.0
2173 372084.000    869160.5135  -5289361.7049   3444971.3767   2   8   0.0260   0.0264   0.0193   0.0050  -0.0057   0.0078   0.00    1.0
2173 372085.000    869160.5147  -5289361.7042   3444971.3809   2   8   0.0259   0.0264   0.0193   0.0051  -0.0055   0.0077   0.00    1.0
2173 372086.000    869160.5157  -5289361.6967   3444971.3823   2   8   0.0259   0.0262   0.0191   0.0049  -0.0055   0.0076   0.00    1.0
2173 372087.000    869160.5173  -5289361.6949   3444971.3813   2   8   0.0258   0.0261   0.0189   0.0048  -0.0056   0.0077   0.00    1.0
2173 372088.000    869160.5195  -5289361.6872   3444971.3803   2   8   0.0258   0.0260   0.0190   0.0050  -0.0056   0.0075   0.00    1.0
2173 372089.000    869160.5219  -5289361.6818   3444971.3782   2   8   0.0258   0.0260   0.0189   0.0051  -0.0053   0.0076   0.00    1.0
2173 372090.000    869160.5205  -5289361.6762   3444971.3781   2   8   0.0257   0.0258   0.0190   0.0052  -0.0053   0.0077   0.00    1.0
2173 372091.000    869160.5213  -5289361.6766   3444971.3762   2   8   0.0257   0.0257   0.0189   0.0049  -0.0052   0.0074   0.00    1.0
2173 372092.000    869160.5212  -5289361.6776   3444971.3744   2   8   0.0257   0.0257   0.0188   0.0051  -0.0052   0.0073   0.00    1.0
2173 372093.000    869160.5200  -5289361.6801   3444971.3729   2   8   0.0256   0.0256   0.0187   0.0050  -0.0052   0.0074   0.00    1.0
2173 372094.000    869160.5164  -5289361.6868   3444971.3709   2   8   0.0255   0.0254   0.0186   0.0050  -0.0051   0.0074   0.00    1.0
2173 372095.000    869160.5183  -5289361.6914   3444971.3688   2   8   0.0255   0.0253   0.0185   0.0050  -0.0052   0.0074   0.00    1.0
2173 372096.000    869160.5182  -5289361.6969   3444971.3697   2   8   0.0254   0.0252   0.0184   0.0048  -0.0048   0.0074   0.00    1.0
2173 372097.000    869160.5176  -5289361.6947   3444971.3670   2   8   0.0255   0.0252   0.0185   0.0052  -0.0050   0.0075   0.00    1.0
2173 372098.000    869160.5193  -5289361.6989   3444971.3688   2   8   0.0254   0.0251   0.0184   0.0053  -0.0050   0.0075   0.00    1.0
2173 372099.000    869160.5194  -5289361.7026   3444971.3693   2   8   0.0254   0.0250   0.0184   0.0050  -0.0051   0.0073   0.00    1.0
2173 372100.000    869160.5197  -5289361.7036   3444971.3709   2   8   0.0253   0.0249   0.0182   0.0049  -0.0050   0.0074   0.00    1.1
2173 372101.000    869160.5182  -5289361.7078   3444971.3667   2   8   0.0252   0.0248   0.0181   0.0051  -0.0049   0.0075   0.00    1.1
2173 372102.000    869160.4958  -5289361.6843   3444971.3375   2   8   0.0252   0.0247   0.0181   0.0053  -0.0048   0.0074   0.00    1.1
2173 372103.000    869160.4966  -5289361.6872   3444971.3406   2   8   0.0251   0.0246   0.0180   0.0049  -0.0048   0.0073   0.00    1.1
2173 372104.000    869160.4974  -5289361.6898   3444971.3395   2   8   0.0250   0.0245   0.0180   0.0049  -0.0046   0.0075   0.00    1.1
2173 372105.000    869160.4979  -5289361.7021   3444971.3447   2   8   0.0250   0.0244   0.0178   0.0051  -0.0047   0.0073   0.00    1.0
2173 372106.000    869160.4977  -5289361.7083   3444971.3474   2   8   0.0250   0.0244   0.0179   0.0050  -0.0045   0.0071   0.00    1.0
2173 372107.000    869160.4989  -5289361.7159   3444971.3488   2   8   0.0249   0.0243   0.0177   0.0050  -0.0045   0.0071   0.00    1.0
2173 372108.000    869160.4968  -5289361.7178   3444971.3485   2   8   0.0249   0.0242   0.0178   0.0051  -0.0045   0.0070   0.00    1.0
2173 372109.000    869160.4965  -5289361.7236   3444971.3476   2   8   0.0249   0.0241   0.0178   0.0052  -0.0045   0.0073   0.00    1.0
2173 372110.000    869160.4968  -5289361.7236   3444971.3470   2   8   0.0249   0.0240   0.0177   0.0053  -0.0046   0.0070   0.00    1.0
2173 372111.000    869160.4964  -5289361.7244   3444971.3468   2   8   0.0249   0.0240   0.0176   0.0052  -0.0045   0.0072   0.00    1.0
2173 372112.000    869160.4925  -5289361.7321   3444971.3475   2   8   0.0247   0.0239   0.0175   0.0050  -0.0045   0.0071   0.00    1.0
2173 372113.000    869160.4912  -5289361.7356   3444971.3470   2   8   0.0248   0.0238   0.0175   0.0052  -0.0044   0.0071   0.00    1.0
2173 372114.000    869160.4901  -5289361.7391   3444971.3476   2   8   0.0247   0.0237   0.0175   0.0052  -0.0042   0.0071   0.00    1.0
2173 372115.000    869160.4919  -5289361.7452   3444971.3498   2   8   0.0247   0.0236   0.0173   0.0050  -0.0044   0.0071   0.00    1.0
2173 372116.000    869160.4934  -5289361.7540   3444971.3554   2   8   0.0246   0.0235   0.0172   0.0049  -0.0044   0.0072   0.00    1.0
2173 372117.000    869160.4926  -5289361.7555   3444971.3554   2   8   0.0246   0.0235   0.0172   0.0051  -0.0043   0.0071   0.00    1.0
2173 372118.000    869160.4922  -5289361.7603   3444971.3569   2   8   0.0245   0.0234   0.0173   0.0050  -0.0043   0.0068   0.00    1.0
2173 372119.000    869160.4917  -5289361.7663   3444971.3566   2   8   0.0245   0.0233   0.0171   0.0051  -0.0042   0.0072   0.00    1.0
2173 372120.000    869160.4941  -5289361.7714   3444971.3587   2   8   0.0245   0.0232   0.0170   0.0052  -0.0041   0.0071   0.00    1.0
2173 372121.000    869160.4931  -5289361.7764   3444971.3573   2   8   0.0244   0.0231   0.0171   0.0051  -0.0041   0.0067   0.00    1.0
2173 372122.000    869160.4945  -5289361.7834   3444971.3587   2   8   0.0244   0.0231   0.0170   0.0052  -0.0042   0.0069   0.00    1.0
2173 372123.000    869160.4975  -5289361.7862   3444971.3635   2   8   0.0243   0.0230   0.0169   0.0052  -0.0042   0.0070   0.00    1.0
2173 372124.000    869160.4980  -5289361.7920   3444971.3662   2   8   0.0243   0.0229   0.0170   0.0050  -0.0040   0.0070   0.00    1.0
2173 372125.000    869160.4961  -5289361.7953   3444971.3676   2   8   0.0242   0.0228   0.0168   0.0051  -0.0040   0.0069   0.00    1.0
2173 372126.000    869160.4952  -5289361.8011   3444971.3692   2   8   0.0242   0.0228   0.0168   0.0051  -0.0038   0.0069   0.00    1.0
2173 372127.000    869160.4946  -5289361.8025   3444971.3709   2   8   0.0241   0.0227   0.0168   0.0051  -0.0039   0.0068   0.00    1.0
2173 372128.000    869160.4940  -5289361.8030   3444971.3760   2   8   0.0241   0.0226   0.0167   0.0052  -0.0040   0.0069   0.00    1.0
2173 372129.000    869160.4930  -5289361.8097   3444971.3766   2   8   0.0242   0.0226   0.0167   0.0053  -0.0040   0.0066   0.00    1.0
2173 372130.000    869160.4924  -5289361.8144   3444971.3754   2   8   0.0240   0.0225   0.0165   0.0050  -0.0038   0.0071   0.00    1.0
2173 372131.000    869160.4935  -5289361.8196   3444971.3804   2   8   0.0240   0.0224   0.0165   0.0052  -0.0039   0.0069   0.00    1.0
2173 372132.000    869160.4949  -5289361.8253   3444971.3850   2   8   0.0240   0.0224   0.0164   0.0053  -0.0039   0.0068   0.00    1.0
2173 372133.000    869160.4932  -5289361.8272   3444971.3832   2   8   0.0240   0.0223   0.0165   0.0050  -0.0039   0.0066   0.00    1.0
2173 372134.000    869160.4954  -5289361.8326   3444971.3899   2   8   0.0239   0.0222   0.0164   0.0051  -0.0041   0.0068   0.00    1.0
2173 372135.000    869160.4933  -5289361.8365   3444971.3931   2   8   0.0239   0.0221   0.0165   0.0051  -0.0037   0.0067   0.00    1.0
2173 372136.000    869160.4933  -5289361.8419   3444971.3996   2   8   0.0238   0.0221   0.0164   0.0053  -0.0040   0.0068   0.00    1.0
2173 372137.000    869160.4909  -5289361.8476   3444971.4034   2   8   0.0238   0.0220   0.0162   0.0052  -0.0038   0.0068   0.00    1.0
2173 372138.000    869160.4916  -5289361.8508   3444971.4119   2   8   0.0237   0.0219   0.0162   0.0050  -0.0036   0.0066   0.00    1.0
2173 372139.000    869160.4885  -5289361.8558   3444971.4169   2   8   0.0237   0.0219   0.0160   0.0053  -0.0037   0.0069   0.00    1.0
2173 372140.000    869160.4868  -5289361.8628   3444971.4197   2   8   0.0237   0.0218   0.0162   0.0051  -0.0038   0.0065   0.00    1.0
2173 372141.000    869160.4860  -5289361.8706   3444971.4239   2   8   0.0237   0.0217   0.0160   0.0054  -0.0038   0.0067   0.00    1.0
2173 372142.000    869160.4834  -5289361.8747   3444971.4279   2   8   0.0235   0.0216   0.0160   0.0050  -0.0038   0.0066   0.00    1.0
2173 372143.000    869160.4807  -5289361.8820   3444971.4318   2   8   0.0236   0.0216   0.0159   0.0052  -0.0036   0.0069   0.00    1.0
2173 372144.000    869160.4817  -5289361.8834   3444971.4353   2   8   0.0236   0.0215   0.0160   0.0053  -0.0034   0.0066   0.00    1.0
2173 372145.000    869160.4796  -5289361.8897   3444971.4404   2   8   0.0235   0.0215   0.0159   0.0052  -0.0036   0.0066   0.00    1.0
2173 372146.000    869160.4809  -5289361.8976   3444971.4459   2   8   0.0235   0.0214   0.0157   0.0052  -0.0038   0.0068   0.00    1.0
2173 372147.000    869160.4798  -5289361.9009   3444971.4478   2   8   0.0234   0.0213   0.0157   0.0051  -0.0035   0.0066   0.00    1.0
2173 372148.000    869160.4792  -5289361.9004   3444971.4473   2   8   0.0233   0.0213   0.0157   0.0052  -0.0036   0.0067   0.00    1.0
2173 372149.000    869160.4783  -5289361.9047   3444971.4506   2   8   0.0234   0.0213   0.0156   0.0053  -0.0034   0.0068   0.00    1.0
2173 372150.000    869160.4795  -5289361.9016   3444971.4520   2   8   0.0233   0.0211   0.0155   0.0051  -0.0037   0.0065   0.00    1.0
2173 372151.000    869160.4800  -5289361.9008   3444971.4578   2   8   0.0233   0.0211   0.0155   0.0050  -0.0035   0.0066   0.00    1.0
2173 372152.000    869160.4826  -5289361.8979   3444971.4619   2   8   0.0233   0.0210   0.0157   0.0051  -0.0033   0.0066   0.00    1.0
2173 372153.000    869160.4842  -5289361.9000   3444971.4655   2   8   0.0232   0.0210   0.0155   0.0051  -0.0035   0.0064   0.00    1.0
2173 372154.000    869160.4837  -5289361.8971   3444971.4701   2   8   0.0232   0.0210   0.0154   0.0054  -0.0033   0.0066   0.00    1.0
2173 372155.000    869160.4838  -5289361.8925   3444971.4655   2   8   0.0232   0.0208   0.0155   0.0052  -0.0036   0.0063   0.00    1.0
2173 372156.000    869160.4832  -5289361.8978   3444971.4683   2   8   0.0231   0.0207   0.0154   0.0050  -0.0035   0.0061   0.00    1.1
2173 372157.000    869160.4813  -5289361.8917   3444971.4660   2   8   0.0231   0.0208   0.0152   0.0053  -0.0033   0.0067   0.00    1.1
2173 372158.000    869160.4799  -5289361.8920   3444971.4685   2   8   0.0231   0.0207   0.0153   0.0052  -0.0036   0.0065   0.00    1.1
2173 372159.000    869160.4803  -5289361.8916   3444971.4673   2   8   0.0230   0.0206   0.0154   0.0050  -0.0036   0.0062   0.00    1.1
2173 372160.000    869160.4770  -5289361.8932   3444971.4702   2   8   0.0230   0.0205   0.0153   0.0052  -0.0036   0.0063   0.00    1.1
2173 372161.000    869160.4760  -5289361.8938   3444971.4698   2   8   0.0229   0.0205   0.0151   0.0053  -0.0034   0.0066   0.00    1.1
2173 372162.000    869160.4735  -5289361.8926   3444971.4691   2   8   0.0230   0.0205   0.0152   0.0050  -0.0037   0.0065   0.00    1.1
2173 372163.000    869160.4723  -5289361.8972   3444971.4700   2   8   0.0229   0.0204   0.0149   0.0052  -0.0034   0.0066   0.00    1.1
2173 372164.000    869160.4675  -5289361.8996   3444971.4701   2   9   0.0228   0.0203   0.0150   0.0052  -0.0036   0.0062   0.00    1.0
2173 372165.000    869160.4657  -5289361.9039   3444971.4680   2   9   0.0228   0.0202   0.0149   0.0050  -0.0030   0.0066   0.00    1.0
2173 372166.000    869160.4618  -5289361.9137   3444971.4653   2   9   0.0227   0.0202   0.0148   0.0053  -0.0027   0.0061   0.00    1.0
2173 372167.000    869160.4604  -5289361.9163   3444971.4634   2   9   0.0228   0.0201   0.0148   0.0051  -0.0032   0.0059   0.00    1.0
2173 372168.000    869160.4571  -5289361.9171   3444971.4603   2   9   0.0227   0.0201   0.0148   0.0053  -0.0028   0.0060   0.00    1.0
2173 372169.000    869160.4562  -5289361.9215   3444971.4578   2   9   0.0226   0.0200   0.0148   0.0052  -0.0031   0.0059   0.00    1.0
2173 372170.000    869160.4562  -5289361.9265   3444971.4589   2   9   0.0226   0.0199   0.0146   0.0051  -0.0030   0.0060   0.00    1.0
2173 372171.000    869160.4587  -5289361.9309   3444971.4586   2   9   0.0226   0.0199   0.0145   0.0052  -0.0030   0.0062   0.00    1.0
2173 372172.000    869160.4585  -5289361.9323   3444971.4619   2   9   0.0226   0.0198   0.0147   0.0053  -0.0029   0.0060   0.00    1.0
2173 372173.000    869160.4595  -5289361.9354   3444971.4629   2   9   0.0225   0.0198   0.0145   0.0051  -0.0027   0.0062   0.00    1.0
2173 372174.000    869160.4600  -5289361.9379   3444971.4646   2   9   0.0224   0.0197   0.0142   0.0053  -0.0031   0.0062   0.00    1.0
2173 372175.000    869160.4601  -5289361.9338   3444971.4631   2   9   0.0224   0.0197   0.0145   0.0051  -0.0031   0.0058   0.00    1.0
2173 372176.000    869160.4592  -5289361.9374   3444971.4650   2   9   0.0224   0.0196   0.0143   0.0052  -0.0029   0.0061   0.00    1.0
2173 372177.000    869160.4588  -5289361.9338   3444971.4625   2   9   0.0223   0.0196   0.0145   0.0052  -0.0032   0.0057   0.00    1.0
2173 372178.000    869160.4584  -5289361.9333   3444971.4633   2   9   0.0224   0.0196   0.0143   0.0054  -0.0029   0.0061   0.00    1.0
2173 372179.000    869160.4594  -5289361.9319   3444971.4626   2   9   0.0223   0.0194   0.0142   0.0051  -0.0028   0.0059   0.00    1.0
2173 372180.000    869160.4588  -5289361.9307   3444971.4629   2   9   0.0223   0.0194   0.0143   0.0053  -0.0028   0.0058   0.00    1.0
2173 372181.000    869160.4594  -5289361.9307   3444971.4636   2   9   0.0222   0.0194   0.0142   0.0053  -0.0028   0.0058   0.00    1.0
2173 372182.000    869160.4598  -5289361.9349   3444971.4673   2   9   0.0223   0.0193   0.0142   0.0053  -0.0026   0.0059   0.00    1.0
2173 372183.000    869160.4607  -5289361.9309   3444971.4674   2   9   0.0222   0.0193   0.0142   0.0051  -0.0028   0.0059   0.00    1.0
2173 372184.000    869160.4607  -5289361.9293   3444971.4698   2   9   0.0221   0.0191   0.0141   0.0050  -0.0032   0.0055   0.00    1.0
2173 372185.000    869160.4635  -5289361.9270   3444971.4728   2   9   0.0221   0.0192   0.0141   0.0053  -0.0029   0.0060   0.00    1.0
2173 372186.000    869160.4634  -5289361.9249   3444971.4707   2   9   0.0221   0.0192   0.0140   0.0052  -0.0029   0.0058   0.00    1.0
2173 372187.000    869160.4646  -5289361.9247   3444971.4689   2   9   0.0221   0.0191   0.0141   0.0053  -0.0026   0.0058   0.00    1.0
2173 372188.000    869160.4577  -5289361.9224   3444971.4689   2   9   0.0220   0.0191   0.0139   0.0053  -0.0031   0.0057   0.00    1.0
2173 372189.000    869160.4572  -5289361.9334   3444971.4689   2   9   0.0220   0.0190   0.0140   0.0051  -0.0032   0.0058   0.00    1.0
2173 372190.000    869160.4548  -5289361.9352   3444971.4654   2   9   0.0219   0.0190   0.0139   0.0053  -0.0028   0.0064   0.00    1.0
2173 372191.000    869160.4524  -5289361.9422   3444971.4668   2   9   0.0219   0.0189   0.0137   0.0053  -0.0030   0.0058   0.00    1.0
2173 372192.000    869160.4513  -5289361.9473   3444971.4656   2   9   0.0219   0.0189   0.0139   0.0053  -0.0029   0.0056   0.00    1.0
2173 372193.000    869160.4518  -5289361.9480   3444971.4661   2   9   0.0219   0.0188   0.0137   0.0052  -0.0028   0.0056   0.00    1.0
2173 372194.000    869160.4493  -5289361.9510   3444971.4653   2   9   0.0218   0.0188   0.0138   0.0051  -0.0031   0.0058   0.00    1.0
2173 372195.000    869160.4457  -5289361.9762   3444971.4778   2   9   0.0218   0.0187   0.0139   0.0052  -0.0026   0.0055   0.00    1.0
2173 372196.000    869160.4471  -5289361.9755   3444971.4759   2   9   0.0217   0.0187   0.0136   0.0053  -0.0027   0.0056   0.00    1.0
2173 372197.000    869160.4462  -5289361.9736   3444971.4728   2   9   0.0218   0.0187   0.0138   0.0052  -0.0026   0.0054   0.00    1.0
2173 372198.000    869160.4448  -5289361.9703   3444971.4702   2   9   0.0217   0.0186   0.0136   0.0050  -0.0031   0.0055   0.00    1.0
2173 372199.000    869160.4457  -5289361.9708   3444971.4701   2   9   0.0217   0.0186   0.0137   0.0052  -0.0029   0.0053   0.00    1.0
2173 372200.000    869160.4464  -5289361.9679   3444971.4660   2   9   0.0217   0.0185   0.0135   0.0051  -0.0028   0.0055   0.00    1.0
2173 372201.000    869160.4442  -5289361.9659   3444971.4634   2   9   0.0216   0.0184   0.0137   0.0049  -0.0029   0.0054   0.00    1.0
2173 372202.000    869160.4422  -5289361.9745   3444971.4635   2   9   0.0216   0.0184   0.0137   0.0049  -0.0032   0.0053   0.00    1.0
2173 372203.000    869160.4414  -5289361.9853   3444971.4665   2   9   0.0216   0.0184   0.0135   0.0053  -0.0031   0.0056   0.00    1.0
2173 372204.000    869160.4414  -5289361.9935   3444971.4674   2   9   0.0216   0.0183   0.0134   0.0054  -0.0029   0.0056   0.00    1.0
2173 372205.000    869160.4398  -5289362.0005   3444971.4678   2   9   0.0215   0.0183   0.0134   0.0048  -0.0029   0.0054   0.00    1.0
2173 372206.000    869160.4398  -5289362.0138   3444971.4675   2   9   0.0215   0.0183   0.0134   0.0049  -0.0028   0.0051   0.00    1.0
2173 372207.000    869160.4393  -5289362.0102   3444971.4641   2   9   0.0214   0.0182   0.0131   0.0052  -0.0026   0.0057   0.00    1.0
2173 372208.000    869160.4385  -5289362.0126   3444971.4604   2   9   0.0214   0.0182   0.0131   0.0051  -0.0029   0.0055   0.00    1.0
2173 372209.000    869160.4381  -5289362.0143   3444971.4594   2   9   0.0214   0.0181   0.0132   0.0051  -0.0030   0.0055   0.00    1.0
2173 372210.000    869160.4363  -5289362.0166   3444971.4545   2   9   0.0213   0.0181   0.0132   0.0051  -0.0029   0.0055   0.00    1.0
2173 372211.000    869160.4359  -5289362.0085   3444971.4481   2   9   0.0213   0.0180   0.0133   0.0052  -0.0031   0.0056   0.00    1.0
2173 372212.000    869160.4354  -5289362.0142   3444971.4433   2   9   0.0213   0.0180   0.0131   0.0051  -0.0031   0.0055   0.00    1.0
2173 372213.000    869160.4342  -5289362.0118   3444971.4401   2   9   0.0212   0.0180   0.0130   0.0051  -0.0029   0.0055   0.00    1.0
2173 372214.000    869160.4336  -5289362.0049   3444971.4341   2   9   0.0212   0.0179   0.0130   0.0051  -0.0028   0.0055   0.00    1.0
2173 372215.000    869160.4315  -5289362.0062   3444971.4325   2   9   0.0213   0.0179   0.0132   0.0052  -0.0031   0.0051   0.00    1.0
2173 372216.000    869160.4313  -5289361.9987   3444971.4301   2   9   0.0212   0.0178   0.0130   0.0050  -0.0032   0.0053   0.00    1.0
2173 372217.000    869160.4311  -5289361.9887   3444971.4218   2   9   0.0211   0.0178   0.0130   0.0052  -0.0031   0.0055   0.00    1.0
2173 372218.000    869160.4296  -5289361.9891   3444971.4194   2   9   0.0211   0.0177   0.0129   0.0049  -0.0030   0.0051   0.00    1.0
2173 372219.000    869160.4302  -5289361.9868   3444971.4160   2   9   0.0211   0.0177   0.0129   0.0049  -0.0032   0.0054   0.00    1.0
2173 372220.000    869160.4290  -5289361.9872   3444971.4140   2   9   0.0210   0.0177   0.0131   0.0046  -0.0029   0.0051   0.00    1.0
2173 372221.000    869160.4271  -5289361.9913   3444971.4103   2   9   0.0210   0.0177   0.0129   0.0048  -0.0028   0.0053   0.00    1.0
2173 372222.000    869160.4256  -5289361.9889   3444971.4048   2   9   0.0210   0.0176   0.0126   0.0050  -0.0031   0.0055   0.00    1.0
2173 372223.000    869160.4253  -5289361.9893   3444971.4037   2   9   0.0210   0.0176   0.0127   0.0053  -0.0029   0.0053   0.00    1.0
2173 372224.000    869160.4255  -5289361.9878   3444971.4014   2   9   0.0210   0.0175   0.0127   0.0049  -0.0033   0.0053   0.00    1.0
