% program   : rnx2rtkp ver.2.4.3 b31
% inp file  : ngs/21_09_01_08_12_04_ohlc.obs
% inp file  : ngs/21_09_01_08_12_04_ohlc_P1.obs
% inp file  : ngs/21_09_01_08_12_04_brdc.nav
% obs start : 2021/09/01 08:00:00.0 GPST (week2173 288000.0s)
% obs end   : 2021/09/01 08:59:59.0 GPST (week2173 291599.0s)
% ref pos   :   507437.5970  -4749451.4380   4212897.2210
%
% (x/y/z-ecef=WGS84,Q=1:fix,2:float,3:sbas,4:dgps,5:single,6:ppp,ns=# of satellites)
%  GPST              x-ecef(m)      y-ecef(m)      z-ecef(m)   Q  ns   sdx(m)   sdy(m)   sdz(m)  sdxy(m)  sdyz(m)  sdzx(m) age(s)  ratio
2173 288699.000    537554.7112  -4737371.5082   4222644.2894   2   8   0.3687   0.8711   0.9261  -0.1933  -0.7423   0.2737 -30.00    1.3
2173 288700.000    537554.6924  -4737371.6636   4222644.2594   2   8   0.2623   0.6196   0.6587  -0.1384  -0.5280   0.1953 -29.00    1.3
2173 288701.000    537554.7148  -4737371.5863   4222644.0914   2   8   0.2147   0.5073   0.5394  -0.1134  -0.4323   0.1599 -28.00    1.3
2173 288702.000    537554.6716  -4737371.5392   4222643.8980   2   8   0.1863   0.4402   0.4681  -0.0984  -0.3752   0.1387 -27.00    1.2
2173 288703.000    537554.6598  -4737371.4915   4222643.8612   2   8   0.1668   0.3942   0.4193  -0.0881  -0.3361   0.1242 -26.00    1.2
2173 288704.000    537554.6387  -4737371.4584   4222643.7873   2   8   0.1525   0.3603   0.3833  -0.0805  -0.3072   0.1135 -25.00    1.1
2173 288705.000    537554.6306  -4737371.4094   4222643.6674   2   8   0.1413   0.3338   0.3552  -0.0746  -0.2847   0.1051 -24.00    1.0
2173 288706.000    537554.6195  -4737371.4549   4222643.6660   2   8   0.1322   0.3125   0.3325  -0.0698  -0.2665   0.0984 -23.00    1.0
2173 288707.000    537554.5909  -4737371.4333   4222643.5966   2   8   0.1247   0.2947   0.3137  -0.0659  -0.2514   0.0928 -22.00    1.1
2173 288708.000    537554.5785  -4737371.4027   4222643.5332   2   8   0.1183   0.2797   0.2977  -0.0625  -0.2386   0.0881 -21.00    1.0
2173 288709.000    537554.5677  -4737371.3786   4222643.4739   2   8   0.1129   0.2667   0.2840  -0.0597  -0.2276   0.0840 -20.00    1.0
2173 288710.000    537554.5713  -4737371.3560   4222643.4263   2   8   0.1081   0.2554   0.2720  -0.0572  -0.2179   0.0805 -19.00    1.0
2173 288711.000    537554.5610  -4737371.3509   4222643.3925   2   8   0.1038   0.2453   0.2613  -0.0550  -0.2094   0.0773 -18.00    1.0
2173 288712.000    537554.5535  -4737371.3453   4222643.3719   2   8   0.1000   0.2364   0.2518  -0.0530  -0.2018   0.0745 -17.00    1.0
2173 288713.000    537554.5504  -4737371.3488   4222643.3454   2   8   0.0966   0.2283   0.2432  -0.0513  -0.1949   0.0720 -16.00    1.0
2173 288714.000    537554.5569  -4737371.3500   4222643.3609   2   8   0.0935   0.2210   0.2355  -0.0497  -0.1887   0.0698 -15.00    1.0
2173 288715.000    537554.5581  -4737371.3187   4222643.3341   2   8   0.0907   0.2143   0.2284  -0.0483  -0.1830   0.0677 -14.00    1.0
2173 288716.000    537554.5433  -4737371.3284   4222643.3281   2   8   0.0881   0.2082   0.2219  -0.0470  -0.1778   0.0658 -13.00    1.1
2173 288717.000    537554.5345  -4737371.3049   4222643.2979   2   8   0.0857   0.2026   0.2159  -0.0458  -0.1729   0.0641 -12.00    1.1
2173 288718.000    537554.5329  -4737371.3186   4222643.2952   2   8   0.0835   0.1973   0.2103  -0.0447  -0.1685   0.0625 -11.00    1.2
2173 288719.000    537554.5356  -4737371.3493   4222643.2991   2   8   0.0815   0.1925   0.2052  -0.0436  -0.1643   0.0609 -10.00    1.3
2173 288720.000    537554.5330  -4737371.3642   4222643.2993   2   8   0.0796   0.1879   0.2004  -0.0427  -0.1605   0.0596  -9.00    1.4
2173 288721.000    537554.5254  -4737371.3588   4222643.3098   2   8   0.0778   0.1837   0.1958  -0.0418  -0.1568   0.0582  -8.00    1.4
2173 288722.000    537554.5198  -4737371.3628   4222643.3158   2   8   0.0761   0.1797   0.1916  -0.0409  -0.1535   0.0570  -7.00    1.5
2173 288723.000    537554.5228  -4737371.3585   4222643.3186   2   8   0.0745   0.1760   0.1876  -0.0401  -0.1503   0.0559  -6.00    1.6
2173 288724.000    537554.5257  -4737371.3477   4222643.3292   2   8   0.0731   0.1725   0.1839  -0.0394  -0.1472   0.0548  -5.00    1.7
2173 288725.000    537554.5275  -4737371.3376   4222643.3143   2   8   0.0717   0.1692   0.1803  -0.0387  -0.1444   0.0537  -4.00    1.8
2173 288726.000    537554.5296  -4737371.3406   4222643.3173   2   8   0.0704   0.1660   0.1770  -0.0380  -0.1417   0.0528  -3.00    1.9
2173 288727.000    537554.5380  -4737371.3357   4222643.3055   2   8   0.0691   0.1631   0.1738  -0.0373  -0.1392   0.0518  -2.00    2.0
2173 288728.000    537554.5436  -4737371.3326   4222643.3076   2   8   0.0679   0.1603   0.1708  -0.0367  -0.1367   0.0509  -1.00    2.1
2173 288729.000    537554.5507  -4737371.3460   4222643.3110   2   8   0.0669   0.1576   0.1679  -0.0360  -0.1345   0.0501   0.00    2.2
2173 288730.000    537554.5825  -4737371.5667   4222642.7556   2   8   0.3679   0.8705   0.9298  -0.1963  -0.7448   0.2752   0.00    2.0
2173 288731.000    537554.6759  -4737370.9995   4222643.0210   2   8   0.3679   0.8706   0.9300  -0.1964  -0.7450   0.2752   0.00    2.1
2173 288732.000    537554.5226  -4737371.4424   4222643.2707   2   8   0.3678   0.8706   0.9302  -0.1965  -0.7451   0.2753   0.00    2.5
2173 288733.000    537554.5295  -4737370.9888   4222642.7381   2   8   0.3678   0.8706   0.9303  -0.1966  -0.7452   0.2753   0.00    2.4
2173 288734.000    537554.5914  -4737370.7256   4222642.4956   2   8   0.3678   0.8707   0.9305  -0.1967  -0.7453   0.2754   0.00    2.5
2173 288735.000    537554.6336  -4737371.3146   4222642.6988   2   8   0.3678   0.8707   0.9307  -0.1968  -0.7455   0.2754   0.00    2.5
2173 288736.000    537554.4343  -4737370.8892   4222642.5842   2   8   0.3678   0.8707   0.9309  -0.1969  -0.7456   0.2755   0.00    2.3
2173 288737.000    537554.6759  -4737371.0555   4222642.7139   2   8   0.3678   0.8708   0.9310  -0.1970  -0.7457   0.2755   0.00    2.4
2173 288738.000    537554.4393  -4737371.0107   4222642.7811   2   8   0.3678   0.8708   0.9312  -0.1971  -0.7458   0.2756   0.00    2.9
2173 288739.000    537554.8131  -4737370.6303   4222642.4517   2   8   0.3678   0.8708   0.9314  -0.1972  -0.7460   0.2756   0.00    1.8
2173 288740.000    537554.6198  -4737371.1074   4222642.6753   2   8   0.3678   0.8708   0.9315  -0.1973  -0.7461   0.2757   0.00    2.5
2173 288741.000    537554.5501  -4737370.5579   4222642.4137   2   8   0.3678   0.8709   0.9317  -0.1973  -0.7462   0.2757   0.00    2.3
2173 288742.000    537554.6103  -4737370.7574   4222642.6182   2   8   0.3678   0.8709   0.9319  -0.1974  -0.7463   0.2758   0.00    2.7
2173 288743.000    537554.5429  -4737370.8411   4222642.5933   2   8   0.3678   0.8709   0.9321  -0.1975  -0.7465   0.2758   0.00    2.1
2173 288744.000    537554.6404  -4737371.3263   4222642.4513   2   8   0.3678   0.8710   0.9322  -0.1976  -0.7466   0.2759   0.00    2.7
2173 288745.000    537554.5030  -4737370.7427   4222642.5568   2   8   0.3677   0.8710   0.9324  -0.1977  -0.7467   0.2759   0.00    2.2
2173 288746.000    537554.4009  -4737370.8152   4222642.4430   2   8   0.3677   0.8710   0.9326  -0.1978  -0.7468   0.2760   0.00    1.9
2173 288747.000    537554.3313  -4737370.9984   4222642.5302   2   8   0.3677   0.8711   0.9327  -0.1979  -0.7470   0.2760   0.00    2.5
2173 288748.000    537554.3521  -4737370.7136   4222642.3364   2   8   0.3677   0.8711   0.9329  -0.1980  -0.7471   0.2761   0.00    2.2
2173 288749.000    537554.3287  -4737371.2244   4222642.3220   2   8   0.3677   0.8711   0.9331  -0.1981  -0.7472   0.2761   0.00    2.4
2173 288750.000    537554.2992  -4737371.3251   4222642.6800   2   8   0.3677   0.8712   0.9333  -0.1982  -0.7473   0.2762   0.00    2.6
2173 288751.000    537554.4587  -4737370.9710   4222642.7060   2   8   0.3677   0.8712   0.9334  -0.1983  -0.7475   0.2762   0.00    1.8
2173 288752.000    537554.2366  -4737371.3505   4222642.6540   2   8   0.3677   0.8712   0.9336  -0.1984  -0.7476   0.2763   0.00    2.3
2173 288753.000    537554.3619  -4737371.4963   4222642.5260   2   8   0.3677   0.8712   0.9338  -0.1984  -0.7477   0.2763   0.00    2.0
2173 288754.000    537554.5368  -4737371.5883   4222642.9539   2   8   0.3677   0.8713   0.9339  -0.1985  -0.7479   0.2764   0.00    2.0
2173 288755.000    537554.4451  -4737371.4298   4222642.4800   2   8   0.3677   0.8713   0.9341  -0.1986  -0.7480   0.2764   0.00    2.3
2173 288756.000    537554.3193  -4737371.5074   4222642.5533   2   8   0.3677   0.8713   0.9343  -0.1987  -0.7481   0.2765   0.00    2.2
2173 288757.000    537554.4234  -4737371.4685   4222642.9657   2   8   0.3677   0.8714   0.9345  -0.1988  -0.7482   0.2765   0.00    2.2
2173 288758.000    537554.3190  -4737371.7070   4222642.7177   2   8   0.3676   0.8714   0.9346  -0.1989  -0.7484   0.2766   0.00    2.3
2173 288759.000    537554.3364  -4737371.9830   4222643.1773   2   8   0.3676   0.8714   0.9348  -0.1990  -0.7485   0.2766   0.00    2.6
2173 288760.000    537554.3458  -4737371.6161   4222642.6924   2   8   0.3676   0.8715   0.9350  -0.1991  -0.7486   0.2767   0.00    2.2
2173 288761.000    537554.2860  -4737372.0314   4222643.1162   2   8   0.3676   0.8715   0.9352  -0.1992  -0.7487   0.2767   0.00    2.5
2173 288762.000    537554.3696  -4737371.0784   4222642.1101   2   8   0.3676   0.8715   0.9353  -0.1993  -0.7489   0.2768   0.00    2.2
2173 288763.000    537554.4175  -4737371.2514   4222642.3573   2   8   0.3676   0.8716   0.9355  -0.1994  -0.7490   0.2768   0.00    2.4
2173 288764.000    537554.4202  -4737371.8143   4222642.7105   2   8   0.3676   0.8716   0.9357  -0.1995  -0.7491   0.2768   0.00    2.4
2173 288765.000    537554.3918  -4737371.9355   4222642.6410   2   8   0.3676   0.8716   0.9358  -0.1995  -0.7492   0.2769   0.00    2.5
2173 288766.000    537554.3893  -4737371.9134   4222643.0117   2   8   0.3676   0.8717   0.9360  -0.1996  -0.7494   0.2769   0.00    2.8
2173 288767.000    537554.5312  -4737372.1974   4222643.0397   2   8   0.3676   0.8717   0.9362  -0.1997  -0.7495   0.2770   0.00    2.8
2173 288768.000    537554.5838  -4737372.1614   4222642.7667   2   8   0.3676   0.8717   0.9364  -0.1998  -0.7496   0.2770   0.00    2.7
2173 288769.000    537554.4090  -4737372.2368   4222643.1241   2   8   0.3676   0.8718   0.9365  -0.1999  -0.7497   0.2771   0.00    2.7
2173 288770.000    537554.3879  -4737372.0844   4222642.5052   2   8   0.3676   0.8718   0.9367  -0.2000  -0.7499   0.2771   0.00    2.4
2173 288771.000    537554.4609  -4737372.3609   4222643.1760   2   8   0.3675   0.8718   0.9369  -0.2001  -0.7500   0.2772   0.00    2.9
2173 288772.000    537554.2259  -4737371.8482   4222642.6155   2   8   0.3675   0.8719   0.9370  -0.2002  -0.7501   0.2772   0.00    2.7
2173 288773.000    537554.2073  -4737372.6100   4222643.5006   2   8   0.3675   0.8719   0.9372  -0.2003  -0.7502   0.2773   0.00    2.8
2173 288774.000    537554.2050  -4737372.4888   4222643.2403   2   8   0.3675   0.8719   0.9374  -0.2004  -0.7504   0.2773   0.00    2.6
2173 288775.000    537554.2082  -4737372.1598   4222642.9579   2   8   0.3675   0.8719   0.9376  -0.2005  -0.7505   0.2774   0.00    2.7
2173 288776.000    537554.4221  -4737372.0659   4222642.9882   2   8   0.3675   0.8720   0.9377  -0.2006  -0.7506   0.2774   0.00    2.4
2173 288777.000    537554.0962  -4737372.1503   4222643.1376   2   8   0.3675   0.8720   0.9379  -0.2006  -0.7508   0.2775   0.00    2.6
2173 288778.000    537554.1038  -4737372.4999   4222643.4455   2   8   0.3675   0.8720   0.9381  -0.2007  -0.7509   0.2775   0.00    2.5
2173 288779.000    537554.2064  -4737372.1339   4222643.1476   2   8   0.3675   0.8721   0.9382  -0.2008  -0.7510   0.2776   0.00    2.7
2173 288780.000    537554.1662  -4737372.5151   4222643.4243   2   8   0.3675   0.8721   0.9384  -0.2009  -0.7511   0.2776   0.00    2.5
2173 288781.000    537554.3806  -4737372.3362   4222643.5222   2   8   0.3675   0.8721   0.9386  -0.2010  -0.7513   0.2777   0.00    2.7
2173 288782.000    537554.0510  -4737372.7575   4222643.6248   2   8   0.3675   0.8722   0.9388  -0.2011  -0.7514   0.2777   0.00    2.4
2173 288783.000    537554.3164  -4737372.5330   4222643.1264   2   8   0.3675   0.8722   0.9389  -0.2012  -0.7515   0.2778   0.00    2.9
2173 288784.000    537554.1866  -4737372.6149   4222643.1600   2   8   0.3675   0.8722   0.9391  -0.2013  -0.7516   0.2778   0.00    2.6
2173 288785.000    537554.1322  -4737372.3824   4222643.0425   2   8   0.3674   0.8723   0.9393  -0.2014  -0.7518   0.2779   0.00    2.7
2173 288786.000    537554.1553  -4737371.7228   4222642.7224   2   8   0.3674   0.8723   0.9395  -0.2015  -0.7519   0.2779   0.00    2.8
2173 288787.000    537554.1474  -4737372.7789   4222643.9413   1   8   0.0037   0.0088   0.0095  -0.0021  -0.0076   0.0028   0.00    3.1
2173 288788.000    537554.1462  -4737372.7791   4222643.9438   1   8   0.0037   0.0088   0.0095  -0.0021  -0.0076   0.0028   0.00    3.1
2173 288789.000    537554.0532  -4737372.3131   4222642.6375   2   8   0.3674   0.8724   0.9400  -0.2017  -0.7523   0.2781   0.00    2.6
2173 288790.000    537554.1474  -4737372.7735   4222643.9366   1   8   0.0037   0.0088   0.0095  -0.0021  -0.0076   0.0028   0.00    3.0
2173 288791.000    537554.1477  -4737372.7762   4222643.9382   1   8   0.0037   0.0088   0.0095  -0.0021  -0.0076   0.0028   0.00    3.7
2173 288792.000    537554.1463  -4737372.7765   4222643.9419   1   8   0.0037   0.0088   0.0095  -0.0021  -0.0076   0.0028   0.00    4.1
2173 288793.000    537554.1478  -4737372.7771   4222643.9401   1   8   0.0037   0.0088   0.0095  -0.0021  -0.0076   0.0028   0.00    3.7
2173 288794.000    537554.1488  -4737372.7800   4222643.9447   1   8   0.0037   0.0088   0.0095  -0.0021  -0.0076   0.0028   0.00    3.8
2173 288795.000    537554.1483  -4737372.7779   4222643.9418   1   8   0.0037   0.0088   0.0095  -0.0021  -0.0076   0.0028   0.00    4.0
2173 288796.000    537554.1479  -4737372.7767   4222643.9400   1   8   0.0037   0.0088   0.0095  -0.0021  -0.0076   0.0028   0.00    3.2
2173 288797.000    537554.1470  -4737372.7770   4222643.9391   1   8   0.0037   0.0088   0.0095  -0.0021  -0.0076   0.0028   0.00    3.6
2173 288798.000    537554.1476  -4737372.7762   4222643.9407   1   8   0.0037   0.0088   0.0095  -0.0021  -0.0076   0.0028   0.00    3.4
2173 288799.000    537554.1490  -4737372.7761   4222643.9425   1   8   0.0037   0.0088   0.0095  -0.0021  -0.0076   0.0028   0.00    3.1
2173 288800.000    537554.1489  -4737372.7764   4222643.9369   1   8   0.0037   0.0088   0.0095  -0.0021  -0.0076   0.0028   0.00    3.7
2173 288801.000    537554.1488  -4737372.7777   4222643.9394   1   8   0.0037   0.0088   0.0095  -0.0021  -0.0076   0.0028   0.00    4.3
2173 288802.000    537554.1488  -4737372.7807   4222643.9447   1   8   0.0037   0.0088   0.0095  -0.0021  -0.0076   0.0028   0.00    3.6
2173 288803.000    537554.1492  -4737372.7759   4222643.9397   1   8   0.0037   0.0088   0.0095  -0.0021  -0.0076   0.0028   0.00    3.1
2173 288804.000    537554.1495  -4737372.7757   4222643.9367   1   8   0.0037   0.0088   0.0095  -0.0021  -0.0076   0.0028   0.00    3.8
2173 288805.000    537554.1497  -4737372.7824   4222643.9423   1   8   0.0037   0.0088   0.0095  -0.0021  -0.0076   0.0028   0.00    4.8
2173 288806.000    537554.1483  -4737372.7789   4222643.9396   1   8   0.0037   0.0088   0.0095  -0.0021  -0.0076   0.0028   0.00    4.0
2173 288807.000    537554.1512  -4737372.7757   4222643.9399   1   8   0.0037   0.0088   0.0095  -0.0021  -0.0076   0.0028   0.00    3.7
2173 288808.000    537554.1493  -4737372.7767   4222643.9384   1   8   0.0037   0.0088   0.0095  -0.0021  -0.0076   0.0028   0.00    3.4
2173 288809.000    537552.8064  -4737372.1404   4222642.7524   2   8   0.3673   0.8731   0.9434  -0.2035  -0.7548   0.2791   0.00    2.4
2173 288810.000    537554.1509  -4737372.7761   4222643.9356   1   8   0.0037   0.0088   0.0095  -0.0021  -0.0076   0.0028   0.00    3.3
2173 288811.000    537554.1517  -4737372.7728   4222643.9386   1   8   0.0037   0.0088   0.0095  -0.0021  -0.0076   0.0028   0.00    3.6
2173 288812.000    537554.1485  -4737372.7718   4222643.9335   1   8   0.0037   0.0088   0.0095  -0.0021  -0.0076   0.0028   0.00    3.3
2173 288813.000    537554.1491  -4737372.7719   4222643.9289   1   8   0.0037   0.0088   0.0095  -0.0021  -0.0076   0.0028   0.00    3.0
2173 288814.000    537554.1487  -4737372.7715   4222643.9363   1   8   0.0037   0.0088   0.0095  -0.0021  -0.0076   0.0028   0.00    3.8
2173 288815.000    537553.0677  -4737372.2629   4222643.6087   2   8   0.3672   0.8733   0.9445  -0.2041  -0.7556   0.2794   0.00    2.8
2173 288816.000    537553.0834  -4737371.8525   4222643.2562   2   8   0.3672   0.8733   0.9446  -0.2042  -0.7557   0.2794   0.00    2.8
2173 288817.000    537554.1493  -4737372.7758   4222643.9357   1   8   0.0037   0.0088   0.0095  -0.0021  -0.0076   0.0028   0.00    3.5
2173 288818.000    537554.1480  -4737372.7686   4222643.9353   1   8   0.0037   0.0088   0.0095  -0.0021  -0.0076   0.0028   0.00    3.0
2173 288819.000    537553.3384  -4737372.1226   4222643.6330   2   8   0.3672   0.8734   0.9452  -0.2044  -0.7561   0.2796   0.00    3.0
2173 288820.000    537553.1813  -4737371.9227   4222643.9463   2   8   0.3672   0.8735   0.9453  -0.2045  -0.7562   0.2796   0.00    2.8
2173 288821.000    537554.1485  -4737372.7751   4222643.9408   1   8   0.0037   0.0088   0.0095  -0.0021  -0.0076   0.0028   0.00    3.4
2173 288822.000    537554.1493  -4737372.7739   4222643.9406   1   8   0.0037   0.0088   0.0095  -0.0021  -0.0076   0.0028   0.00    3.0
2173 288823.000    537553.0789  -4737371.4184   4222643.1753   2   8   0.3672   0.8736   0.9458  -0.2048  -0.7566   0.2798   0.00    2.9
2173 288824.000    537554.1491  -4737372.7736   4222643.9414   1   8   0.0037   0.0088   0.0095  -0.0021  -0.0076   0.0028   0.00    3.0
2173 288825.000    537552.9686  -4737371.4537   4222643.3823   2   8   0.3672   0.8736   0.9462  -0.2050  -0.7568   0.2799   0.00    3.0
2173 288826.000    537554.1481  -4737372.7735   4222643.9361   1   8   0.0037   0.0088   0.0095  -0.0021  -0.0076   0.0028   0.00    3.1
2173 288827.000    537554.1502  -4737372.7701   4222643.9359   1   8   0.0037   0.0088   0.0096  -0.0021  -0.0076   0.0028   0.00    3.3
2173 288828.000    537553.0736  -4737371.8022   4222643.3071   2   8   0.3672   0.8737   0.9467  -0.2052  -0.7572   0.2800   0.00    2.8
2173 288829.000    537553.1292  -4737371.5899   4222643.1369   2   8   0.3672   0.8738   0.9469  -0.2053  -0.7573   0.2801   0.00    3.0
2173 288830.000    537553.2082  -4737372.1260   4222643.6999   2   8   0.3671   0.8738   0.9471  -0.2054  -0.7575   0.2801   0.00    3.0
2173 288831.000    537554.1480  -4737372.7706   4222643.9406   1   8   0.0037   0.0088   0.0096  -0.0021  -0.0076   0.0029   0.00    3.8
2173 288832.000    537554.1493  -4737372.7656   4222643.9343   1   8   0.0037   0.0088   0.0096  -0.0021  -0.0076   0.0029   0.00    3.5
2173 288833.000    537554.1482  -4737372.7723   4222643.9368   1   8   0.0037   0.0088   0.0096  -0.0021  -0.0076   0.0029   0.00    3.4
2173 288834.000    537554.1494  -4737372.7703   4222643.9354   1   8   0.0037   0.0088   0.0096  -0.0021  -0.0076   0.0029   0.00    3.5
2173 288835.000    537553.0250  -4737372.1891   4222643.2831   2   8   0.3671   0.8740   0.9479  -0.2059  -0.7581   0.2804   0.00    2.8
2173 288836.000    537554.1482  -4737372.7704   4222643.9381   1   8   0.0037   0.0088   0.0096  -0.0021  -0.0077   0.0029   0.00    3.1
2173 288837.000    537552.9896  -4737371.8355   4222642.9513   2   8   0.3671   0.8741   0.9483  -0.2060  -0.7584   0.2805   0.00    2.5
2173 288838.000    537553.0457  -4737371.3841   4222642.8717   2   8   0.3671   0.8741   0.9484  -0.2061  -0.7585   0.2805   0.00    2.7
2173 288839.000    537553.1105  -4737370.9440   4222642.7764   2   8   0.3671   0.8741   0.9486  -0.2062  -0.7586   0.2806   0.00    2.9
2173 288840.000    537553.0293  -4737371.3036   4222642.8944   2   8   0.3671   0.8742   0.9488  -0.2063  -0.7587   0.2806   0.00    2.8
2173 288841.000    537554.1496  -4737372.7708   4222643.9396   1   8   0.0037   0.0088   0.0096  -0.0021  -0.0077   0.0029   0.00    3.3
2173 288842.000    537554.1467  -4737372.7686   4222643.9367   1   8   0.0037   0.0088   0.0096  -0.0021  -0.0077   0.0029   0.00    3.2
2173 288843.000    537554.1472  -4737372.7674   4222643.9363   1   8   0.0037   0.0088   0.0096  -0.0021  -0.0077   0.0029   0.00    3.9
2173 288844.000    537554.1466  -4737372.7688   4222643.9331   1   8   0.0037   0.0088   0.0096  -0.0021  -0.0077   0.0029   0.00    5.0
2173 288845.000    537554.1475  -4737372.7722   4222643.9406   1   8   0.0037   0.0088   0.0096  -0.0021  -0.0077   0.0029   0.00    3.5
2173 288846.000    537554.1456  -4737372.7718   4222643.9364   1   8   0.0037   0.0088   0.0096  -0.0021  -0.0077   0.0029   0.00    4.6
2173 288847.000    537554.1472  -4737372.7701   4222643.9335   1   8   0.0037   0.0088   0.0096  -0.0021  -0.0077   0.0029   0.00    4.0
2173 288848.000    537554.1451  -4737372.7687   4222643.9343   1   8   0.0037   0.0088   0.0096  -0.0021  -0.0077   0.0029   0.00    3.6
2173 288849.000    537554.1468  -4737372.7709   4222643.9370   1   8   0.0037   0.0088   0.0096  -0.0021  -0.0077   0.0029   0.00    3.6
2173 288850.000    537554.1465  -4737372.7750   4222643.9412   1   8   0.0037   0.0088   0.0096  -0.0021  -0.0077   0.0029   0.00    3.3
2173 288851.000    537554.1456  -4737372.7678   4222643.9317   1   8   0.0037   0.0088   0.0096  -0.0021  -0.0077   0.0029   0.00    3.9
2173 288852.000    537554.1463  -4737372.7737   4222643.9358   1   8   0.0037   0.0088   0.0096  -0.0021  -0.0077   0.0029   0.00    3.6
2173 288853.000    537554.1457  -4737372.7737   4222643.9371   1   8   0.0037   0.0088   0.0096  -0.0021  -0.0077   0.0029   0.00    4.0
2173 288854.000    537554.1461  -4737372.7720   4222643.9367   1   8   0.0037   0.0088   0.0096  -0.0021  -0.0077   0.0029   0.00    3.8
2173 288855.000    537554.1454  -4737372.7765   4222643.9388   1   8   0.0037   0.0088   0.0096  -0.0021  -0.0077   0.0029   0.00    5.7
2173 288856.000    537554.1470  -4737372.7752   4222643.9427   1   8   0.0037   0.0088   0.0096  -0.0021  -0.0077   0.0029   0.00    4.5
2173 288857.000    537554.1449  -4737372.7721   4222643.9396   1   8   0.0037   0.0088   0.0096  -0.0021  -0.0077   0.0029   0.00    4.7
2173 288858.000    537554.1486  -4737372.7690   4222643.9384   1   8   0.0037   0.0088   0.0096  -0.0021  -0.0077   0.0029   0.00    4.7
2173 288859.000    537554.1489  -4737372.7769   4222643.9416   1   8   0.0037   0.0088   0.0096  -0.0021  -0.0077   0.0029   0.00    4.7
2173 288860.000    537554.1475  -4737372.7748   4222643.9407   1   8   0.0037   0.0088   0.0096  -0.0021  -0.0077   0.0029   0.00    4.8
2173 288861.000    537554.1481  -4737372.7733   4222643.9354   1   8   0.0037   0.0088   0.0096  -0.0021  -0.0077   0.0029   0.00    5.4
2173 288862.000    537554.1478  -4737372.7774   4222643.9425   1   8   0.0037   0.0088   0.0096  -0.0021  -0.0077   0.0029   0.00    5.7
2173 288863.000    537554.1477  -4737372.7695   4222643.9371   1   8   0.0037   0.0088   0.0096  -0.0021  -0.0077   0.0029   0.00    5.3
2173 288864.000    537554.1492  -4737372.7726   4222643.9453   1   8   0.0037   0.0088   0.0096  -0.0021  -0.0077   0.0029   0.00    5.0
2173 288865.000    537554.1492  -4737372.7783   4222643.9457   1   8   0.0037   0.0088   0.0096  -0.0021  -0.0077   0.0029   0.00    4.5
2173 288866.000    537554.1456  -4737372.7704   4222643.9362   1   8   0.0037   0.0088   0.0096  -0.0021  -0.0077   0.0029   0.00    5.2
2173 288867.000    537554.1492  -4737372.7697   4222643.9421   1   8   0.0037   0.0088   0.0096  -0.0021  -0.0077   0.0029   0.00    4.3
2173 288868.000    537554.1489  -4737372.7753   4222643.9402   1   8   0.0037   0.0088   0.0096  -0.0021  -0.0077   0.0029   0.00    4.8
2173 288869.000    537554.1489  -4737372.7709   4222643.9382   1   8   0.0037   0.0088   0.0096  -0.0021  -0.0077   0.0029   0.00    4.4
2173 288870.000    537554.1496  -4737372.7760   4222643.9421   1   8   0.0037   0.0088   0.0096  -0.0021  -0.0077   0.0029   0.00    4.8
2173 288871.000    537554.1482  -4737372.7691   4222643.9388   1   8   0.0037   0.0088   0.0096  -0.0021  -0.0077   0.0029   0.00    4.1
2173 288872.000    537554.1501  -4737372.7734   4222643.9428   1   8   0.0037   0.0088   0.0096  -0.0021  -0.0077   0.0029   0.00    4.0
2173 288873.000    537554.1497  -4737372.7753   4222643.9441   1   8   0.0037   0.0088   0.0096  -0.0021  -0.0077   0.0029   0.00    4.8
2173 288874.000    537554.1490  -4737372.7799   4222643.9464   1   8   0.0037   0.0088   0.0096  -0.0021  -0.0077   0.0029   0.00    4.8
2173 288875.000    537554.1468  -4737372.7739   4222643.9423   1   8   0.0037   0.0088   0.0096  -0.0021  -0.0077   0.0029   0.00    5.7
2173 288876.000    537554.1472  -4737372.7697   4222643.9376   1   8   0.0037   0.0088   0.0096  -0.0021  -0.0077   0.0029   0.00    5.3
2173 288877.000    537554.1479  -4737372.7681   4222643.9379   1   8   0.0037   0.0088   0.0096  -0.0021  -0.0077   0.0029   0.00    4.8
2173 288878.000    537554.1462  -4737372.7738   4222643.9457   1   8   0.0037   0.0088   0.0096  -0.0021  -0.0077   0.0029   0.00    4.8
2173 288879.000    537554.1477  -4737372.7779   4222643.9490   1   8   0.0037   0.0088   0.0096  -0.0021  -0.0077   0.0029   0.00    5.8
2173 288880.000    537554.1469  -4737372.7726   4222643.9382   1   8   0.0037   0.0088   0.0096  -0.0022  -0.0077   0.0029   0.00    4.8
2173 288881.000    537554.1468  -4737372.7702   4222643.9388   1   8   0.0037   0.0088   0.0096  -0.0022  -0.0077   0.0029   0.00    5.7
2173 288882.000    537554.1476  -4737372.7790   4222643.9471   1   8   0.0037   0.0088   0.0096  -0.0022  -0.0077   0.0029   0.00    5.4
2173 288883.000    537554.1466  -4737372.7743   4222643.9381   1   8   0.0037   0.0088   0.0096  -0.0022  -0.0077   0.0029   0.00    6.4
2173 288884.000    537554.1457  -4737372.7780   4222643.9432   1   8   0.0037   0.0088   0.0096  -0.0022  -0.0077   0.0029   0.00    6.4
2173 288885.000    537554.1470  -4737372.7740   4222643.9455   1   8   0.0037   0.0088   0.0097  -0.0022  -0.0077   0.0029   0.00    6.0
2173 288886.000    537554.1455  -4737372.7716   4222643.9406   1   8   0.0037   0.0088   0.0097  -0.0022  -0.0077   0.0029   0.00    5.9
2173 288887.000    537554.1462  -4737372.7757   4222643.9455   1   8   0.0037   0.0088   0.0097  -0.0022  -0.0077   0.0029   0.00    5.5
2173 288888.000    537554.1449  -4737372.7783   4222643.9447   1   8   0.0037   0.0088   0.0097  -0.0022  -0.0077   0.0029   0.00    5.7
2173 288889.000    537554.1471  -4737372.7818   4222643.9490   1   8   0.0037   0.0088   0.0097  -0.0022  -0.0077   0.0029   0.00    5.8
2173 288890.000    537554.1463  -4737372.7772   4222643.9466   1   8   0.0037   0.0088   0.0097  -0.0022  -0.0077   0.0029   0.00    5.8
2173 288891.000    537554.1448  -4737372.7724   4222643.9415   1   8   0.0037   0.0088   0.0097  -0.0022  -0.0077   0.0029   0.00    4.8
2173 288892.000    537554.1446  -4737372.7733   4222643.9436   1   8   0.0037   0.0088   0.0097  -0.0022  -0.0077   0.0029   0.00    5.2
2173 288893.000    537554.1453  -4737372.7773   4222643.9433   1   8   0.0037   0.0088   0.0097  -0.0022  -0.0077   0.0029   0.00    5.3
2173 288894.000    537554.1454  -4737372.7794   4222643.9454   1   8   0.0037   0.0088   0.0097  -0.0022  -0.0077   0.0029   0.00    5.4
2173 288895.000    537554.1467  -4737372.7769   4222643.9440   1   8   0.0037   0.0088   0.0097  -0.0022  -0.0077   0.0029   0.00    6.4
2173 288896.000    537554.1456  -4737372.7757   4222643.9424   1   8   0.0037   0.0088   0.0097  -0.0022  -0.0077   0.0029   0.00    5.6
2173 288897.000    537554.1464  -4737372.7785   4222643.9456   1   8   0.0037   0.0088   0.0097  -0.0022  -0.0077   0.0029   0.00    5.8
2173 288898.000    537554.1430  -4737372.7772   4222643.9463   1   8   0.0037   0.0088   0.0097  -0.0022  -0.0077   0.0029   0.00    4.8
2173 288899.000    537554.1458  -4737372.7830   4222643.9534   1   8   0.0037   0.0088   0.0097  -0.0022  -0.0077   0.0029   0.00    5.3
2173 288900.000    537554.1447  -4737372.7769   4222643.9427   1   8   0.0037   0.0088   0.0097  -0.0022  -0.0077   0.0029   0.00    5.8
2173 288901.000    537554.1425  -4737372.7764   4222643.9459   1   8   0.0037   0.0088   0.0097  -0.0022  -0.0077   0.0029   0.00    5.2
2173 288902.000    537554.1461  -4737372.7819   4222643.9504   1   8   0.0037   0.0088   0.0097  -0.0022  -0.0077   0.0029   0.00    6.5
2173 288903.000    537554.1467  -4737372.7805   4222643.9499   1   8   0.0037   0.0088   0.0097  -0.0022  -0.0077   0.0029   0.00    6.5
2173 288904.000    537554.1467  -4737372.7783   4222643.9496   1   8   0.0037   0.0088   0.0097  -0.0022  -0.0077   0.0029   0.00    5.6
2173 288905.000    537554.1458  -4737372.7797   4222643.9479   1   8   0.0037   0.0088   0.0097  -0.0022  -0.0077   0.0029   0.00    5.5
2173 288906.000    537554.1457  -4737372.7732   4222643.9448   1   8   0.0037   0.0088   0.0097  -0.0022  -0.0077   0.0029   0.00    5.4
2173 288907.000    537554.1474  -4737372.7819   4222643.9510   1   8   0.0037   0.0088   0.0097  -0.0022  -0.0077   0.0029   0.00    6.2
2173 288908.000    537554.1452  -4737372.7813   4222643.9484   1   8   0.0037   0.0088   0.0097  -0.0022  -0.0077   0.0029   0.00    5.7
2173 288909.000    537554.1476  -4737372.7824   4222643.9531   1   8   0.0037   0.0089   0.0097  -0.0022  -0.0077   0.0029   0.00    5.9
2173 288910.000    537554.1464  -4737372.7844   4222643.9510   1   8   0.0037   0.0089   0.0097  -0.0022  -0.0077   0.0029   0.00    6.4
2173 288911.000    537554.1463  -4737372.7774   4222643.9436   1   8   0.0037   0.0089   0.0097  -0.0022  -0.0077   0.0029   0.00    6.0
2173 288912.000    537554.1451  -4737372.7820   4222643.9493   1   8   0.0037   0.0089   0.0097  -0.0022  -0.0077   0.0029   0.00    6.5
2173 288913.000    537554.1450  -4737372.7765   4222643.9444   1   8   0.0037   0.0089   0.0097  -0.0022  -0.0078   0.0029   0.00    6.2
2173 288914.000    537554.1465  -4737372.7795   4222643.9456   1   8   0.0037   0.0089   0.0097  -0.0022  -0.0078   0.0029   0.00    4.4
2173 288915.000    537554.1456  -4737372.7820   4222643.9487   1   8   0.0037   0.0089   0.0097  -0.0022  -0.0078   0.0029   0.00    5.7
2173 288916.000    537554.1460  -4737372.7760   4222643.9488   1   8   0.0037   0.0089   0.0097  -0.0022  -0.0078   0.0029   0.00    5.4
2173 288917.000    537554.1475  -4737372.7798   4222643.9451   1   8   0.0037   0.0089   0.0097  -0.0022  -0.0078   0.0029   0.00    5.9
2173 288918.000    537554.1483  -4737372.7774   4222643.9459   1   8   0.0037   0.0089   0.0097  -0.0022  -0.0078   0.0029   0.00    5.0
2173 288919.000    537554.1459  -4737372.7758   4222643.9423   1   8   0.0037   0.0089   0.0097  -0.0022  -0.0078   0.0029   0.00    5.1
2173 288920.000    537554.1471  -4737372.7776   4222643.9452   1   8   0.0037   0.0089   0.0097  -0.0022  -0.0078   0.0029   0.00    5.8
2173 288921.000    537554.1469  -4737372.7785   4222643.9444   1   8   0.0037   0.0089   0.0097  -0.0022  -0.0078   0.0029   0.00    5.1
2173 288922.000    537554.1482  -4737372.7765   4222643.9456   1   8   0.0037   0.0089   0.0097  -0.0022  -0.0078   0.0029   0.00    5.6
2173 288923.000    537554.1485  -4737372.7788   4222643.9504   1   8   0.0037   0.0089   0.0097  -0.0022  -0.0078   0.0029   0.00    4.5
2173 288924.000    537554.1481  -4737372.7784   4222643.9452   1   8   0.0037   0.0089   0.0097  -0.0022  -0.0078   0.0029   0.00    5.3
2173 288925.000    537554.1483  -4737372.7828   4222643.9508   1   8   0.0037   0.0089   0.0097  -0.0022  -0.0078   0.0029   0.00    5.6
2173 288926.000    537554.1467  -4737372.7758   4222643.9428   1   8   0.0037   0.0089   0.0097  -0.0022  -0.0078   0.0029   0.00    5.4
2173 288927.000    537554.1483  -4737372.7853   4222643.9489   1   8   0.0037   0.0089   0.0097  -0.0022  -0.0078   0.0029   0.00    4.8
2173 288928.000    537554.1481  -4737372.7827   4222643.9490   1   8   0.0037   0.0089   0.0097  -0.0022  -0.0078   0.0029   0.00    5.2
2173 288929.000    537554.1476  -4737372.7741   4222643.9494   1   8   0.0037   0.0089   0.0097  -0.0022  -0.0078   0.0029   0.00    4.5
2173 288930.000    537554.1462  -4737372.7810   4222643.9476   1   8   0.0037   0.0089   0.0097  -0.0022  -0.0078   0.0029   0.00    4.3
2173 288931.000    537554.1463  -4737372.7770   4222643.9433   1   8   0.0037   0.0089   0.0097  -0.0022  -0.0078   0.0029   0.00    4.3
2173 288932.000    537554.1479  -4737372.7814   4222643.9490   1   8   0.0037   0.0089   0.0097  -0.0022  -0.0078   0.0029   0.00    4.1
2173 288933.000    537554.1463  -4737372.7806   4222643.9476   1   8   0.0037   0.0089   0.0097  -0.0022  -0.0078   0.0029   0.00    3.4
2173 288934.000    537554.1481  -4737372.7846   4222643.9519   1   8   0.0037   0.0089   0.0097  -0.0022  -0.0078   0.0029   0.00    3.7
2173 288935.000    537554.1481  -4737372.7832   4222643.9504   1   8   0.0037   0.0089   0.0097  -0.0022  -0.0078   0.0029   0.00    5.0
2173 288936.000    537554.1475  -4737372.7840   4222643.9483   1   8   0.0037   0.0089   0.0097  -0.0022  -0.0078   0.0029   0.00    5.1
2173 288937.000    537554.1478  -4737372.7777   4222643.9427   1   8   0.0037   0.0089   0.0097  -0.0022  -0.0078   0.0029   0.00    5.2
2173 288938.000    537554.1497  -4737372.7837   4222643.9507   1   8   0.0037   0.0089   0.0097  -0.0022  -0.0078   0.0029   0.00    4.2
2173 288939.000    537554.1484  -4737372.7831   4222643.9477   1   8   0.0037   0.0089   0.0097  -0.0022  -0.0078   0.0029   0.00    3.9
2173 288940.000    537554.1495  -4737372.7830   4222643.9458   1   8   0.0037   0.0089   0.0097  -0.0022  -0.0078   0.0029   0.00    4.5
2173 288941.000    537554.1485  -4737372.7818   4222643.9504   1   8   0.0037   0.0089   0.0097  -0.0022  -0.0078   0.0029   0.00    4.3
2173 288942.000    537554.1467  -4737372.7808   4222643.9429   1   8   0.0037   0.0089   0.0098  -0.0022  -0.0078   0.0029   0.00    3.8
2173 288943.000    537554.1491  -4737372.7825   4222643.9440   1   8   0.0037   0.0089   0.0098  -0.0022  -0.0078   0.0029   0.00    4.0
2173 288944.000    537554.1482  -4737372.7828   4222643.9469   1   8   0.0037   0.0089   0.0098  -0.0022  -0.0078   0.0029   0.00    3.9
2173 288945.000    537554.1467  -4737372.7770   4222643.9387   1   8   0.0037   0.0089   0.0098  -0.0022  -0.0078   0.0029   0.00    3.3
2173 288946.000    537554.1484  -4737372.7805   4222643.9415   1   8   0.0037   0.0089   0.0098  -0.0022  -0.0078   0.0029   0.00    4.0
2173 288947.000    537554.1467  -4737372.7813   4222643.9384   1   8   0.0037   0.0089   0.0098  -0.0022  -0.0078   0.0029   0.00    3.3
2173 288948.000    537554.1457  -4737372.7755   4222643.9405   1   8   0.0037   0.0089   0.0098  -0.0022  -0.0078   0.0029   0.00    3.3
2173 288949.000    537554.1491  -4737372.7747   4222643.9414   1   8   0.0037   0.0089   0.0098  -0.0022  -0.0078   0.0029   0.00    3.0
2173 288950.000    537554.1476  -4737372.7758   4222643.9407   1   8   0.0037   0.0089   0.0098  -0.0022  -0.0078   0.0029   0.00    3.0
2173 288951.000    537554.1480  -4737372.7829   4222643.9450   1   8   0.0037   0.0089   0.0098  -0.0022  -0.0078   0.0029   0.00    3.2
2173 288952.000    537554.1475  -4737372.7747   4222643.9376   1   8   0.0037   0.0089   0.0098  -0.0022  -0.0078   0.0029   0.00    3.6
2173 288953.000    537554.1486  -4737372.7831   4222643.9457   1   8   0.0037   0.0089   0.0098  -0.0022  -0.0078   0.0029   0.00    4.0
2173 288954.000    537554.1483  -4737372.7786   4222643.9427   1   8   0.0037   0.0089   0.0098  -0.0022  -0.0078   0.0029   0.00    3.8
2173 288955.000    537554.1505  -4737372.7777   4222643.9420   1   8   0.0037   0.0089   0.0098  -0.0022  -0.0078   0.0029   0.00    3.6
2173 288956.000    537553.4584  -4737370.8589   4222641.8213   2   8   0.3665   0.8787   0.9690  -0.2165  -0.7736   0.2865   0.00    2.8
2173 288957.000    537554.1467  -4737372.7727   4222643.9316   1   8   0.0037   0.0089   0.0098  -0.0022  -0.0078   0.0029   0.00    3.0
2173 288958.000    537554.1487  -4737372.7790   4222643.9347   1   8   0.0037   0.0089   0.0098  -0.0022  -0.0078   0.0029   0.00    3.8
2173 288959.000    537553.5168  -4737370.9555   4222641.7552   2   8   0.3664   0.8788   0.9695  -0.2167  -0.7740   0.2866   0.00    3.0
2173 288960.000    537553.5067  -4737370.8506   4222641.4000   2   8   0.3664   0.8788   0.9697  -0.2168  -0.7741   0.2867   0.00    2.7
2173 288961.000    537553.7198  -4737371.1207   4222641.7371   2   8   0.3664   0.8789   0.9698  -0.2169  -0.7743   0.2867   0.00    2.9
2173 288962.000    537554.1463  -4737372.7713   4222643.9334   1   8   0.0037   0.0089   0.0098  -0.0022  -0.0078   0.0029   0.00    3.3
2173 288963.000    537554.1486  -4737372.7751   4222643.9354   1   8   0.0037   0.0089   0.0098  -0.0022  -0.0078   0.0029   0.00    3.4
2173 288964.000    537554.1481  -4737372.7747   4222643.9377   1   8   0.0037   0.0089   0.0098  -0.0022  -0.0078   0.0029   0.00    3.6
2173 288965.000    537554.1478  -4737372.7781   4222643.9362   1   8   0.0037   0.0089   0.0098  -0.0022  -0.0078   0.0029   0.00    3.4
2173 288966.000    537554.1463  -4737372.7728   4222643.9312   1   8   0.0037   0.0089   0.0098  -0.0022  -0.0078   0.0029   0.00    3.6
2173 288967.000    537554.1472  -4737372.7730   4222643.9335   1   8   0.0037   0.0089   0.0098  -0.0022  -0.0078   0.0029   0.00    3.3
2173 288968.000    537554.1486  -4737372.7789   4222643.9393   1   8   0.0037   0.0089   0.0098  -0.0022  -0.0078   0.0029   0.00    3.4
2173 288969.000    537554.1482  -4737372.7759   4222643.9335   1   8   0.0037   0.0089   0.0098  -0.0022  -0.0078   0.0029   0.00    3.4
2173 288970.000    537554.1465  -4737372.7715   4222643.9303   1   8   0.0037   0.0089   0.0098  -0.0022  -0.0078   0.0029   0.00    3.1
2173 288971.000    537554.1496  -4737372.7773   4222643.9400   1   8   0.0037   0.0089   0.0098  -0.0022  -0.0078   0.0029   0.00    3.1
2173 288972.000    537553.9093  -4737371.6603   4222643.7557   2   8   0.3664   0.8793   0.9717  -0.2178  -0.7757   0.2873   0.00    2.8
2173 288973.000    537554.1505  -4737372.7810   4222643.9436   1   8   0.0037   0.0089   0.0098  -0.0022  -0.0078   0.0029   0.00    3.2
2173 288974.000    537554.0393  -4737371.6796   4222643.4234   2   8   0.3664   0.8794   0.9721  -0.2180  -0.7759   0.2874   0.00    3.0
2173 288975.000    537554.1479  -4737372.7727   4222643.9370   1   8   0.0037   0.0089   0.0098  -0.0022  -0.0078   0.0029   0.00    3.2
2173 288976.000    537553.8759  -4737372.1388   4222644.3090   2   8   0.3664   0.8795   0.9724  -0.2182  -0.7762   0.2875   0.00    2.7
2173 288977.000    537553.8452  -4737371.5957   4222643.4646   2   8   0.3664   0.8795   0.9726  -0.2182  -0.7763   0.2875   0.00    2.9
2173 288978.000    537553.7711  -4737371.9881   4222644.2934   2   8   0.3664   0.8796   0.9728  -0.2183  -0.7764   0.2876   0.00    2.5
2173 288979.000    537553.7141  -4737372.2408   4222643.8358   2   8   0.3664   0.8796   0.9730  -0.2184  -0.7766   0.2876   0.00    2.6
2173 288980.000    537553.6774  -4737371.9216   4222644.0230   2   8   0.3664   0.8797   0.9731  -0.2185  -0.7767   0.2877   0.00    2.5
2173 288981.000    537553.7611  -4737372.3153   4222644.2617   2   8   0.3664   0.8797   0.9733  -0.2186  -0.7768   0.2877   0.00    2.6
2173 288982.000    537553.8563  -4737372.5680   4222644.5838   2   8   0.3663   0.8798   0.9735  -0.2187  -0.7770   0.2878   0.00    2.6
2173 288983.000    537553.8468  -4737372.0722   4222643.9486   2   8   0.3663   0.8798   0.9737  -0.2188  -0.7771   0.2878   0.00    2.6
2173 288984.000    537553.7772  -4737371.9501   4222643.7671   2   8   0.3663   0.8798   0.9738  -0.2188  -0.7772   0.2879   0.00    2.7
2173 288985.000    537553.5604  -4737371.8463   4222643.7975   2   8   0.3663   0.8799   0.9740  -0.2189  -0.7773   0.2879   0.00    2.2
2173 288986.000    537553.8148  -4737372.2368   4222644.3068   2   8   0.3663   0.8799   0.9742  -0.2190  -0.7775   0.2880   0.00    2.4
2173 288987.000    537553.9166  -4737371.9726   4222644.0180   2   8   0.3663   0.8800   0.9744  -0.2191  -0.7776   0.2880   0.00    2.3
2173 288988.000    537553.7071  -4737371.6620   4222643.7890   2   8   0.3663   0.8800   0.9745  -0.2192  -0.7777   0.2881   0.00    2.2
2173 288989.000    537553.6880  -4737371.5050   4222643.3998   2   8   0.3663   0.8801   0.9747  -0.2193  -0.7779   0.2881   0.00    2.4
2173 288990.000    537553.7461  -4737371.4708   4222643.3743   2   8   0.3663   0.8801   0.9749  -0.2193  -0.7780   0.2882   0.00    2.3
2173 288991.000    537553.6567  -4737371.5785   4222643.3657   2   8   0.3663   0.8801   0.9751  -0.2194  -0.7781   0.2883   0.00    2.3
2173 288992.000    537553.8052  -4737371.5650   4222643.7282   2   8   0.3663   0.8802   0.9752  -0.2195  -0.7782   0.2883   0.00    1.9
2173 288993.000    537553.6510  -4737372.1068   4222644.1113   2   8   0.3663   0.8802   0.9754  -0.2196  -0.7784   0.2884   0.00    2.2
2173 288994.000    537553.5963  -4737371.6565   4222643.4453   2   8   0.3663   0.8803   0.9756  -0.2197  -0.7785   0.2884   0.00    2.0
2173 288995.000    537553.6619  -4737371.6971   4222643.2871   2   8   0.3663   0.8803   0.9758  -0.2198  -0.7786   0.2885   0.00    2.2
2173 288996.000    537553.6688  -4737371.8405   4222643.6774   2   8   0.3663   0.8804   0.9759  -0.2199  -0.7788   0.2885   0.00    2.2
2173 288997.000    537553.6500  -4737372.4051   4222644.0210   2   8   0.3663   0.8804   0.9761  -0.2199  -0.7789   0.2886   0.00    2.2
2173 288998.000    537553.4307  -4737371.5745   4222643.1276   2   8   0.3663   0.8804   0.9763  -0.2200  -0.7790   0.2886   0.00    2.1
2173 288999.000    537553.6350  -4737371.8402   4222643.5071   2   8   0.3663   0.8805   0.9764  -0.2201  -0.7791   0.2887   0.00    1.9
2173 289000.000    537553.7317  -4737371.7119   4222643.2571   2   8   0.3663   0.8805   0.9766  -0.2202  -0.7793   0.2887   0.00    2.2
2173 289001.000    537553.4960  -4737371.6491   4222643.0629   2   8   0.3663   0.8806   0.9768  -0.2203  -0.7794   0.2888   0.00    1.9
2173 289002.000    537553.4776  -4737371.8879   4222643.9472   2   8   0.3663   0.8806   0.9770  -0.2204  -0.7795   0.2888   0.00    1.9
2173 289003.000    537553.5141  -4737372.0240   4222643.5841   2   8   0.3663   0.8807   0.9771  -0.2204  -0.7797   0.2889   0.00    1.9
2173 289004.000    537553.7742  -4737372.0263   4222643.7805   2   8   0.3663   0.8807   0.9773  -0.2205  -0.7798   0.2889   0.00    1.8
2173 289005.000    537553.6212  -4737372.2718   4222643.7616   2   8   0.3663   0.8807   0.9775  -0.2206  -0.7799   0.2890   0.00    1.8
2173 289006.000    537553.5465  -4737372.5300   4222643.8967   2   8   0.3663   0.8808   0.9777  -0.2207  -0.7800   0.2890   0.00    1.6
2173 289007.000    537553.6100  -4737372.6757   4222643.9203   2   8   0.3663   0.8808   0.9778  -0.2208  -0.7802   0.2891   0.00    1.8
2173 289008.000    537553.6353  -4737372.3392   4222643.9201   2   8   0.3662   0.8809   0.9780  -0.2209  -0.7803   0.2891   0.00    1.9
2173 289009.000    537553.4411  -4737372.5776   4222644.2280   2   8   0.3662   0.8809   0.9782  -0.2210  -0.7804   0.2892   0.00    1.7
2173 289010.000    537553.6469  -4737372.6144   4222643.8277   2   8   0.3662   0.8810   0.9784  -0.2210  -0.7806   0.2892   0.00    1.9
2173 289011.000    537553.4710  -4737372.2552   4222643.4018   2   8   0.3662   0.8810   0.9785  -0.2211  -0.7807   0.2893   0.00    2.2
2173 289012.000    537553.5173  -4737372.6795   4222643.7077   2   8   0.3662   0.8810   0.9787  -0.2212  -0.7808   0.2893   0.00    1.9
2173 289013.000    537553.5809  -4737373.3862   4222644.4774   2   8   0.3662   0.8811   0.9789  -0.2213  -0.7809   0.2894   0.00    1.9
2173 289014.000    537553.4188  -4737372.6063   4222643.6297   2   8   0.3662   0.8811   0.9791  -0.2214  -0.7811   0.2894   0.00    1.8
2173 289015.000    537553.4685  -4737372.5584   4222643.8679   2   8   0.3662   0.8812   0.9792  -0.2215  -0.7812   0.2895   0.00    1.7
2173 289016.000    537553.5801  -4737373.0858   4222643.8531   2   8   0.3662   0.8812   0.9794  -0.2215  -0.7813   0.2895   0.00    1.8
2173 289017.000    537553.3291  -4737372.7099   4222643.9974   2   8   0.3662   0.8813   0.9796  -0.2216  -0.7815   0.2896   0.00    1.8
2173 289018.000    537553.4438  -4737372.4263   4222643.6078   2   8   0.3662   0.8813   0.9797  -0.2217  -0.7816   0.2896   0.00    1.7
2173 289019.000    537553.3026  -4737372.5472   4222643.9319   2   8   0.3662   0.8814   0.9799  -0.2218  -0.7817   0.2897   0.00    1.7
2173 289020.000    537553.5811  -4737372.9904   4222643.8989   2   8   0.3662   0.8814   0.9801  -0.2219  -0.7818   0.2897   0.00    1.6
2173 289021.000    537553.2577  -4737372.6566   4222643.6279   2   8   0.3662   0.8814   0.9803  -0.2220  -0.7820   0.2898   0.00    1.6
2173 289022.000    537553.1755  -4737372.9204   4222644.1318   2   8   0.3662   0.8815   0.9804  -0.2220  -0.7821   0.2898   0.00    1.8
2173 289023.000    537553.2523  -4737373.2863   4222644.1069   2   8   0.3662   0.8815   0.9806  -0.2221  -0.7822   0.2899   0.00    1.5
2173 289024.000    537553.2655  -4737373.6458   4222644.2623   2   8   0.3662   0.8816   0.9808  -0.2222  -0.7824   0.2899   0.00    1.5
2173 289025.000    537553.2936  -4737373.1312   4222643.9337   2   8   0.3662   0.8816   0.9810  -0.2223  -0.7825   0.2900   0.00    1.6
2173 289026.000    537553.2483  -4737373.3173   4222643.8564   2   8   0.3662   0.8817   0.9811  -0.2224  -0.7826   0.2900   0.00    1.5
2173 289027.000    537553.3771  -4737373.4060   4222644.1748   2   8   0.3662   0.8817   0.9813  -0.2225  -0.7827   0.2901   0.00    1.6
2173 289028.000    537553.3313  -4737372.9701   4222643.8732   2   8   0.3662   0.8818   0.9815  -0.2226  -0.7829   0.2902   0.00    1.8
2173 289029.000    537553.4362  -4737373.4342   4222644.2454   2   8   0.3662   0.8818   0.9817  -0.2226  -0.7830   0.2902   0.00    1.7
2173 289030.000    537553.4756  -4737373.7280   4222644.1528   2   8   0.3662   0.8818   0.9818  -0.2227  -0.7831   0.2903   0.00    1.7
2173 289031.000    537553.5356  -4737373.4105   4222644.1409   2   8   0.3662   0.8819   0.9820  -0.2228  -0.7833   0.2903   0.00    1.8
2173 289032.000    537553.3761  -4737373.6946   4222644.1926   2   8   0.3662   0.8819   0.9822  -0.2229  -0.7834   0.2904   0.00    1.6
2173 289033.000    537553.5972  -4737373.8606   4222644.3765   2   8   0.3662   0.8820   0.9824  -0.2230  -0.7835   0.2904   0.00    1.5
2173 289034.000    537553.2754  -4737374.1899   4222644.4670   2   8   0.3662   0.8820   0.9825  -0.2231  -0.7836   0.2905   0.00    1.6
2173 289035.000    537553.5348  -4737374.3165   4222644.6830   2   8   0.3662   0.8821   0.9827  -0.2231  -0.7838   0.2905   0.00    1.6
2173 289036.000    537553.6883  -4737374.0551   4222644.3885   2   8   0.3661   0.8821   0.9829  -0.2232  -0.7839   0.2906   0.00    1.8
2173 289037.000    537553.1683  -4737374.0978   4222644.3822   2   8   0.3661   0.8822   0.9830  -0.2233  -0.7840   0.2906   0.00    1.7
2173 289038.000    537553.5320  -4737374.2420   4222644.2823   2   8   0.3661   0.8822   0.9832  -0.2234  -0.7842   0.2907   0.00    1.8
2173 289039.000    537553.2997  -4737374.2002   4222643.7133   2   8   0.3661   0.8822   0.9834  -0.2235  -0.7843   0.2907   0.00    1.6
2173 289040.000    537553.5193  -4737374.3119   4222644.3492   2   8   0.3661   0.8823   0.9836  -0.2236  -0.7844   0.2908   0.00    1.7
2173 289041.000    537553.4806  -4737373.8349   4222643.5582   2   8   0.3661   0.8823   0.9837  -0.2236  -0.7845   0.2908   0.00    1.9
2173 289042.000    537553.2015  -4737373.7699   4222643.8695   2   8   0.3661   0.8824   0.9839  -0.2237  -0.7847   0.2909   0.00    1.8
2173 289043.000    537553.2801  -4737374.0948   4222643.9510   2   8   0.3661   0.8824   0.9841  -0.2238  -0.7848   0.2909   0.00    1.7
2173 289044.000    537553.2513  -4737373.7847   4222643.9800   2   8   0.3661   0.8825   0.9843  -0.2239  -0.7849   0.2910   0.00    1.8
2173 289045.000    537553.1105  -4737373.9400   4222643.9452   2   8   0.3661   0.8825   0.9844  -0.2240  -0.7851   0.2910   0.00    1.7
2173 289046.000    537553.3034  -4737373.7932   4222643.5903   2   8   0.3661   0.8826   0.9846  -0.2241  -0.7852   0.2911   0.00    1.7
2173 289047.000    537553.1023  -4737373.5992   4222643.5252   2   8   0.3661   0.8826   0.9848  -0.2241  -0.7853   0.2911   0.00    1.7
2173 289048.000    537553.2918  -4737373.9302   4222643.6372   2   8   0.3661   0.8826   0.9850  -0.2242  -0.7854   0.2912   0.00    1.8
2173 289049.000    537553.1198  -4737373.8839   4222644.1289   2   8   0.3661   0.8827   0.9851  -0.2243  -0.7856   0.2912   0.00    1.9
2173 289050.000    537553.2378  -4737373.3702   4222643.5230   2   8   0.3661   0.8827   0.9853  -0.2244  -0.7857   0.2913   0.00    1.9
2173 289051.000    537553.0624  -4737373.9491   4222643.8539   2   8   0.3661   0.8828   0.9855  -0.2245  -0.7858   0.2913   0.00    1.8
2173 289052.000    537553.0673  -4737373.9384   4222643.7529   2   8   0.3661   0.8828   0.9856  -0.2246  -0.7860   0.2914   0.00    1.9
2173 289053.000    537552.9000  -4737373.9419   4222644.1870   2   8   0.3661   0.8829   0.9858  -0.2246  -0.7861   0.2914   0.00    1.7
2173 289054.000    537552.9939  -4737373.6821   4222643.4332   2   8   0.3661   0.8829   0.9860  -0.2247  -0.7862   0.2915   0.00    1.8
2173 289055.000    537552.8505  -4737373.9969   4222644.1187   2   8   0.3661   0.8830   0.9862  -0.2248  -0.7863   0.2915   0.00    1.8
2173 289056.000    537552.8886  -4737373.6848   4222643.7491   2   8   0.3661   0.8830   0.9863  -0.2249  -0.7865   0.2916   0.00    1.6
2173 289057.000    537553.0386  -4737373.6111   4222643.8780   2   8   0.3661   0.8831   0.9865  -0.2250  -0.7866   0.2916   0.00    2.2
2173 289058.000    537552.9194  -4737373.8244   4222644.4318   2   8   0.3661   0.8831   0.9867  -0.2251  -0.7867   0.2917   0.00    1.8
2173 289059.000    537552.7233  -4737373.7764   4222644.4611   2   8   0.3661   0.8831   0.9869  -0.2251  -0.7869   0.2917   0.00    1.7
2173 289060.000    537552.5773  -4737374.1286   4222644.1573   2   8   0.3661   0.8832   0.9870  -0.2252  -0.7870   0.2918   0.00    1.3
2173 289061.000    537552.7993  -4737374.0980   4222644.4038   2   8   0.3661   0.8832   0.9872  -0.2253  -0.7871   0.2919   0.00    1.6
2173 289062.000    537552.8991  -4737374.3121   4222645.0151   2   8   0.3661   0.8833   0.9874  -0.2254  -0.7872   0.2919   0.00    1.6
2173 289063.000    537552.9767  -4737374.5573   4222645.1451   2   8   0.3661   0.8833   0.9876  -0.2255  -0.7874   0.2920   0.00    1.6
2173 289064.000    537552.9918  -4737374.6568   4222645.5183   2   8   0.3661   0.8834   0.9877  -0.2256  -0.7875   0.2920   0.00    1.7
2173 289065.000    537553.1395  -4737374.4150   4222645.1879   2   8   0.3661   0.8834   0.9879  -0.2256  -0.7876   0.2921   0.00    1.9
2173 289066.000    537553.2269  -4737374.3776   4222645.3419   2   8   0.3661   0.8835   0.9881  -0.2257  -0.7877   0.2921   0.00    2.1
2173 289067.000    537553.0123  -4737374.2798   4222645.1182   2   8   0.3661   0.8835   0.9882  -0.2258  -0.7879   0.2922   0.00    1.6
2173 289068.000    537553.1310  -4737374.2176   4222645.1540   2   8   0.3661   0.8836   0.9884  -0.2259  -0.7880   0.2922   0.00    1.8
2173 289069.000    537553.1960  -4737374.4206   4222645.3616   2   8   0.3660   0.8836   0.9886  -0.2260  -0.7881   0.2923   0.00    1.9
2173 289070.000    537553.1204  -4737373.9809   4222645.0363   2   8   0.3660   0.8836   0.9888  -0.2260  -0.7883   0.2923   0.00    2.0
2173 289071.000    537553.2235  -4737374.8734   4222645.5692   2   8   0.3660   0.8837   0.9889  -0.2261  -0.7884   0.2924   0.00    1.8
2173 289072.000    537553.2649  -4737374.4567   4222645.9329   2   8   0.3660   0.8837   0.9891  -0.2262  -0.7885   0.2924   0.00    1.9
2173 289073.000    537552.8902  -4737374.2158   4222645.7894   2   8   0.3660   0.8838   0.9893  -0.2263  -0.7886   0.2925   0.00    1.4
2173 289074.000    537553.2145  -4737374.2742   4222645.8592   2   8   0.3660   0.8838   0.9895  -0.2264  -0.7888   0.2925   0.00    1.8
2173 289075.000    537553.4838  -4737374.0969   4222645.5010   2   8   0.3660   0.8839   0.9896  -0.2265  -0.7889   0.2926   0.00    2.5
2173 289076.000    537553.2901  -4737373.9096   4222645.1549   2   8   0.3660   0.8839   0.9898  -0.2265  -0.7890   0.2926   0.00    2.3
2173 289077.000    537553.1610  -4737374.2929   4222645.7160   2   8   0.3660   0.8840   0.9900  -0.2266  -0.7892   0.2927   0.00    1.7
2173 289078.000    537553.2147  -4737374.3915   4222646.0518   2   8   0.3660   0.8840   0.9901  -0.2267  -0.7893   0.2927   0.00    1.7
2173 289079.000    537553.0895  -4737374.1451   4222646.0669   2   8   0.3660   0.8841   0.9903  -0.2268  -0.7894   0.2928   0.00    1.5
2173 289080.000    537553.0124  -4737374.4660   4222645.6729   2   8   0.3660   0.8841   0.9905  -0.2269  -0.7895   0.2928   0.00    1.7
2173 289081.000    537553.3027  -4737373.7262   4222645.4183   2   8   0.3660   0.8842   0.9907  -0.2270  -0.7897   0.2929   0.00    2.0
2173 289082.000    537553.2339  -4737373.8911   4222645.3993   2   8   0.3660   0.8842   0.9908  -0.2270  -0.7898   0.2929   0.00    2.0
2173 289083.000    537553.4266  -4737374.0246   4222645.4878   2   8   0.3660   0.8842   0.9910  -0.2271  -0.7899   0.2930   0.00    2.3
2173 289084.000    537553.4195  -4737374.2969   4222646.0413   2   8   0.3660   0.8843   0.9912  -0.2272  -0.7901   0.2930   0.00    1.8
2173 289085.000    537553.5029  -4737373.9472   4222645.2048   2   8   0.3660   0.8843   0.9914  -0.2273  -0.7902   0.2931   0.00    2.5
2173 289086.000    537553.3176  -4737374.2151   4222645.7512   2   8   0.3660   0.8844   0.9915  -0.2274  -0.7903   0.2931   0.00    2.0
2173 289087.000    537553.3095  -4737373.5205   4222645.2255   2   8   0.3660   0.8844   0.9917  -0.2275  -0.7904   0.2932   0.00    2.3
2173 289088.000    537553.2770  -4737373.8966   4222645.3958   2   8   0.3660   0.8845   0.9919  -0.2275  -0.7906   0.2932   0.00    2.0
2173 289089.000    537553.1552  -4737373.3252   4222644.8817   2   8   0.3660   0.8845   0.9920  -0.2276  -0.7907   0.2933   0.00    1.8
2173 289090.000    537553.0743  -4737373.6801   4222645.3385   2   8   0.3660   0.8846   0.9922  -0.2277  -0.7908   0.2933   0.00    1.7
2173 289091.000    537553.1734  -4737373.4789   4222644.9329   2   8   0.3660   0.8846   0.9924  -0.2278  -0.7910   0.2934   0.00    1.9
2173 289092.000    537553.3112  -4737373.6197   4222644.9833   2   8   0.3660   0.8847   0.9926  -0.2279  -0.7911   0.2934   0.00    2.3
2173 289093.000    537553.3847  -4737373.4474   4222644.7523   2   8   0.3660   0.8847   0.9927  -0.2279  -0.7912   0.2935   0.00    2.0
2173 289094.000    537553.3765  -4737373.6003   4222644.9903   2   8   0.3660   0.8848   0.9929  -0.2280  -0.7913   0.2936   0.00    2.2
2173 289095.000    537553.4697  -4737373.9424   4222645.2673   2   8   0.3660   0.8848   0.9931  -0.2281  -0.7915   0.2936   0.00    2.2
2173 289096.000    537553.4521  -4737374.1104   4222645.1720   2   8   0.3660   0.8848   0.9932  -0.2282  -0.7916   0.2937   0.00    2.1
2173 289097.000    537553.3891  -4737373.8517   4222644.6839   2   8   0.3660   0.8849   0.9934  -0.2283  -0.7917   0.2937   0.00    2.1
2173 289098.000    537553.3363  -4737374.0105   4222644.8475   2   8   0.3660   0.8849   0.9936  -0.2284  -0.7918   0.2938   0.00    2.2
2173 289099.000    537553.3935  -4737373.7976   4222644.9930   2   8   0.3660   0.8850   0.9938  -0.2284  -0.7920   0.2938   0.00    2.2
2173 289100.000    537553.1776  -4737373.5711   4222644.7140   2   8   0.3660   0.8850   0.9939  -0.2285  -0.7921   0.2939   0.00    2.1
2173 289101.000    537553.2600  -4737373.8185   4222644.1579   2   8   0.3660   0.8851   0.9941  -0.2286  -0.7922   0.2939   0.00    1.7
2173 289102.000    537553.5520  -4737373.6916   4222644.2455   2   8   0.3660   0.8851   0.9943  -0.2287  -0.7924   0.2940   0.00    1.8
2173 289103.000    537553.3570  -4737373.3978   4222643.7680   2   8   0.3660   0.8852   0.9945  -0.2288  -0.7925   0.2940   0.00    1.5
2173 289104.000    537553.4852  -4737373.5680   4222644.5301   2   8   0.3660   0.8852   0.9946  -0.2288  -0.7926   0.2941   0.00    2.0
2173 289105.000    537553.4055  -4737373.5673   4222644.3750   2   8   0.3660   0.8853   0.9948  -0.2289  -0.7927   0.2941   0.00    2.0
2173 289106.000    537553.3932  -4737373.2515   4222644.3638   2   8   0.3660   0.8853   0.9950  -0.2290  -0.7929   0.2942   0.00    2.0
2173 289107.000    537553.6376  -4737373.7772   4222644.6807   2   8   0.3660   0.8854   0.9951  -0.2291  -0.7930   0.2942   0.00    2.1
2173 289108.000    537553.3216  -4737373.5636   4222644.6875   2   8   0.3660   0.8854   0.9953  -0.2292  -0.7931   0.2943   0.00    1.9
2173 289109.000    537553.4818  -4737373.4483   4222644.4095   2   8   0.3659   0.8855   0.9955  -0.2293  -0.7933   0.2943   0.00    2.2
2173 289110.000    537553.5076  -4737373.8124   4222644.5187   2   8   0.3659   0.8855   0.9957  -0.2293  -0.7934   0.2944   0.00    1.9
2173 289111.000    537553.4414  -4737373.4189   4222644.1247   2   8   0.3659   0.8856   0.9958  -0.2294  -0.7935   0.2944   0.00    1.9
2173 289112.000    537553.6791  -4737373.6916   4222644.5317   2   8   0.3659   0.8856   0.9960  -0.2295  -0.7936   0.2945   0.00    2.2
2173 289113.000    537553.7239  -4737373.6067   4222644.5326   2   8   0.3659   0.8856   0.9962  -0.2296  -0.7938   0.2945   0.00    1.9
2173 289114.000    537553.7390  -4737374.1169   4222645.1936   2   8   0.3659   0.8857   0.9963  -0.2297  -0.7939   0.2946   0.00    1.7
2173 289115.000    537553.5762  -4737373.9221   4222644.9267   2   8   0.3659   0.8857   0.9965  -0.2297  -0.7940   0.2946   0.00    1.6
2173 289116.000    537553.4703  -4737373.4410   4222645.1600   2   8   0.3659   0.8858   0.9967  -0.2298  -0.7941   0.2947   0.00    1.7
2173 289117.000    537553.5839  -4737374.0506   4222645.0433   2   8   0.3659   0.8858   0.9969  -0.2299  -0.7943   0.2947   0.00    1.7
2173 289118.000    537553.6131  -4737374.0039   4222645.2954   2   8   0.3659   0.8859   0.9970  -0.2300  -0.7944   0.2948   0.00    1.7
2173 289119.000    537553.7830  -4737373.9659   4222645.1444   2   8   0.3659   0.8859   0.9972  -0.2301  -0.7945   0.2948   0.00    2.0
2173 289120.000    537553.4115  -4737373.6402   4222645.0364   2   8   0.3659   0.8860   0.9974  -0.2302  -0.7947   0.2949   0.00    1.2
2173 289121.000    537553.6492  -4737373.3224   4222643.9622   2   8   0.3659   0.8860   0.9975  -0.2302  -0.7948   0.2949   0.00    1.7
2173 289122.000    537553.8187  -4737374.0016   4222644.7649   2   8   0.3659   0.8861   0.9977  -0.2303  -0.7949   0.2950   0.00    1.4
2173 289123.000    537553.7792  -4737373.6263   4222644.6810   2   8   0.3659   0.8861   0.9979  -0.2304  -0.7950   0.2950   0.00    1.6
2173 289124.000    537553.8682  -4737373.9198   4222644.5440   2   8   0.3659   0.8862   0.9981  -0.2305  -0.7952   0.2951   0.00    1.9
2173 289125.000    537553.8849  -4737372.9693   4222643.8408   2   8   0.3659   0.8862   0.9982  -0.2306  -0.7953   0.2952   0.00    1.4
2173 289126.000    537553.9190  -4737373.4991   4222644.4042   2   8   0.3659   0.8863   0.9984  -0.2306  -0.7954   0.2952   0.00    1.4
2173 289127.000    537553.7384  -4737373.3081   4222643.8197   2   8   0.3659   0.8863   0.9986  -0.2307  -0.7955   0.2953   0.00    2.0
2173 289128.000    537553.7824  -4737373.1648   4222643.6504   2   8   0.3659   0.8864   0.9987  -0.2308  -0.7957   0.2953   0.00    1.4
2173 289129.000    537553.7825  -4737373.4203   4222643.7887   2   8   0.3659   0.8864   0.9989  -0.2309  -0.7958   0.2954   0.00    1.5
2173 289130.000    537553.6319  -4737373.2980   4222643.8262   2   8   0.3659   0.8865   0.9991  -0.2310  -0.7959   0.2954   0.00    1.5
2173 289131.000    537553.6517  -4737373.0404   4222643.3861   2   8   0.3659   0.8865   0.9993  -0.2310  -0.7961   0.2955   0.00    2.1
