     2.11           OBSERVATION DATA    M (MIXED)           RINEX VERSION / TYPE
CONVBIN 2.4.3                           20210901 190754 UTC PGM / RUN BY / DATE 
log: logs/21_09_01_08_42_10_pamm_VZ.rtcm                    COMMENT             
format: RTCM 3, station ID: 1633                            COMMENT             
1633                                                        MARKER NAME         
                                                            MARKER NUMBER       
                                                            OBSERVER / AGENCY   
                    LEICA GR50          4.40/7.701          REC # / TYPE / VERS 
                    GPPNULLANTENNA                          ANT # / TYPE        
   813744.1540 -4753095.0608  4160985.4047                  APPROX POSITION XYZ 
        0.0000        0.0000        0.0000                  ANTENNA: DELTA H/E/N
     1     1                                                WAVELENGTH FACT L1/2
     7    C1    L1    C2    L2    P2    C5    L5            # / TYPES OF OBSERV 
  2021     9     1     8    42   28.0000000     GPS         TIME OF FIRST OBS   
  2021     9     1     9    12   14.0000000     GPS         TIME OF LAST OBS    
                                                            END OF HEADER       
 21  9  1  8 42 28.0000000  0 17G 1G 7G 8G13G14G17G21G30R12R13R14R24
                                E13E15E21E27E30
  20706305.011   108812381.025    20706305.136    84788876.602    20706305.136  
  20706304.028    81256001.655  
  21070275.209   110725044.244    21070272.368    86279241.638    21070272.117  
                                
  23181184.848   121817953.715    23181185.027    94923088.496    23181184.223  
  23181183.490    90967949.110  
  23719787.363   124648324.000                    97128576.563    23719784.504  
                                
  21439339.347   112664495.130    21439337.024    87790511.849    21439336.845  
  21439340.848    84132588.305  
  22093644.125   116102902.066    22093641.462    90469788.858    22093641.141  
                                
  21533668.865   113160212.059                    88176795.704    21533665.076  
                                
  20634153.238   108433213.071    20634152.720    84493407.348    20634152.237  
  20634152.720    80972853.384  
  21594099.970   115351815.708    21594100.524    89718088.649    21594100.649  
                                
  19267307.106   102886344.759    19267307.052    80022711.482    19267307.070  
                                
  21473800.865   114467450.212    21473801.741    89030241.815    21473801.687  
                                
  20753514.720   110978353.672    20753514.184    86316506.232    20753514.201  
                                
  24708173.986   129842328.212                                                  
  24708175.344    96960186.344  
  23640706.376   124232766.544                                                  
  23640708.949    92771244.095  
  25085096.759   131823084.658                                                  
  25085098.117    98439326.616  
  23482354.043   123400628.837                                                  
  23482355.526    92149844.384  
  25879255.465   135996441.136                                                  
  25879257.323   101555810.200  
 21  9  1  8 42 29.0000000  0 17G 1G 7G 8G13G14G17G21G30R12R13R14R24
                                E13E15E21E27E30
  20706006.652   108810813.123    20706006.777    84787654.857    20706006.777  
  20706005.669    81254830.812  
  21070714.376   110727352.085    21070711.535    86281039.940    21070711.284  
                                
  23181770.898   121821033.478    23181771.095    94925488.308    23181770.273  
  23181769.540    90970248.928  
  23719819.778   124648494.327                    97128709.292    23719816.919  
                                
  21438959.987   112662501.501    21438957.664    87788958.374    21438957.486  
  21438961.488    84131099.558  
  22093226.097   116100705.353    22093223.452    90468077.129    22093223.131  
                                
  21533861.886   113161226.384                    88177586.091    21533858.097  
                                
  20634181.703   108433362.672    20634181.185    84493523.918    20634180.703  
  20634181.185    80972965.102  
  21594672.530   115354874.205    21594673.083    89720467.480    21594673.191  
                                
  19267299.440   102886303.824    19267299.386    80022679.639    19267299.404  
                                
  21473171.947   114464097.730    21473172.805    89027634.334    21473172.769  
                                
  20752904.903   110975092.776    20752904.367    86313969.983    20752904.385  
                                
  24707695.936   129839816.075                                                  
  24707697.294    96958310.395  
  23640740.667   124232946.731                                                  
  23640743.258    92771378.655  
  25084743.971   131821230.741                                                  
  25084745.329    98437942.197  
  23482409.401   123400919.829                                                  
  23482410.884    92150061.685  
  25879666.095   135998598.918                                                  
  25879667.953   101557421.533  
 21  9  1  8 42 30.0000000  0 17G 1G 7G 8G13G14G17G21G30R12R13R14R24
                                E13E15E21E27E30
  20705708.382   108809245.658    20705708.490    84786433.456    20705708.507  
  20705707.399    81253660.301  
  21071153.596   110729660.193    21071150.755    86282838.461    21071150.505  
                                
  23182356.949   121824113.049    23182357.127    94927887.976    23182356.323  
  23182355.591    90972548.604  
  23719852.263   124648665.021                    97128842.298    23719849.404  
                                
  21438580.610   112660507.842    21438578.287    87787404.869    21438578.108  
  21438582.111    84129610.783  
  22092808.105   116098508.722    22092805.442    90466365.466    22092805.121  
                                
  21534054.960   113162241.054                    88178376.739    21534051.172  
                                
  20634210.258   108433512.681    20634209.740    84493640.812    20634209.257  
  20634209.740    80973077.117  
  21595245.125   115357932.860    21595245.678    89722846.431    21595245.786  
                                
  19267291.846   102886263.270    19267291.792    80022648.099    19267291.810  
                                
  21472543.011   114460745.177    21472543.887    89025026.789    21472543.833  
                                
  20752295.159   110971832.180    20752294.623    86311433.963    20752294.641  
                                
  24707217.922   129837303.996                                                  
  24707219.280    96956434.484  
  23640774.993   124233127.150                                                  
  23640777.584    92771513.379  
  25084391.147   131819376.671                                                  
  25084392.505    98436557.662  
  23482464.795   123401210.808                                                  
  23482466.278    92150278.973  
  25880076.689   136000756.609                                                  
  25880078.548   101559032.800  
 21  9  1  8 42 31.0000000  0 17G 1G 7G 8G13G14G17G21G30R12R13R14R24
                                E13E15E21E27E30
  20705410.256   108807679.064    20705410.381    84785212.736    20705410.381  
  20705409.273    81252490.446  
  21071592.942   110731968.996    21071590.101    86284637.524    21071589.851  
                                
  23182943.017   121827192.911    23182943.196    94930287.864    23182942.392  
  23182941.659    90974848.503  
  23719884.892   124648836.493                    97128975.917    23719882.015  
                                
  21438201.286   112658514.574    21438198.963    87785851.678    21438198.785  
  21438202.787    84128122.312  
  22092390.184   116096312.610    22092387.522    90464654.215    22092387.200  
                                
  21534248.214   113163256.517                    88179168.009    21534244.426  
                                
  20634238.956   108433663.533    20634238.437    84493758.359    20634237.955  
  20634238.437    80973189.766  
  21595817.827   115360992.102    21595818.381    89725225.842    21595818.488  
                                
  19267284.412   102886223.546    19267284.341    80022617.200    19267284.359  
                                
  21471914.164   114457392.993    21471915.040    89022419.539    21471914.986  
                                
  20751685.575   110968572.335    20751685.039    86308898.524    20751685.057  
                                
  24706739.961   129834792.405                                                  
  24706741.319    96954558.945  
  23640809.480   124233308.247                                                  
  23640812.053    92771648.615  
  25084038.395   131817522.901                                                  
  25084039.753    98435173.351  
  23482520.243   123401502.220                                                  
  23482521.726    92150496.587  
  25880487.355   136002914.641                                                  
  25880489.196   101560644.313  
 21  9  1  8 42 32.0000000  0 17G 1G 7G 8G13G14G17G21G30R12R13R14R24
                                E13E15E21E27E30
  20705112.290   108806113.199    20705112.415    84783992.579    20705112.415  
  20705111.307    81251321.131  
  21072032.413   110734278.349    21072029.572    86286437.019    21072029.321  
                                
  23183529.121   121830272.876    23183529.300    94932687.837    23183528.496  
  23183527.763    90977148.479  
  23719917.664   124649008.654                    97129110.069    23719914.787  
                                
  21437822.052   112656521.550    21437819.729    87784298.672    21437819.550  
  21437823.553    84126634.012  
  22091972.335   116094116.859    22091969.690    90462943.235    22091969.369  
                                
  21534441.575   113164272.593                    88179959.756    21534437.769  
                                
  20634267.778   108433815.059    20634267.260    84493876.426    20634266.778  
  20634267.278    80973302.923  
  21596390.583   115364051.762    21596391.136    89727605.582    21596391.262  
                                
  19267277.086   102886184.505    19267277.032    80022586.835    19267277.050  
                                
  21471285.354   114454041.020    21471286.211    89019812.449    21471286.175  
                                
  20751076.080   110965313.100    20751075.544    86306363.566    20751075.544  
                                
  24706262.090   129832281.151                                                  
  24706263.430    96952683.658  
  23640844.021   124233489.842                                                  
  23640846.594    92771784.224  
  25083685.642   131815669.239                                                  
  25083687.000    98433789.128  
  23482575.744   123401793.901                                                  
  23482577.209    92150714.405  
  25880898.039   136005072.837                                                  
  25880899.880   101562255.955  
 21  9  1  8 42 33.0000000  0 17G 1G 7G 8G13G14G17G21G30R12R13R14R24
                                E13E15E21E27E30
  20704814.413   108804547.890    20704814.538    84782772.856    20704814.538  
  20704813.430    81250152.228  
  21072471.955   110736588.112    21072469.114    86288236.833    21072468.846  
                                
  23184115.225   121833352.803    23184115.404    94935087.780    23184114.599  
  23184113.849    90979448.409  
  23719950.489   124649181.279                    97129244.586    23719947.613  
                                
  21437442.800   112654528.619    21437440.477    87782745.739    21437440.298  
  21437444.301    84125145.778  
  22091554.539   116091921.322    22091551.895    90461232.434    22091551.573  
                                
  21534635.007   113165289.157                    88180751.886    21534631.219  
                                
  20634296.726   108433967.131    20634296.208    84493994.926    20634295.725  
  20634296.208    80973416.476  
  21596963.428   115367111.771    21596963.964    89729985.589    21596964.089  
                                
  19267269.885   102886145.994    19267269.813    80022556.882    19267269.831  
                                
  21470656.543   114450689.152    21470657.400    89017205.443    21470657.365  
                                
  20750466.657   110962054.325    20750466.121    86303828.961    20750466.139  
                                
  24705784.254   129829770.064                                                  
  24705785.612    96950808.506  
  23640878.651   124233671.804                                                  
  23640881.242    92771920.103  
  25083332.908   131813815.560                                                  
  25083334.266    98432404.880  
  23482631.281   123402085.700                                                  
  23482632.746    92150932.303  
  25881308.741   136007231.056                                                  
  25881310.581   101563867.618  
 21  9  1  8 42 34.0000000  0 17G 1G 7G 8G13G14G17G21G30R12R13R14R24
                                E13E15E21E27E30
  20704516.679   108802983.231    20704516.804    84781553.643    20704516.822  
  20704515.714    81248983.813  
  21072911.569   110738898.318    21072908.727    86290036.995    21072908.459  
                                
  23184701.293   121836432.703    23184701.472    94937487.704    23184700.668  
  23184699.935    90981748.350  
  23719983.458   124649354.537                    97129379.574    23719980.581  
                                
  21437063.584   112652535.850    21437061.278    87781192.929    21437061.100  
  21437065.102    84123657.667  
  22091136.815   116089726.067    22091134.153    90459521.848    22091133.831  
                                
  21534828.546   113166306.242                    88181544.420    21534824.758  
                                
  20634325.763   108434119.786    20634325.263    84494113.879    20634324.780  
  20634325.263    80973530.475  
  21597536.326   115370172.141    21597536.880    89732365.877    21597537.005  
                                
  19267262.773   102886108.073    19267262.719    80022527.391    19267262.737  
                                
  21470027.767   114447337.447    21470028.643    89014598.559    21470028.589  
                                
  20749857.342   110958796.022    20749856.806    86301294.725    20749856.806  
                                
  24705306.454   129827259.247                                                  
  24705307.830    96948933.533  
  23640913.353   124233854.198                                                  
  23640915.944    92772056.304  
  25082980.173   131811961.919                                                  
  25082981.531    98431020.672  
  23482686.836   123402377.683                                                  
  23482688.319    92151150.342  
  25881719.460   136009389.358                                                  
  25881721.301   101565479.341  
 21  9  1  8 42 35.0000000  0 17G 1G 7G 8G13G14G17G21G30R12R13R14R24
                                E13E15E21E27E30
  20704219.089   108801419.334    20704219.196    84780335.022    20704219.214  
  20704218.106    81247815.975  
  21073351.307   110741209.161    21073348.484    86291837.650    21073348.216  
                                
  23185287.415   121839512.797    23185287.594    94939887.775    23185286.790  
  23185286.057    90984048.431  
  23720016.551   124649528.480                    97129515.125    23720013.674  
                                
  21436684.421   112650543.362    21436682.116    87779640.339    21436681.919  
  21436685.922    84122169.779  
  22090719.144   116087531.232    22090716.482    90457811.587    22090716.178  
                                
  21535022.229   113167324.024                    88182337.494    21535018.440  
                                
  20634354.961   108434273.185    20634354.443    84494233.405    20634353.961  
  20634354.443    80973645.025  
  21598109.332   115373233.018    21598109.886    89734746.559    21598109.994  
                                
  19267255.822   102886070.905    19267255.768    80022498.479    19267255.786  
                                
  21469399.046   114443986.031    21469399.904    89011991.904    21469399.868  
                                
  20749248.151   110955538.342    20749247.615    86298760.976    20749247.615  
                                
  24704828.744   129824748.812                                                  
  24704830.102    96947058.850  
  23640948.162   124234037.166                                                  
  23640950.753    92772192.945  
  25082627.475   131810108.474                                                  
  25082628.833    98429636.606  
  23482742.462   123402670.001                                                  
  23482743.945    92151368.636  
  25882130.215   136011547.914                                                  
  25882132.074   101567091.238  
 21  9  1  8 42 36.0000000  0 17G 1G 7G 8G13G14G17G21G30R12R13R14R24
                                E13E15E21E27E30
  20703921.551   108799855.784    20703921.659    84779116.671    20703921.677  
  20703920.569    81246648.390  
  21073791.082   110743520.168    21073788.241    86293638.435    21073787.991  
                                
  23185873.501   121842592.636    23185873.662    94942287.652    23185872.858  
  23185872.125    90986348.308  
  23720049.698   124649702.619                    97129650.816    23720046.804  
                                
  21436305.240   112648550.737    21436302.917    87778087.646    21436302.738  
  21436306.741    84120681.786  
  22090301.474   116085336.373    22090298.829    90456101.307    22090298.508  
                                
  21535215.947   113168342.034                    88183130.746    21535212.158  
                                
  20634384.213   108434426.888    20634383.695    84494353.177    20634383.212  
  20634383.695    80973759.804  
  21598682.338   115376293.937    21598682.892    89737127.274    21598683.017  
                                
  19267248.924   102886034.013    19267248.853    80022469.781    19267248.871  
                                
  21468770.306   114440634.455    21468771.164    89009385.120    21468771.128  
                                
  20748638.960   110952280.818    20748638.424    86296227.344    20748638.442  
                                
  24704350.998   129822238.338                                                  
  24704352.356    96945184.144  
  23640983.024   124234220.253                                                  
  23640985.597    92772329.665  
  25082274.722   131808254.766                                                  
  25082276.080    98428252.341  
  23482798.052   123402962.208                                                  
  23482799.535    92151586.838  
  25882540.953   136013706.257                                                  
  25882542.793   101568702.985  
 21  9  1  8 42 37.0000000  0 17G 1G 7G 8G13G14G17G21G30R12R13R14R24
                                E13E15E21E27E30
  20703624.157   108798292.973    20703624.265    84777898.896    20703624.282  
  20703623.175    81245481.352  
  21074230.946   110745831.759    21074228.122    86295439.677    21074227.854  
                                
  23186459.605   121845672.636    23186459.784    94944687.652    23186458.962  
  23186458.229    90988648.302  
  23720082.970   124649877.524                    97129787.114    23720080.093  
                                
  21435926.113   112646558.387    21435923.790    87776535.164    21435923.611  
  21435927.614    84119193.982  
  22089883.893   116083141.913    22089881.230    90454391.339    22089880.909  
                                
  21535409.790   113169360.686                    88183924.504    21535406.002  
                                
  20634413.607   108434581.293    20634413.089    84494473.492    20634412.607  
  20634413.089    80973875.108  
  21599255.434   115379355.312    21599255.988    89739508.344    21599256.095  
                                
  19267242.134   102885997.834    19267242.081    80022441.644    19267242.098  
                                
  21468141.603   114437283.131    21468142.460    89006778.535    21468142.425  
                                
  20748029.894   110949023.886    20748029.358    86293694.174    20748029.376  
                                
  24703873.323   129819728.199                                                  
  24703874.681    96943309.707  
  23641017.958   124234403.887                                                  
  23641020.531    92772466.791  
  25081922.006   131806401.204                                                  
  25081923.346    98426868.187  
  23482853.732   123403254.705                                                  
  23482855.215    92151805.259  
  25882951.708   136015864.793                                                  
  25882953.549   101570314.879  
 21  9  1  8 42 38.0000000  0 17G 1G 7G 8G13G14G17G21G30R12R13R14R24
                                E13E15E21E27E30
  20703326.906   108796730.998    20703327.031    84776681.773    20703327.031  
  20703325.923    81244314.945  
  21074670.953   110748144.002    21074668.129    86297241.434    21074667.861  
                                
  23187045.763   121848752.859    23187045.941    94947087.830    23187045.137  
  23187044.387    90990948.468  
  23720116.403   124650053.150                    97129923.960    23720113.509  
                                
  21435547.040   112644566.387    21435544.734    87774982.958    21435544.538  
  21435548.558    84117706.449  
  22089466.365   116080947.917    22089463.703    90452681.736    22089463.399  
                                
  21535603.794   113170380.084                    88184718.842    21535599.988  
                                
  20634443.145   108434736.508    20634442.627    84494594.439    20634442.144  
  20634442.627    80973991.009  
  21599828.654   115382417.266    21599829.190    89741889.863    21599829.315  
                                
  19267235.505   102885962.442    19267235.451    80022414.120    19267235.469  
                                
  21467512.970   114433932.159    21467513.828    89004172.223    21467513.792  
                                
  20747420.972   110945767.658    20747420.436    86291161.553    20747420.436  
                                
  24703395.773   129817218.521                                                  
  24703397.131    96941435.601  
  23641053.017   124234588.139                                                  
  23641055.590    92772604.381  
  25081569.325   131804547.882                                                  
  25081570.683    98425484.216  
  23482909.466   123403547.589                                                  
  23482910.949    92152023.973  
  25883362.499   136018023.617                                                  
  25883364.357   101571926.985  
 21  9  1  8 42 39.0000000  0 17G 1G 7G 8G13G14G17G21G30R12R13R14R24
                                E13E15E21E27E30
  20703029.834   108795169.895    20703029.959    84775465.334    20703029.977  
  20703028.869    81243149.184  
  21075111.085   110750456.978    21075108.243    86299043.762    21075107.993  
                                
  23187631.956   121851833.346    23187632.135    94949488.205    23187631.330  
  23187630.580    90993248.825  
  23720149.979   124650229.640                    97130061.482    23720147.084  
                                
  21435168.055   112642574.762    21435165.732    87773431.045    21435165.554  
  21435169.556    84116219.201  
  22089048.963   116078754.446    22089046.300    90450972.540    22089045.996  
                                
  21535797.905   113171400.245                    88185513.771    21535794.117  
                                
  20634472.825   108434892.532    20634472.307    84494716.016    20634471.825  
  20634472.325    80974107.525  
  21600401.964   115385479.850    21600402.518    89744271.868    21600402.625  
                                
  19267229.036   102885927.850    19267228.983    80022387.210    19267229.000  
                                
  21466884.410   114430581.585    21466885.267    89001566.224    21466885.232  
                                
  20746812.192   110942512.209    20746811.656    86288629.537    20746811.656  
                                
  24702918.277   129814709.333                                                  
  24702919.635    96939561.846  
  23641088.201   124234773.056                                                  
  23641090.792    92772742.468  
  25081216.715   131802694.849                                                  
  25081218.073    98424100.453  
  23482965.271   123403840.884                                                  
  23482966.754    92152242.988  
  25883773.397   136020182.769                                                  
  25883775.256   101573539.335  
 21  9  1  8 42 40.0000000  0 17G 1G 7G 8G13G14G17G21G30R12R13R14R24
                                E13E15E21E27E30
  20702732.922   108793609.487    20702733.047    84774249.434    20702733.047  
  20702731.939    81241983.948  
  21075551.342   110752770.462    21075548.500    86300846.477    21075548.232  
                                
  23188218.167   121854913.912    23188218.346    94951888.644    23188217.542  
  23188216.791    90995549.246  
  23720183.662   124650406.704                    97130199.456    23720180.768  
                                
  21434789.107   112640583.375    21434786.784    87771879.317    21434786.605  
  21434790.608    84114732.130  
  22088631.632   116076561.313    22088628.969    90449263.605    22088628.647  
                                
  21535992.159   113172421.014                    88186309.179    21535988.371  
                                
  20634502.649   108435049.247    20634502.131    84494838.134    20634501.648  
  20634502.148    80974224.550  
  21600975.363   115388542.860    21600975.917    89746654.209    21600976.024  
                                
  19267222.693   102885893.931    19267222.621    80022360.831    19267222.639  
                                
  21466255.903   114427231.211    21466256.760    88998960.375    21466256.707  
                                
  20746203.520   110939257.387    20746202.983    86286098.009    20746202.983  
                                
  24702440.853   129812200.473                                                  
  24702442.211    96937688.342  
  23641123.493   124234958.472                                                  
  23641126.066    92772880.926  
  25080864.106   131800841.920                                                  
  25080865.464    98422716.770  
  23483021.147   123404134.446                                                  
  23483022.630    92152462.209  
  25884184.295   136022342.086                                                  
  25884186.154   101575151.812  
 21  9  1  8 42 41.0000000  0 17G 1G 7G 8G13G14G17G21G30R12R13R14R24
                                E13E15E21E27E30
  20702436.135   108792049.922    20702436.260    84773034.191    20702436.260  
  20702435.153    81240819.342  
  21075991.706   110755084.635    21075988.882    86302649.727    21075988.614  
                                
  23188804.414   121857994.704    23188804.593    94954289.262    23188803.771  
  23188803.038    90997849.844  
  23720217.506   124650584.526                    97130338.030    23720214.612  
                                
  21434410.230   112638592.358    21434407.907    87770327.873    21434407.729  
  21434411.731    84113245.325  
  22088214.390   116074368.664    22088211.727    90447555.050    22088211.406  
                                
  21536186.538   113173442.519                    88187105.155    21536182.732  
                                
  20634532.615   108435206.756    20634532.115    84494960.864    20634531.614  
  20634532.115    80974342.171  
  21601548.869   115391606.400    21601549.405    89749036.963    21601549.530  
                                
  19267216.474   102885860.811    19267216.421    80022335.071    19267216.438  
                                
  21465627.431   114423881.170    21465628.289    88996354.788    21465628.253  
                                
  20745594.990   110936003.282    20745594.436    86283567.038    20745594.454  
                                
  24701963.535   129809692.042                                                  
  24701964.876    96935815.163  
  23641158.873   124235144.516                                                  
  23641161.464    92773019.857  
  25080511.550   131798989.236                                                  
  25080512.908    98421333.274  
  23483077.077   123404428.390                                                  
  23483078.560    92152681.717  
  25884595.283   136024501.691                                                  
  25884597.123   101576764.503  
 21  9  1  8 42 42.0000000  0 17G 1G 7G 8G13G14G17G21G30R12R13R14R24
                                E13E15E21E27E30
  20702139.492   108790491.046    20702139.617    84771819.482    20702139.617  
  20702138.509    81239655.245  
  21076432.195   110757399.317    21076429.372    86304453.365    21076429.104  
                                
  23189390.697   121861075.567    23189390.875    94956689.931    23189390.071  
  23189389.321    91000150.486  
  23720251.493   124650763.043                    97130477.121    23720248.598  
                                
  21434031.371   112636601.522    21434029.066    87768776.572    21434028.869  
  21434032.890    84111758.671  
  22087797.184   116072176.331    22087794.521    90445846.739    22087794.218  
                                
  21536381.043   113174464.614                    88187901.593    21536377.237  
                                
  20634562.707   108435364.908    20634562.206    84495084.104    20634561.706  
  20634562.206    80974460.276  
  21602122.447   115394670.347    21602122.983    89751420.035    21602123.090  
                                
  19267210.399   102885828.357    19267210.345    80022309.824    19267210.345  
                                
  21464999.013   114420531.317    21464999.889    88993749.349    21464999.835  
                                
  20744986.550   110932749.694    20744986.014    86281036.467    20744986.032  
                                
  24701486.236   129807183.914                                                  
  24701487.594    96933942.223  
  23641194.397   124235331.032                                                  
  23641196.970    92773159.137  
  25080159.012   131797136.636                                                  
  25080160.370    98419949.844  
  23483133.043   123404722.571                                                  
  23483134.526    92152901.393  
  25885006.270   136026661.442                                                  
  25885008.111   101578377.298  
 21  9  1  8 42 43.0000000  0 17G 1G 7G 8G13G14G17G21G30R12R13R14R24
                                E13E15E21E27E30
  20701842.973   108788932.872    20701843.098    84770605.320    20701843.098  
  20701841.990    81238491.673  
  21076872.756   110759714.535    21076869.915    86306257.436    21076869.647  
                                
  23189976.997   121864156.550    23189977.176    94959090.693    23189976.372  
  23189975.621    91002451.201  
  23720285.552   124650942.147                    97130616.682    23720282.657  
                                
  21433652.584   112634610.924    21433650.261    87767225.457    21433650.082  
  21433654.085    84110272.184  
  22087380.067   116069984.360    22087377.423    90444138.709    22087377.101  
                                
  21536575.654   113175487.328                    88188698.512    21536571.866  
                                
  20634592.941   108435523.735    20634592.423    84495207.863    20634591.940  
  20634592.441    80974578.871  
  21602696.096   115397734.759    21602696.650    89753803.464    21602696.757  
                                
  19267204.448   102885796.558    19267204.395    80022285.094    19267204.413  
                                
  21464370.631   114417181.693    21464371.489    88991144.086    21464371.453  
                                
  20744378.217   110929496.658    20744377.681    86278506.328    20744377.681  
                                
  24701009.008   129804676.110                                                  
  24701010.366    96932069.507  
  23641229.974   124235518.051                                                  
  23641232.547    92773298.791  
  25079806.492   131795284.154                                                  
  25079807.850    98418566.495  
  23483189.080   123405017.002                                                  
  23483190.563    92153121.262  
  25885417.294   136028821.348                                                  
  25885419.152   101579990.211  
 21  9  1  8 42 44.0000000  0 17G 1G 7G 8G13G14G17G21G30R12R13R14R24
                                E13E15E21E27E30
  20701546.633   108787375.489    20701546.758    84769391.778    20701546.758  
  20701545.650    81237328.697  
  21077313.442   110762030.360    21077310.600    86308061.987    21077310.350  
                                
  23190563.298   121867237.671    23190563.476    94961491.571    23190562.672  
  23190561.922    91004752.062  
  23720319.806   124651122.029                    97130756.843    23720316.894  
                                
  21433273.850   112632620.649    21433271.545    87765674.598    21433271.348  
  21433275.351    84108785.935  
  22086963.040   116067792.814    22086960.395    90442431.009    22086960.074  
                                
  21536770.391   113176510.728                    88189495.972    21536766.603  
                                
  20634623.300   108435683.316    20634622.782    84495332.212    20634622.300  
  20634622.782    80974698.046  
  21603269.853   115400799.669    21603270.407    89756187.283    21603270.514  
                                
  19267198.641   102885765.511    19267198.569    80022260.949    19267198.587  
                                
  21463742.321   114413832.390    21463743.178    88988539.070    21463743.125  
                                
  20743770.027   110926244.288    20743769.491    86275976.707    20743769.491  
                                
  24700531.887   129802168.704                                                  
  24700533.227    96930197.105  
  23641265.658   124235705.647                                                  
  23641268.250    92773438.886  
  25079454.025   131793431.881                                                  
  25079455.384    98417183.301  
  23483245.189   123405311.791                                                  
  23483246.672    92153341.393  
  25885828.335   136030981.493                                                  
  25885830.193   101581603.310  
 21  9  1  8 42 45.0000000  0 17G 1G 7G 8G13G14G17G21G30R12R13R14R24
                                E13E15E21E27E30
  20701250.490   108785819.255    20701250.615    84768179.130    20701250.615  
  20701249.507    81236166.571  
  21077754.306   110764347.181    21077751.465    86309867.308    21077751.197  
                                
  23191149.723   121870319.358    23191149.902    94963892.883    23191149.080  
  23191148.347    91007053.320  
  23720354.222   124651302.914                    97130897.804    23720351.310  
                                
  21432895.241   112630631.020    21432892.918    87764124.233    21432892.739  
  21432896.742    84107300.179  
  22086546.174   116065602.067    22086543.511    90440723.935    22086543.190  
                                
  21536965.342   113177535.176                    88190294.246    21536961.554  
                                
  20634653.892   108435844.016    20634653.392    84495457.432    20634652.909  
  20634653.392    80974818.040  
  21603843.770   115403865.447    21603844.324    89758571.775    21603844.431  
                                
  19267193.030   102885735.591    19267192.976    80022237.678    19267192.976  
                                
  21463114.135   114410483.775    21463114.993    88985934.592    21463114.957  
                                
  20743161.997   110922992.942    20743161.461    86273447.882    20743161.461  
                                
  24700054.891   129799662.080                                                  
  24700056.250    96928325.267  
  23641301.557   124235894.188                                                  
  23641304.131    92773579.678  
  25079101.648   131791580.150                                                  
  25079103.006    98415800.515  
  23483301.405   123405607.269                                                  
  23483302.888    92153562.040  
  25886239.519   136033142.230                                                  
  25886241.359   101583216.852  
 21  9  1  8 42 46.0000000  0 17G 1G 7G 8G13G14G17G21G30R12R13R14R24
                                E13E15E21E27E30
  20700954.472   108784263.794    20700954.597    84766967.083    20700954.615  
  20700953.489    81235005.031  
  21078195.314   110766664.632    21078192.472    86311673.112    21078192.204  
                                
  23191736.184   121873401.222    23191736.345    94966294.335    23191735.541  
  23191734.791    91009354.713  
  23720388.781   124651484.568                    97131039.343    23720385.868  
                                
  21432516.668   112628641.713    21432514.363    87762574.122    21432514.166  
  21432518.187    84105814.652  
  22086129.343   116063411.730    22086126.698    90439017.177    22086126.377  
                                
  21537160.418   113178560.317                    88191093.057    21537156.612  
                                
  20634684.609   108436005.445    20634684.091    84495583.219    20634683.608  
  20634684.109    80974938.594  
  21604417.812   115406931.729    21604418.348    89760956.656    21604418.456  
                                
  19267187.562   102885706.417    19267187.509    80022214.986    19267187.509  
                                
  21462486.003   114407135.455    21462486.861    88983330.343    21462486.807  
                                
  20742554.093   110919742.244    20742553.557    86270919.562    20742553.557  
                                
  24699577.949   129797155.832                                                  
  24699579.307    96926453.728  
  23641337.528   124236083.299                                                  
  23641340.119    92773720.899  
  25078749.325   131789728.613                                                  
  25078750.683    98414417.876  
  23483357.692   123405903.071                                                  
  23483359.157    92153782.935  
  25886650.739   136035303.213                                                  
  25886652.579   101584830.575  
 21  9  1  8 42 47.0000000  0 17G 1G 7G 8G13G14G17G21G30R12R13R14R24
                                E13E15E21E27E30
  20700658.579   108782708.880    20700658.704    84765755.461    20700658.721  
  20700657.614    81233843.889  
  21078636.357   110768982.412    21078633.516    86313479.179    21078633.248  
                                
  23192322.628   121876483.015    23192322.789    94968695.735    23192321.985  
  23192321.234    91011656.057  
  23720423.429   124651666.701                    97131181.274    23720420.534  
                                
  21432138.130   112626652.445    21432135.807    87761024.045    21432135.629  
  21432139.631    84104329.165  
  22085712.584   116061221.572    22085709.921    90437310.560    22085709.600  
                                
  21537355.583   113179585.886                    88191892.197    21537351.795  
                                
  20634715.415   108436167.374    20634714.915    84495709.395    20634714.432  
  20634714.915    80975059.513  
  21604991.872   115409998.303    21604992.409    89763341.767    21604992.534  
                                
  19267182.201   102885677.728    19267182.148    80022192.671    19267182.148  
                                
  21461857.871   114403787.173    21461858.729    88980726.124    21461858.676  
                                
  20741946.278   110916491.955    20741945.742    86268391.559    20741945.760  
                                
  24699101.079   129794649.740                                                  
  24699102.437    96924582.297  
  23641373.587   124236272.735                                                  
  23641376.161    92773862.361  
  25078396.966   131787877.008                                                  
  25078398.324    98413035.186  
  23483413.998   123406198.966                                                  
  23483415.481    92154003.898  
  25887061.976   136037464.197                                                  
  25887063.817   101586444.286  
 21  9  1  8 42 48.0000000  0 17G 1G 7G 8G13G14G17G21G30R12R13R14R24
                                E13E15E21E27E30
  20700362.864   108781154.749    20700362.989    84764544.450    20700362.989  
  20700361.881    81232683.339  
  21079077.525   110771300.823    21079074.702    86315285.740    21079074.434  
                                
  23192909.125   121879564.987    23192909.286    94971097.269    23192908.482  
  23192907.731    91013957.527  
  23720458.238   124651849.490                    97131323.698    23720455.325  
                                
  21431759.647   112624663.502    21431757.341    87759474.219    21431757.145  
  21431761.165    84102843.909  
  22085295.896   116059031.869    22085293.251    90435604.293    22085292.930  
                                
  21537550.874   113180612.154                    88192691.884    21537547.068  
                                
  20634746.364   108436330.054    20634745.864    84495836.159    20634745.382  
  20634745.882    80975180.993  
  21605566.040   115413065.421    21605566.594    89765727.301    21605566.701  
                                
  19267176.966   102885649.779    19267176.894    80022170.933    19267176.912  
                                
  21461229.793   114400439.190    21461230.651    88978122.134    21461230.597  
                                
  20741338.589   110913242.323    20741338.035    86265864.068    20741338.053  
                                
  24698624.244   129792144.053                                                  
  24698625.584    96922711.163  
  23641409.736   124236462.758                                                  
  23641412.310    92774004.259  
  25078044.660   131786025.603                                                  
  25078046.018    98411652.644  
  23483470.374   123406495.198                                                  
  23483471.857    92154225.108  
  25887473.232   136039625.424                                                  
  25887475.073   101588058.189  
 21  9  1  8 42 49.0000000  0 17G 1G 7G 8G13G14G17G21G30R12R13R14R24
                                E13E15E21E27E30
  20700067.293   108779601.569    20700067.418    84763334.178    20700067.418  
  20700066.310    81231523.494  
  21079518.872   110773620.052    21079516.031    86317092.922    21079515.763  
                                
  23193495.658   121882647.305    23193495.837    94973499.069    23193495.032  
  23193494.282    91016259.252  
  23720493.172   124652033.208                    97131466.859    23720490.277  
                                
  21431381.252   112622675.020    21431378.929    87757924.750    21431378.750  
  21431382.753    84101358.995  
  22084879.315   116056842.738    22084876.653    90433898.480    22084876.331  
                                
  21537746.325   113181639.267                    88193492.227    21537742.537  
                                
  20634777.510   108436493.647    20634776.992    84495963.636    20634776.509  
  20634777.010    80975303.152  
  21606140.368   115416133.209    21606140.904    89768113.354    21606141.011  
                                
  19267171.891   102885622.752    19267171.837    80022149.913    19267171.855  
                                
  21460601.804   114397091.679    21460602.662    88975518.519    21460602.608  
                                
  20740731.042   110909993.497    20740730.506    86263337.208    20740730.506  
                                
  24698147.552   129789638.934                                                  
  24698148.910    96920840.444  
  23641446.046   124236653.503                                                  
  23641448.619    92774146.712  
  25077692.408   131784174.547                                                  
  25077693.766    98410270.362  
  23483526.840   123406791.930                                                  
  23483528.306    92154446.691  
  25887884.595   136041787.041                                                  
  25887886.417   101589672.382  
 21  9  1  8 42 50.0000000  0 17G 1G 7G 8G13G14G17G21G30R12R13R14R24
                                E13E15E21E27E30
  20699771.793   108778048.803    20699771.918    84762124.230    20699771.935  
  20699770.810    81230363.966  
  21079960.237   110775939.529    21079957.396    86318900.306    21079957.146  
                                
  23194082.155   121885729.426    23194082.334    94975900.726    23194081.512  
  23194080.779    91018560.847  
  23720528.195   124652217.277                    97131610.299    23720525.300  
                                
  21431002.858   112620686.491    21431000.553    87756375.247    21431000.356  
  21431004.359    84099874.050  
  22084462.753   116054653.663    22084460.090    90432192.707    22084459.769  
                                
  21537941.830   113182666.696                    88194292.826    21537938.042  
                                
  20634808.692   108436657.621    20634808.191    84496091.405    20634807.709  
  20634808.209    80975425.606  
  21606714.679   115419201.090    21606715.215    89770499.479    21606715.340  
                                
  19267166.923   102885596.091    19267166.852    80022129.175    19267166.870  
                                
  21459973.815   114393744.091    21459974.673    88972914.837    21459974.637  
                                
  20740123.531   110906744.955    20740122.995    86260810.564    20740123.013  
                                
  24697670.824   129787133.846                                                  
  24697672.182    96918969.768  
  23641482.392   124236844.489                                                  
  23641484.965    92774289.320  
  25077340.138   131782323.332                                                  
  25077341.496    98408887.963  
  23483583.307   123407088.635                                                  
  23483584.790    92154668.256  
  25888295.922   136043948.550                                                  
  25888297.762   101591286.491  
 21  9  1  8 42 51.0000000  0 17G 1G 7G 8G13G14G17G21G30R12R13R14R24
                                E13E15E21E27E30
  20699476.400   108776496.368    20699476.525    84760914.541    20699476.525  
  20699475.417    81229204.675  
  21080401.655   110778259.107    21080398.814    86320707.766    21080398.546  
                                
  23194668.616   121888811.263    23194668.777    94978302.156    23194667.973  
  23194667.222    91020862.214  
  23720563.272   124652401.583                    97131753.914    23720560.359  
                                
  21430624.427   112618697.783    21430622.105    87754825.602    21430621.926  
  21430625.928    84098388.981  
  22084046.190   116052464.573    22084043.528    90430486.923    22084043.206  
                                
  21538137.407   113183694.358                    88195093.599    21538133.601  
                                
  20634839.980   108436821.879    20634839.480    84496219.399    20634838.980  
  20634839.480    80975548.263  
  21607289.007   115422268.977    21607289.543    89772885.613    21607289.668  
                                
  19267161.974   102885569.701    19267161.902    80022108.652    19267161.920  
                                
  21459345.791   114390396.315    21459346.648    88970311.010    21459346.595  
                                
  20739516.073   110903496.602    20739515.537    86258284.069    20739515.537  
                                
  24697194.115   129784628.692                                                  
  24697195.473    96917099.030  
  23641518.737   124237035.574                                                  
  23641521.311    92774432.016  
  25076987.814   131780471.839                                                  
  25076989.172    98407505.355  
  23483639.737   123407385.211                                                  
  23483641.220    92154889.725  
  25888707.177   136046109.816                                                  
  25888709.018   101592900.434  
 21  9  1  8 42 52.0000000  0 17G 1G 7G 8G13G14G17G21G30R12R13R14R24
                                E13E15E21E27E30
  20699181.096   108774944.573    20699181.221    84759705.352    20699181.221  
  20699180.113    81228045.870  
  21080843.145   110780579.179    21080840.304    86322515.618    21080840.054  
                                
  23195255.078   121891893.133    23195255.238    94980703.617    23195254.434  
  23195253.684    91023163.617  
  23720598.456   124652586.498                    97131898.001    23720595.543  
                                
  21430245.997   112616709.248    21430243.692    87753276.090    21430243.496  
  21430247.516    84096904.036  
  22083629.663   116050275.759    22083627.001    90428781.356    22083626.679  
                                
  21538333.055   113184722.568                    88195894.801    21538329.267  
                                
  20634871.340   108436986.751    20634870.840    84496347.871    20634870.358  
  20634870.840    80975671.381  
  21607863.389   115425337.255    21607863.943    89775272.044    21607864.050  
                                
  19267157.131   102885543.917    19267157.078    80022088.595    19267157.078  
                                
  21458717.784   114387048.674    21458718.641    88967707.288    21458718.588  
                                
  20738908.723   110900248.773    20738908.187    86255757.978    20738908.187  
                                
  24696717.458   129782123.789                                                  
  24696718.816    96915228.502  
  23641555.172   124237227.082                                                  
  23641557.763    92774575.029  
  25076635.491   131778620.408                                                  
  25076636.831    98406122.790  
  23483696.203   123407681.983                                                  
  23483697.686    92155111.341  
  25889118.487   136048271.181                                                  
  25889120.309   101594514.441  
 21  9  1  8 42 53.0000000  0 17G 1G 7G 8G13G14G17G21G30R12R13R14R24
                                E13E15E21E27E30
  20698885.936   108773393.521    20698886.061    84758496.737    20698886.061  
  20698884.953    81226887.612  
  21081284.760   110782899.861    21081281.937    86324323.935    21081281.669  
                                
  23195841.557   121894975.151    23195841.735    94983105.194    23195840.931  
  23195840.163    91025465.120  
  23720633.783   124652772.063                    97132042.593    23720630.870  
                                
  21429867.656   112614720.972    21429865.334    87751726.786    21429865.155  
  21429869.157    84095419.286  
  22083213.226   116048087.327    22083210.563    90427076.081    22083210.242  
                                
  21538528.846   113185751.415                    88196696.503    21538525.057  
                                
  20634902.843   108437152.319    20634902.343    84496476.884    20634901.861  
  20634902.343    80975795.019  
  21608437.878   115428406.051    21608438.432    89777658.884    21608438.539  
                                
  19267152.450   102885518.828    19267152.378    80022069.079    19267152.396  
                                
  21458089.813   114383701.300    21458090.670    88965103.775    21458090.635  
                                
  20738301.462   110897001.545    20738300.926    86253232.359    20738300.926  
                                
  24696240.838   129779619.237                                                  
  24696242.178    96913358.225  
  23641591.732   124237419.139                                                  
  23641594.323    92774718.444  
  25076283.203   131776769.108                                                  
  25076284.561    98404740.326  
  23483752.758   123407979.046                                                  
  23483754.224    92155333.170  
  25889529.831   136050432.766                                                  
  25889531.672   101596128.596  
 21  9  1  8 42 54.0000000  0 17G 1G 7G 8G13G14G17G21G30R12R13R14R24
                                E13E15E21E27E30
  20698590.882   108771842.996    20698591.007    84757288.541    20698591.007  
  20698589.900    81225729.759  
  21081726.429   110785220.872    21081723.606    86326132.513    21081723.338  
                                
  23196428.036   121898057.094    23196428.197    94985506.704    23196427.393  
  23196426.642    91027766.575  
  23720669.164   124652958.081                    97132187.542    23720666.251  
                                
  21429489.298   112612732.760    21429486.993    87750177.530    21429486.796  
  21429490.817    84093934.582  
  22082796.788   116045899.079    22082794.143    90425370.953    22082793.822  
                                
  21538724.708   113186780.708                    88197498.549    21538720.902  
                                
  20634934.454   108437318.394    20634933.953    84496606.293    20634933.471  
  20634933.953    80975919.034  
  21609012.403   115431475.114    21609012.957    89780045.939    21609013.082  
                                
  19267147.821   102885494.230    19267147.768    80022049.950    19267147.786  
                                
  21457461.877   114380354.013    21457462.735    88962500.327    21457462.699  
                                
  20737694.309   110893754.720    20737693.755    86250707.048    20737693.773  
                                
  24695764.289   129777114.864                                                  
  24695765.629    96911488.065  
  23641628.346   124237611.524                                                  
  23641630.919    92774862.108  
  25075930.897   131774917.756                                                  
  25075932.255    98403357.823  
  23483809.296   123408276.191                                                  
  23483810.761    92155555.066  
  25889941.158   136052594.330                                                  
  25889942.999   101597742.753  
 21  9  1  8 42 55.0000000  0 17G 1G 7G 8G13G14G17G21G30R12R13R14R24
                                E13E15E21E27E30
  20698295.918   108770292.935    20698296.044    84756080.699    20698296.044  
  20698294.936    81224572.240  
  21082168.169   110787542.188    21082165.328    86327941.333    21082165.078  
                                
  23197014.497   121901138.905    23197014.658    94987908.114    23197013.854  
  23197013.104    91030067.909  
  23720704.669   124653144.554                    97132332.843    23720701.757  
                                
  21429110.957   112610744.507    21429108.634    87748628.239    21429108.455  
  21429112.458    84092449.850  
  22082380.404   116043710.917    22082377.759    90423665.894    22082377.438  
                                
  21538920.642   113187810.344                    88198300.861    21538916.854  
                                
  20634966.118   108437484.871    20634965.617    84496736.014    20634965.135  
  20634965.635    80976043.354  
  21609586.981   115434544.319    21609587.535    89782433.094    21609587.642  
                                
  19267143.301   102885470.027    19267143.247    80022031.123    19267143.265  
                                
  21456833.942   114377006.707    21456834.782    88959896.868    21456834.746  
                                
  20737087.173   110890508.185    20737086.637    86248181.969    20737086.637  
                                
  24695287.704   129774610.530                                                  
  24695289.062    96909617.954  
  23641664.995   124237804.141                                                  
  23641667.569    92775005.946  
  25075578.574   131773066.257                                                  
  25075579.932    98401975.210  
  23483865.834   123408573.337                                                  
  23483867.299    92155776.958  
  25890352.468   136054755.775                                                  
  25890354.308   101599356.834  
 21  9  1  8 42 56.0000000  0 17G 1G 7G 8G13G14G17G21G30R12R13R14R24
                                E13E15E21E27E30
  20698001.151   108768743.884    20698001.276    84754873.644    20698001.276  
  20698000.168    81223415.483  
  21082610.070   110789864.314    21082607.229    86329750.772    21082606.961  
                                
  23197601.012   121904221.108    23197601.173    94990309.832    23197600.369  
  23197599.618    91032369.559  
  23720740.300   124653331.874                    97132478.812    23720737.370  
                                
  21428732.705   112608756.805    21428730.383    87747079.381    21428730.204  
  21428734.206    84090965.525  
  22081964.127   116041523.406    22081961.483    90421961.340    22081961.161  
                                
  21539116.754   113188840.902                    88199103.895    21539112.948  
                                
  20634998.014   108437652.340    20634997.513    84496866.509    20634997.031  
  20634997.513    80976168.410  
  21610161.685   115437614.255    21610162.239    89784820.820    21610162.364  
                                
