% program   : rnx2rtkp ver.2.4.3 b31
% inp file  : ngs/21_08_31_22_54_19_ingy.obs
% inp file  : ngs/21_08_31_22_54_19_ingy_SW.obs
% inp file  : ngs/21_08_31_22_54_19_brdc.nav
% obs start : 2021/08/31 22:00:00.0 GPST (week2173 252000.0s)
% obs end   : 2021/08/31 22:59:59.0 GPST (week2173 255599.0s)
% ref pos   :   232629.8915  -4837044.0313   4136981.0535
%
% (x/y/z-ecef=WGS84,Q=1:fix,2:float,3:sbas,4:dgps,5:single,6:ppp,ns=# of satellites)
%  GPST              x-ecef(m)      y-ecef(m)      z-ecef(m)   Q  ns   sdx(m)   sdy(m)   sdz(m)  sdxy(m)  sdyz(m)  sdzx(m) age(s)  ratio
2173 255234.000    229480.1584  -4771569.2806   4212190.1874   2   6   0.5607   1.1843   0.6998   0.4728  -0.5448   0.3087 -30.00    1.1
2173 255235.000    229480.1631  -4771569.2465   4212190.1775   2   6   0.3992   0.8429   0.4975   0.3370  -0.3872   0.2195 -29.00    1.1
2173 255236.000    229480.1617  -4771569.2382   4212190.1752   2   6   0.3269   0.6902   0.4073   0.2760  -0.3170   0.1797 -28.00    1.1
2173 255237.000    229480.1575  -4771569.2314   4212190.1757   2   6   0.2836   0.5988   0.3534   0.2394  -0.2751   0.1559 -27.00    1.1
2173 255238.000    229480.1567  -4771569.2185   4212190.1754   2   6   0.2539   0.5363   0.3165   0.2144  -0.2465   0.1396 -26.00    1.1
2173 255239.000    229480.1552  -4771569.2062   4212190.1740   2   6   0.2320   0.4900   0.2893   0.1958  -0.2253   0.1275 -25.00    1.1
2173 255240.000    229480.1550  -4771569.1920   4212190.1704   2   6   0.2149   0.4540   0.2681   0.1814  -0.2088   0.1182 -24.00    1.1
2173 255241.000    229480.1549  -4771569.1762   4212190.1695   2   6   0.2011   0.4249   0.2509   0.1697  -0.1955   0.1106 -23.00    1.1
2173 255242.000    229480.1547  -4771569.1638   4212190.1689   2   6   0.1897   0.4008   0.2367   0.1600  -0.1845   0.1043 -22.00    1.1
2173 255243.000    229480.1544  -4771569.1500   4212190.1683   2   6   0.1800   0.3803   0.2246   0.1518  -0.1751   0.0990 -21.00    1.1
2173 255244.000    229480.1540  -4771569.1439   4212190.1698   2   6   0.1716   0.3627   0.2142   0.1448  -0.1670   0.0944 -20.00    1.1
2173 255245.000    229480.1536  -4771569.1319   4212190.1666   2   6   0.1643   0.3473   0.2051   0.1386  -0.1599   0.0903 -19.00    1.1
2173 255246.000    229480.1531  -4771569.1211   4212190.1651   2   6   0.1579   0.3337   0.1971   0.1331  -0.1537   0.0868 -18.00    1.1
2173 255247.000    229480.1499  -4771569.1162   4212190.1660   2   6   0.1521   0.3215   0.1899   0.1283  -0.1481   0.0836 -17.00    1.1
2173 255248.000    229480.1494  -4771569.1069   4212190.1650   2   6   0.1469   0.3106   0.1834   0.1239  -0.1431   0.0807 -16.00    1.1
2173 255249.000    229480.1465  -4771569.1067   4212190.1789   2   6   0.1422   0.3007   0.1775   0.1199  -0.1385   0.0781 -15.00    1.1
2173 255250.000    229480.1462  -4771569.0969   4212190.1796   2   6   0.1379   0.2916   0.1721   0.1163  -0.1343   0.0757 -14.00    1.1
2173 255251.000    229480.1450  -4771569.0890   4212190.1767   2   6   0.1340   0.2833   0.1672   0.1130  -0.1305   0.0735 -13.00    1.1
2173 255252.000    229480.1417  -4771569.0860   4212190.1765   2   6   0.1304   0.2757   0.1627   0.1100  -0.1270   0.0715 -12.00    1.0
2173 255253.000    229480.1395  -4771569.0847   4212190.1748   2   6   0.1270   0.2686   0.1585   0.1071  -0.1237   0.0697 -11.00    1.0
2173 255254.000    229480.1372  -4771569.0811   4212190.1729   2   6   0.1239   0.2620   0.1546   0.1045  -0.1207   0.0679 -10.00    1.0
2173 255255.000    229480.1329  -4771569.0808   4212190.1719   2   6   0.1210   0.2559   0.1509   0.1021  -0.1179   0.0663  -9.00    1.0
2173 255256.000    229480.1297  -4771569.0720   4212190.1656   2   6   0.1183   0.2502   0.1475   0.0998  -0.1153   0.0648  -8.00    1.1
2173 255257.000    229480.1281  -4771569.0739   4212190.1642   2   6   0.1158   0.2448   0.1443   0.0976  -0.1128   0.0634  -7.00    1.0
2173 255258.000    229480.1245  -4771569.0712   4212190.1581   2   6   0.1134   0.2398   0.1413   0.0956  -0.1105   0.0620  -6.00    1.0
2173 255259.000    229480.1241  -4771569.0696   4212190.1554   2   6   0.1111   0.2351   0.1385   0.0937  -0.1083   0.0607  -5.00    1.0
2173 255260.000    229480.1176  -4771569.0692   4212190.1480   2   6   0.1090   0.2306   0.1358   0.0919  -0.1063   0.0595  -4.00    1.1
2173 255261.000    229480.1144  -4771569.0658   4212190.1403   2   6   0.1070   0.2264   0.1333   0.0902  -0.1043   0.0584  -3.00    1.0
2173 255262.000    229480.1116  -4771569.0642   4212190.1341   2   6   0.1051   0.2224   0.1309   0.0886  -0.1025   0.0573  -2.00    1.0
2173 255263.000    229480.1066  -4771569.0641   4212190.1275   2   6   0.1033   0.2186   0.1286   0.0871  -0.1008   0.0563  -1.00    1.0
2173 255264.000    229480.1058  -4771569.0581   4212190.1199   2   6   0.1016   0.2150   0.1265   0.0856  -0.0992   0.0553   0.00    1.0
2173 255265.000    229480.1030  -4771569.0567   4212190.1148   2   6   0.1000   0.2116   0.1245   0.0843  -0.0976   0.0544   0.00    1.0
2173 255266.000    229480.1003  -4771569.0585   4212190.1083   2   6   0.0984   0.2084   0.1225   0.0830  -0.0962   0.0535   0.00    1.0
2173 255267.000    229480.0984  -4771569.0626   4212190.1049   2   6   0.0970   0.2053   0.1207   0.0817  -0.0948   0.0527   0.00    1.0
2173 255268.000    229480.0985  -4771569.0657   4212190.1016   2   6   0.0955   0.2023   0.1189   0.0805  -0.0934   0.0519   0.00    1.0
2173 255269.000    229480.1013  -4771569.0661   4212190.1019   2   6   0.0942   0.1995   0.1172   0.0793  -0.0921   0.0511   0.00    1.0
2173 255270.000    229480.1050  -4771569.0683   4212190.0996   2   6   0.0929   0.1967   0.1155   0.0782  -0.0909   0.0504   0.00    1.0
2173 255271.000    229480.1028  -4771569.0629   4212190.0987   2   6   0.0916   0.1941   0.1140   0.0771  -0.0897   0.0496   0.00    1.0
2173 255272.000    229480.1036  -4771569.0583   4212190.0961   2   6   0.0904   0.1916   0.1124   0.0761  -0.0886   0.0489   0.00    1.0
2173 255273.000    229480.1021  -4771569.0519   4212190.0915   2   6   0.0892   0.1891   0.1110   0.0751  -0.0875   0.0482   0.00    1.0
2173 255274.000    229480.0984  -4771569.0482   4212190.0866   2   6   0.0881   0.1868   0.1096   0.0741  -0.0865   0.0476   0.00    1.0
2173 255275.000    229480.0986  -4771569.0422   4212190.0820   2   6   0.0871   0.1845   0.1082   0.0732  -0.0854   0.0469   0.00    1.0
2173 255276.000    229480.0965  -4771569.0417   4212190.0780   2   6   0.0860   0.1823   0.1069   0.0723  -0.0845   0.0463   0.00    1.0
2173 255277.000    229480.0946  -4771569.0379   4212190.0735   2   6   0.0850   0.1802   0.1056   0.0714  -0.0835   0.0457   0.00    1.0
2173 255278.000    229480.0924  -4771569.0363   4212190.0695   2   6   0.0840   0.1782   0.1043   0.0706  -0.0826   0.0451   0.00    1.0
2173 255279.000    229480.0908  -4771569.0304   4212190.0622   2   6   0.0831   0.1762   0.1031   0.0698  -0.0818   0.0445   0.00    1.0
2173 255280.000    229480.0851  -4771569.0335   4212190.0578   2   6   0.0821   0.1743   0.1019   0.0690  -0.0809   0.0440   0.00    1.0
2173 255281.000    229480.0828  -4771569.0377   4212190.0526   2   6   0.0812   0.1724   0.1008   0.0682  -0.0801   0.0434   0.00    1.0
2173 255282.000    229480.0807  -4771569.0320   4212190.0464   2   6   0.0804   0.1706   0.0997   0.0674  -0.0793   0.0429   0.00    1.0
2173 255283.000    229480.0753  -4771569.0378   4212190.0390   2   6   0.0795   0.1688   0.0986   0.0667  -0.0785   0.0423   0.00    1.1
2173 255284.000    229480.0700  -4771569.0406   4212190.0297   2   7   0.0783   0.1659   0.0975   0.0648  -0.0775   0.0420   0.00    1.0
2173 255285.000    229480.0608  -4771569.0441   4212190.0194   2   7   0.0771   0.1632   0.0965   0.0630  -0.0765   0.0417   0.00    1.0
2173 255286.000    229480.0585  -4771569.0488   4212190.0147   2   7   0.0760   0.1606   0.0954   0.0613  -0.0756   0.0414   0.00    1.0
2173 255287.000    229480.0521  -4771569.0522   4212190.0069   2   7   0.0750   0.1582   0.0945   0.0597  -0.0747   0.0411   0.00    1.0
2173 255288.000    229480.0465  -4771569.0575   4212190.0014   2   7   0.0740   0.1558   0.0935   0.0582  -0.0738   0.0407   0.00    1.0
2173 255289.000    229480.0429  -4771569.0632   4212189.9942   2   7   0.0730   0.1536   0.0925   0.0568  -0.0730   0.0404   0.00    1.0
2173 255290.000    229480.0377  -4771569.0715   4212189.9911   2   7   0.0721   0.1515   0.0916   0.0554  -0.0722   0.0401   0.00    1.0
2173 255291.000    229480.0324  -4771569.0772   4212189.9897   2   7   0.0712   0.1494   0.0906   0.0541  -0.0714   0.0398   0.00    1.0
2173 255292.000    229480.0286  -4771569.0806   4212189.9814   2   7   0.0703   0.1475   0.0898   0.0529  -0.0707   0.0394   0.00    1.0
2173 255293.000    229480.0219  -4771569.0847   4212189.9704   2   7   0.0695   0.1456   0.0889   0.0517  -0.0700   0.0391   0.00    1.0
2173 255294.000    229480.0185  -4771569.0874   4212189.9664   2   7   0.0687   0.1438   0.0880   0.0506  -0.0693   0.0387   0.00    1.0
2173 255295.000    229480.0146  -4771569.0920   4212189.9583   2   7   0.0679   0.1420   0.0872   0.0495  -0.0686   0.0383   0.00    1.0
2173 255296.000    229480.0091  -4771569.0989   4212189.9480   2   7   0.0672   0.1404   0.0864   0.0485  -0.0679   0.0380   0.00    1.0
2173 255297.000    229480.0039  -4771569.0986   4212189.9376   2   7   0.0664   0.1387   0.0856   0.0475  -0.0673   0.0376   0.00    1.1
2173 255298.000    229480.0003  -4771569.1069   4212189.9324   2   7   0.0657   0.1372   0.0847   0.0466  -0.0667   0.0374   0.00    1.1
2173 255299.000    229479.9951  -4771569.1143   4212189.9230   2   7   0.0650   0.1356   0.0840   0.0456  -0.0661   0.0370   0.00    1.1
2173 255300.000    229479.9928  -4771569.1181   4212189.9167   2   7   0.0644   0.1342   0.0832   0.0448  -0.0655   0.0367   0.00    1.1
2173 255301.000    229479.9901  -4771569.1188   4212189.9082   2   7   0.0637   0.1327   0.0825   0.0439  -0.0649   0.0363   0.00    1.1
2173 255302.000    229479.9823  -4771569.1264   4212189.9005   2   7   0.0631   0.1313   0.0817   0.0431  -0.0644   0.0360   0.00    1.1
2173 255303.000    229479.9805  -4771569.1292   4212189.8923   2   7   0.0625   0.1300   0.0810   0.0423  -0.0639   0.0357   0.00    1.1
2173 255304.000    229479.9751  -4771569.1337   4212189.8825   2   7   0.0619   0.1287   0.0803   0.0415  -0.0633   0.0353   0.00    1.1
2173 255305.000    229479.9706  -4771569.1358   4212189.8730   2   7   0.0613   0.1274   0.0796   0.0407  -0.0628   0.0350   0.00    1.1
2173 255306.000    229479.9613  -4771569.1483   4212189.8575   2   7   0.0608   0.1262   0.0789   0.0401  -0.0623   0.0347   0.00    1.1
2173 255307.000    229479.9550  -4771569.1561   4212189.8439   2   7   0.0602   0.1250   0.0782   0.0394  -0.0619   0.0344   0.00    1.1
2173 255308.000    229479.9542  -4771569.1614   4212189.8394   2   7   0.0597   0.1238   0.0775   0.0387  -0.0614   0.0341   0.00    1.1
2173 255309.000    229479.9501  -4771569.1671   4212189.8315   2   7   0.0592   0.1227   0.0768   0.0380  -0.0609   0.0338   0.00    1.1
2173 255310.000    229479.9465  -4771569.1744   4212189.8263   2   7   0.0587   0.1216   0.0762   0.0374  -0.0605   0.0334   0.00    1.1
2173 255311.000    229479.9449  -4771569.1806   4212189.8194   2   7   0.0581   0.1205   0.0755   0.0368  -0.0600   0.0331   0.00    1.1
2173 255312.000    229479.9420  -4771569.1859   4212189.8147   2   7   0.0577   0.1194   0.0749   0.0362  -0.0596   0.0328   0.00    1.1
2173 255313.000    229479.9400  -4771569.1889   4212189.8114   2   7   0.0572   0.1184   0.0743   0.0356  -0.0592   0.0325   0.00    1.1
2173 255314.000    229479.9405  -4771569.1621   4212189.7855   2   7   0.0567   0.1174   0.0737   0.0350  -0.0588   0.0322   0.00    1.1
2173 255315.000    229479.9344  -4771569.1629   4212189.7745   2   7   0.0563   0.1164   0.0730   0.0344  -0.0583   0.0319   0.00    1.1
2173 255316.000    229479.9340  -4771569.1575   4212189.7698   2   7   0.0558   0.1155   0.0725   0.0339  -0.0579   0.0316   0.00    1.1
2173 255317.000    229479.9321  -4771569.1580   4212189.7602   2   7   0.0554   0.1145   0.0718   0.0334  -0.0576   0.0313   0.00    1.1
2173 255318.000    229479.9290  -4771569.1544   4212189.7490   2   7   0.0550   0.1136   0.0713   0.0329  -0.0572   0.0310   0.00    1.0
2173 255319.000    229479.9294  -4771569.1559   4212189.7444   2   7   0.0545   0.1127   0.0707   0.0324  -0.0568   0.0307   0.00    1.0
2173 255320.000    229479.9252  -4771569.1525   4212189.7356   2   7   0.0542   0.1118   0.0701   0.0319  -0.0564   0.0303   0.00    1.0
2173 255321.000    229479.9261  -4771569.1608   4212189.7395   2   7   0.0537   0.1109   0.0696   0.0314  -0.0560   0.0301   0.00    1.0
2173 255322.000    229479.9247  -4771569.1669   4212189.7365   2   7   0.0533   0.1101   0.0690   0.0310  -0.0557   0.0299   0.00    1.0
2173 255323.000    229479.9233  -4771569.1684   4212189.7339   2   7   0.0529   0.1093   0.0684   0.0306  -0.0554   0.0296   0.00    1.0
2173 255324.000    229479.9248  -4771569.1724   4212189.7348   2   7   0.0526   0.1085   0.0679   0.0301  -0.0550   0.0292   0.00    1.0
2173 255325.000    229479.9224  -4771569.1761   4212189.7312   2   7   0.0522   0.1077   0.0674   0.0297  -0.0547   0.0290   0.00    1.0
2173 255326.000    229479.9229  -4771569.1763   4212189.7294   2   7   0.0518   0.1069   0.0668   0.0293  -0.0543   0.0287   0.00    1.0
2173 255327.000    229479.9215  -4771569.1840   4212189.7302   2   7   0.0514   0.1061   0.0663   0.0289  -0.0540   0.0284   0.00    1.0
2173 255328.000    229479.9226  -4771569.1893   4212189.7320   2   7   0.0511   0.1054   0.0658   0.0285  -0.0537   0.0281   0.00    1.0
2173 255329.000    229479.9231  -4771569.1948   4212189.7306   2   7   0.0508   0.1046   0.0653   0.0280  -0.0533   0.0278   0.00    1.0
2173 255330.000    229479.9218  -4771569.1966   4212189.7299   2   7   0.0504   0.1039   0.0648   0.0277  -0.0531   0.0276   0.00    1.0
2173 255331.000    229479.9233  -4771569.2036   4212189.7336   2   7   0.0501   0.1032   0.0643   0.0272  -0.0527   0.0273   0.00    1.1
2173 255332.000    229479.9218  -4771569.2063   4212189.7309   2   7   0.0497   0.1025   0.0638   0.0269  -0.0524   0.0271   0.00    1.1
2173 255333.000    229479.9192  -4771569.2154   4212189.7327   2   7   0.0494   0.1018   0.0633   0.0266  -0.0521   0.0268   0.00    1.1
2173 255334.000    229479.9169  -4771569.2164   4212189.7285   2   7   0.0491   0.1011   0.0628   0.0262  -0.0518   0.0266   0.00    1.1
2173 255335.000    229479.9141  -4771569.2216   4212189.7277   2   7   0.0488   0.1005   0.0624   0.0259  -0.0515   0.0263   0.00    1.1
2173 255336.000    229479.9123  -4771569.2301   4212189.7224   2   7   0.0485   0.0998   0.0619   0.0255  -0.0512   0.0260   0.00    1.1
2173 255337.000    229479.9112  -4771569.2319   4212189.7217   2   7   0.0482   0.0992   0.0614   0.0252  -0.0510   0.0258   0.00    1.1
2173 255338.000    229479.9090  -4771569.2321   4212189.7188   2   7   0.0479   0.0985   0.0609   0.0249  -0.0507   0.0255   0.00    1.1
2173 255339.000    229479.9104  -4771569.2364   4212189.7159   2   7   0.0475   0.0979   0.0605   0.0246  -0.0504   0.0253   0.00    1.1
2173 255340.000    229479.9128  -4771569.2362   4212189.7158   2   7   0.0473   0.0973   0.0600   0.0242  -0.0501   0.0250   0.00    1.1
2173 255341.000    229479.9117  -4771569.2349   4212189.7097   2   7   0.0470   0.0967   0.0596   0.0239  -0.0499   0.0247   0.00    1.1
2173 255342.000    229479.9132  -4771569.2361   4212189.7125   2   7   0.0467   0.0961   0.0592   0.0235  -0.0496   0.0245   0.00    1.1
2173 255343.000    229479.9121  -4771569.2340   4212189.7088   2   7   0.0464   0.0955   0.0587   0.0233  -0.0493   0.0243   0.00    1.1
2173 255344.000    229479.9140  -4771569.2338   4212189.7096   2   7   0.0462   0.0949   0.0583   0.0230  -0.0491   0.0240   0.00    1.1
2173 255345.000    229479.9165  -4771569.2366   4212189.7118   2   7   0.0459   0.0944   0.0578   0.0227  -0.0488   0.0238   0.00    1.1
2173 255346.000    229479.9169  -4771569.2342   4212189.7116   2   7   0.0457   0.0938   0.0574   0.0224  -0.0486   0.0235   0.00    1.1
2173 255347.000    229479.9191  -4771569.2422   4212189.7144   2   7   0.0454   0.0932   0.0570   0.0222  -0.0483   0.0233   0.00    1.1
2173 255348.000    229479.9186  -4771569.2414   4212189.7136   2   7   0.0451   0.0927   0.0566   0.0219  -0.0481   0.0231   0.00    1.1
2173 255349.000    229479.9185  -4771569.2420   4212189.7125   2   7   0.0448   0.0921   0.0562   0.0216  -0.0478   0.0229   0.00    1.1
2173 255350.000    229479.9188  -4771569.2405   4212189.7107   2   7   0.0446   0.0916   0.0558   0.0213  -0.0476   0.0226   0.00    1.1
2173 255351.000    229479.9196  -4771569.2433   4212189.7115   2   7   0.0444   0.0911   0.0554   0.0211  -0.0473   0.0224   0.00    1.1
2173 255352.000    229479.9208  -4771569.2400   4212189.7095   2   7   0.0441   0.0906   0.0550   0.0208  -0.0471   0.0222   0.00    1.1
2173 255353.000    229479.9198  -4771569.2403   4212189.7031   2   7   0.0439   0.0901   0.0546   0.0205  -0.0469   0.0220   0.00    1.1
2173 255354.000    229479.9206  -4771569.2439   4212189.7031   2   7   0.0436   0.0896   0.0542   0.0203  -0.0466   0.0217   0.00    1.1
2173 255355.000    229479.9203  -4771569.2450   4212189.7011   2   7   0.0434   0.0891   0.0538   0.0201  -0.0464   0.0215   0.00    1.1
2173 255356.000    229479.9190  -4771569.2419   4212189.6996   2   7   0.0432   0.0886   0.0534   0.0198  -0.0462   0.0213   0.00    1.1
2173 255357.000    229479.9196  -4771569.2487   4212189.6976   2   7   0.0430   0.0881   0.0531   0.0195  -0.0459   0.0210   0.00    1.1
2173 255358.000    229479.9217  -4771569.2453   4212189.6998   2   7   0.0427   0.0876   0.0527   0.0193  -0.0457   0.0209   0.00    1.1
2173 255359.000    229479.9210  -4771569.2439   4212189.6941   2   7   0.0425   0.0871   0.0523   0.0191  -0.0455   0.0207   0.00    1.1
2173 255360.000    229479.9203  -4771569.2478   4212189.6933   2   7   0.0423   0.0867   0.0519   0.0188  -0.0453   0.0205   0.00    1.1
2173 255361.000    229479.9187  -4771569.2506   4212189.6867   2   7   0.0421   0.0862   0.0516   0.0186  -0.0451   0.0202   0.00    1.1
2173 255362.000    229479.9189  -4771569.2505   4212189.6833   2   7   0.0419   0.0858   0.0512   0.0185  -0.0449   0.0202   0.00    1.1
2173 255363.000    229479.9171  -4771569.2490   4212189.6781   2   7   0.0417   0.0853   0.0509   0.0181  -0.0446   0.0199   0.00    1.1
2173 255364.000    229479.9152  -4771569.2477   4212189.6693   2   7   0.0415   0.0849   0.0506   0.0179  -0.0444   0.0196   0.00    1.1
2173 255365.000    229479.9137  -4771569.2480   4212189.6660   2   7   0.0413   0.0844   0.0502   0.0177  -0.0442   0.0195   0.00    1.1
2173 255366.000    229479.9140  -4771569.2494   4212189.6593   2   7   0.0411   0.0840   0.0499   0.0175  -0.0440   0.0193   0.00    1.1
2173 255367.000    229479.9143  -4771569.2477   4212189.6535   2   7   0.0408   0.0835   0.0495   0.0173  -0.0438   0.0191   0.00    1.1
2173 255368.000    229479.9093  -4771569.2473   4212189.6401   2   7   0.0407   0.0831   0.0492   0.0171  -0.0436   0.0189   0.00    1.1
2173 255369.000    229479.9098  -4771569.2464   4212189.6359   2   7   0.0405   0.0827   0.0489   0.0169  -0.0434   0.0187   0.00    1.1
2173 255370.000    229479.9084  -4771569.2440   4212189.6267   2   7   0.0403   0.0823   0.0485   0.0167  -0.0432   0.0185   0.00    1.1
2173 255371.000    229479.9078  -4771569.2385   4212189.6179   2   7   0.0401   0.0819   0.0482   0.0165  -0.0430   0.0183   0.00    1.1
2173 255372.000    229479.9082  -4771569.2358   4212189.6146   2   7   0.0399   0.0815   0.0479   0.0163  -0.0428   0.0181   0.00    1.1
2173 255373.000    229479.9060  -4771569.2352   4212189.6100   2   7   0.0397   0.0811   0.0476   0.0161  -0.0426   0.0179   0.00    1.1
2173 255374.000    229479.9055  -4771569.2332   4212189.5996   2   7   0.0395   0.0807   0.0473   0.0158  -0.0424   0.0177   0.00    1.1
2173 255375.000    229479.9036  -4771569.2281   4212189.5909   2   7   0.0394   0.0803   0.0469   0.0157  -0.0423   0.0176   0.00    1.1
2173 255376.000    229479.9107  -4771569.2443   4212189.5447   2   7   0.0392   0.0799   0.0466   0.0154  -0.0420   0.0173   0.00    1.1
2173 255377.000    229479.9015  -4771569.2774   4212189.5268   2   7   0.0390   0.0795   0.0463   0.0154  -0.0419   0.0172   0.00    1.1
2173 255378.000    229479.8914  -4771569.3124   4212189.5103   2   7   0.0388   0.0791   0.0460   0.0151  -0.0417   0.0170   0.00    1.1
2173 255379.000    229479.8809  -4771569.3357   4212189.4938   2   7   0.0387   0.0787   0.0457   0.0149  -0.0415   0.0168   0.00    1.1
2173 255380.000    229479.8677  -4771569.3654   4212189.4769   2   7   0.0385   0.0784   0.0454   0.0148  -0.0413   0.0166   0.00    1.1
2173 255381.000    229479.8592  -4771569.3929   4212189.4619   2   7   0.0383   0.0780   0.0451   0.0146  -0.0411   0.0165   0.00    1.1
2173 255382.000    229479.8503  -4771569.4198   4212189.4468   2   7   0.0382   0.0776   0.0449   0.0144  -0.0409   0.0163   0.00    1.1
2173 255383.000    229479.8398  -4771569.4417   4212189.4350   2   7   0.0380   0.0773   0.0446   0.0143  -0.0408   0.0162   0.00    1.1
2173 255384.000    229479.8314  -4771569.4641   4212189.4241   2   7   0.0378   0.0769   0.0443   0.0140  -0.0406   0.0160   0.00    1.1
2173 255385.000    229479.8232  -4771569.4918   4212189.4109   2   7   0.0377   0.0765   0.0440   0.0139  -0.0404   0.0158   0.00    1.1
2173 255386.000    229479.8122  -4771569.5120   4212189.3942   2   7   0.0375   0.0762   0.0437   0.0137  -0.0402   0.0157   0.00    1.1
2173 255387.000    229479.8045  -4771569.5367   4212189.3882   2   7   0.0373   0.0758   0.0435   0.0136  -0.0401   0.0155   0.00    1.1
2173 255388.000    229479.7961  -4771569.5585   4212189.3743   2   7   0.0372   0.0755   0.0432   0.0134  -0.0399   0.0154   0.00    1.1
2173 255389.000    229479.7863  -4771569.5821   4212189.3612   2   7   0.0371   0.0752   0.0429   0.0131  -0.0397   0.0151   0.00    1.1
2173 255390.000    229479.7774  -4771569.5981   4212189.3481   2   7   0.0369   0.0748   0.0426   0.0130  -0.0395   0.0150   0.00    1.1
2173 255391.000    229479.7685  -4771569.6152   4212189.3388   2   7   0.0368   0.0745   0.0423   0.0128  -0.0394   0.0149   0.00    1.1
2173 255392.000    229479.7599  -4771569.6345   4212189.3219   2   7   0.0366   0.0741   0.0421   0.0127  -0.0392   0.0147   0.00    1.1
2173 255393.000    229479.7539  -4771569.6525   4212189.3089   2   7   0.0365   0.0738   0.0419   0.0125  -0.0390   0.0145   0.00    1.1
2173 255394.000    229479.7437  -4771569.6748   4212189.2963   2   7   0.0364   0.0735   0.0416   0.0123  -0.0389   0.0143   0.00    1.1
2173 255395.000    229479.7367  -4771569.6904   4212189.2848   2   7   0.0362   0.0732   0.0413   0.0122  -0.0387   0.0142   0.00    1.1
2173 255396.000    229479.7296  -4771569.7113   4212189.2735   2   7   0.0361   0.0728   0.0411   0.0120  -0.0386   0.0140   0.00    1.0
2173 255397.000    229479.7226  -4771569.7295   4212189.2621   2   7   0.0359   0.0725   0.0409   0.0119  -0.0384   0.0140   0.00    1.0
2173 255398.000    229479.7141  -4771569.7428   4212189.2483   2   7   0.0357   0.0722   0.0406   0.0118  -0.0383   0.0139   0.00    1.0
2173 255399.000    229479.7072  -4771569.7630   4212189.2378   2   7   0.0357   0.0719   0.0404   0.0115  -0.0381   0.0137   0.00    1.0
2173 255400.000    229479.7028  -4771569.7722   4212189.2278   2   7   0.0355   0.0716   0.0401   0.0114  -0.0379   0.0134   0.00    1.0
2173 255401.000    229479.6970  -4771569.7887   4212189.2192   2   7   0.0353   0.0713   0.0398   0.0112  -0.0378   0.0134   0.00    1.0
2173 255402.000    229479.6927  -4771569.8006   4212189.2087   2   7   0.0352   0.0710   0.0396   0.0110  -0.0376   0.0131   0.00    1.0
2173 255403.000    229479.6880  -4771569.8137   4212189.1986   2   7   0.0351   0.0707   0.0394   0.0108  -0.0374   0.0131   0.00    1.0
2173 255404.000    229479.6812  -4771569.8237   4212189.1881   2   7   0.0349   0.0703   0.0392   0.0108  -0.0373   0.0130   0.00    1.0
2173 255405.000    229479.6764  -4771569.8374   4212189.1763   2   7   0.0349   0.0701   0.0389   0.0105  -0.0371   0.0127   0.00    1.0
2173 255406.000    229479.6709  -4771569.8469   4212189.1652   2   7   0.0347   0.0698   0.0387   0.0104  -0.0370   0.0127   0.00    1.0
2173 255407.000    229479.6672  -4771569.8508   4212189.1533   2   7   0.0345   0.0695   0.0385   0.0103  -0.0369   0.0125   0.00    1.0
2173 255408.000    229479.6616  -4771569.8596   4212189.1430   2   7   0.0344   0.0692   0.0383   0.0101  -0.0367   0.0124   0.00    1.0
2173 255409.000    229479.6562  -4771569.8666   4212189.1326   2   7   0.0343   0.0689   0.0380   0.0100  -0.0366   0.0124   0.00    1.1
2173 255410.000    229479.6522  -4771569.8698   4212189.1206   2   7   0.0342   0.0686   0.0378   0.0098  -0.0364   0.0122   0.00    1.1
2173 255411.000    229479.6484  -4771569.8835   4212189.1115   2   7   0.0341   0.0683   0.0376   0.0096  -0.0363   0.0120   0.00    1.1
2173 255412.000    229479.6445  -4771569.8904   4212189.1010   2   7   0.0340   0.0680   0.0374   0.0095  -0.0361   0.0118   0.00    1.1
2173 255413.000    229479.6404  -4771569.8984   4212189.0944   2   7   0.0338   0.0677   0.0372   0.0095  -0.0360   0.0119   0.00    1.1
2173 255414.000    229479.6384  -4771569.9090   4212189.0871   2   7   0.0337   0.0675   0.0370   0.0093  -0.0358   0.0116   0.00    1.1
2173 255415.000    229479.6342  -4771569.9124   4212189.0782   2   7   0.0336   0.0672   0.0368   0.0090  -0.0357   0.0115   0.00    1.1
2173 255416.000    229479.6270  -4771569.9211   4212189.0656   2   7   0.0335   0.0669   0.0365   0.0090  -0.0356   0.0113   0.00    1.1
2173 255417.000    229479.6246  -4771569.9292   4212189.0584   2   7   0.0333   0.0667   0.0363   0.0088  -0.0354   0.0114   0.00    1.1
2173 255418.000    229479.6224  -4771569.9283   4212189.0485   2   7   0.0333   0.0664   0.0361   0.0087  -0.0353   0.0110   0.00    1.1
2173 255419.000    229479.6151  -4771569.9429   4212189.0390   2   7   0.0332   0.0661   0.0359   0.0084  -0.0351   0.0109   0.00    1.1
2173 255420.000    229479.6147  -4771569.9528   4212189.0331   2   7   0.0330   0.0659   0.0357   0.0083  -0.0350   0.0109   0.00    1.1
2173 255421.000    229479.6124  -4771569.9575   4212189.0252   2   7   0.0330   0.0656   0.0356   0.0081  -0.0348   0.0107   0.00    1.1
2173 255422.000    229479.6117  -4771569.9651   4212189.0182   2   7   0.0329   0.0653   0.0353   0.0080  -0.0347   0.0106   0.00    1.1
2173 255423.000    229479.6093  -4771569.9725   4212189.0110   2   7   0.0327   0.0651   0.0352   0.0080  -0.0346   0.0106   0.00    1.1
2173 255424.000    229479.6085  -4771569.9730   4212189.0041   2   7   0.0327   0.0648   0.0350   0.0076  -0.0344   0.0102   0.00    1.1
2173 255425.000    229479.6058  -4771569.9663   4212188.9942   2   7   0.0325   0.0646   0.0348   0.0077  -0.0343   0.0103   0.00    1.2
2173 255426.000    229479.6048  -4771569.9729   4212188.9886   2   7   0.0325   0.0643   0.0346   0.0074  -0.0342   0.0102   0.00    1.2
2173 255427.000    229479.5989  -4771569.9720   4212188.9745   2   7   0.0323   0.0641   0.0344   0.0072  -0.0341   0.0100   0.00    1.2
2173 255428.000    229479.5979  -4771569.9774   4212188.9639   2   7   0.0322   0.0638   0.0342   0.0071  -0.0339   0.0101   0.00    1.2
2173 255429.000    229479.5950  -4771569.9738   4212188.9569   2   7   0.0321   0.0636   0.0340   0.0071  -0.0338   0.0100   0.00    1.2
2173 255430.000    229479.5945  -4771569.9786   4212188.9508   2   7   0.0320   0.0633   0.0338   0.0067  -0.0337   0.0097   0.00    1.2
2173 255431.000    229479.5903  -4771569.9812   4212188.9421   2   7   0.0319   0.0631   0.0337   0.0065  -0.0335   0.0096   0.00    1.2
2173 255432.000    229479.5892  -4771569.9829   4212188.9404   2   7   0.0318   0.0628   0.0335   0.0065  -0.0334   0.0095   0.00    1.2
2173 255433.000    229479.5877  -4771569.9863   4212188.9388   2   7   0.0317   0.0626   0.0334   0.0064  -0.0333   0.0093   0.00    1.2
2173 255434.000    229479.5880  -4771569.9964   4212188.9376   2   7   0.0316   0.0624   0.0332   0.0062  -0.0332   0.0092   0.00    1.2
2173 255435.000    229479.5871  -4771570.0014   4212188.9368   2   7   0.0315   0.0621   0.0330   0.0060  -0.0331   0.0092   0.00    1.2
2173 255436.000    229479.5998  -4771569.9782   4212188.9160   2   7   0.0315   0.0619   0.0328   0.0059  -0.0329   0.0088   0.00    1.2
2173 255437.000    229479.5990  -4771569.9851   4212188.9099   2   7   0.0314   0.0616   0.0327   0.0057  -0.0328   0.0088   0.00    1.2
2173 255438.000    229479.6003  -4771569.9936   4212188.9089   2   7   0.0312   0.0614   0.0324   0.0055  -0.0327   0.0088   0.00    1.2
2173 255439.000    229479.5983  -4771569.9893   4212188.8996   2   7   0.0312   0.0612   0.0323   0.0054  -0.0325   0.0088   0.00    1.2
2173 255440.000    229479.5978  -4771569.9964   4212188.8994   2   7   0.0311   0.0610   0.0322   0.0051  -0.0324   0.0085   0.00    1.2
2173 255441.000    229479.5964  -4771570.0049   4212188.8952   2   7   0.0310   0.0607   0.0319   0.0050  -0.0323   0.0085   0.00    1.2
2173 255442.000    229479.5922  -4771570.0072   4212188.8882   2   7   0.0309   0.0605   0.0318   0.0049  -0.0322   0.0083   0.00    1.2
2173 255443.000    229479.5907  -4771570.0128   4212188.8836   2   7   0.0308   0.0603   0.0316   0.0046  -0.0321   0.0083   0.00    1.2
2173 255444.000    229479.5920  -4771570.0156   4212188.8809   2   7   0.0307   0.0601   0.0315   0.0045  -0.0320   0.0081   0.00    1.2
2173 255445.000    229479.5913  -4771570.0167   4212188.8730   2   7   0.0306   0.0598   0.0314   0.0043  -0.0318   0.0082   0.00    1.2
2173 255446.000    229479.5875  -4771570.0245   4212188.8690   2   7   0.0306   0.0596   0.0312   0.0041  -0.0317   0.0080   0.00    1.2
2173 255447.000    229479.5876  -4771570.0270   4212188.8675   2   7   0.0304   0.0594   0.0310   0.0037  -0.0316   0.0078   0.00    1.2
2173 255448.000    229479.5862  -4771570.0287   4212188.8608   2   7   0.0304   0.0592   0.0308   0.0037  -0.0315   0.0077   0.00    1.2
2173 255449.000    229479.5853  -4771570.0300   4212188.8571   2   7   0.0302   0.0590   0.0307   0.0033  -0.0314   0.0078   0.00    1.2
2173 255450.000    229479.5839  -4771570.0325   4212188.8545   2   7   0.0302   0.0587   0.0305   0.0032  -0.0313   0.0076   0.00    1.2
2173 255451.000    229479.5848  -4771570.0295   4212188.8471   2   7   0.0301   0.0585   0.0304   0.0026  -0.0311   0.0075   0.00    1.2
2173 255452.000    229479.5847  -4771570.0319   4212188.8413   2   7   0.0300   0.0583   0.0303   0.0025  -0.0310   0.0072   0.00    1.2
2173 255453.000    229479.5827  -4771570.0328   4212188.8365   2   7   0.0299   0.0581   0.0301   0.0028  -0.0309   0.0073   0.00    1.2
2173 255454.000    229479.5843  -4771570.0394   4212188.8345   2   7   0.0298   0.0579   0.0299   0.0025  -0.0308   0.0073   0.00    1.2
2173 255455.000    229479.5816  -4771570.0368   4212188.8293   2   7   0.0297   0.0577   0.0298   0.0022  -0.0307   0.0073   0.00    1.2
2173 255456.000    229479.5801  -4771570.0387   4212188.8223   2   7   0.0297   0.0575   0.0297   0.0017  -0.0306   0.0071   0.00    1.2
2173 255457.000    229479.5809  -4771570.0363   4212188.8165   2   7   0.0296   0.0573   0.0295  -0.0012  -0.0305   0.0070   0.00    1.2
2173 255458.000    229479.5791  -4771570.0417   4212188.8109   2   7   0.0295   0.0571   0.0294  -0.0013  -0.0304   0.0068   0.00    1.2
2173 255459.000    229479.5769  -4771570.0406   4212188.8058   2   7   0.0294   0.0569   0.0292  -0.0016  -0.0302   0.0070   0.00    1.2
2173 255460.000    229479.5792  -4771570.0449   4212188.8028   2   7   0.0293   0.0567   0.0291  -0.0019  -0.0302   0.0069   0.00    1.2
2173 255461.000    229479.5778  -4771570.0459   4212188.7992   2   7   0.0292   0.0565   0.0289  -0.0025  -0.0301   0.0066   0.00    1.2
2173 255462.000    229479.5781  -4771570.0489   4212188.7971   2   7   0.0292   0.0563   0.0288  -0.0020  -0.0299   0.0068   0.00    1.2
2173 255463.000    229479.5757  -4771570.0510   4212188.7903   2   7   0.0291   0.0561   0.0287  -0.0027  -0.0299   0.0065   0.00    1.2
2173 255464.000    229479.5759  -4771570.0518   4212188.7893   2   7   0.0290   0.0559   0.0286  -0.0030  -0.0297   0.0064   0.00    1.2
2173 255465.000    229479.5762  -4771570.0535   4212188.7868   2   7   0.0290   0.0557   0.0284  -0.0033  -0.0296   0.0062   0.00    1.2
2173 255466.000    229479.5744  -4771570.0547   4212188.7821   2   8   0.0289   0.0555   0.0283  -0.0029  -0.0295   0.0063   0.00    1.0
2173 255467.000    229479.5756  -4771570.0535   4212188.7771   2   8   0.0289   0.0551   0.0282  -0.0031  -0.0293   0.0061   0.00    1.0
2173 255468.000    229479.5758  -4771570.0512   4212188.7675   2   8   0.0287   0.0549   0.0281  -0.0031  -0.0292   0.0057   0.00    1.0
2173 255469.000    229479.5749  -4771570.0486   4212188.7646   2   8   0.0287   0.0546   0.0279  -0.0027  -0.0291   0.0058   0.00    1.0
2173 255470.000    229479.5737  -4771570.0503   4212188.7607   2   8   0.0285   0.0544   0.0278  -0.0030  -0.0290   0.0056   0.00    1.0
2173 255471.000    229479.5754  -4771570.0445   4212188.7556   2   8   0.0285   0.0542   0.0276  -0.0029  -0.0288   0.0056   0.00    1.0
2173 255472.000    229479.5747  -4771570.0460   4212188.7551   2   8   0.0284   0.0540   0.0275  -0.0026  -0.0287   0.0055   0.00    1.0
2173 255473.000    229479.5745  -4771570.0443   4212188.7509   2   8   0.0283   0.0537   0.0275  -0.0031  -0.0286   0.0051   0.00    1.0
2173 255474.000    229479.5740  -4771570.0432   4212188.7460   2   8   0.0283   0.0535   0.0272  -0.0023  -0.0285   0.0054   0.00    1.0
2173 255475.000    229479.5751  -4771570.0401   4212188.7441   2   8   0.0282   0.0533   0.0271  -0.0023  -0.0284   0.0051   0.00    1.0
2173 255476.000    229479.5741  -4771570.0431   4212188.7417   2   8   0.0281   0.0531   0.0269  -0.0032  -0.0283   0.0053   0.00    1.0
2173 255477.000    229479.5764  -4771570.0409   4212188.7377   2   8   0.0280   0.0529   0.0268  -0.0027  -0.0282   0.0052   0.00    1.0
2173 255478.000    229479.5740  -4771570.0426   4212188.7340   2   8   0.0279   0.0527   0.0268  -0.0028  -0.0281   0.0049   0.00    1.0
2173 255479.000    229479.5761  -4771570.0358   4212188.7306   2   8   0.0279   0.0525   0.0266  -0.0028  -0.0280   0.0047   0.00    1.0
2173 255480.000    229479.5777  -4771570.0321   4212188.7290   2   8   0.0278   0.0523   0.0265  -0.0030  -0.0279   0.0046   0.00    1.0
2173 255481.000    229479.5777  -4771570.0318   4212188.7294   2   8   0.0277   0.0521   0.0263  -0.0031  -0.0278   0.0048   0.00    1.0
2173 255482.000    229479.5762  -4771570.0297   4212188.7232   2   8   0.0277   0.0519   0.0262  -0.0029  -0.0276   0.0046   0.00    1.0
2173 255483.000    229479.5772  -4771570.0288   4212188.7229   2   8   0.0276   0.0517   0.0261  -0.0031  -0.0276   0.0044   0.00    1.0
2173 255484.000    229479.5764  -4771570.0287   4212188.7230   2   8   0.0275   0.0515   0.0260  -0.0032  -0.0274   0.0045   0.00    1.0
2173 255485.000    229479.5748  -4771570.0263   4212188.7217   2   8   0.0275   0.0513   0.0259  -0.0028  -0.0274   0.0037   0.00    1.0
2173 255486.000    229479.5747  -4771570.0240   4212188.7182   2   8   0.0273   0.0511   0.0257  -0.0033  -0.0272   0.0042   0.00    1.0
2173 255487.000    229479.5763  -4771570.0244   4212188.7168   2   8   0.0273   0.0509   0.0257  -0.0030  -0.0272   0.0034   0.00    1.1
2173 255488.000    229479.5723  -4771570.0305   4212188.7184   2   8   0.0273   0.0507   0.0257  -0.0034  -0.0270   0.0033   0.00    1.1
2173 255489.000    229479.5724  -4771570.0320   4212188.7184   2   8   0.0272   0.0505   0.0255  -0.0030  -0.0270   0.0036   0.00    1.1
2173 255490.000    229479.5723  -4771570.0365   4212188.7192   2   8   0.0271   0.0503   0.0254  -0.0032  -0.0268   0.0035   0.00    1.1
2173 255491.000    229479.5731  -4771570.0393   4212188.7219   2   8   0.0270   0.0501   0.0253  -0.0033  -0.0268   0.0035   0.00    1.0
2173 255492.000    229479.5738  -4771570.0432   4212188.7223   2   8   0.0270   0.0500   0.0252  -0.0032  -0.0266   0.0033   0.00    1.0
2173 255493.000    229479.5760  -4771570.0503   4212188.7293   2   8   0.0269   0.0498   0.0251  -0.0034  -0.0265   0.0029   0.00    1.0
2173 255494.000    229479.5748  -4771570.0518   4212188.7316   2   8   0.0269   0.0496   0.0249  -0.0037  -0.0264   0.0034   0.00    1.0
2173 255495.000    229479.5775  -4771570.0558   4212188.7360   2   8   0.0268   0.0494   0.0248  -0.0036  -0.0263   0.0028   0.00    1.0
2173 255496.000    229479.5827  -4771570.0368   4212188.7514   2   8   0.0268   0.0492   0.0248  -0.0036  -0.0262   0.0027   0.00    1.0
2173 255497.000    229479.5882  -4771570.0280   4212188.7591   2   8   0.0267   0.0491   0.0247  -0.0034  -0.0261   0.0024   0.00    1.0
2173 255498.000    229479.5918  -4771570.0211   4212188.7604   2   8   0.0266   0.0489   0.0245  -0.0038  -0.0261   0.0025   0.00    1.0
2173 255499.000    229479.5920  -4771570.0109   4212188.7661   2   8   0.0266   0.0487   0.0244  -0.0037  -0.0260   0.0022   0.00    1.0
2173 255500.000    229479.5971  -4771570.0013   4212188.7692   2   8   0.0265   0.0485   0.0243  -0.0036  -0.0259   0.0020   0.00    1.0
2173 255501.000    229479.6012  -4771569.9891   4212188.7749   2   8   0.0264   0.0484   0.0243  -0.0035  -0.0258   0.0018   0.00    1.0
2173 255502.000    229479.6082  -4771569.9820   4212188.7798   2   8   0.0264   0.0482   0.0242  -0.0039  -0.0256   0.0019   0.00    1.0
2173 255503.000    229479.6131  -4771569.9758   4212188.7848   2   8   0.0263   0.0480   0.0240  -0.0036  -0.0256   0.0022   0.00    1.0
2173 255504.000    229479.6204  -4771569.9656   4212188.7909   2   8   0.0262   0.0478   0.0240  -0.0037  -0.0255  -0.0005   0.00    1.0
2173 255505.000    229479.6279  -4771569.9518   4212188.7925   2   8   0.0262   0.0477   0.0239  -0.0040  -0.0254  -0.0005   0.00    1.0
2173 255506.000    229479.6350  -4771569.9403   4212188.7982   2   8   0.0261   0.0475   0.0238  -0.0041  -0.0253  -0.0013   0.00    1.0
2173 255507.000    229479.6400  -4771569.9304   4212188.8046   2   8   0.0261   0.0473   0.0236  -0.0036  -0.0253   0.0008   0.00    1.0
2173 255508.000    229479.6448  -4771569.9158   4212188.8076   2   8   0.0260   0.0472   0.0235  -0.0040  -0.0251   0.0009   0.00    1.0
2173 255509.000    229479.6483  -4771569.9037   4212188.8114   2   8   0.0260   0.0470   0.0235  -0.0039  -0.0250  -0.0007   0.00    1.0
2173 255510.000    229479.6530  -4771569.8962   4212188.8187   2   8   0.0258   0.0469   0.0233  -0.0037  -0.0250   0.0013   0.00    1.0
2173 255511.000    229479.6568  -4771569.8817   4212188.8219   2   8   0.0258   0.0467   0.0233  -0.0039  -0.0249  -0.0009   0.00    1.0
2173 255512.000    229479.6615  -4771569.8741   4212188.8253   2   8   0.0257   0.0465   0.0232  -0.0038  -0.0248  -0.0015   0.00    1.0
2173 255513.000    229479.6664  -4771569.8627   4212188.8273   2   8   0.0257   0.0464   0.0231  -0.0040  -0.0248  -0.0017   0.00    1.0
2173 255514.000    229479.6694  -4771569.8506   4212188.8295   2   8   0.0256   0.0462   0.0229  -0.0042  -0.0246  -0.0015   0.00    1.1
2173 255515.000    229479.6716  -4771569.8385   4212188.8297   2   8   0.0256   0.0461   0.0229  -0.0041  -0.0246  -0.0012   0.00    1.1
2173 255516.000    229479.6758  -4771569.8306   4212188.8293   2   8   0.0255   0.0459   0.0228  -0.0042  -0.0245  -0.0016   0.00    1.1
2173 255517.000    229479.6794  -4771569.8180   4212188.8332   2   8   0.0255   0.0458   0.0228  -0.0039  -0.0244  -0.0026   0.00    1.1
2173 255518.000    229479.6830  -4771569.8065   4212188.8341   2   8   0.0255   0.0456   0.0227  -0.0039  -0.0243  -0.0024   0.00    1.1
2173 255519.000    229479.6862  -4771569.7969   4212188.8379   2   8   0.0254   0.0455   0.0226  -0.0041  -0.0242  -0.0030   0.00    1.1
2173 255520.000    229479.6908  -4771569.7928   4212188.8399   2   8   0.0254   0.0453   0.0225  -0.0041  -0.0242  -0.0028   0.00    1.1
2173 255521.000    229479.6955  -4771569.7803   4212188.8415   2   8   0.0252   0.0451   0.0223  -0.0041  -0.0241  -0.0026   0.00    1.1
2173 255522.000    229479.6984  -4771569.7685   4212188.8422   2   8   0.0252   0.0450   0.0223  -0.0043  -0.0240  -0.0025   0.00    1.1
2173 255523.000    229479.7029  -4771569.7564   4212188.8386   2   8   0.0251   0.0449   0.0222  -0.0045  -0.0239  -0.0023   0.00    1.1
2173 255524.000    229479.7062  -4771569.7459   4212188.8404   2   8   0.0251   0.0447   0.0221  -0.0040  -0.0238  -0.0023   0.00    1.1
2173 255525.000    229479.7107  -4771569.7340   4212188.8423   2   8   0.0251   0.0446   0.0221  -0.0043  -0.0238  -0.0031   0.00    1.1
2173 255526.000    229479.7144  -4771569.7218   4212188.8417   2   8   0.0250   0.0444   0.0221  -0.0043  -0.0238  -0.0032   0.00    1.1
2173 255527.000    229479.7175  -4771569.7119   4212188.8433   2   8   0.0250   0.0443   0.0219  -0.0046  -0.0236  -0.0032   0.00    1.1
2173 255528.000    229479.7196  -4771569.7014   4212188.8477   2   8   0.0249   0.0441   0.0218  -0.0047  -0.0235  -0.0029   0.00    1.1
2173 255529.000    229479.7232  -4771569.6911   4212188.8479   2   8   0.0248   0.0440   0.0218  -0.0048  -0.0234  -0.0032   0.00    1.1
2173 255530.000    229479.7258  -4771569.6812   4212188.8503   2   8   0.0247   0.0438   0.0217  -0.0045  -0.0234  -0.0036   0.00    1.1
2173 255531.000    229479.7302  -4771569.6693   4212188.8514   2   8   0.0247   0.0437   0.0216  -0.0048  -0.0232  -0.0034   0.00    1.1
2173 255532.000    229479.7347  -4771569.6585   4212188.8536   2   8   0.0247   0.0436   0.0215  -0.0046  -0.0232  -0.0033   0.00    1.1
2173 255533.000    229479.7374  -4771569.6485   4212188.8527   2   8   0.0246   0.0434   0.0214  -0.0050  -0.0232  -0.0032   0.00    1.1
2173 255534.000    229479.7430  -4771569.6367   4212188.8541   2   8   0.0246   0.0433   0.0213  -0.0045  -0.0231  -0.0037   0.00    1.1
2173 255535.000    229479.7459  -4771569.6240   4212188.8562   2   8   0.0245   0.0432   0.0212  -0.0047  -0.0230  -0.0034   0.00    1.1
2173 255536.000    229479.7484  -4771569.6148   4212188.8549   2   8   0.0244   0.0430   0.0211  -0.0048  -0.0229  -0.0032   0.00    1.1
2173 255537.000    229479.7519  -4771569.6065   4212188.8601   2   8   0.0244   0.0429   0.0211  -0.0048  -0.0228  -0.0034   0.00    1.1
2173 255538.000    229479.7544  -4771569.5965   4212188.8588   2   8   0.0244   0.0427   0.0210  -0.0046  -0.0228  -0.0033   0.00    1.1
2173 255539.000    229479.7579  -4771569.5864   4212188.8551   2   8   0.0244   0.0426   0.0209  -0.0048  -0.0227  -0.0037   0.00    1.1
2173 255540.000    229479.7614  -4771569.5772   4212188.8567   2   8   0.0243   0.0425   0.0209  -0.0047  -0.0226  -0.0038   0.00    1.1
2173 255541.000    229479.7623  -4771569.5664   4212188.8520   2   8   0.0242   0.0423   0.0208  -0.0049  -0.0225  -0.0037   0.00    1.1
2173 255542.000    229479.7634  -4771569.5588   4212188.8489   2   8   0.0242   0.0422   0.0207  -0.0050  -0.0225  -0.0038   0.00    1.1
2173 255543.000    229479.7667  -4771569.5503   4212188.8488   2   8   0.0241   0.0421   0.0206  -0.0048  -0.0224  -0.0034   0.00    1.2
2173 255544.000    229479.7693  -4771569.5519   4212188.8996   2   8   0.0241   0.0419   0.0205  -0.0051  -0.0224  -0.0037   0.00    1.2
2173 255545.000    229479.7775  -4771569.5360   4212188.9108   2   8   0.0240   0.0418   0.0205  -0.0050  -0.0223  -0.0036   0.00    1.2
2173 255546.000    229479.7880  -4771569.5191   4212188.9197   2   8   0.0239   0.0417   0.0204  -0.0049  -0.0222  -0.0035   0.00    1.2
2173 255547.000    229479.7981  -4771569.5049   4212188.9327   2   8   0.0240   0.0416   0.0204  -0.0049  -0.0222  -0.0041   0.00    1.2
2173 255548.000    229479.8047  -4771569.4821   4212188.9372   2   8   0.0238   0.0415   0.0203  -0.0052  -0.0220  -0.0033   0.00    1.2
2173 255549.000    229479.8123  -4771569.4672   4212188.9439   2   8   0.0239   0.0413   0.0202  -0.0048  -0.0220  -0.0036   0.00    1.2
2173 255550.000    229479.8188  -4771569.4485   4212188.9503   2   8   0.0238   0.0412   0.0201  -0.0049  -0.0219  -0.0040   0.00    1.3
2173 255551.000    229479.8259  -4771569.4286   4212188.9566   2   8   0.0238   0.0411   0.0201  -0.0053  -0.0218  -0.0039   0.00    1.3
2173 255552.000    229479.8341  -4771569.4133   4212188.9643   2   8   0.0236   0.0409   0.0200  -0.0049  -0.0218  -0.0038   0.00    1.3
2173 255553.000    229479.8394  -4771569.3956   4212188.9684   2   8   0.0237   0.0408   0.0200  -0.0050  -0.0217  -0.0044   0.00    1.3
2173 255554.000    229479.8449  -4771569.3796   4212188.9744   2   8   0.0236   0.0407   0.0198  -0.0053  -0.0216  -0.0038   0.00    1.3
2173 255555.000    229479.8543  -4771569.3839   4212188.9894   2   8   0.0236   0.0406   0.0198  -0.0052  -0.0216  -0.0041   0.00    1.3
2173 255556.000    229479.8593  -4771569.3754   4212188.9961   2   8   0.0235   0.0404   0.0198  -0.0050  -0.0216  -0.0042   0.00    1.3
2173 255557.000    229479.8639  -4771569.3616   4212188.9965   2   8   0.0235   0.0403   0.0198  -0.0049  -0.0215  -0.0042   0.00    1.4
2173 255558.000    229479.8693  -4771569.3548   4212189.0038   2   8   0.0234   0.0402   0.0197  -0.0051  -0.0214  -0.0042   0.00    1.4
2173 255559.000    229479.8716  -4771569.3438   4212189.0091   2   8   0.0233   0.0401   0.0195  -0.0055  -0.0214  -0.0040   0.00    1.4
2173 255560.000    229479.8781  -4771569.3319   4212189.0153   2   8   0.0234   0.0400   0.0195  -0.0054  -0.0213  -0.0042   0.00    1.4
2173 255561.000    229479.8822  -4771569.3221   4212189.0171   2   8   0.0233   0.0398   0.0195  -0.0053  -0.0212  -0.0042   0.00    1.4
2173 255562.000    229479.8849  -4771569.3132   4212189.0215   2   8   0.0233   0.0397   0.0194  -0.0052  -0.0212  -0.0044   0.00    1.4
2173 255563.000    229479.8907  -4771569.2953   4212189.0234   2   8   0.0232   0.0396   0.0193  -0.0053  -0.0211  -0.0039   0.00    1.4
2173 255564.000    229479.8965  -4771569.2845   4212189.0262   2   8   0.0231   0.0395   0.0194  -0.0053  -0.0211  -0.0042   0.00    1.4
2173 255565.000    229479.9003  -4771569.2738   4212189.0317   2   8   0.0231   0.0394   0.0192  -0.0056  -0.0210  -0.0042   0.00    1.4
2173 255566.000    229479.9018  -4771569.2677   4212189.0352   2   8   0.0231   0.0393   0.0191  -0.0055  -0.0209  -0.0044   0.00    1.5
2173 255567.000    229479.9047  -4771569.2546   4212189.0355   2   8   0.0231   0.0392   0.0191  -0.0050  -0.0209  -0.0047   0.00    1.5
2173 255568.000    229479.9081  -4771569.2450   4212189.0393   2   8   0.0230   0.0391   0.0190  -0.0056  -0.0208  -0.0043   0.00    1.5
2173 255569.000    229479.9115  -4771569.2344   4212189.0432   2   8   0.0229   0.0389   0.0189  -0.0054  -0.0206  -0.0041   0.00    1.5
2173 255570.000    229479.9159  -4771569.2270   4212189.0472   2   8   0.0229   0.0389   0.0189  -0.0053  -0.0206  -0.0045   0.00    1.5
2173 255571.000    229479.9182  -4771569.2173   4212189.0503   2   8   0.0228   0.0387   0.0188  -0.0056  -0.0206  -0.0045   0.00    1.5
2173 255572.000    229479.9222  -4771569.2084   4212189.0527   2   8   0.0228   0.0386   0.0188  -0.0056  -0.0205  -0.0044   0.00    1.5
2173 255573.000    229479.9276  -4771569.2020   4212189.0560   2   8   0.0228   0.0385   0.0186  -0.0053  -0.0205  -0.0040   0.00    1.5
2173 255574.000    229479.9305  -4771569.1876   4212189.0548   2   8   0.0227   0.0384   0.0186  -0.0054  -0.0204  -0.0045   0.00    1.5
2173 255575.000    229479.9341  -4771569.1797   4212189.0562   2   8   0.0228   0.0383   0.0186  -0.0058  -0.0204  -0.0042   0.00    1.5
2173 255576.000    229479.9382  -4771569.1701   4212189.0599   2   8   0.0227   0.0382   0.0186  -0.0055  -0.0203  -0.0047   0.00    1.5
2173 255577.000    229479.9422  -4771569.1593   4212189.0620   2   8   0.0226   0.0381   0.0184  -0.0054  -0.0202  -0.0044   0.00    1.5
2173 255578.000    229479.9423  -4771569.1503   4212189.0630   2   8   0.0226   0.0380   0.0184  -0.0056  -0.0202  -0.0042   0.00    1.5
2173 255579.000    229479.9478  -4771569.1451   4212189.0689   2   8   0.0226   0.0379   0.0184  -0.0053  -0.0201  -0.0046   0.00    1.5
2173 255580.000    229479.9501  -4771569.1299   4212189.0681   2   8   0.0225   0.0378   0.0183  -0.0056  -0.0200  -0.0045   0.00    1.5
2173 255581.000    229479.9539  -4771569.1202   4212189.0704   2   8   0.0225   0.0377   0.0182  -0.0058  -0.0200  -0.0045   0.00    1.5
2173 255582.000    229479.9595  -4771569.1107   4212189.0715   2   8   0.0225   0.0376   0.0182  -0.0054  -0.0200  -0.0043   0.00    1.5
2173 255583.000    229479.9612  -4771569.0999   4212189.0717   2   8   0.0224   0.0375   0.0182  -0.0057  -0.0199  -0.0048   0.00    1.5
2173 255584.000    229479.9651  -4771569.0938   4212189.0757   2   8   0.0223   0.0373   0.0180  -0.0055  -0.0199  -0.0045   0.00    1.5
2173 255585.000    229479.9685  -4771569.0827   4212189.0743   2   8   0.0223   0.0372   0.0180  -0.0057  -0.0198  -0.0045   0.00    1.5
2173 255586.000    229479.9721  -4771569.0736   4212189.0747   2   8   0.0223   0.0371   0.0180  -0.0055  -0.0198  -0.0047   0.00    1.6
2173 255587.000    229479.9730  -4771569.0625   4212189.0735   2   8   0.0223   0.0370   0.0179  -0.0056  -0.0197  -0.0046   0.00    1.6
2173 255588.000    229479.9777  -4771569.0549   4212189.0760   2   8   0.0222   0.0369   0.0179  -0.0059  -0.0196  -0.0044   0.00    1.6
2173 255589.000    229479.9813  -4771569.0425   4212189.0749   2   8   0.0221   0.0369   0.0178  -0.0055  -0.0195  -0.0048   0.00    1.6
2173 255590.000    229479.9850  -4771569.0361   4212189.0759   2   8   0.0221   0.0367   0.0178  -0.0054  -0.0196  -0.0048   0.00    1.6
2173 255591.000    229479.9889  -4771569.0301   4212189.0787   2   8   0.0221   0.0366   0.0178  -0.0056  -0.0195  -0.0048   0.00    1.6
2173 255592.000    229479.9893  -4771569.0154   4212189.0760   2   8   0.0220   0.0365   0.0177  -0.0057  -0.0194  -0.0046   0.00    1.6
2173 255593.000    229479.9947  -4771569.0084   4212189.0763   2   8   0.0220   0.0364   0.0176  -0.0056  -0.0194  -0.0047   0.00    1.5
2173 255594.000    229479.9997  -4771568.9947   4212189.0746   2   8   0.0220   0.0364   0.0176  -0.0056  -0.0193  -0.0045   0.00    1.5
2173 255595.000    229480.0017  -4771568.9829   4212189.0758   2   8   0.0219   0.0363   0.0174  -0.0058  -0.0192  -0.0043   0.00    1.5
2173 255596.000    229480.0069  -4771568.9750   4212189.0776   2   8   0.0219   0.0362   0.0174  -0.0059  -0.0192  -0.0047   0.00    1.5
2173 255597.000    229480.0124  -4771568.9660   4212189.0795   2   8   0.0219   0.0361   0.0174  -0.0057  -0.0192  -0.0048   0.00    1.5
2173 255598.000    229480.0173  -4771568.9570   4212189.0825   2   8   0.0218   0.0360   0.0174  -0.0056  -0.0191  -0.0048   0.00    1.5
2173 255599.000    229480.0194  -4771568.9499   4212189.0856   2   8   0.0218   0.0359   0.0173  -0.0058  -0.0190  -0.0046   0.00    1.5
