% program   : rnx2rtkp ver.2.4.3 b31
% inp file  : ngs/21_08_29_03_22_49_ict5.obs
% inp file  : ngs/21_08_29_03_22_49_ict5_P1.obs
% inp file  : ngs/21_08_29_03_22_49_brdc.nav
% obs start : 2021/08/29 03:00:00.0 GPST (week2173  10800.0s)
% obs end   : 2021/08/29 03:59:59.0 GPST (week2173  14399.0s)
% ref pos   :  -644354.8630  -5005909.1140   3887072.8860
%
% (x/y/z-ecef=WGS84,Q=1:fix,2:float,3:sbas,4:dgps,5:single,6:ppp,ns=# of satellites)
%  GPST              x-ecef(m)      y-ecef(m)      z-ecef(m)   Q  ns   sdx(m)   sdy(m)   sdz(m)  sdxy(m)  sdyz(m)  sdzx(m) age(s)  ratio
2173  12144.000   -669786.3207  -5002657.4192   3887010.0017   2   7   0.5040   0.9653   0.9117   0.3794  -0.8106  -0.4412 -30.00    1.2
2173  12145.000   -669786.3175  -5002657.4239   3887010.0048   2   7   0.3587   0.6872   0.6482   0.2700  -0.5768  -0.3139 -29.00    1.2
2173  12146.000   -669786.3150  -5002657.4247   3887010.0061   2   7   0.2936   0.5627   0.5306   0.2211  -0.4721  -0.2570 -28.00    1.2
2173  12147.000   -669786.3096  -5002657.4239   3887010.0021   2   7   0.2547   0.4881   0.4602   0.1917  -0.4095  -0.2229 -27.00    1.2
2173  12148.000   -669786.3129  -5002657.4242   3887010.0041   2   7   0.2281   0.4371   0.4121   0.1716  -0.3667  -0.1995 -26.00    1.2
2173  12149.000   -669786.3110  -5002657.4282   3887010.0030   2   7   0.2084   0.3994   0.3764   0.1568  -0.3350  -0.1823 -25.00    1.2
2173  12150.000   -669786.3134  -5002657.4268   3887010.0075   2   7   0.1931   0.3700   0.3487   0.1452  -0.3103  -0.1688 -24.00    1.3
2173  12151.000   -669786.3125  -5002657.4278   3887010.0048   2   7   0.1807   0.3462   0.3263   0.1359  -0.2904  -0.1580 -23.00    1.3
2173  12152.000   -669786.3140  -5002657.4302   3887010.0089   2   7   0.1705   0.3266   0.3077   0.1281  -0.2738  -0.1490 -22.00    1.3
2173  12153.000   -669786.3138  -5002657.4264   3887010.0070   2   7   0.1617   0.3099   0.2919   0.1215  -0.2598  -0.1413 -21.00    1.3
2173  12154.000   -669786.3162  -5002657.4275   3887010.0068   2   7   0.1542   0.2955   0.2783   0.1158  -0.2477  -0.1347 -20.00    1.4
2173  12155.000   -669786.3175  -5002657.4282   3887010.0079   2   7   0.1477   0.2829   0.2664   0.1109  -0.2371  -0.1290 -19.00    1.4
2173  12156.000   -669786.3170  -5002657.4214   3887010.0025   2   7   0.1419   0.2718   0.2558   0.1065  -0.2277  -0.1239 -18.00    1.4
2173  12157.000   -669786.3174  -5002657.4163   3887010.0012   2   7   0.1367   0.2618   0.2464   0.1026  -0.2193  -0.1193 -17.00    1.4
2173  12158.000   -669786.3181  -5002657.4150   3887009.9993   2   7   0.1320   0.2529   0.2379   0.0991  -0.2118  -0.1152 -16.00    1.4
2173  12159.000   -669786.3184  -5002657.4144   3887009.9978   2   7   0.1278   0.2448   0.2302   0.0959  -0.2050  -0.1115 -15.00    1.4
2173  12160.000   -669786.3179  -5002657.4133   3887009.9987   2   7   0.1240   0.2374   0.2232   0.0929  -0.1987  -0.1081 -14.00    1.4
2173  12161.000   -669786.3200  -5002657.4130   3887009.9999   2   7   0.1204   0.2306   0.2167   0.0903  -0.1930  -0.1050 -13.00    1.4
2173  12162.000   -669786.3178  -5002657.4094   3887009.9957   2   7   0.1172   0.2244   0.2108   0.0878  -0.1877  -0.1021 -12.00    1.3
2173  12163.000   -669786.3192  -5002657.4044   3887009.9931   2   7   0.1142   0.2186   0.2053   0.0855  -0.1829  -0.0995 -11.00    1.3
2173  12164.000   -669786.3214  -5002657.4025   3887009.9924   2   7   0.1114   0.2132   0.2001   0.0834  -0.1783  -0.0970 -10.00    1.3
2173  12165.000   -669786.3213  -5002657.4024   3887009.9901   2   7   0.1088   0.2082   0.1953   0.0814  -0.1741  -0.0947  -9.00    1.2
2173  12166.000   -669786.3230  -5002657.3997   3887009.9869   2   7   0.1063   0.2035   0.1909   0.0795  -0.1701  -0.0926  -8.00    1.2
2173  12167.000   -669786.3245  -5002657.3997   3887009.9875   2   7   0.1041   0.1991   0.1867   0.0778  -0.1664  -0.0905  -7.00    1.2
2173  12168.000   -669786.3262  -5002657.3993   3887009.9869   2   7   0.1019   0.1950   0.1827   0.0762  -0.1629  -0.0886  -6.00    1.1
2173  12169.000   -669786.3249  -5002657.3945   3887009.9808   2   7   0.0999   0.1911   0.1790   0.0746  -0.1595  -0.0868  -5.00    1.1
2173  12170.000   -669786.3270  -5002657.3924   3887009.9783   2   7   0.0980   0.1874   0.1754   0.0731  -0.1564  -0.0851  -4.00    1.0
2173  12171.000   -669786.3277  -5002657.3919   3887009.9759   2   7   0.0962   0.1839   0.1721   0.0717  -0.1534  -0.0835  -3.00    1.0
2173  12172.000   -669786.3283  -5002657.3910   3887009.9742   2   7   0.0945   0.1806   0.1689   0.0704  -0.1506  -0.0820  -2.00    1.0
2173  12173.000   -669786.3296  -5002657.3914   3887009.9772   2   7   0.0929   0.1775   0.1659   0.0692  -0.1480  -0.0805  -1.00    1.1
2173  12174.000   -669786.3307  -5002657.3901   3887009.9725   2   7   0.0914   0.1746   0.1631   0.0680  -0.1454  -0.0792   0.00    1.1
2173  12175.000   -669786.3788  -5002657.4720   3887010.1280   2   7   0.5037   0.9612   0.9039   0.3774  -0.8041  -0.4389   0.00    1.1
2173  12176.000   -669786.4203  -5002657.5464   3887010.3114   2   7   0.5037   0.9611   0.9037   0.3774  -0.8039  -0.4389   0.00    1.1
2173  12177.000   -669786.4154  -5002657.6217   3887010.3316   2   7   0.5037   0.9610   0.9035   0.3773  -0.8038  -0.4388   0.00    1.2
2173  12178.000   -669786.5100  -5002657.7579   3887010.3569   2   7   0.5037   0.9609   0.9033   0.3773  -0.8036  -0.4388   0.00    1.2
2173  12179.000   -669786.4247  -5002657.8259   3887010.4269   2   7   0.5037   0.9608   0.9031   0.3772  -0.8034  -0.4387   0.00    1.3
2173  12180.000   -669786.4508  -5002657.7377   3887010.4056   2   7   0.5037   0.9607   0.9029   0.3771  -0.8032  -0.4387   0.00    1.3
2173  12181.000   -669786.3923  -5002657.6641   3887010.3067   2   7   0.5038   0.9606   0.9027   0.3771  -0.8031  -0.4386   0.00    1.2
2173  12182.000   -669786.3740  -5002657.6619   3887010.2823   2   7   0.5038   0.9605   0.9025   0.3770  -0.8029  -0.4386   0.00    1.1
2173  12183.000   -669786.3712  -5002657.6594   3887010.2814   2   7   0.3581   0.6830   0.6407   0.2681  -0.5705  -0.3117   1.00    1.2
2173  12184.000   -669786.3677  -5002657.6549   3887010.2756   2   7   0.2929   0.5587   0.5236   0.2193  -0.4664  -0.2548   2.00    1.2
2173  12185.000   -669786.3647  -5002657.6522   3887010.2689   2   7   0.2539   0.4842   0.4536   0.1900  -0.4041  -0.2208   3.00    1.2
2173  12186.000   -669786.3640  -5002657.6483   3887010.2679   2   7   0.2272   0.4333   0.4057   0.1699  -0.3615  -0.1975   4.00    1.2
2173  12187.000   -669786.3585  -5002657.6418   3887010.2585   2   7   0.2075   0.3956   0.3703   0.1551  -0.3300  -0.1803   5.00    1.3
2173  12188.000   -669786.3590  -5002657.6472   3887010.2634   2   7   0.1921   0.3664   0.3428   0.1436  -0.3055  -0.1669   6.00    1.3
2173  12189.000   -669786.3560  -5002657.6437   3887010.2626   2   7   0.1798   0.3428   0.3206   0.1343  -0.2857  -0.1561   7.00    1.3
2173  12190.000   -669786.3546  -5002657.6445   3887010.2560   2   7   0.1696   0.3232   0.3023   0.1266  -0.2694  -0.1472   8.00    1.2
2173  12191.000   -669786.3527  -5002657.6378   3887010.2535   2   7   0.1609   0.3067   0.2868   0.1201  -0.2556  -0.1396   9.00    1.2
2173  12192.000   -669786.3519  -5002657.6372   3887010.2519   2   7   0.1535   0.2925   0.2734   0.1145  -0.2437  -0.1331  10.00    1.2
2173  12193.000   -669786.3508  -5002657.6314   3887010.2480   2   7   0.1470   0.2802   0.2619   0.1096  -0.2334  -0.1275  11.00    1.2
2173  12194.000   -669786.5633  -5002658.2597   3887010.9546   2   7   0.5039   0.9594   0.9001   0.3764  -0.8008  -0.4379   0.00    1.1
2173  12195.000   -669786.6639  -5002658.3033   3887010.9681   2   7   0.5039   0.9593   0.8999   0.3764  -0.8006  -0.4378   0.00    1.0
2173  12196.000   -669786.6530  -5002658.2362   3887010.8930   2   7   0.5040   0.9592   0.8997   0.3763  -0.8005  -0.4378   0.00    1.0
2173  12197.000   -669786.6405  -5002658.1773   3887010.8645   2   7   0.5040   0.9591   0.8995   0.3763  -0.8003  -0.4377   0.00    1.0
2173  12198.000   -669786.4999  -5002657.9076   3887010.7401   2   7   0.5040   0.9590   0.8993   0.3762  -0.8001  -0.4377   0.00    1.0
2173  12199.000   -669786.3841  -5002657.6371   3887010.5789   2   7   0.5040   0.9589   0.8991   0.3762  -0.8000  -0.4376   0.00    1.0
2173  12200.000   -669786.3888  -5002657.6317   3887010.5773   2   7   0.3582   0.6819   0.6382   0.2675  -0.5684  -0.3110   1.00    1.0
2173  12201.000   -669786.3900  -5002657.6264   3887010.5744   2   7   0.2930   0.5577   0.5216   0.2188  -0.4647  -0.2543   2.00    1.0
2173  12202.000   -669786.3905  -5002657.6198   3887010.5672   2   7   0.2540   0.4834   0.4519   0.1895  -0.4026  -0.2204   3.00    1.0
2173  12203.000   -669786.3910  -5002657.6176   3887010.5709   2   7   0.2273   0.4326   0.4042   0.1696  -0.3602  -0.1971   4.00    1.0
2173  12204.000   -669786.3919  -5002657.6139   3887010.5713   2   7   0.2076   0.3950   0.3689   0.1548  -0.3288  -0.1799   5.00    1.0
2173  12205.000   -669786.3937  -5002657.6072   3887010.5661   2   7   0.1922   0.3658   0.3415   0.1433  -0.3044  -0.1666   6.00    1.0
2173  12206.000   -669786.3934  -5002657.5976   3887010.5572   2   7   0.1799   0.3422   0.3194   0.1340  -0.2847  -0.1558   7.00    1.0
2173  12207.000   -669786.3955  -5002657.5926   3887010.5567   2   7   0.1697   0.3227   0.3011   0.1263  -0.2684  -0.1469   8.00    1.0
2173  12208.000   -669786.3940  -5002657.5845   3887010.5508   2   7   0.1610   0.3062   0.2857   0.1198  -0.2546  -0.1393   9.00    1.1
2173  12209.000   -669786.3975  -5002657.5814   3887010.5494   2   7   0.1536   0.2920   0.2724   0.1142  -0.2428  -0.1329  10.00    1.1
2173  12210.000   -669786.3974  -5002657.5767   3887010.5488   2   7   0.1471   0.2797   0.2609   0.1094  -0.2325  -0.1272  11.00    1.1
2173  12211.000   -669786.3951  -5002657.5690   3887010.5431   2   7   0.1414   0.2689   0.2507   0.1051  -0.2235  -0.1222  12.00    1.1
2173  12212.000   -669786.3983  -5002657.5681   3887010.5451   2   7   0.1364   0.2592   0.2417   0.1013  -0.2154  -0.1178  13.00    1.1
2173  12213.000   -669786.4004  -5002657.5681   3887010.5473   2   7   0.1318   0.2506   0.2337   0.0978  -0.2082  -0.1139  14.00    1.1
2173  12214.000   -669786.5444  -5002658.3376   3887010.9974   2   7   0.5042   0.9576   0.8961   0.3754  -0.7974  -0.4368   0.00    1.0
2173  12215.000   -669786.5714  -5002658.4892   3887011.0962   2   7   0.5042   0.9575   0.8959   0.3753  -0.7972  -0.4368   0.00    1.0
2173  12216.000   -669786.6594  -5002658.6995   3887011.2386   2   7   0.5042   0.9574   0.8957   0.3753  -0.7970  -0.4367   0.00    1.0
2173  12217.000   -669786.5732  -5002658.6332   3887011.2205   2   7   0.5042   0.9573   0.8955   0.3752  -0.7969  -0.4367   0.00    1.0
2173  12218.000   -669786.6121  -5002658.6013   3887011.2662   2   7   0.5043   0.9572   0.8953   0.3752  -0.7967  -0.4366   0.00    1.0
2173  12219.000   -669786.5627  -5002658.6306   3887011.2870   2   7   0.5043   0.9571   0.8951   0.3751  -0.7965  -0.4366   0.00    1.0
2173  12220.000   -669786.5959  -5002658.5378   3887011.2561   2   7   0.5043   0.9570   0.8949   0.3751  -0.7964  -0.4365   0.00    1.1
2173  12221.000   -669786.6517  -5002658.5639   3887011.2967   2   7   0.5043   0.9569   0.8947   0.3750  -0.7962  -0.4365   0.00    1.1
2173  12222.000   -669786.7026  -5002658.6632   3887011.3348   2   7   0.5043   0.9568   0.8945   0.3750  -0.7960  -0.4364   0.00    1.1
2173  12223.000   -669786.6311  -5002658.5840   3887011.2293   2   7   0.5043   0.9568   0.8943   0.3749  -0.7959  -0.4364   0.00    1.0
2173  12224.000   -669786.5688  -5002658.4128   3887011.1187   2   7   0.5043   0.9567   0.8941   0.3749  -0.7957  -0.4363   0.00    1.0
2173  12225.000   -669786.5729  -5002658.5435   3887011.2931   2   7   0.5043   0.9566   0.8939   0.3748  -0.7955  -0.4362   0.00    1.1
2173  12226.000   -669786.5625  -5002658.6696   3887011.3565   2   7   0.5044   0.9565   0.8937   0.3748  -0.7953  -0.4362   0.00    1.1
2173  12227.000   -669786.5769  -5002658.8608   3887011.4628   2   7   0.5044   0.9564   0.8935   0.3747  -0.7952  -0.4361   0.00    1.1
2173  12228.000   -669786.5575  -5002658.9032   3887011.4202   2   7   0.5044   0.9563   0.8933   0.3747  -0.7950  -0.4361   0.00    1.2
2173  12229.000   -669786.5947  -5002658.9353   3887011.3934   2   7   0.5044   0.9562   0.8931   0.3746  -0.7948  -0.4360   0.00    1.2
2173  12230.000   -669786.5080  -5002658.9064   3887011.3187   2   7   0.5044   0.9561   0.8929   0.3746  -0.7947  -0.4360   0.00    1.2
2173  12231.000   -669786.5124  -5002658.9146   3887011.3225   2   7   0.3585   0.6799   0.6339   0.2664  -0.5646  -0.3099   1.00    1.2
2173  12232.000   -669786.5169  -5002658.9144   3887011.3215   2   7   0.2933   0.5561   0.5181   0.2179  -0.4616  -0.2534   2.00    1.1
2173  12233.000   -669786.5148  -5002658.9140   3887011.3181   2   7   0.2542   0.4820   0.4488   0.1888  -0.4000  -0.2196   3.00    1.1
2173  12234.000   -669786.5151  -5002658.9127   3887011.3189   2   7   0.2275   0.4313   0.4014   0.1689  -0.3578  -0.1964   4.00    1.1
2173  12235.000   -669786.5159  -5002658.9121   3887011.3164   2   7   0.2078   0.3938   0.3664   0.1541  -0.3266  -0.1793   5.00    1.1
2173  12236.000   -669786.5153  -5002658.9026   3887011.3061   2   7   0.1924   0.3647   0.3392   0.1427  -0.3024  -0.1660   6.00    1.1
2173  12237.000   -669786.5191  -5002658.9065   3887011.3092   2   7   0.1800   0.3412   0.3173   0.1335  -0.2828  -0.1552   7.00    1.1
2173  12238.000   -669786.5208  -5002658.9014   3887011.3096   2   7   0.1698   0.3218   0.2991   0.1258  -0.2667  -0.1464   8.00    1.0
2173  12239.000   -669786.5222  -5002658.8983   3887011.3049   2   7   0.1612   0.3053   0.2838   0.1193  -0.2530  -0.1388   9.00    1.0
2173  12240.000   -669786.5242  -5002658.8983   3887011.3029   2   7   0.1537   0.2912   0.2706   0.1138  -0.2412  -0.1324  10.00    1.0
2173  12241.000   -669786.5240  -5002658.8955   3887011.2995   2   7   0.1473   0.2789   0.2591   0.1089  -0.2310  -0.1268  11.00    1.0
2173  12242.000   -669786.5260  -5002658.8960   3887011.3002   2   7   0.1416   0.2681   0.2490   0.1047  -0.2220  -0.1218  12.00    1.0
2173  12243.000   -669786.5267  -5002658.8988   3887011.3035   2   7   0.1365   0.2585   0.2401   0.1009  -0.2140  -0.1174  13.00    1.0
2173  12244.000   -669786.6739  -5002659.1285   3887011.4294   2   7   0.5046   0.9549   0.8902   0.3738  -0.7923  -0.4352   0.00    1.3
2173  12245.000   -669786.6426  -5002659.1069   3887011.3283   2   7   0.5046   0.9548   0.8900   0.3738  -0.7921  -0.4352   0.00    1.3
2173  12246.000   -669786.6770  -5002659.1177   3887011.3018   2   7   0.5046   0.9547   0.8898   0.3737  -0.7920  -0.4351   0.00    1.2
2173  12247.000   -669786.6767  -5002659.0415   3887011.3147   2   7   0.5046   0.9546   0.8896   0.3737  -0.7918  -0.4351   0.00    1.3
2173  12248.000   -669786.6614  -5002658.9364   3887011.3086   2   7   0.5047   0.9545   0.8894   0.3736  -0.7916  -0.4350   0.00    1.2
2173  12249.000   -669786.6262  -5002658.9808   3887011.4114   2   7   0.5047   0.9544   0.8892   0.3736  -0.7915  -0.4350   0.00    1.1
2173  12250.000   -669786.5800  -5002658.9687   3887011.4346   2   7   0.5047   0.9544   0.8890   0.3735  -0.7913  -0.4349   0.00    1.1
2173  12251.000   -669786.5795  -5002658.9557   3887011.4248   2   7   0.3587   0.6786   0.6311   0.2657  -0.5622  -0.3091   1.00    1.1
2173  12252.000   -669786.5807  -5002658.9552   3887011.4320   2   7   0.2934   0.5551   0.5158   0.2173  -0.4597  -0.2528   2.00    1.1
2173  12253.000   -669786.5852  -5002658.9583   3887011.4336   2   7   0.2543   0.4811   0.4469   0.1883  -0.3983  -0.2190   3.00    1.1
2173  12254.000   -669786.5865  -5002658.9590   3887011.4357   2   7   0.2276   0.4305   0.3997   0.1684  -0.3563  -0.1960   4.00    1.1
2173  12255.000   -669786.5863  -5002658.9562   3887011.4301   2   7   0.2079   0.3931   0.3648   0.1537  -0.3253  -0.1789   5.00    1.1
2173  12256.000   -669786.5855  -5002658.9566   3887011.4295   2   7   0.1925   0.3640   0.3377   0.1423  -0.3011  -0.1656   6.00    1.1
2173  12257.000   -669786.5866  -5002658.9626   3887011.4358   2   7   0.1802   0.3406   0.3159   0.1331  -0.2817  -0.1549   7.00    1.1
2173  12258.000   -669786.5906  -5002658.9660   3887011.4432   2   7   0.1699   0.3212   0.2978   0.1255  -0.2655  -0.1460   8.00    1.0
2173  12259.000   -669786.5953  -5002658.9769   3887011.4541   2   7   0.1613   0.3048   0.2825   0.1190  -0.2519  -0.1385   9.00    1.0
2173  12260.000   -669786.5959  -5002658.9863   3887011.4628   2   7   0.1538   0.2907   0.2694   0.1135  -0.2402  -0.1321  10.00    1.0
2173  12261.000   -669786.5992  -5002658.9944   3887011.4704   2   7   0.1473   0.2784   0.2580   0.1086  -0.2300  -0.1265  11.00    1.0
2173  12262.000   -669786.5993  -5002658.9972   3887011.4745   2   7   0.1416   0.2676   0.2480   0.1044  -0.2211  -0.1215  12.00    1.0
2173  12263.000   -669786.6021  -5002659.0093   3887011.4864   2   7   0.1366   0.2580   0.2391   0.1006  -0.2131  -0.1171  13.00    1.0
2173  12264.000   -669786.4073  -5002658.7219   3887010.8802   2   7   0.5049   0.9532   0.8863   0.3728  -0.7890  -0.4342   0.00    1.1
2173  12265.000   -669786.3768  -5002658.6900   3887010.8867   2   7   0.5049   0.9531   0.8861   0.3728  -0.7888  -0.4341   0.00    1.1
2173  12266.000   -669786.3562  -5002658.6943   3887010.9128   2   7   0.5049   0.9530   0.8859   0.3727  -0.7886  -0.4341   0.00    1.0
2173  12267.000   -669786.3048  -5002658.6428   3887010.8667   2   7   0.5049   0.9529   0.8858   0.3727  -0.7885  -0.4340   0.00    1.1
2173  12268.000   -669786.3317  -5002658.6205   3887010.8316   2   7   0.5049   0.9528   0.8856   0.3726  -0.7883  -0.4340   0.00    1.1
2173  12269.000   -669786.2846  -5002658.4883   3887010.7495   2   7   0.5050   0.9527   0.8854   0.3726  -0.7881  -0.4339   0.00    1.0
2173  12270.000   -669786.2494  -5002658.5324   3887010.7014   2   7   0.5050   0.9526   0.8852   0.3725  -0.7880  -0.4339   0.00    1.1
2173  12271.000   -669786.2765  -5002658.6771   3887010.7234   2   7   0.5050   0.9526   0.8850   0.3725  -0.7878  -0.4338   0.00    1.2
2173  12272.000   -669786.2264  -5002658.7177   3887010.7900   2   7   0.5050   0.9525   0.8848   0.3724  -0.7877  -0.4338   0.00    1.0
2173  12273.000   -669786.3093  -5002658.9650   3887010.9672   2   7   0.5050   0.9524   0.8846   0.3724  -0.7875  -0.4337   0.00    1.0
2173  12274.000   -669786.3093  -5002658.9618   3887010.9616   2   7   0.3590   0.6772   0.6280   0.2649  -0.5595  -0.3083   1.00    1.1
2173  12275.000   -669786.3134  -5002658.9459   3887010.9424   2   7   0.2936   0.5539   0.5133   0.2166  -0.4575  -0.2521   2.00    1.1
2173  12276.000   -669786.3152  -5002658.9419   3887010.9404   2   7   0.2545   0.4801   0.4446   0.1877  -0.3964  -0.2185   3.00    1.1
2173  12277.000   -669786.3173  -5002658.9425   3887010.9398   2   7   0.2278   0.4296   0.3977   0.1679  -0.3546  -0.1954   4.00    1.1
2173  12278.000   -669786.3187  -5002658.9467   3887010.9428   2   7   0.2080   0.3923   0.3630   0.1533  -0.3237  -0.1784   5.00    1.0
2173  12279.000   -669786.3227  -5002658.9551   3887010.9486   2   7   0.1927   0.3633   0.3361   0.1419  -0.2997  -0.1652   6.00    1.0
2173  12280.000   -669786.3238  -5002658.9603   3887010.9516   2   7   0.1803   0.3399   0.3143   0.1327  -0.2803  -0.1545   7.00    1.1
2173  12281.000   -669786.3267  -5002658.9646   3887010.9526   2   7   0.1700   0.3205   0.2964   0.1251  -0.2643  -0.1456   8.00    1.1
2173  12282.000   -669786.3271  -5002658.9736   3887010.9574   2   7   0.1614   0.3041   0.2812   0.1187  -0.2507  -0.1382   9.00    1.1
2173  12283.000   -669786.3281  -5002658.9740   3887010.9556   2   7   0.1539   0.2901   0.2681   0.1131  -0.2391  -0.1317  10.00    1.2
2173  12284.000   -669786.3308  -5002658.9782   3887010.9592   2   7   0.1474   0.2778   0.2567   0.1083  -0.2289  -0.1261  11.00    1.2
2173  12285.000   -669786.3307  -5002658.9808   3887010.9554   2   7   0.1417   0.2670   0.2467   0.1041  -0.2200  -0.1212  12.00    1.2
2173  12286.000   -669786.3305  -5002658.9791   3887010.9531   2   7   0.1367   0.2575   0.2379   0.1003  -0.2121  -0.1168  13.00    1.3
2173  12287.000   -669786.3305  -5002658.9773   3887010.9509   2   7   0.1321   0.2489   0.2300   0.0969  -0.2050  -0.1129  14.00    1.3
2173  12288.000   -669786.3314  -5002658.9835   3887010.9537   2   7   0.1281   0.2412   0.2228   0.0939  -0.1986  -0.1094  15.00    1.3
2173  12289.000   -669786.9903  -5002659.3921   3887011.2648   2   7   0.5052   0.9510   0.8815   0.3716  -0.7849  -0.4329   0.00    1.4
2173  12290.000   -669787.0004  -5002659.4732   3887011.3492   2   7   0.5052   0.9510   0.8813   0.3715  -0.7847  -0.4328   0.00    1.4
2173  12291.000   -669786.9385  -5002659.3040   3887011.2407   2   7   0.5053   0.9509   0.8812   0.3715  -0.7845  -0.4328   0.00    1.4
2173  12292.000   -669786.8919  -5002659.3277   3887011.1673   2   7   0.5053   0.9508   0.8810   0.3714  -0.7844  -0.4327   0.00    1.4
2173  12293.000   -669786.7684  -5002659.1680   3887011.0733   2   7   0.5053   0.9507   0.8808   0.3714  -0.7842  -0.4327   0.00    1.4
2173  12294.000   -669786.8328  -5002659.2344   3887011.0388   2   7   0.5053   0.9506   0.8806   0.3713  -0.7841  -0.4326   0.00    1.5
2173  12295.000   -669786.8348  -5002659.2437   3887011.0423   2   7   0.3592   0.6759   0.6251   0.2642  -0.5571  -0.3075   1.00    1.5
2173  12296.000   -669786.8366  -5002659.2484   3887011.0475   2   7   0.2938   0.5529   0.5110   0.2160  -0.4555  -0.2515   2.00    1.5
2173  12297.000   -669786.8357  -5002659.2450   3887011.0389   2   7   0.2547   0.4792   0.4426   0.1872  -0.3947  -0.2179   3.00    1.5
2173  12298.000   -669786.8368  -5002659.2412   3887011.0338   2   7   0.2279   0.4288   0.3959   0.1675  -0.3530  -0.1950   4.00    1.5
2173  12299.000   -669786.8358  -5002659.2349   3887011.0285   2   7   0.2082   0.3916   0.3614   0.1529  -0.3223  -0.1780   5.00    1.5
2173  12300.000   -669786.8344  -5002659.2317   3887011.0234   2   7   0.1928   0.3626   0.3346   0.1415  -0.2984  -0.1648   6.00    1.5
2173  12301.000   -669786.8351  -5002659.2260   3887011.0204   2   7   0.1804   0.3392   0.3129   0.1324  -0.2791  -0.1541   7.00    1.5
2173  12302.000   -669786.8337  -5002659.2286   3887011.0191   2   7   0.1701   0.3199   0.2950   0.1248  -0.2631  -0.1453   8.00    1.4
2173  12303.000   -669786.8309  -5002659.2273   3887011.0162   2   7   0.1615   0.3036   0.2799   0.1184  -0.2496  -0.1378   9.00    1.4
2173  12304.000   -669786.8304  -5002659.2271   3887011.0156   2   7   0.1540   0.2895   0.2669   0.1128  -0.2381  -0.1314  10.00    1.4
2173  12305.000   -669786.8306  -5002659.2206   3887011.0087   2   7   0.1475   0.2773   0.2556   0.1080  -0.2280  -0.1258  11.00    1.4
2173  12306.000   -669786.8266  -5002659.2158   3887011.0035   2   7   0.1418   0.2666   0.2457   0.1038  -0.2191  -0.1209  12.00    1.4
2173  12307.000   -669786.8230  -5002659.2091   3887010.9982   2   7   0.1368   0.2570   0.2368   0.1000  -0.2112  -0.1166  13.00    1.3
2173  12308.000   -669786.8228  -5002659.2084   3887010.9956   2   7   0.1322   0.2484   0.2289   0.0967  -0.2041  -0.1126  14.00    1.3
2173  12309.000   -669786.9551  -5002658.9107   3887010.7279   2   7   0.5055   0.9494   0.8778   0.3706  -0.7816  -0.4319   0.00    1.4
2173  12310.000   -669786.9275  -5002659.0250   3887010.8072   2   7   0.5055   0.9493   0.8776   0.3705  -0.7815  -0.4318   0.00    1.5
2173  12311.000   -669786.7980  -5002658.9253   3887010.7279   2   7   0.5055   0.9492   0.8774   0.3705  -0.7813  -0.4318   0.00    1.4
2173  12312.000   -669786.7988  -5002658.9327   3887010.7266   2   7   0.3594   0.6749   0.6229   0.2636  -0.5551  -0.3069   1.00    1.5
2173  12313.000   -669786.7939  -5002658.9335   3887010.7225   2   7   0.2940   0.5521   0.5091   0.2156  -0.4539  -0.2510   2.00    1.5
2173  12314.000   -669786.7940  -5002658.9326   3887010.7213   2   7   0.2548   0.4785   0.4410   0.1868  -0.3933  -0.2175   3.00    1.5
2173  12315.000   -669786.7958  -5002658.9277   3887010.7222   2   7   0.2280   0.4282   0.3945   0.1671  -0.3518  -0.1946   4.00    1.5
2173  12316.000   -669786.7947  -5002658.9222   3887010.7148   2   7   0.2083   0.3910   0.3601   0.1526  -0.3212  -0.1776   5.00    1.5
2173  12317.000   -669786.7959  -5002658.9190   3887010.7150   2   7   0.1929   0.3621   0.3334   0.1412  -0.2973  -0.1644   6.00    1.5
2173  12318.000   -669786.7968  -5002658.9217   3887010.7136   2   7   0.1805   0.3388   0.3118   0.1321  -0.2781  -0.1538   7.00    1.5
2173  12319.000   -669786.7979  -5002658.9155   3887010.7113   2   7   0.1702   0.3195   0.2940   0.1245  -0.2622  -0.1450   8.00    1.4
2173  12320.000   -669786.7978  -5002658.9139   3887010.7079   2   7   0.1616   0.3031   0.2789   0.1181  -0.2488  -0.1376   9.00    1.4
2173  12321.000   -669786.8001  -5002658.9098   3887010.7043   2   7   0.1541   0.2891   0.2659   0.1126  -0.2372  -0.1312  10.00    1.4
2173  12322.000   -669786.8022  -5002658.9093   3887010.7053   2   7   0.1476   0.2769   0.2547   0.1078  -0.2272  -0.1256  11.00    1.4
2173  12323.000   -669786.8033  -5002658.9101   3887010.7042   2   7   0.1419   0.2662   0.2448   0.1036  -0.2183  -0.1207  12.00    1.3
2173  12324.000   -669786.7364  -5002658.4531   3887010.1500   2   7   0.5057   0.9482   0.8749   0.3699  -0.7792  -0.4311   0.00    1.5
2173  12325.000   -669786.7394  -5002658.4563   3887010.1496   2   7   0.3595   0.6742   0.6211   0.2631  -0.5537  -0.3065   1.00    1.5
2173  12326.000   -669786.7378  -5002658.4522   3887010.1450   2   7   0.2941   0.5514   0.5077   0.2152  -0.4527  -0.2506   2.00    1.5
2173  12327.000   -669786.7399  -5002658.4507   3887010.1423   2   7   0.2549   0.4780   0.4398   0.1865  -0.3922  -0.2172   3.00    1.5
2173  12328.000   -669786.7434  -5002658.4534   3887010.1437   2   7   0.2281   0.4277   0.3934   0.1668  -0.3509  -0.1943   4.00    1.5
2173  12329.000   -669786.7439  -5002658.4479   3887010.1425   2   7   0.2083   0.3906   0.3591   0.1523  -0.3203  -0.1774   5.00    1.5
2173  12330.000   -669786.7479  -5002658.4517   3887010.1447   2   7   0.1930   0.3617   0.3324   0.1410  -0.2965  -0.1642   6.00    1.4
2173  12331.000   -669786.7468  -5002658.4473   3887010.1373   2   7   0.1806   0.3384   0.3109   0.1319  -0.2774  -0.1536   7.00    1.4
2173  12332.000   -669786.7489  -5002658.4398   3887010.1338   2   7   0.1703   0.3191   0.2932   0.1243  -0.2615  -0.1448   8.00    1.4
2173  12333.000   -669786.7524  -5002658.4348   3887010.1310   2   7   0.1616   0.3028   0.2781   0.1179  -0.2481  -0.1374   9.00    1.4
2173  12334.000   -669786.7554  -5002658.4316   3887010.1271   2   7   0.1542   0.2888   0.2652   0.1124  -0.2366  -0.1310  10.00    1.4
2173  12335.000   -669786.7568  -5002658.4308   3887010.1264   2   7   0.1477   0.2766   0.2540   0.1076  -0.2266  -0.1254  11.00    1.3
2173  12336.000   -669786.7581  -5002658.4250   3887010.1205   2   7   0.1420   0.2659   0.2441   0.1034  -0.2177  -0.1205  12.00    1.3
2173  12337.000   -669786.7611  -5002658.4274   3887010.1237   2   7   0.1369   0.2564   0.2353   0.0997  -0.2099  -0.1162  13.00    1.3
2173  12338.000   -669786.7633  -5002658.4231   3887010.1209   2   7   0.1323   0.2478   0.2275   0.0963  -0.2029  -0.1123  14.00    1.3
2173  12339.000   -669786.1506  -5002657.7968   3887009.5271   2   7   0.5060   0.9470   0.8722   0.3691  -0.7768  -0.4303   0.00    1.1
2173  12340.000   -669786.1593  -5002657.7961   3887009.5312   2   7   0.3597   0.6733   0.6192   0.2626  -0.5520  -0.3059   1.00    1.1
2173  12341.000   -669786.1674  -5002658.2127   3887009.8677   2   7   0.5060   0.9469   0.8718   0.3690  -0.7765  -0.4302   0.00    1.3
2173  12342.000   -669786.1689  -5002658.2300   3887009.8790   2   7   0.3597   0.6732   0.6189   0.2626  -0.5517  -0.3059   1.00    1.3
2173  12343.000   -669786.1716  -5002658.2414   3887009.8831   2   7   0.2942   0.5507   0.5059   0.2148  -0.4511  -0.2501   2.00    1.3
2173  12344.000   -669786.1755  -5002658.2463   3887009.8881   2   7   0.2550   0.4773   0.4382   0.1861  -0.3909  -0.2168   3.00    1.3
2173  12345.000   -669786.1758  -5002658.2480   3887009.8915   2   7   0.2283   0.4271   0.3920   0.1665  -0.3497  -0.1939   4.00    1.2
2173  12346.000   -669786.1803  -5002658.2489   3887009.8944   2   7   0.2085   0.3900   0.3578   0.1520  -0.3192  -0.1770   5.00    1.2
2173  12347.000   -669786.1795  -5002658.2485   3887009.8956   2   7   0.1931   0.3612   0.3313   0.1407  -0.2955  -0.1639   6.00    1.2
2173  12348.000   -669786.1806  -5002658.2504   3887009.9005   2   7   0.1807   0.3379   0.3098   0.1316  -0.2764  -0.1533   7.00    1.1
2173  12349.000   -669786.1787  -5002658.2513   3887009.8998   2   7   0.1704   0.3187   0.2921   0.1241  -0.2606  -0.1445   8.00    1.1
2173  12350.000   -669786.1804  -5002658.2543   3887009.9027   2   7   0.1617   0.3024   0.2771   0.1177  -0.2473  -0.1371   9.00    1.1
2173  12351.000   -669786.1802  -5002658.2491   3887009.9009   2   7   0.1542   0.2884   0.2643   0.1122  -0.2358  -0.1307  10.00    1.0
2173  12352.000   -669786.1799  -5002658.2540   3887009.9059   2   7   0.1477   0.2762   0.2531   0.1074  -0.2258  -0.1252  11.00    1.0
2173  12353.000   -669786.1829  -5002658.2571   3887009.9110   2   7   0.1420   0.2655   0.2432   0.1032  -0.2170  -0.1203  12.00    1.0
2173  12354.000   -669786.3192  -5002657.9094   3887010.1008   2   7   0.5062   0.9459   0.8694   0.3684  -0.7745  -0.4296   0.00    1.0
2173  12355.000   -669786.3497  -5002657.9616   3887010.0915   2   7   0.5062   0.9458   0.8692   0.3683  -0.7743  -0.4295   0.00    1.1
2173  12356.000   -669786.3537  -5002658.0646   3887010.1347   2   7   0.5062   0.9457   0.8690   0.3683  -0.7742  -0.4295   0.00    1.1
2173  12357.000   -669786.3358  -5002657.9243   3887010.0448   2   7   0.5062   0.9456   0.8688   0.3683  -0.7740  -0.4294   0.00    1.0
2173  12358.000   -669786.2772  -5002657.8611   3887010.0292   2   7   0.5062   0.9455   0.8687   0.3682  -0.7738  -0.4294   0.00    1.1
2173  12359.000   -669786.3684  -5002658.0285   3887010.1599   2   7   0.5062   0.9455   0.8685   0.3682  -0.7737  -0.4293   0.00    1.1
2173  12360.000   -669786.4278  -5002658.1515   3887010.2863   2   7   0.5063   0.9454   0.8683   0.3681  -0.7735  -0.4293   0.00    1.0
2173  12361.000   -669786.4350  -5002658.1935   3887010.4453   2   7   0.5063   0.9453   0.8681   0.3681  -0.7734  -0.4292   0.00    1.1
2173  12362.000   -669786.3849  -5002658.2265   3887010.4664   2   7   0.5063   0.9452   0.8679   0.3680  -0.7732  -0.4292   0.00    1.0
2173  12363.000   -669786.3864  -5002658.2363   3887010.4674   2   7   0.3599   0.6721   0.6162   0.2619  -0.5494  -0.3051   1.00    1.0
2173  12364.000   -669786.3867  -5002658.2409   3887010.4647   2   7   0.2944   0.5497   0.5036   0.2142  -0.4492  -0.2495   2.00    1.0
2173  12365.000   -669786.3881  -5002658.2407   3887010.4626   2   7   0.2552   0.4765   0.4363   0.1856  -0.3892  -0.2162   3.00    1.0
2173  12366.000   -669786.3893  -5002658.2401   3887010.4622   2   7   0.2284   0.4264   0.3903   0.1661  -0.3482  -0.1935   4.00    1.0
2173  12367.000   -669786.3887  -5002658.2417   3887010.4563   2   7   0.2086   0.3893   0.3563   0.1516  -0.3179  -0.1766   5.00    1.0
2173  12368.000   -669786.3851  -5002658.2450   3887010.4557   2   7   0.1932   0.3605   0.3298   0.1403  -0.2943  -0.1635   6.00    1.0
2173  12369.000   -669786.3863  -5002658.2527   3887010.4571   2   7   0.1808   0.3373   0.3085   0.1313  -0.2753  -0.1529   7.00    1.0
2173  12370.000   -669786.3847  -5002658.2545   3887010.4577   2   7   0.1705   0.3181   0.2908   0.1237  -0.2595  -0.1442   8.00    1.0
2173  12371.000   -669786.3839  -5002658.2614   3887010.4611   2   7   0.1618   0.3019   0.2759   0.1174  -0.2462  -0.1368   9.00    1.0
2173  12372.000   -669786.3851  -5002658.2619   3887010.4616   2   7   0.1543   0.2879   0.2631   0.1119  -0.2348  -0.1304  10.00    1.0
2173  12373.000   -669786.3836  -5002658.2663   3887010.4602   2   7   0.1478   0.2758   0.2520   0.1071  -0.2249  -0.1249  11.00    1.0
2173  12374.000   -669786.5138  -5002658.3983   3887010.5004   2   7   0.5065   0.9443   0.8658   0.3674  -0.7713  -0.4286   0.00    1.1
2173  12375.000   -669786.1814  -5002657.7886   3887010.1555   2   6   0.5793   1.0554   0.9349   0.5172  -0.8725  -0.5319   0.00    1.2
2173  12376.000   -669786.9067  -5002659.0596   3887011.1764   2   7   0.5065   0.9442   0.8654   0.3673  -0.7710  -0.4285   0.00    1.2
2173  12377.000   -669787.2044  -5002659.5219   3887011.5877   2   7   0.5065   0.9441   0.8652   0.3673  -0.7709  -0.4284   0.00    1.3
2173  12378.000   -669785.9172  -5002657.6553   3887010.1509   2   6   0.5793   1.0551   0.9343   0.5170  -0.8719  -0.5317   0.00    1.1
2173  12379.000   -669785.6606  -5002657.2118   3887009.7779   2   6   0.5769   1.0521   0.9322   0.5129  -0.8691  -0.5287   0.00    1.1
2173  12380.000   -669785.7552  -5002657.3440   3887009.9045   2   6   0.5756   1.0504   0.9310   0.5107  -0.8675  -0.5270   0.00    1.1
2173  12381.000   -669785.8903  -5002657.5503   3887010.0238   2   6   0.5748   1.0494   0.9302   0.5094  -0.8665  -0.5260   0.00    1.1
2173  12382.000   -669785.9374  -5002657.6765   3887010.0981   2   6   0.5743   1.0486   0.9295   0.5084  -0.8657  -0.5253   0.00    1.1
2173  12383.000   -669786.0261  -5002657.7673   3887010.1814   2   6   0.5739   1.0481   0.9290   0.5077  -0.8651  -0.5247   0.00    1.1
2173  12384.000   -669786.1614  -5002657.9516   3887010.3543   2   6   0.5736   1.0476   0.9286   0.5071  -0.8646  -0.5243   0.00    1.1
2173  12385.000   -669785.8610  -5002657.4473   3887010.0467   2   6   0.5733   1.0472   0.9282   0.5067  -0.8642  -0.5239   0.00    1.1
2173  12386.000   -669785.8722  -5002657.4693   3887010.0662   2   6   0.4114   0.7494   0.6622   0.3669  -0.6185  -0.3772   1.00    1.1
2173  12387.000   -669785.8735  -5002657.4689   3887010.0614   2   6   0.3376   0.6143   0.5422   0.3019  -0.5070  -0.3098   2.00    1.1
2173  12388.000   -669785.8683  -5002657.4733   3887010.0587   2   6   0.2931   0.5330   0.4701   0.2624  -0.4398  -0.2691   3.00    1.1
2173  12389.000   -669785.8664  -5002657.4572   3887010.0477   2   6   0.2625   0.4773   0.4207   0.2352  -0.3937  -0.2410   4.00    1.1
2173  12390.000   -669785.8648  -5002657.4565   3887010.0418   2   6   0.2399   0.4360   0.3841   0.2150  -0.3596  -0.2202   5.00    1.1
2173  12391.000   -669785.8637  -5002657.4479   3887010.0375   2   6   0.2223   0.4039   0.3557   0.1992  -0.3331  -0.2040   6.00    1.1
2173  12392.000   -669785.8615  -5002657.4367   3887010.0303   2   6   0.2081   0.3780   0.3327   0.1865  -0.3116  -0.1909   7.00    1.1
2173  12393.000   -669785.8573  -5002657.4300   3887010.0237   2   6   0.1963   0.3565   0.3137   0.1759  -0.2938  -0.1801   8.00    1.1
2173  12394.000   -669785.8553  -5002657.4187   3887010.0190   2   6   0.1863   0.3383   0.2977   0.1670  -0.2788  -0.1709   9.00    1.1
2173  12395.000   -669785.8523  -5002657.4142   3887010.0145   2   6   0.1778   0.3227   0.2839   0.1593  -0.2659  -0.1630  10.00    1.1
2173  12396.000   -669785.8527  -5002657.4046   3887010.0097   2   6   0.1703   0.3091   0.2719   0.1525  -0.2547  -0.1561  11.00    1.1
2173  12397.000   -669785.8512  -5002657.3963   3887010.0016   2   6   0.1637   0.2971   0.2613   0.1466  -0.2448  -0.1501  12.00    1.1
2173  12398.000   -669785.8483  -5002657.3882   3887010.0003   2   6   0.1579   0.2865   0.2519   0.1414  -0.2360  -0.1447  13.00    1.1
2173  12399.000   -669786.0032  -5002657.5075   3887010.1697   2   6   0.5731   1.0454   0.9253   0.5053  -0.8614  -0.5227   0.00    1.0
2173  12400.000   -669785.7891  -5002657.2741   3887009.9885   2   6   0.5730   1.0451   0.9250   0.5049  -0.8611  -0.5224   0.00    1.0
2173  12401.000   -669785.9712  -5002657.5543   3887010.2676   2   6   0.5729   1.0449   0.9247   0.5047  -0.8608  -0.5222   0.00    1.0
2173  12402.000   -669786.1071  -5002657.7964   3887010.4510   2   6   0.5727   1.0446   0.9244   0.5044  -0.8605  -0.5220   0.00    1.1
2173  12403.000   -669786.1081  -5002657.7796   3887010.4364   2   6   0.4112   0.7478   0.6596   0.3656  -0.6161  -0.3761   1.00    1.1
2173  12404.000   -669786.1087  -5002657.7793   3887010.4331   2   6   0.3374   0.6131   0.5401   0.3010  -0.5050  -0.3090   2.00    1.1
2173  12405.000   -669786.1121  -5002657.7701   3887010.4264   2   6   0.2930   0.5320   0.4683   0.2617  -0.4382  -0.2684   3.00    1.1
2173  12406.000   -669786.1108  -5002657.7674   3887010.4259   2   6   0.2625   0.4764   0.4191   0.2346  -0.3923  -0.2404   4.00    1.1
2173  12407.000   -669786.1103  -5002657.7634   3887010.4205   2   6   0.2399   0.4352   0.3827   0.2144  -0.3583  -0.2197   5.00    1.1
2173  12408.000   -669786.1081  -5002657.7606   3887010.4165   2   6   0.2223   0.4031   0.3544   0.1987  -0.3319  -0.2035   6.00    1.1
2173  12409.000   -669786.1056  -5002657.7546   3887010.4095   2   6   0.2080   0.3773   0.3315   0.1860  -0.3105  -0.1905   7.00    1.1
2173  12410.000   -669786.1040  -5002657.7564   3887010.4116   2   6   0.1963   0.3558   0.3126   0.1755  -0.2928  -0.1796   8.00    1.1
2173  12411.000   -669786.1041  -5002657.7493   3887010.4050   2   6   0.1863   0.3377   0.2966   0.1665  -0.2778  -0.1705   9.00    1.1
2173  12412.000   -669786.1015  -5002657.7467   3887010.4001   2   6   0.1778   0.3221   0.2828   0.1589  -0.2650  -0.1626  10.00    1.1
2173  12413.000   -669786.1018  -5002657.7452   3887010.3988   2   6   0.1703   0.3086   0.2709   0.1522  -0.2538  -0.1557  11.00    1.1
2173  12414.000   -669785.3339  -5002656.2879   3887009.1542   2   6   0.5726   1.0432   0.9219   0.5033  -0.8582  -0.5210   0.00    1.0
2173  12415.000   -669785.3417  -5002656.3364   3887009.2151   2   6   0.5726   1.0430   0.9216   0.5031  -0.8579  -0.5208   0.00    1.0
2173  12416.000   -669785.4142  -5002656.5243   3887009.3995   2   6   0.5725   1.0428   0.9214   0.5029  -0.8577  -0.5206   0.00    1.0
2173  12417.000   -669785.3528  -5002656.4671   3887009.3454   2   6   0.5724   1.0426   0.9211   0.5027  -0.8574  -0.5205   0.00    1.0
2173  12418.000   -669785.5618  -5002656.7415   3887009.5286   2   6   0.5724   1.0425   0.9209   0.5026  -0.8572  -0.5203   0.00    1.0
2173  12419.000   -669785.5098  -5002656.4913   3887009.3427   2   6   0.5723   1.0423   0.9207   0.5024  -0.8570  -0.5202   0.00    1.0
2173  12420.000   -669785.6711  -5002656.5994   3887009.4324   2   6   0.5723   1.0421   0.9204   0.5023  -0.8567  -0.5201   0.00    1.1
2173  12421.000   -669785.7542  -5002656.7210   3887009.4670   2   6   0.5722   1.0420   0.9202   0.5021  -0.8565  -0.5200   0.00    1.0
2173  12422.000   -669785.5793  -5002656.5047   3887009.3066   2   6   0.5722   1.0418   0.9200   0.5020  -0.8563  -0.5198   0.00    1.1
2173  12423.000   -669785.5814  -5002656.5008   3887009.2957   2   6   0.4110   0.7460   0.6566   0.3642  -0.6133  -0.3748   1.00    1.2
2173  12424.000   -669785.5823  -5002656.4995   3887009.2916   2   6   0.3373   0.6117   0.5377   0.2999  -0.5028  -0.3080   2.00    1.1
2173  12425.000   -669785.5816  -5002656.4992   3887009.2917   2   6   0.2929   0.5308   0.4663   0.2608  -0.4363  -0.2676   3.00    1.1
2173  12426.000   -669785.5805  -5002656.5029   3887009.2912   2   6   0.2624   0.4753   0.4173   0.2338  -0.3906  -0.2397   4.00    1.2
2173  12427.000   -669785.5776  -5002656.5056   3887009.2894   2   6   0.2398   0.4342   0.3810   0.2138  -0.3568  -0.2191   5.00    1.2
2173  12428.000   -669785.5766  -5002656.5032   3887009.2883   2   6   0.2222   0.4023   0.3528   0.1981  -0.3305  -0.2029   6.00    1.2
2173  12429.000   -669785.5727  -5002656.5054   3887009.2864   2   6   0.2080   0.3765   0.3301   0.1855  -0.3092  -0.1899   7.00    1.2
2173  12430.000   -669785.5713  -5002656.5066   3887009.2914   2   6   0.1963   0.3551   0.3113   0.1750  -0.2916  -0.1791   8.00    1.3
2173  12431.000   -669785.5698  -5002656.5197   3887009.3022   2   6   0.1863   0.3370   0.2953   0.1661  -0.2767  -0.1700   9.00    1.3
2173  12432.000   -669785.5719  -5002656.5309   3887009.3107   2   6   0.1777   0.3215   0.2816   0.1584  -0.2639  -0.1622  10.00    1.3
2173  12433.000   -669785.5731  -5002656.5386   3887009.3203   2   6   0.1703   0.3079   0.2697   0.1517  -0.2527  -0.1553  11.00    1.3
2173  12434.000   -669786.6355  -5002658.9159   3887011.0943   2   7   0.5074   0.9400   0.8551   0.3646  -0.7622  -0.4256   0.00    1.4
2173  12435.000   -669786.6002  -5002658.8837   3887011.0459   2   7   0.4981   0.9304   0.8487   0.3463  -0.7530  -0.4138   0.00    1.3
2173  12436.000   -669786.5445  -5002658.6945   3887010.9259   2   7   0.4946   0.9267   0.8463   0.3392  -0.7495  -0.4092   0.00    1.2
2173  12437.000   -669786.5915  -5002658.6423   3887010.9285   2   7   0.4927   0.9247   0.8449   0.3354  -0.7475  -0.4068   0.00    1.3
2173  12438.000   -669786.6638  -5002658.7444   3887010.9850   2   7   0.4916   0.9235   0.8440   0.3330  -0.7463  -0.4053   0.00    1.2
2173  12439.000   -669786.6256  -5002658.5368   3887010.8586   2   7   0.5008   0.9328   0.8498   0.3514  -0.7550  -0.4170   0.00    1.1
2173  12440.000   -669786.4676  -5002658.2869   3887010.6993   2   7   0.5006   0.9326   0.8495   0.3510  -0.7547  -0.4167   0.00    1.1
2173  12441.000   -669786.3750  -5002658.0425   3887010.5674   2   7   0.5005   0.9323   0.8492   0.3506  -0.7543  -0.4164   0.00    1.2
2173  12442.000   -669786.2830  -5002658.1110   3887010.5715   2   7   0.5004   0.9321   0.8489   0.3503  -0.7541  -0.4162   0.00    1.2
2173  12443.000   -669786.2567  -5002658.0705   3887010.5414   2   7   0.5003   0.9319   0.8487   0.3500  -0.7538  -0.4160   0.00    1.2
2173  12444.000   -669786.3240  -5002658.0573   3887010.5588   2   7   0.5075   0.9394   0.8533   0.3642  -0.7607  -0.4251   0.00    1.2
2173  12445.000   -669786.3125  -5002657.9851   3887010.4978   2   7   0.5076   0.9393   0.8531   0.3641  -0.7606  -0.4251   0.00    1.1
2173  12446.000   -669786.4428  -5002658.2030   3887010.6524   2   7   0.5076   0.9392   0.8530   0.3641  -0.7604  -0.4251   0.00    1.1
2173  12447.000   -669786.4454  -5002658.2174   3887010.6659   2   7   0.3609   0.6678   0.6056   0.2591  -0.5403  -0.3023   1.00    1.1
2173  12448.000   -669786.4420  -5002658.2129   3887010.6638   2   7   0.2952   0.5462   0.4950   0.2120  -0.4418  -0.2472   2.00    1.1
2173  12449.000   -669786.4430  -5002658.2199   3887010.6708   2   7   0.2559   0.4734   0.4288   0.1837  -0.3828  -0.2142   3.00    1.1
2173  12450.000   -669786.4436  -5002658.2220   3887010.6792   2   7   0.2290   0.4236   0.3836   0.1644  -0.3425  -0.1917   4.00    1.1
2173  12451.000   -669786.4430  -5002658.2249   3887010.6816   2   7   0.2092   0.3869   0.3502   0.1501  -0.3126  -0.1750   5.00    1.1
2173  12452.000   -669786.4367  -5002658.2268   3887010.6824   2   7   0.1937   0.3583   0.3242   0.1389  -0.2895  -0.1620   6.00    1.2
2173  12453.000   -669786.4362  -5002658.2271   3887010.6823   2   7   0.1813   0.3352   0.3032   0.1299  -0.2708  -0.1515   7.00    1.2
2173  12454.000   -669786.4316  -5002658.2262   3887010.6826   2   7   0.1710   0.3161   0.2859   0.1225  -0.2553  -0.1429   8.00    1.2
2173  12455.000   -669786.4314  -5002658.2252   3887010.6804   2   7   0.1622   0.3000   0.2712   0.1162  -0.2422  -0.1355   9.00    1.2
2173  12456.000   -669786.4288  -5002658.2240   3887010.6820   2   7   0.1548   0.2861   0.2587   0.1108  -0.2310  -0.1292  10.00    1.2
2173  12457.000   -669786.4268  -5002658.2249   3887010.6785   2   7   0.1483   0.2741   0.2477   0.1061  -0.2212  -0.1238  11.00    1.2
2173  12458.000   -669786.4241  -5002658.2231   3887010.6786   2   7   0.1425   0.2634   0.2381   0.1019  -0.2126  -0.1189  12.00    1.2
2173  12459.000   -669786.5943  -5002658.3007   3887010.6832   2   7   0.5078   0.9384   0.8507   0.3635  -0.7585  -0.4244   0.00    1.1
2173  12460.000   -669786.4950  -5002658.2401   3887010.6176   2   7   0.5078   0.9383   0.8505   0.3634  -0.7584  -0.4244   0.00    1.0
2173  12461.000   -669786.4185  -5002658.2548   3887010.6443   2   7   0.5078   0.9382   0.8504   0.3634  -0.7582  -0.4243   0.00    1.0
2173  12462.000   -669786.2026  -5002658.0564   3887010.5220   2   7   0.5078   0.9382   0.8502   0.3633  -0.7581  -0.4243   0.00    1.0
2173  12463.000   -669786.1573  -5002658.0818   3887010.4639   2   7   0.5078   0.9381   0.8500   0.3633  -0.7579  -0.4242   0.00    1.0
2173  12464.000   -669786.1538  -5002658.0817   3887010.4546   2   7   0.3611   0.6670   0.6035   0.2586  -0.5386  -0.3017   1.00    1.0
2173  12465.000   -669786.1458  -5002658.0741   3887010.4437   2   7   0.2954   0.5455   0.4933   0.2116  -0.4403  -0.2468   2.00    1.0
2173  12466.000   -669786.1410  -5002658.0801   3887010.4490   2   7   0.2560   0.4729   0.4274   0.1834  -0.3816  -0.2138   3.00    1.0
2173  12467.000   -669786.1401  -5002658.0745   3887010.4469   2   7   0.2291   0.4231   0.3823   0.1640  -0.3413  -0.1913   4.00    1.0
2173  12468.000   -669786.1402  -5002658.0752   3887010.4475   2   7   0.2093   0.3864   0.3490   0.1498  -0.3116  -0.1747   5.00    1.0
2173  12469.000   -669786.1375  -5002658.0738   3887010.4444   2   7   0.1938   0.3578   0.3231   0.1386  -0.2885  -0.1617   6.00    1.0
2173  12470.000   -669786.1369  -5002658.0768   3887010.4443   2   7   0.1814   0.3348   0.3022   0.1297  -0.2699  -0.1513   7.00    1.0
2173  12471.000   -669786.1360  -5002658.0777   3887010.4413   2   7   0.1711   0.3157   0.2849   0.1223  -0.2545  -0.1426   8.00    1.0
2173  12472.000   -669786.1359  -5002658.0774   3887010.4412   2   7   0.1623   0.2996   0.2703   0.1160  -0.2414  -0.1353   9.00    1.0
2173  12473.000   -669786.1342  -5002658.0806   3887010.4368   2   7   0.1549   0.2858   0.2578   0.1106  -0.2302  -0.1290  10.00    1.0
2173  12474.000   -669786.3647  -5002658.3318   3887010.2785   2   7   0.5080   0.9374   0.8481   0.3628  -0.7563  -0.4237   0.00    1.0
2173  12475.000   -669786.4072  -5002658.3220   3887010.1836   2   7   0.5080   0.9373   0.8480   0.3628  -0.7562  -0.4237   0.00    1.0
2173  12476.000   -669786.4183  -5002658.3413   3887010.1571   2   7   0.5081   0.9372   0.8478   0.3627  -0.7560  -0.4236   0.00    1.0
2173  12477.000   -669786.4210  -5002658.3454   3887010.1592   2   7   0.3612   0.6664   0.6019   0.2582  -0.5372  -0.3013   1.00    1.0
2173  12478.000   -669786.4203  -5002658.3523   3887010.1610   2   7   0.2955   0.5450   0.4920   0.2112  -0.4392  -0.2464   2.00    1.0
2173  12479.000   -669786.4187  -5002658.3530   3887010.1632   2   7   0.2562   0.4724   0.4263   0.1831  -0.3806  -0.2135   3.00    1.1
2173  12480.000   -669786.4182  -5002658.3566   3887010.1682   2   7   0.2292   0.4228   0.3813   0.1638  -0.3405  -0.1911   4.00    1.1
2173  12481.000   -669786.4187  -5002658.3607   3887010.1710   2   7   0.2094   0.3860   0.3481   0.1495  -0.3108  -0.1744   5.00    1.1
2173  12482.000   -669786.4154  -5002658.3609   3887010.1686   2   7   0.1939   0.3575   0.3222   0.1384  -0.2878  -0.1615   6.00    1.1
2173  12483.000   -669786.4155  -5002658.3614   3887010.1717   2   7   0.1815   0.3345   0.3014   0.1295  -0.2692  -0.1511   7.00    1.1
2173  12484.000   -669786.4147  -5002658.3616   3887010.1715   2   7   0.1711   0.3155   0.2842   0.1221  -0.2538  -0.1424   8.00    1.1
2173  12485.000   -669786.4155  -5002658.3605   3887010.1719   2   7   0.1624   0.2994   0.2696   0.1158  -0.2408  -0.1351   9.00    1.2
2173  12486.000   -669786.4151  -5002658.3597   3887010.1705   2   7   0.1549   0.2855   0.2571   0.1104  -0.2297  -0.1288  10.00    1.2
2173  12487.000   -669786.4169  -5002658.3616   3887010.1719   2   7   0.1484   0.2735   0.2462   0.1057  -0.2199  -0.1234  11.00    1.2
2173  12488.000   -669786.4207  -5002658.3660   3887010.1763   2   7   0.1427   0.2629   0.2367   0.1016  -0.2114  -0.1185  12.00    1.2
2173  12489.000   -669786.6259  -5002658.5487   3887010.4319   2   7   0.5083   0.9364   0.8456   0.3621  -0.7541  -0.4230   0.00    1.0
2173  12490.000   -669786.6833  -5002658.6528   3887010.5100   2   7   0.5083   0.9363   0.8454   0.3621  -0.7540  -0.4230   0.00    1.0
2173  12491.000   -669786.6117  -5002658.5269   3887010.3550   2   7   0.5083   0.9363   0.8452   0.3620  -0.7539  -0.4229   0.00    1.0
2173  12492.000   -669786.4985  -5002658.3169   3887010.2058   2   7   0.5083   0.9362   0.8451   0.3620  -0.7537  -0.4229   0.00    1.1
2173  12493.000   -669786.5450  -5002658.4237   3887010.2175   2   7   0.5083   0.9361   0.8449   0.3619  -0.7536  -0.4228   0.00    1.0
2173  12494.000   -669786.6032  -5002658.4586   3887010.1971   2   7   0.5083   0.9361   0.8447   0.3619  -0.7534  -0.4228   0.00    1.1
2173  12495.000   -669786.6022  -5002658.4564   3887010.1931   2   7   0.3614   0.6655   0.5997   0.2576  -0.5354  -0.3007   1.00    1.1
2173  12496.000   -669786.6015  -5002658.4540   3887010.1900   2   7   0.2957   0.5444   0.4902   0.2108  -0.4377  -0.2459   2.00    1.0
2173  12497.000   -669786.6012  -5002658.4547   3887010.1876   2   7   0.2563   0.4718   0.4247   0.1827  -0.3793  -0.2131   3.00    1.0
2173  12498.000   -669786.5986  -5002658.4504   3887010.1858   2   7   0.2294   0.4222   0.3799   0.1635  -0.3393  -0.1907   4.00    1.0
2173  12499.000   -669786.5967  -5002658.4456   3887010.1840   2   7   0.2095   0.3856   0.3468   0.1492  -0.3098  -0.1741   5.00    1.0
2173  12500.000   -669786.5946  -5002658.4374   3887010.1808   2   7   0.1940   0.3571   0.3211   0.1382  -0.2868  -0.1612   6.00    1.0
2173  12501.000   -669786.5951  -5002658.4347   3887010.1810   2   7   0.1816   0.3341   0.3003   0.1292  -0.2683  -0.1508   7.00    1.1
2173  12502.000   -669786.5923  -5002658.4285   3887010.1768   2   7   0.1712   0.3151   0.2832   0.1218  -0.2530  -0.1421   8.00    1.1
2173  12503.000   -669786.5912  -5002658.4229   3887010.1766   2   7   0.1625   0.2990   0.2687   0.1156  -0.2400  -0.1348   9.00    1.1
2173  12504.000   -669786.5891  -5002658.4178   3887010.1714   2   7   0.1550   0.2852   0.2562   0.1102  -0.2289  -0.1286  10.00    1.2
2173  12505.000   -669786.5868  -5002658.4094   3887010.1683   2   7   0.1485   0.2732   0.2454   0.1055  -0.2192  -0.1231  11.00    1.2
2173  12506.000   -669786.5842  -5002658.4050   3887010.1645   2   7   0.1427   0.2626   0.2358   0.1013  -0.2107  -0.1183  12.00    1.2
2173  12507.000   -669786.5824  -5002658.3979   3887010.1630   2   7   0.1376   0.2532   0.2273   0.0977  -0.2031  -0.1140  13.00    1.3
2173  12508.000   -669786.5768  -5002658.3888   3887010.1549   2   7   0.1331   0.2447   0.2198   0.0944  -0.1963  -0.1102  14.00    1.3
2173  12509.000   -669786.3854  -5002658.5060   3887010.4201   2   7   0.5086   0.9351   0.8422   0.3612  -0.7513  -0.4221   0.00    1.3
2173  12510.000   -669786.3883  -5002658.5188   3887010.4238   2   7   0.5086   0.9351   0.8420   0.3612  -0.7511  -0.4220   0.00    1.4
2173  12511.000   -669786.3974  -5002658.4458   3887010.3980   2   7   0.5086   0.9350   0.8419   0.3611  -0.7510  -0.4220   0.00    1.3
2173  12512.000   -669786.3948  -5002658.3475   3887010.3063   2   7   0.5086   0.9350   0.8417   0.3611  -0.7509  -0.4219   0.00    1.3
2173  12513.000   -669786.4893  -5002658.3764   3887010.3589   2   7   0.5087   0.9349   0.8415   0.3611  -0.7507  -0.4219   0.00    1.2
2173  12514.000   -669786.4715  -5002658.4014   3887010.3887   2   7   0.5087   0.9348   0.8414   0.3610  -0.7506  -0.4218   0.00    1.4
2173  12515.000   -669786.4707  -5002658.3977   3887010.3762   2   7   0.3617   0.6647   0.5974   0.2570  -0.5333  -0.3000   1.00    1.3
2173  12516.000   -669786.4691  -5002658.3888   3887010.3687   2   7   0.2959   0.5436   0.4883   0.2103  -0.4361  -0.2454   2.00    1.2
2173  12517.000   -669786.4646  -5002658.3847   3887010.3626   2   7   0.2565   0.4712   0.4230   0.1823  -0.3779  -0.2127   3.00    1.2
2173  12518.000   -669786.4640  -5002658.3856   3887010.3602   2   7   0.2295   0.4217   0.3784   0.1631  -0.3380  -0.1903   4.00    1.2
2173  12519.000   -669786.4639  -5002658.3892   3887010.3610   2   7   0.2096   0.3851   0.3455   0.1489  -0.3086  -0.1737   5.00    1.2
2173  12520.000   -669786.4614  -5002658.3925   3887010.3636   2   7   0.1942   0.3566   0.3198   0.1378  -0.2857  -0.1608   6.00    1.2
2173  12521.000   -669786.4633  -5002658.3964   3887010.3694   2   7   0.1817   0.3337   0.2992   0.1289  -0.2673  -0.1504   7.00    1.2
2173  12522.000   -669786.4661  -5002658.4029   3887010.3771   2   7   0.1714   0.3147   0.2821   0.1215  -0.2520  -0.1418   8.00    1.2
2173  12523.000   -669786.4626  -5002658.4055   3887010.3806   2   7   0.1626   0.2986   0.2676   0.1153  -0.2391  -0.1346   9.00    1.2
2173  12524.000   -669786.4652  -5002658.4128   3887010.3899   2   7   0.1551   0.2848   0.2552   0.1099  -0.2280  -0.1283  10.00    1.2
2173  12525.000   -669786.4664  -5002658.4166   3887010.3956   2   7   0.1486   0.2728   0.2444   0.1052  -0.2184  -0.1229  11.00    1.2
2173  12526.000   -669786.4671  -5002658.4191   3887010.3991   2   7   0.1428   0.2622   0.2349   0.1011  -0.2099  -0.1181  12.00    1.1
2173  12527.000   -669786.4694  -5002658.4292   3887010.4092   2   7   0.1377   0.2528   0.2265   0.0974  -0.2023  -0.1138  13.00    1.1
2173  12528.000   -669786.4737  -5002658.4330   3887010.4150   2   7   0.1332   0.2444   0.2189   0.0942  -0.1956  -0.1100  14.00    1.1
2173  12529.000   -669786.6232  -5002658.1369   3887010.0432   2   7   0.5089   0.9339   0.8389   0.3603  -0.7484  -0.4211   0.00    1.1
2173  12530.000   -669786.6150  -5002658.2426   3887010.0502   2   7   0.5089   0.9339   0.8387   0.3603  -0.7483  -0.4211   0.00    1.1
2173  12531.000   -669786.6193  -5002658.1064   3887009.9442   2   7   0.5090   0.9338   0.8385   0.3603  -0.7482  -0.4210   0.00    1.0
2173  12532.000   -669786.7674  -5002658.0690   3887009.9793   2   7   0.5090   0.9338   0.8384   0.3602  -0.7480  -0.4210   0.00    1.0
2173  12533.000   -669786.7697  -5002658.0372   3887009.9262   2   7   0.5090   0.9337   0.8382   0.3602  -0.7479  -0.4210   0.00    1.2
2173  12534.000   -669786.7546  -5002657.8063   3887009.7817   2   7   0.5090   0.9336   0.8380   0.3601  -0.7477  -0.4209   0.00    1.0
2173  12535.000   -669786.6713  -5002657.7385   3887009.6743   2   7   0.5090   0.9336   0.8379   0.3601  -0.7476  -0.4209   0.00    1.1
2173  12536.000   -669786.6298  -5002657.5559   3887009.5132   2   7   0.5090   0.9335   0.8377   0.3600  -0.7475  -0.4208   0.00    1.1
2173  12537.000   -669786.4799  -5002657.3161   3887009.3489   2   7   0.5091   0.9335   0.8375   0.3600  -0.7473  -0.4208   0.00    1.0
2173  12538.000   -669786.4882  -5002657.3116   3887009.3527   2   7   0.3620   0.6637   0.5947   0.2563  -0.5310  -0.2993   1.00    1.1
2173  12539.000   -669786.4900  -5002657.3059   3887009.3514   2   7   0.2961   0.5428   0.4861   0.2097  -0.4342  -0.2448   2.00    1.1
2173  12540.000   -669786.4912  -5002657.3003   3887009.3506   2   7   0.2567   0.4705   0.4211   0.1818  -0.3762  -0.2122   3.00    1.0
2173  12541.000   -669786.4905  -5002657.2887   3887009.3418   2   7   0.2297   0.4210   0.3767   0.1626  -0.3366  -0.1898   4.00    1.0
2173  12542.000   -669786.4908  -5002657.2817   3887009.3422   2   7   0.2098   0.3845   0.3439   0.1485  -0.3073  -0.1733   5.00    1.0
2173  12543.000   -669786.4875  -5002657.2751   3887009.3366   2   7   0.1943   0.3561   0.3184   0.1375  -0.2845  -0.1604   6.00    1.0
2173  12544.000   -669786.4878  -5002657.2627   3887009.3279   2   7   0.1818   0.3332   0.2978   0.1286  -0.2661  -0.1501   7.00    1.1
2173  12545.000   -669786.4886  -5002657.2597   3887009.3286   2   7   0.1715   0.3142   0.2808   0.1212  -0.2509  -0.1415   8.00    1.1
2173  12546.000   -669786.4888  -5002657.2471   3887009.3186   2   7   0.1628   0.2982   0.2664   0.1150  -0.2381  -0.1342   9.00    1.1
2173  12547.000   -669786.4890  -5002657.2397   3887009.3156   2   7   0.1553   0.2844   0.2541   0.1096  -0.2270  -0.1280  10.00    1.2
2173  12548.000   -669786.4907  -5002657.2322   3887009.3129   2   7   0.1487   0.2724   0.2433   0.1050  -0.2174  -0.1226  11.00    1.2
2173  12549.000   -669786.4987  -5002657.4999   3887009.5879   2   7   0.5093   0.9328   0.8356   0.3595  -0.7457  -0.4202   0.00    1.0
2173  12550.000   -669786.4268  -5002657.3843   3887009.5108   2   7   0.5093   0.9327   0.8354   0.3594  -0.7455  -0.4202   0.00    1.1
2173  12551.000   -669786.4347  -5002657.3507   3887009.5438   2   7   0.5093   0.9326   0.8353   0.3594  -0.7454  -0.4201   0.00    1.0
2173  12552.000   -669786.4481  -5002657.3225   3887009.6171   2   7   0.5093   0.9326   0.8351   0.3593  -0.7452  -0.4201   0.00    1.1
2173  12553.000   -669786.3380  -5002657.1594   3887009.6140   2   7   0.5093   0.9325   0.8349   0.3593  -0.7451  -0.4200   0.00    1.0
2173  12554.000   -669786.2537  -5002656.9806   3887009.5215   2   7   0.5093   0.9325   0.8348   0.3593  -0.7450  -0.4200   0.00    1.0
2173  12555.000   -669786.2562  -5002656.9658   3887009.5133   2   7   0.3622   0.6630   0.5927   0.2558  -0.5294  -0.2987   1.00    1.1
2173  12556.000   -669786.2601  -5002656.9617   3887009.5153   2   7   0.2963   0.5423   0.4845   0.2093  -0.4328  -0.2444   2.00    1.1
2173  12557.000   -669786.2590  -5002656.9580   3887009.5099   2   7   0.2568   0.4700   0.4197   0.1814  -0.3751  -0.2118   3.00    1.1
2173  12558.000   -669786.2572  -5002656.9550   3887009.5063   2   7   0.2299   0.4206   0.3755   0.1623  -0.3355  -0.1895   4.00    1.2
2173  12559.000   -669786.2559  -5002656.9489   3887009.5014   2   7   0.2099   0.3841   0.3428   0.1482  -0.3063  -0.1730   5.00    1.2
2173  12560.000   -669786.2540  -5002656.9455   3887009.4964   2   7   0.1944   0.3557   0.3173   0.1372  -0.2836  -0.1602   6.00    1.2
2173  12561.000   -669786.2526  -5002656.9400   3887009.4931   2   7   0.1819   0.3328   0.2968   0.1283  -0.2653  -0.1498   7.00    1.3
2173  12562.000   -669786.2499  -5002656.9435   3887009.4905   2   7   0.1716   0.3139   0.2799   0.1210  -0.2502  -0.1413   8.00    1.3
2173  12563.000   -669786.2500  -5002656.9391   3887009.4901   2   7   0.1629   0.2979   0.2655   0.1148  -0.2373  -0.1340   9.00    1.4
2173  12564.000   -669786.2489  -5002656.9426   3887009.4933   2   7   0.1553   0.2841   0.2532   0.1094  -0.2263  -0.1278  10.00    1.4
2173  12565.000   -669786.2478  -5002656.9489   3887009.4923   2   7   0.1488   0.2721   0.2425   0.1048  -0.2168  -0.1224  11.00    1.4
2173  12566.000   -669786.2484  -5002656.9575   3887009.4980   2   7   0.1430   0.2616   0.2331   0.1007  -0.2083  -0.1176  12.00    1.5
2173  12567.000   -669786.2484  -5002656.9553   3887009.5007   2   7   0.1379   0.2522   0.2247   0.0970  -0.2008  -0.1133  13.00    1.5
2173  12568.000   -669786.2498  -5002656.9612   3887009.5048   2   7   0.1334   0.2438   0.2172   0.0937  -0.1941  -0.1095  14.00    1.5
2173  12569.000   -669786.5428  -5002657.1954   3887009.8291   2   7   0.5096   0.9316   0.8323   0.3586  -0.7429  -0.4193   0.00    1.0
2173  12570.000   -669786.5937  -5002657.0710   3887009.8025   2   7   0.5096   0.9316   0.8322   0.3586  -0.7428  -0.4193   0.00    1.1
2173  12571.000   -669786.5311  -5002656.9211   3887009.7064   2   7   0.5096   0.9315   0.8320   0.3585  -0.7426  -0.4192   0.00    1.0
2173  12572.000   -669786.4517  -5002656.8992   3887009.6680   2   7   0.5096   0.9314   0.8318   0.3585  -0.7425  -0.4192   0.00    1.2
2173  12573.000   -669786.4124  -5002656.8305   3887009.6361   2   7   0.5097   0.9314   0.8317   0.3584  -0.7423  -0.4191   0.00    1.1
2173  12574.000   -669786.5843  -5002657.1127   3887009.7689   2   7   0.5097   0.9313   0.8315   0.3584  -0.7422  -0.4191   0.00    1.1
2173  12575.000   -669786.6288  -5002657.2170   3887009.7819   2   7   0.5097   0.9313   0.8314   0.3583  -0.7421  -0.4190   0.00    1.3
2173  12576.000   -669786.5795  -5002656.9548   3887009.6151   2   7   0.5097   0.9312   0.8312   0.3583  -0.7419  -0.4190   0.00    1.3
