     2.11           OBSERVATION DATA    M (MIXED)           RINEX VERSION / TYPE
CONVBIN 2.4.3                           20210831 054533 UTC PGM / RUN BY / DATE 
log: logs/21_08_31_02_34_41_ncrd_SW.rtcm                    COMMENT             
format: RTCM 3, station ID: 2776                            COMMENT             
2776                                                        MARKER NAME         
                                                            MARKER NUMBER       
                                                            OBSERVER / AGENCY   
                    SWFT                                    REC # / TYPE / VERS 
                    NULL                                    ANT # / TYPE        
  1037409.8152 -5135263.9011  3625647.9202                  APPROX POSITION XYZ 
        0.0000        0.0000        0.0000                  ANTENNA: DELTA H/E/N
     1     1                                                WAVELENGTH FACT L1/2
     5    C1    L1    P2    L2    C2                        # / TYPES OF OBSERV 
  2021     8    31     2    34   46.0000000     GPS         TIME OF FIRST OBS   
  2021     8    31     3     4   44.0000000     GPS         TIME OF LAST OBS    
                                                            END OF HEADER       
 21  8 31  2 34 46.0000000  0 13G 3G 4G16G22G26G29G31G32E 1E 7E19E21
                                E27
  21855378.519   114850749.367    21855381.843    89494080.031                  
  23289885.992   122389157.168    23289888.208    95368170.886                  
  21161387.034   111203830.453    21161387.141    86652333.383                  
  22273036.321   117045603.919    22273034.802    91204369.594                  
  20031952.047   105268561.697    20031955.478    82027436.720                  
  24236249.337   127362336.855    24236250.427    99243375.668                  
  21436302.595   112648542.735    21436302.327    87778087.605                  
  23273941.427   122305340.054    23273945.001    95302850.398                  
  27431878.985   144155432.333                                                  
  26824661.280   140964507.010                                                  
  24045644.740   126360695.987                                                  
  23835185.978   125254711.207                                                  
  24163168.678   126978285.052                                                  
 21  8 31  2 34 47.0000000  0 13G 3G 4G16G22G26G29G31G32E 1E 7E19E21
                                E27
  21855423.495   114850985.805    21855426.837    89494264.265                  
  23289302.015   122386088.321    23289304.213    95365779.577                  
  21160875.819   111201143.972    21160875.926    86650240.019                  
  22273311.808   117047051.664    22273310.307    91205497.707                  
  20031952.386   105268563.469    20031955.817    82027438.101                  
  24236311.700   127362664.589    24236312.808    99243631.047                  
  21436634.352   112650286.105    21436634.084    87779446.074                  
  23274495.099   122308249.653    23274498.673    95305117.614                  
  27431381.440   144152817.660                                                  
  26825141.617   140967031.138                                                  
  24045342.878   126359109.657                                                  
  23834989.901   125253680.867                                                  
  24163470.522   126979871.262                                                  
 21  8 31  2 34 48.0000000  0 13G 3G 4G16G22G26G29G31G32E 1E 7E19E21
                                E27
  21855468.615   114851222.902    21855471.956    89494449.019                  
  23288718.055   122383019.569    23288720.253    95363388.344                  
  21160364.693   111198458.007    21160364.801    86648147.063                  
  22273587.402   117048499.902    22273585.883    91206626.202                  
  20031952.833   105268565.866    20031956.282    82027439.969                  
  24236374.188   127362992.933    24236375.278    99243886.898                  
  21436966.144   112652029.637    21436965.858    87780804.672                  
  23275048.824   122311159.523    23275052.416    95307385.047                  
  27430883.895   144150203.149                                                  
  26825621.972   140969555.441                                                  
  24045041.052   126357523.585                                                  
  23834793.896   125252650.902                                                  
  24163772.419   126981457.731                                                  
 21  8 31  2 34 49.0000000  0 13G 3G 4G16G22G26G29G31G32E 1E 7E19E21
                                E27
  21855513.859   114851460.651    21855517.201    89494634.278                  
  23288134.095   122379950.890    23288136.311    95360997.168                  
  21159853.675   111195772.555    21159853.782    86646054.499                  
  22273863.085   117049948.616    22273861.566    91207755.070                  
  20031953.405   105268568.868    20031956.836    82027442.308                  
  24236436.783   127363321.870    24236437.873    99244143.215                  
  21437297.936   112653773.298    21437297.668    87782163.367                  
  23275602.621   122314069.671    23275606.195    95309652.695                  
  27430386.421   144147588.808                                                  
  26826102.363   140972079.942                                                  
  24044739.280   126355937.750                                                  
  23834597.980   125251621.286                                                  
  24164074.352   126983044.449                                                  
 21  8 31  2 34 50.0000000  0 13G 3G 4G16G22G26G29G31G32E 1E 7E19E21
                                E27
  21855559.246   114851699.058    21855562.552    89494820.051                  
  23287550.172   122376882.311    23287552.387    95358606.070                  
  21159342.746   111193087.617    21159342.835    86643962.344                  
  22274138.858   117051397.829    22274137.339    91208884.324                  
  20031954.084   105268572.481    20031957.533    82027445.125                  
  24236499.485   127363651.409    24236500.575    99244399.996                  
  21437629.781   112655517.117    21437629.495    87783522.187                  
  23276156.436   122316980.113    23276160.045    95311920.567                  
  27429888.965   144144974.637                                                  
  26826582.807   140974604.612                                                  
  24044437.562   126354352.168                                                  
  23834402.118   125250592.031                                                  
  24164376.338   126984631.419                                                  
 21  8 31  2 34 51.0000000  0 17G 3G 4G16G22G26G29G31G32C23C24C25C33
                                E 1E 7E19E21E27
  21855604.741   114851938.124    21855608.064    89495006.337                  
  23286966.265   122373813.823    23286968.463    95356215.040                  
  21158831.924   111190403.204    21158832.014    86641870.594                  
  22274414.720   117052847.522    22274413.201    91210013.960                  
  20031954.906   105268576.730    20031958.337    82027448.439                  
  24236562.295   127363981.558    24236563.403    99244657.255                  
  21437961.663   112657261.116    21437961.377    87784881.149                  
  23276710.340   122319890.839    23276713.931    95314188.663                  
                 135501419.630                   135501419.630    26021621.062  
                 119704721.672                   119704721.672    22988029.555  
                 117211236.340                   117211236.340    22509184.073  
                 116996149.067                   116996149.067    22467915.296  
  27429391.527   144142360.630                                                  
  26827063.252   140977129.464                                                  
  24044135.879   126352766.844                                                  
  23834206.327   125249563.140                                                  
  24164678.378   126986218.653                                                  
 21  8 31  2 34 52.0000000  0 17G 3G 4G16G22G26G29G31G32C23C24C25C33
                                E 1E 7E19E21E27
  21855650.343   114852177.851    21855653.684    89495193.132                  
  23286382.359   122370745.405    23286384.557    95353824.063                  
  21158321.192   111187719.296    21158321.299    86639779.239                  
  22274690.671   117054297.706    22274689.152    91211143.974                  
  20031955.817   105268581.574    20031959.266    82027452.211                  
  24236625.247   127364312.305    24236626.337    99244914.980                  
  21438293.562   112659005.249    21438293.276    87786240.214                  
  23277264.279   122322801.829    23277267.871    95316456.965                  
                 135499024.992                   135499024.992    26021161.185  
                 119706471.087                   119706471.087    22988365.493  
                 117210377.038                   117210377.038    22509019.052  
                 116997818.587                   116997818.587    22468235.902  
  27428894.125   144139746.808                                                  
  26827543.768   140979654.504                                                  
  24043834.232   126351181.751                                                  
  23834010.607   125248534.601                                                  
  24164980.472   126987806.128                                                  
 21  8 31  2 34 53.0000000  0 17G 3G 4G16G22G26G29G31G32C23C24C25C33
                                E 1E 7E19E21E27
  21855696.105   114852418.235    21855699.429    89495380.445                  
  23285798.471   122367677.079    23285800.687    95351433.161                  
  21157810.567   111185035.910    21157810.656    86637688.284                  
  22274966.747   117055748.380    22274965.229    91212274.367                  
  20031956.854   105268587.044    20031960.302    82027456.474                  
  24236688.307   127364643.657    24236689.397    99245173.176                  
  21438625.479   112660749.547    21438625.193    87787599.407                  
  23277818.273   122325713.093    23277821.882    95318725.484                  
                 135496630.501                   135496630.501    26020701.361  
                 119708220.643                   119708220.643    22988701.502  
                 117209518.007                   117209518.007    22508854.103  
                 116999488.590                   116999488.590    22468556.615  
  27428396.759   144137133.145                                                  
  26828024.302   140982179.717                                                  
  24043532.657   126349596.917                                                  
  23833814.942   125247506.417                                                  
  24165282.619   126989393.865                                                  
 21  8 31  2 34 54.0000000  0 17G 3G 4G16G22G26G29G31G32C23C24C25C33
                                E 1E 7E19E21E27
  21855741.957   114852659.262    21855745.299    89495568.258                  
  23285214.619   122364608.849    23285216.817    95349042.332                  
  21157300.013   111182353.043    21157300.120    86635597.741                  
  22275242.877   117057199.535    22275241.359    91213405.137                  
  20031958.015   105268593.133    20031961.464    82027461.218                  
  24236751.456   127364975.605    24236752.564    99245431.839                  
  21438957.432   112662493.986    21438957.164    87788958.708                  
  23278372.338   122328624.653    23278375.911    95320994.230                  
                 135494236.163                   135494236.163    26020241.538  
                 119709970.349                   119709970.349    22989037.493  
                 117208659.249                   117208659.249    22508689.172  
                 117001159.070                   117001159.070    22468877.418  
  27427899.446   144134519.646                                                  
  26828504.853   140984705.133                                                  
  24043231.135   126348012.348                                                  
  23833619.365   125246478.612                                                  
  24165584.802   126990981.859                                                  
 21  8 31  2 34 55.0000000  0 17G 3G 4G16G22G26G29G31G32C23C24C25C33
                                E 1E 7E19E21E27
  21855787.952   114852900.958    21855791.276    89495756.590                  
  23284630.766   122361540.683    23284632.964    95346651.559                  
  21156789.584   111179670.688    21156789.674    86633507.599                  
  22275519.115   117058651.184    22275517.596    91214536.289                  
  20031959.302   105268599.838    20031962.732    82027466.441                  
  24236814.766   127365308.163    24236815.856    99245690.978                  
  21439289.420   112664238.574    21439289.135    87790318.129                  
  23278926.438   122331536.476    23278930.012    95323263.183                  
                 135491841.974                   135491841.974    26019781.768  
                 119711720.199                   119711720.199    22989373.538  
                 117207800.764                   117207800.764    22508524.312  
                 117002830.033                   117002830.033    22469198.292  
  27427402.116   144131906.317                                                  
  26828985.458   140987230.710                                                  
  24042929.649   126346428.012                                                  
  23833423.842   125245451.153                                                  
  24165887.039   126992570.106                                                  
 21  8 31  2 34 56.0000000  0 17G 3G 4G16G22G26G29G31G32C23C24C25C33
                                E 1E 7E19E21E27
  21855834.072   114853143.317    21855837.396    89495945.446                  
  23284046.914   122358472.609    23284049.112    95344260.852                  
  21156279.263   111176988.842    21156279.352    86631417.851                  
  22275795.459   117060103.316    22275793.940    91215667.821                  
  20031960.677   105268607.151    20031964.126    82027472.141                  
  24236878.166   127365641.323    24236879.238    99245950.583                  
  21439621.445   112665983.312    21439621.159    87791677.661                  
  23279480.592   122334448.585    23279484.184    95325532.359                  
                 135489447.938                   135489447.938    26019322.016  
                 119713470.192                   119713470.192    22989709.618  
                 117206942.550                   117206942.550    22508359.506  
                 117004501.478                   117004501.478    22469519.273  
  27426904.856   144129293.164                                                  
  26829466.099   140989756.490                                                  
  24042628.198   126344843.939                                                  
  23833228.373   125244424.049                                                  
  24166189.311   126994158.593                                                  
 21  8 31  2 34 57.0000000  0 17G 3G 4G16G22G26G29G31G32C23C24C25C33
                                E 1E 7E19E21E27
  21855880.317   114853386.321    21855883.641    89496134.798                  
  23283463.097   122355404.628    23283465.295    95341870.215                  
  21155769.013   111174307.531    21155769.120    86629328.511                  
  22276071.875   117061555.950    22276070.356    91216799.741                  
  20031962.196   105268615.083    20031965.645    82027478.320                  
  24236941.654   127365975.090    24236942.762    99246210.656                  
  21439953.487   112667728.191    21439953.201    87793037.309                  
  23280034.800   122337360.978    23280038.392    95327801.749                  
                 135487054.046                   135487054.046    26018862.299  
                 119715220.333                   119715220.333    22990045.717  
                 117206084.609                   117206084.609    22508194.736  
                 117006173.397                   117006173.397    22469840.362  
  27426407.615   144126680.173                                                  
  26829946.776   140992282.448                                                  
  24042326.801   126343260.096                                                  
  23833032.993   125243397.315                                                  
  24166491.637   126995747.350                                                  
 21  8 31  2 34 58.0000000  0 17G 3G 4G16G22G26G29G31G32C23C24C25C33
                                E 1E 7E19E21E27
  21855926.687   114853629.980    21855930.029    89496324.664                  
  23282879.298   122352336.733    23282881.496    95339479.650                  
  21155258.888   111171626.728    21155258.977    86627239.573                  
  22276348.398   117063009.060    22276346.879    91217932.034                  
  20031963.822   105268623.622    20031967.253    82027484.976                  
  24237005.304   127366309.453    24237006.376    99246471.199                  
  21440285.547   112669473.222    21440285.261    87794397.074                  
  23280589.061   122340273.662    23280592.653    95330071.375                  
                 135484660.313                   135484660.313    26018402.601  
                 119716970.617                   119716970.617    22990381.833  
                 117205226.944                   117205226.944    22508030.037  
                 117007845.805                   117007845.805    22470161.539  
  27425910.427   144124067.355                                                  
  26830427.489   140994808.577                                                  
  24042025.458   126341676.515                                                  
  23832837.703   125242370.933                                                  
  24166794.017   126997336.360                                                  
 21  8 31  2 34 59.0000000  0 17G 3G 4G16G22G26G29G31G32C23C24C25C33
                                E 1E 7E19E21E27
  21855973.182   114853874.311    21855976.506    89496515.047                  
  23282295.517   122349268.926    23282297.715    95337089.153                  
  21154748.835   111168946.435    21154748.924    86625151.036                  
  22276625.029   117064462.665    22276623.492    91219064.714                  
  20031965.556   105268632.789    20031969.004    82027492.121                  
  24237069.043   127366644.423    24237070.133    99246732.214                  
  21440617.643   112671218.397    21440617.357    87795756.948                  
  23281143.376   122343186.606    23281146.986    95332341.202                  
                 135482266.725                   135482266.725    26017942.938  
                 119718721.046                   119718721.046    22990717.985  
                 117204369.547                   117204369.547    22507865.374  
                 117009518.692                   117009518.692    22470482.807  
  27425413.258   144121454.704                                                  
  26830908.237   140997334.899                                                  
  24041724.169   126340093.193                                                  
  23832642.448   125241344.921                                                  
  24167096.432   126998925.613                                                  
 21  8 31  2 35  0.0000000  0 17G 3G 4G16G22G26G29G31G32C23C24C25C33
                                E 1E 7E19E21E27
  21856019.803   114854119.297    21856023.126    89496705.950                  
  23281711.754   122346201.203    23281713.952    95334698.720                  
  21154238.889   111166266.661    21154238.978    86623062.903                  
  22276901.713   117065916.749    22276900.194    91220197.769                  
  20031967.414   105268642.573    20031970.863    82027499.745                  
  24237132.906   127366979.992    24237133.979    99246993.699                  
  21440949.757   112672963.719    21440949.488    87797116.942                  
  23281697.763   122346099.836    23281701.337    95334611.253                  
                 135479873.289                   135479873.289    26017483.293  
                 119720471.626                   119720471.626    22991054.155  
                 117203512.426                   117203512.426    22507700.783  
                 117011192.054                   117011192.054    22470804.145  
  27424916.123   144118842.223                                                  
  26831389.003   140999861.386                                                  
  24041422.915   126338510.105                                                  
  23832447.282   125240319.258                                                  
  24167398.919   127000515.128                                                  
 21  8 31  2 35  1.0000000  0 17G 3G 4G16G22G26G29G31G32C23C24C25C33
                                E 1E 7E19E21E27
  21856066.548   114854364.942    21856069.872    89496897.355                  
  23281127.991   122343133.569    23281130.207    95332308.355                  
  21153729.032   111163587.407    21153729.139    86620975.172                  
  22277178.522   117067371.337    22277177.003    91221331.212                  
  20031969.398   105268652.958    20031972.846    82027507.835                  
  24237196.860   127367316.165    24237197.968    99247255.652                  
  21441281.924   112674709.179    21441281.638    87798477.040                  
  23282252.185   122349013.359    23282255.777    95336881.526                  
                 135477480.004                   135477480.004    26017023.702  
                 119722222.343                   119722222.343    22991390.379  
                 117202655.573                   117202655.573    22507536.245  
                 117012865.901                   117012865.901    22471125.573  
  27424419.007   144116229.907                                                  
  26831869.822   141002388.078                                                  
  24041121.715   126336927.281                                                  
  23832252.153   125239293.950                                                  
  24167701.442   127002104.891                                                  
 21  8 31  2 35  2.0000000  0 17G 3G 4G16G22G26G29G31G32C23C24C25C33
                                E 1E 7E19E21E27
  21856113.400   114854611.239    21856116.742    89497089.277                  
  23280544.264   122340066.017    23280546.462    95329918.055                  
  21153219.300   111160908.661    21153219.407    86618887.840                  
  22277455.420   117068826.422    22277453.901    91222465.044                  
  20031971.506   105268663.965    20031974.937    82027516.414                  
  24237260.938   127367652.934    24237262.046    99247518.070                  
  21441614.109   112676454.794    21441613.823    87799837.258                  
  23282806.661   122351927.137    23282810.235    95339152.005                  
                 135475086.867                   135475086.867    26016564.129  
                 119723973.208                   119723973.208    22991726.602  
                 117201798.999                   117201798.999    22507371.743  
                 117014540.231                   117014540.231    22471447.126  
  27423921.945   144113617.778                                                  
  26832350.660   141004914.929                                                  
  24040820.568   126335344.701                                                  
  23832057.112   125238269.000                                                  
  24168004.018   127003694.911                                                  
 21  8 31  2 35  3.0000000  0 17G 3G 4G16G22G26G29G31G32C23C24C25C33
                                E 1E 7E19E21E27
  21856160.396   114854858.191    21856163.737    89497281.707                  
  23279960.536   122336998.547    23279962.734    95327527.821                  
  21152709.640   111158230.448    21152709.747    86616800.921                  
  22277732.408   117070281.996    22277730.889    91223599.253                  
  20031973.704   105268675.597    20031977.153    82027525.476                  
  24237325.141   127367990.314    24237326.231    99247780.960                  
  21441946.294   112678200.562    21441946.026    87801197.598                  
  23283361.172   122354841.220    23283364.782    95341422.715                  
                 135472693.882                   135472693.882    26016104.573  
                 119725724.219                   119725724.219    22992062.879  
                 117200942.692                   117200942.692    22507207.294  
                 117016215.040                   117016215.040    22471768.769  
  27423424.900   144111005.808                                                  
  26832831.551   141007441.993                                                  
  24040519.457   126333762.387                                                  
  23831862.143   125237244.425                                                  
  24168306.648   127005285.188                                                  
 21  8 31  2 35  4.0000000  0 17G 3G 4G16G22G26G29G31G32C23C24C25C33
                                E 1E 7E19E21E27
  21856207.517   114855105.800    21856210.858    89497474.653                  
  23279376.845   122333931.168    23279379.043    95325137.656                  
  21152200.105   111155552.744    21152200.194    86614714.395                  
  22278009.485   117071738.052    22278007.966    91224733.844                  
  20031976.045   105268687.837    20031979.476    82027535.016                  
  24237389.452   127368328.289    24237390.560    99248044.320                  
  21442278.533   112679946.474    21442278.265    87802558.047                  
  23283915.773   122357755.573    23283919.365    95343693.642                  
                 135470301.050                   135470301.050    26015645.053  
                 119727475.375                   119727475.375    22992399.157  
                 117200086.661                   117200086.661    22507042.899  
                 117017890.324                   117017890.324    22472090.483  
  27422927.873   144108393.999                                                  
  26833312.460   141009969.226                                                  
  24040218.400   126332180.312                                                  
  23831667.246   125236220.200                                                  
  24168609.295   127006875.715                                                  
 21  8 31  2 35  5.0000000  0 17G 3G 4G16G22G26G29G31G32C23C24C25C33
                                E 1E 7E19E21E27
  21856254.762   114855354.066    21856258.104    89497668.103                  
  23278793.153   122330863.871    23278795.333    95322747.554                  
  21151690.641   111152875.547    21151690.748    86612628.272                  
  22278286.633   117073194.589    22278285.132    91225868.808                  
  20031978.475   105268700.675    20031981.924    82027545.019                  
  24237453.906   127368666.868    24237454.996    99248308.144                  
  21442610.807   112681692.535    21442610.521    87803918.614                  
  23284470.392   122360670.179    23284474.001    95345964.761                  
                 135467908.367                   135467908.367    26015185.551  
                 119729226.676                   119729226.676    22992735.487  
                 117199230.898                   117199230.898    22506878.558  
                 117019566.093                   117019566.093    22472412.304  
  27422430.900   144105782.361                                                  
  26833793.423   141012496.645                                                  
  24039917.378   126330598.468                                                  
  23831472.402   125235196.327                                                  
  24168912.014   127008466.491                                                  
 21  8 31  2 35  6.0000000  0 17G 3G 4G16G22G26G29G31G32C23C24C25C33
                                E 1E 7E19E21E27
  21856302.133   114855602.983    21856305.457    89497862.067                  
  23278209.479   122327796.657    23278211.677    95320357.519                  
  21151181.284   111150198.875    21151181.374    86610542.554                  
  22278563.907   117074651.607    22278562.406    91227004.145                  
  20031981.048   105268714.165    20031984.479    82027555.531                  
  24237518.448   127369006.055    24237519.538    99248572.445                  
  21442943.100   112683438.746    21442942.814    87805279.296                  
  23285025.100   122363585.116    23285028.692    95348236.140                  
                 135465515.832                   135465515.832    26014726.103  
                 119730978.120                   119730978.120    22993071.818  
                 117198375.409                   117198375.409    22506714.288  
                 117021242.345                   117021242.345    22472734.196  
  27421933.962   144103170.901                                                  
  26834274.403   141015024.203                                                  
  24039616.428   126329016.918                                                  
  23831277.647   125234172.827                                                  
  24169214.787   127010057.508                                                  
 21  8 31  2 35  7.0000000  0 17G 3G 4G16G22G26G29G31G32C23C24C25C33
                                E 1E 7E19E21E27
  21856349.611   114855852.552    21856352.953    89498056.531                  
  23277625.823   122324729.536    23277628.021    95317967.555                  
  21150672.017   111147522.708    21150672.124    86608457.231                  
  22278841.252   117076109.109    22278839.733    91228139.863                  
  20031983.729   105268728.259    20031987.177    82027566.511                  
  24237583.099   127369345.824    24237584.206    99248837.204                  
  21443275.428   112685185.101    21443275.142    87806640.094                  
  23285579.844   122366500.309    23285583.435    95350507.714                  
                 135463123.454                   135463123.454    26014266.655  
                 119732729.710                   119732729.710    22993408.202  
                 117197520.195                   117197520.195    22506550.036  
                 117022919.071                   117022919.071    22473056.196  
  27421437.043   144100559.603                                                  
  26834755.420   141017551.975                                                  
  24039315.496   126327435.617                                                  
  23831082.947   125233149.684                                                  
  24169517.578   127011648.786                                                  
 21  8 31  2 35  8.0000000  0 17G 3G 4G16G22G26G29G31G32C23C24C25C33
                                E 1E 7E19E21E27
  21856397.232   114856102.828    21856400.574    89498251.552                  
  23277042.203   122321662.530    23277044.401    95315577.684                  
  21150162.875   111144847.078    21150162.964    86606372.325                  
  22279118.722   117077567.137    22279117.203    91229275.984                  
  20031986.516   105268742.949    20031989.965    82027577.960                  
  24237647.856   127369686.208    24237648.964    99249102.439                  
  21443607.756   112686931.606    21443607.488    87808001.009                  
  23286134.641   122369415.757    23286138.215    95352779.492                  
                 135460731.219                   135460731.219    26013807.260  
                 119734481.444                   119734481.444    22993744.605  
                 117196665.255                   117196665.255    22506385.855  
                 117024596.282                   117024596.282    22473378.285  
  27420940.159   144097948.499                                                  
  26835236.471   141020079.988                                                  
  24039014.635   126325854.512                                                  
  23830888.317   125232126.894                                                  
  24169820.458   127013240.366                                                  
 21  8 31  2 35  9.0000000  0 17G 3G 4G16G22G26G29G31G32C23C24C25C33
                                E 1E 7E19E21E27
  21856444.996   114856353.724    21856448.320    89498447.055                  
  23276458.583   122318595.579    23276460.763    95313187.848                  
  21149653.822   111142171.949    21149653.894    86604287.809                  
  22279396.264   117079025.611    22279394.745    91230412.462                  
  20031989.447   105268758.269    20031992.877    82027589.898                  
  24237712.756   127370027.199    24237713.864    99249368.144                  
  21443940.137   112688678.263    21443939.852    87809362.038                  
  23286689.474   122372331.484    23286693.084    95355051.489                  
                 135458339.138                   135458339.138    26013347.883  
                 119736233.324                   119736233.324    22994081.043  
                 117195810.583                   117195810.583    22506221.728  
                 117026273.967                   117026273.967    22473700.482  
  27420443.328   144095337.547                                                  
  26835717.577   141022608.118                                                  
  24038713.828   126324273.696                                                  
  23830693.759   125231104.465                                                  
  24170123.356   127014832.161                                                  
 21  8 31  2 35 10.0000000  0 17G 3G 4G16G22G26G29G31G32C23C24C25C33
                                E 1E 7E19E21E27
  21856492.867   114856605.276    21856496.209    89498643.070                  
  23275874.963   122315528.726    23275877.161    95310798.095                  
  21149144.841   111139497.340    21149144.948    86602203.696                  
  22279673.877   117080484.577    22279672.376    91231549.316                  
  20031992.484   105268774.203    20031995.915    82027602.317                  
  24237777.764   127370368.793    24237778.854    99249634.321                  
  21444272.555   112690425.069    21444272.287    87810723.184                  
  23287244.379   122375247.524    23287247.988    95357323.726                  
                 135455947.208                   135455947.208    26012888.542  
                 119737985.347                   119737985.347    22994417.498  
                 117194956.183                   117194956.183    22506057.637  
                 117027952.136                   117027952.136    22474022.731  
  27419946.498   144092726.762                                                  
  26836198.700   141025136.456                                                  
  24038413.039   126322693.131                                                  
  23830499.255   125230082.399                                                  
  24170426.325   127016424.205                                                  
 21  8 31  2 35 11.0000000  0 17G 3G 4G16G22G26G29G31G32C23C24C25C33
                                E 1E 7E19E21E27
  21856540.863   114856857.489    21856544.205    89498839.597                  
  23275291.378   122312461.957    23275293.576    95308408.402                  
  21148635.985   111136823.239    21148636.074    86600119.983                  
  22279951.615   117081944.040    22279950.096    91232686.558                  
  20031995.611   105268790.757    20031999.060    82027615.215                  
  24237842.878   127370710.985    24237843.986    99249900.966                  
  21444604.972   112692172.029    21444604.704    87812084.449                  
  23287799.337   122378163.811    23287802.929    95359596.155                  
                 135453555.426                   135453555.426    26012429.219  
                 119739737.515                   119739737.515    22994753.972  
                 117194102.057                   117194102.057    22505893.617  
                 117029630.789                   117029630.789    22474345.124  
  27419449.721   144090116.148                                                  
  26836679.860   141027664.962                                                  
  24038112.321   126321112.816                                                  
  23830304.840   125229060.689                                                  
  24170729.312   127018016.507                                                  
 21  8 31  2 35 12.0000000  0 17G 3G 4G16G22G26G29G31G32C23C24C25C33
                                E 1E 7E19E21E27
  21856588.985   114857110.351    21856592.308    89499036.636                  
  23274707.794   122309395.277    23274709.992    95306018.786                  
  21148127.218   111134149.663    21148127.325    86598036.680                  
  22280229.443   117083403.978    22280227.924    91233824.172                  
  20031998.881   105268807.926    20032002.348    82027628.594                  
  24237908.100   127371053.790    24237909.208    99250168.082                  
  21444937.461   112693919.132    21444937.175    87813445.832                  
  23288354.331   122381080.415    23288357.941    95361868.832                  
                 135451163.796                   135451163.796    26011969.931  
                 119741489.831                   119741489.831    22995090.499  
                 117193248.202                   117193248.202    22505729.633  
                 117031309.917                   117031309.917    22474667.589  
  27418952.962   144087505.718                                                  
  26837161.055   141030193.644                                                  
  24037811.639   126319532.754                                                  
  23830110.479   125228039.342                                                  
  24171032.388   127019609.067                                                  
 21  8 31  2 35 13.0000000  0 17G 3G 4G16G22G26G29G31G32C23C24C25C33
                                E 1E 7E19E21E27
  21856637.213   114857363.887    21856640.555    89499234.195                  
  23274124.263   122306328.687    23274126.461    95303629.233                  
  21147618.559   111131476.610    21147618.666    86595953.781                  
  22280507.342   117084864.397    22280505.823    91234962.161                  
  20032002.277   105268825.706    20032005.725    82027642.446                  
  24237973.465   127371397.188    24237974.555    99250435.667                  
  21445269.932   112695666.382    21445269.664    87814807.323                  
  23288909.397   122383997.278    23288913.006    95364141.711                  
                 135448772.319                   135448772.319    26011510.680  
                 119743242.290                   119743242.290    22995427.045  
                 117192394.620                   117192394.620    22505565.720  
                 117032989.527                   117032989.527    22474990.125  
  27418456.239   144084895.441                                                  
  26837642.285   141032722.525                                                  
  24037511.028   126317952.935                                                  
  23829916.189   125227018.351                                                  
  24171335.483   127021201.871                                                  
 21  8 31  2 35 14.0000000  0 17G 3G 4G16G22G26G29G31G32C23C24C25C33
                                E 1E 7E19E21E27
  21856685.602   114857618.078    21856688.926    89499432.266                  
  23273540.715   122303262.183    23273542.912    95301239.749                  
  21147109.988   111128804.070    21147110.078    86593871.282                  
  22280785.348   117086325.309    22280783.847    91236100.532                  
  20032005.779   105268844.105    20032009.228    82027656.781                  
  24238038.919   127371741.196    24238040.027    99250703.726                  
  21445602.457   112697413.784    21445602.189    87816168.938                  
  23289464.516   122386914.424    23289468.125    95366414.813                  
                 135446380.988                   135446380.988    26011051.446  
                 119744994.891                   119744994.891    22995763.608  
                 117191541.314                   117191541.314    22505401.862  
                 117034669.614                   117034669.614    22475312.768  
  27417959.552   144082285.343                                                  
  26838123.534   141035251.585                                                  
  24037210.436   126316373.368                                                  
  23829721.988   125225997.729                                                  
  24171638.613   127022794.942                                                  
 21  8 31  2 35 15.0000000  0 17G 3G 4G16G22G26G29G31G32C23C24C25C33
                                E 1E 7E19E21E27
  21856734.081   114857872.946    21856737.422    89499630.871                  
  23272957.202   122300195.801    23272959.400    95298850.380                  
  21146601.525   111126132.078    21146601.615    86591789.227                  
  22281063.444   117087786.679    22281061.925    91237239.250                  
  20032009.406   105268863.097    20032012.837    82027671.570                  
  24238104.499   127372085.797    24238105.607    99250972.246                  
  21445934.999   112699161.316    21445934.714    87817530.637                  
  23290019.688   122389831.812    23290023.280    95368688.093                  
                 135443989.811                   135443989.811    26010592.248  
                 119746747.638                   119746747.638    22996100.206  
                 117190688.272                   117190688.272    22505238.038  
                 117036350.184                   117036350.184    22475635.500  
  27417462.900   144079675.407                                                  
  26838604.836   141037780.883                                                  
  24036909.897   126314794.063                                                  
  23829527.823   125224977.480                                                  
  24171941.815   127024388.215                                                  
 21  8 31  2 35 16.0000000  0 17G 3G 4G16G22G26G29G31G32C23C24C25C33
                                E 1E 7E19E21E27
  21856782.703   114858128.449    21856786.044    89499829.964                  
  23272373.707   122297129.482    23272375.904    95296461.040                  
  21146093.134   111123460.586    21146093.241    86589707.547                  
  22281341.629   117089248.563    22281340.128    91238378.380                  
  20032013.123   105268882.725    20032016.554    82027686.868                  
  24238170.185   127372431.015    24238171.275    99251241.247                  
  21446267.578   112700909.026    21446267.292    87818892.489                  
  23290574.897   122392749.522    23290578.506    95370961.633                  
                 135441598.786                   135441598.786    26010133.085  
                 119748500.527                   119748500.527    22996436.823  
                 117189835.507                   117189835.507    22505074.287  
                 117038031.234                   117038031.234    22475958.340  
  27416966.284   144077065.640                                                  
  26839086.174   141040310.278                                                  
  24036609.429   126313215.013                                                  
  23829333.748   125223957.572                                                  
  24172245.088   127025981.785                                                  
 21  8 31  2 35 17.0000000  0 17G 3G 4G16G22G26G29G31G32C23C24C25C33
                                E 1E 7E19E21E27
  21856831.467   114858384.603    21856834.773    89500029.571                  
  23271790.194   122294063.238    23271792.392    95294071.766                  
  21145584.885   111120789.610    21145584.974    86587626.269                  
  22281619.903   117090710.930    22281618.402    91239517.887                  
  20032016.983   105268902.976    20032020.414    82027702.649                  
  24238235.979   127372776.822    24238237.087    99251510.711                  
  21446600.192   112702656.875    21446599.906    87820254.454                  
  23291130.177   122395667.509    23291133.786    95373235.391                  
                 135439207.905                   135439207.905    26009673.941  
                 119750253.564                   119750253.564    22996773.475  
                 117188983.016                   117188983.016    22504910.553  
                 117039712.760                   117039712.760    22476281.269  
  27416469.704   144074456.056                                                  
  26839567.547   141042839.887                                                  
  24036308.979   126311636.203                                                  
  23829139.726   125222938.009                                                  
  24172548.361   127027575.602                                                  
 21  8 31  2 35 18.0000000  0 17G 3G 4G16G22G26G29G31G32C23C24C25C33
                                E 1E 7E19E21E27
  21856880.321   114858641.414    21856883.663    89500229.684                  
  23271206.734   122290997.086    23271208.932    95291682.559                  
  21145076.708   111118119.130    21145076.797    86585545.380                  
  22281898.284   117092173.782    22281896.766    91240657.774                  
  20032020.932   105268923.828    20032024.381    82027718.903                  
  24238301.898   127373123.230    24238303.006    99251780.640                  
  21446932.824   112704404.870    21446932.538    87821616.530                  
  23291685.528   122398585.765    23291689.102    95375509.359                  
                 135436817.185                   135436817.185    26009214.814  
                 119752006.747                   119752006.747    22997110.164  
                 117188130.797                   117188130.797    22504746.908  
                 117041394.770                   117041394.770    22476604.251  
  27415973.142   144071846.636                                                  
  26840048.957   141045369.672                                                  
  24036008.583   126310057.652                                                  
  23828945.776   125221918.828                                                  
  24172851.723   127029169.685                                                  
 21  8 31  2 35 19.0000000  0 17G 3G 4G16G22G26G29G31G32C23C24C25C33
                                E 1E 7E19E21E27
  21856929.318   114858898.894    21856932.659    89500430.320                  
  23270623.275   122287931.016    23270625.473    95289293.413                  
  21144568.620   111115449.181    21144568.727    86583464.902                  
  22282176.737   117093637.118    22282175.219    91241798.038                  
  20032025.042   105268945.308    20032028.473    82027735.640                  
  24238367.942   127373470.247    24238369.032    99252051.042                  
  21447265.473   112706153.015    21447265.205    87822978.723                  
  23292240.897   122401504.311    23292244.471    95377783.551                  
                 135434426.604                   135434426.604    26008755.741  
                 119753760.069                   119753760.069    22997446.852  
                 117187278.846                   117187278.846    22504583.299  
                 117043077.259                   117043077.259    22476927.359  
  27415476.616   144069237.386                                                  
  26840530.384   141047899.645                                                  
  24035708.240   126308479.347                                                  
  23828751.897   125220899.997                                                  
  24173155.103   127030764.009                                                  
 21  8 31  2 35 20.0000000  0 17G 3G 4G16G22G26G29G31G32C23C24C25C33
                                E 1E 7E19E21E27
  21856978.440   114859157.035    21856981.781    89500631.464                  
  23270039.833   122284865.040    23270042.031    95286904.343                  
  21144060.639   111112779.739    21144060.747    86581384.816                  
  22282455.298   117095100.945    22282453.779    91242938.684                  
  20032029.241   105268967.399    20032032.672    82027752.851                  
  24238434.093   127373817.867    24238435.201    99252321.918                  
  21447598.177   112707901.312    21447597.909    87824341.031                  
  23292796.320   122404423.116    23292799.912    95380057.945                  
                 135432036.180                   135432036.180    26008296.686  
                 119755513.534                   119755513.534    22997783.593  
                 117186427.169                   117186427.169    22504419.744  
                 117044760.227                   117044760.227    22477250.556  
  27414980.125   144066628.306                                                  
  26841011.865   141050429.799                                                  
  24035407.952   126306901.303                                                  
  23828558.072   125219881.520                                                  
  24173458.537   127032358.597                                                  
 21  8 31  2 35 21.0000000  0 17G 3G 4G16G22G26G29G31G32C23C24C25C33
                                E 1E 7E19E21E27
  21857027.687   114859415.821    21857031.028    89500833.118                  
  23269456.428   122281799.151    23269458.626    95284515.339                  
  21143552.766   111110110.817    21143552.855    86579305.136                  
  22282733.947   117096565.255    22282732.446    91244079.703                  
  20032033.565   105268990.103    20032036.996    82027770.543                  
  24238500.351   127374166.086    24238501.459    99252593.258                  
  21447930.898   112709649.753    21447930.612    87825703.452                  
  23293351.814   122407342.217    23293355.406    95382332.567                  
                 135429645.908                   135429645.908    26007837.648  
                 119757267.150                   119757267.150    22998120.353  
                 117185575.764                   117185575.764    22504256.243  
                 117046443.676                   117046443.676    22477573.860  
  27414483.652   144064019.399                                                  
  26841493.363   141052960.130                                                  
  24035107.716   126305323.509                                                  
  23828364.336   125218863.410                                                  
  24173762.025   127033953.429                                                  
 21  8 31  2 35 22.0000000  0 17G 3G 4G16G22G26G29G31G32C23C24C25C33
                                E 1E 7E19E21E27
  21857077.059   114859675.258    21857080.401    89501035.277                  
  23268873.022   122278733.348    23268875.220    95282126.402                  
  21143044.982   111107442.409    21143045.071    86577225.864                  
  22283012.686   117098030.049    22283011.185    91245221.101                  
  20032037.997   105269013.417    20032041.445    82027788.714                  
  24238566.735   127374514.919    24238567.843    99252865.077                  
  21448263.637   112711398.341    21448263.369    87827065.988                  
  23293907.344   122410261.589    23293910.936    95384607.401                  
                 135427255.780                   135427255.780    26007378.647  
                 119759020.905                   119759020.905    22998457.166  
                 117184724.634                   117184724.634    22504092.777  
                 117048127.601                   117048127.601    22477897.236  
  27413987.232   144061410.657                                                  
  26841974.916   141055490.649                                                  
  24034807.517   126303745.970                                                  
  23828170.671   125217845.653                                                  
  24174065.566   127035548.518                                                  
 21  8 31  2 35 23.0000000  0 17G 3G 4G16G22G26G29G31G32C23C24C25C33
                                E 1E 7E19E21E27
  21857126.556   114859935.359    21857129.880    89501237.953                  
  23268289.634   122275667.633    23268291.832    95279737.535                  
  21142537.305   111104774.529    21142537.395    86575146.992                  
  22283291.514   117099495.325    22283289.995    91246362.875                  
  20032042.553   105269037.365    20032046.002    82027807.370                  
  24238633.243   127374864.356    24238634.333    99253137.364                  
  21448596.412   112713147.079    21448596.144    87828428.641                  
  23294462.946   122413181.247    23294466.538    95386882.458                  
                 135424865.807                   135424865.807    26006919.681  
                 119760774.809                   119760774.809    22998793.980  
                 117183873.770                   117183873.770    22503929.383  
                 117049812.007                   117049812.007    22478220.701  
  27413490.849   144058802.094                                                  
  26842456.486   141058021.355                                                  
  24034507.353   126302168.669                                                  
  23827977.078   125216828.253                                                  
  24174369.143   127037143.867                                                  
 21  8 31  2 35 24.0000000  0 17G 3G 4G16G22G26G29G31G32C23C24C25C33
                                E 1E 7E19E21E27
  21857176.178   114860196.126    21857179.502    89501441.145                  
  23267706.264   122272602.003    23267708.462    95277348.735                  
  21142029.718   111102107.156    21142029.825    86573068.524                  
  22283570.432   117100961.085    22283568.949    91247505.023                  
  20032047.217   105269061.914    20032050.666    82027826.500                  
  24238699.841   127375214.380    24238700.949    99253410.110                  
  21448929.222   112714895.960    21448928.936    87829791.406                  
  23295018.583   122416101.179    23295022.175    95389157.729                  
                 135422475.988                   135422475.988    26006460.733  
                 119762528.853                   119762528.853    22999130.828  
                 117183023.183                   117183023.183    22503766.042  
                 117051496.894                   117051496.894    22478544.273  
  27412994.483   144056193.698                                                  
  26842938.092   141060552.226                                                  
  24034207.260   126300591.641                                                  
  23827783.539   125215811.226                                                  
  24174672.773   127038739.458                                                  
 21  8 31  2 35 25.0000000  0 17G 3G 4G16G22G26G29G31G32C23C24C25C33
                                E 1E 7E19E21E27
  21857225.926   114860457.535    21857229.267    89501644.843                  
  23267122.912   122269536.464    23267125.092    95274960.003                  
  21141522.238   111099440.312    21141522.327    86570990.461                  
  22283849.457   117102427.335    22283847.956    91248647.555                  
  20032052.024   105269087.077    20032055.455    82027846.110                  
  24238766.564   127375565.020    24238767.654    99253683.336                  
  21449262.033   112716644.991    21449261.765    87831154.285                  
  23295574.274   122419021.378    23295577.884    95391433.211                  
                 135420086.318                   135420086.318    26006001.821  
                 119764283.044                   119764283.044    22999467.695  
                 117182172.866                   117182172.866    22503602.737  
                 117053182.259                   117053182.259    22478867.917  
  27412498.153   144053585.472                                                  
  26843419.733   141063083.300                                                  
  24033907.222   126299014.841                                                  
  23827590.053   125214794.542                                                  
  24174976.457   127040335.305                                                  
 21  8 31  2 35 26.0000000  0 17G 3G 4G16G22G26G29G31G32C23C24C25C33
                                E 1E 7E19E21E27
  21857275.798   114860719.614    21857279.122    89501849.058                  
  23266539.578   122266471.019    23266541.776    95272571.344                  
  21141014.847   111096773.987    21141014.936    86568912.806                  
  22284128.589   117103894.069    22284127.052    91249790.465                  
  20032056.920   105269112.850    20032060.369    82027866.195                  
  24238833.394   127375916.253    24238834.502    99253957.028                  
