     2.11           OBSERVATION DATA    M (MIXED)           RINEX VERSION / TYPE
CONVBIN 2.4.3                           20210902 202205 UTC PGM / RUN BY / DATE 
log: logs/21_09_02_07_47_05_gacc_SW.rtcm                    COMMENT             
format: RTCM 3, station ID: 1921                            COMMENT             
1921                                                        MARKER NAME         
                                                            MARKER NUMBER       
                                                            OBSERVER / AGENCY   
                    SWFT                                    REC # / TYPE / VERS 
                    NULL                                    ANT # / TYPE        
   735718.1790 -5325111.8987  3421118.2203                  APPROX POSITION XYZ 
        0.0000        0.0000        0.0000                  ANTENNA: DELTA H/E/N
     1     1                                                WAVELENGTH FACT L1/2
     5    C1    L1    P2    L2    C2                        # / TYPES OF OBSERV 
  2021     9     2     7    47   10.0000000     GPS         TIME OF FIRST OBS   
  2021     9     2     8    17    8.0000000     GPS         TIME OF LAST OBS    
                                                            END OF HEADER       
 21  9  2  7 47 10.0000000  0 12G 1G 7G 8G14G17G21E 2E 3E 8E25E30E36
  21633951.751   113687138.423    21633954.968    88587368.329                  
  20090691.814   105577312.903    20090691.117    82268039.449                  
  22080562.052   116034096.980    22080564.357    90416169.667                  
  22918819.666   120439221.383    22918819.845    93848748.833                  
  22970932.938   120713070.160    22970932.938    94062132.727                  
  21413837.713   112530480.094    21413836.748    87686089.816                  
  24219107.547   127272248.124                                                  
  27123814.402   142536584.386                                                  
  24746676.477   130044653.694                                                  
  24518217.927   128844094.133                                                  
  26907817.673   141401506.272                                                  
  24349253.288   127956138.735                                                  
 21  9  2  7 47 11.0000000  0 12G 1G 7G 8G14G17G21E 2E 3E 8E25E30E36
  21633438.124   113684439.241    21633441.323    88585265.070                  
  20090663.956   105577166.548    20090663.277    82267925.406                  
  22081097.783   116036912.267    22081100.106    90418363.399                  
  22918423.439   120437139.324    22918423.635    93847126.445                  
  22970418.346   120710365.934    22970418.346    94060025.538                  
  21413794.953   112530255.301    21413793.952    87685914.653                  
  24218911.024   127271215.386                                                  
  27124298.206   142539126.734                                                  
  24746914.582   130045904.881                                                  
  24518340.473   128844738.147                                                  
  26907458.166   141399617.066                                                  
  24348904.217   127954304.421                                                  
 21  9  2  7 47 12.0000000  0 16G 1G 7G 8G14G17G21C24C25C26C34E 2E 3
                                E 8E25E30E36
  21632924.586   113681740.502    21632927.767    88583162.157                  
  20090636.223   105577020.785    20090635.544    82267811.824                  
  22081633.568   116039727.741    22081635.856    90420557.273                  
  22918027.264   120435057.321    22918027.443    93845504.105                  
  22969903.826   120707662.039    22969903.826    94057918.605                  
  21413752.299   112530031.124    21413751.299    87685739.972                  
                 115138888.023                   115138888.023    22111207.355  
                 122477396.859                   122477396.859    23520493.024  
                 126698659.366                   126698659.366    24331145.303  
                 116132288.711                   116132288.711    22301984.746  
  24218714.518   127270182.701                                                  
  27124781.974   142541669.090                                                  
  24747152.740   130047156.415                                                  
  24518463.036   128845382.294                                                  
  26907098.659   141397727.800                                                  
  24348555.235   127952470.508                                                  
 21  9  2  7 47 13.0000000  0 17G 1G 7G 8G14G17G21G30C24C25C26C34E 2
                                E 3E 8E25E30E36
  21632411.102   113679042.218    21632414.301    88581059.598                  
  20090608.598   105576875.609    20090607.919    82267698.700                  
  22082169.353   116042543.406    22082171.658    90422751.297                  
  22917631.072   120432975.386    22917631.251    93843881.820                  
  22969389.341   120704958.465    22969389.341    94055811.926                  
  21413709.753   112529807.583    21413708.753    87685565.782                  
  21337926.566   112131526.244    21337928.424    87375206.643                  
                 115139300.362                   115139300.362    22111286.533  
                 122475179.660                   122475179.660    23520067.223  
                 126701008.715                   126701008.715    24331596.478  
                 116130591.122                   116130591.122    22301658.743  
  24218517.995   127269150.051                                                  
  27125265.778   142544211.458                                                  
  24747390.952   130048408.300                                                  
  24518585.636   128846026.543                                                  
  26906739.117   141395838.479                                                  
  24348206.342   127950636.985                                                  
 21  9  2  7 47 14.0000000  0 17G 1G 7G 8G14G17G21G30C24C25C26C34E 2
                                E 3E 8E25E30E36
  21631897.725   113676344.354    21631900.923    88578957.368                  
  20090581.079   105576731.017    20090580.400    82267586.031                  
  22082705.191   116045359.264    22082707.497    90424945.473                  
  22917234.898   120430893.518    22917235.095    93842259.585                  
  22968874.927   120702255.204    22968874.927    94053705.489                  
  21413667.332   112529584.665    21413666.332    87685392.082                  
  21337520.331   112129391.550    21337522.208    87373543.246                  
                 115139713.054                   115139713.054    22111365.800  
                 122472962.601                   122472962.601    23519641.458  
                 126703358.296                   126703358.296    24332047.688  
                 116128893.984                   116128893.984    22301332.813  
  24218321.507   127268117.439                                                  
  27125749.582   142546753.820                                                  
  24747629.253   130049660.532                                                  
  24518708.253   128846670.901                                                  
  26906379.574   141393949.108                                                  
  24347857.503   127948803.844                                                  
 21  9  2  7 47 15.0000000  0 17G 1G 7G 8G14G17G21G30C24C25C26C34E 2
                                E 3E 8E25E30E36
  21631384.419   113673646.939    21631387.618    88576855.484                  
  20090553.686   105576586.965    20090553.007    82267473.753                  
  22083241.083   116048175.378    22083243.389    90427139.879                  
  22916838.760   120428811.680    22916838.939    93840637.359                  
  22968360.585   120699552.275    22968360.585    94051599.312                  
  21413625.018   112529362.333    21413624.036    87685218.827                  
  21337114.204   112127257.270    21337116.063    87371880.173                  
                 115140126.094                   115140126.094    22111445.120  
                 122470745.684                   122470745.684    23519215.729  
                 126705708.110                   126705708.110    24332498.935  
                 116127197.296                   116127197.296    22301006.989  
  24218125.019   127267084.974                                                  
  27126233.385   142549296.200                                                  
  24747867.608   130050913.028                                                  
  24518830.906   128847315.356                                                  
  26906020.031   141392059.731                                                  
  24347508.736   127946971.040                                                  
 21  9  2  7 47 16.0000000  0 18G 1G 7G 8G 9G14G17G21G30C24C25C26C34
                                E 2E 3E 8E25E30E36
  21630871.203   113670949.981    21630874.402    88574753.956                  
  20090526.400   105576443.558    20090525.703    82267362.008                  
  22083776.993   116050991.636    22083779.298    90429334.363                  
  23968727.834   125956475.800    23968730.246    98147893.331                  
  22916442.622   120426729.941    22916442.800    93839015.228                  
  22967846.279   120696849.665    22967846.279    94049493.383                  
  21413582.847   112529140.659    21413581.865    87685046.094                  
  21336708.149   112125123.386    21336710.007    87370217.406                  
                 115140539.477                   115140539.477    22111524.495  
                 122468528.903                   122468528.903    23518790.017  
                 126708058.156                   126708058.156    24332950.235  
                 116125501.065                   116125501.065    22300681.236  
  24217928.531   127266052.456                                                  
  27126717.171   142551838.568                                                  
  24748106.034   130052165.938                                                  
  24518953.559   128847959.928                                                  
  26905660.489   141390170.225                                                  
  24347160.039   127945138.671                                                  
 21  9  2  7 47 17.0000000  0 18G 1G 7G 8G 9G14G17G21G30C24C25C26C34
                                E 2E 3E 8E25E30E36
  21630358.076   113668253.452    21630361.257    88572652.762                  
  20090499.221   105576300.739    20090498.542    82267250.720                  
  22084312.939   116053808.099    22084315.262    90431529.008                  
  23969326.947   125959624.122    23969329.341    98150346.563                  
  22916046.483   120424648.261    22916046.680    93837393.137                  
  22967332.062   120694147.379    22967332.062    94047387.703                  
  21413540.784   112528919.604    21413539.801    87684873.839                  
  21336302.164   112122989.921    21336304.005    87368554.964                  
                 115140953.207                   115140953.207    22111603.958  
                 122466312.265                   122466312.265    23518364.341  
                 126710408.432                   126710408.432    24333401.606  
                 116123805.285                   116123805.285    22300355.574  
  24217732.061   127265019.976                                                  
  27127200.975   142554380.938                                                  
  24748344.514   130053419.194                                                  
  24519076.248   128848604.618                                                  
  26905300.928   141388280.687                                                  
  24346811.433   127943306.689                                                  
 21  9  2  7 47 18.0000000  0 18G 1G 7G 8G 9G14G17G21G30C24C25C26C34
                                E 2E 3E 8E25E30E36
  21629845.021   113665557.372    21629848.219    88570551.923                  
  20090472.168   105576158.512    20090471.453    82267139.891                  
  22084848.938   116056624.750    22084851.261    90433723.801                  
  23969926.041   125962772.460    23969928.436    98152799.817                  
  22915650.363   120422566.648    22915650.559    93835771.101                  
  22966817.881   120691445.415    22966817.881    94045282.274                  
  21413498.845   112528699.172    21413497.845    87684702.073                  
  21335896.252   112120856.862    21335898.092    87366892.840                  
                 115141367.288                   115141367.288    22111683.475  
                 122464095.767                   122464095.767    23517938.683  
                 126712758.941                   126712758.941    24333852.978  
                 116122109.958                   116122109.958    22300030.018  
  24217535.592   127263987.543                                                  
  27127684.779   142556923.333                                                  
  24748583.084   130054672.808                                                  
  24519198.936   128849249.413                                                  
  26904941.332   141386391.087                                                  
  24346462.897   127941475.091                                                  
 21  9  2  7 47 19.0000000  0 18G 1G 7G 8G 9G14G17G21G30C24C25C26C34
                                E 2E 3E 8E25E30E36
  21629332.055   113662861.734    21629335.253    88568451.426                  
  20090445.203   105576016.860    20090444.524    82267029.516                  
  22085384.955   116059441.594    22085387.278    90435918.742                  
  23970525.154   125965920.812    23970527.566    98155253.074                  
  22915254.260   120420485.106    22915254.457    93834149.120                  
  22966303.771   120688743.765    22966303.771    94043177.097                  
  21413456.996   112528479.367    21413456.013    87684530.801                  
  21335490.428   112118724.213    21335492.269    87365231.036                  
                 115141781.715                   115141781.715    22111763.064  
                 122461879.411                   122461879.411    23517513.061  
                 126715109.683                   126715109.683    24334304.421  
                 116120415.082                   116120415.082    22299704.516  
  24217339.139   127262955.148                                                  
  27128168.583   142559465.715                                                  
  24748821.707   130055926.753                                                  
  24519321.661   128849894.320                                                  
  26904581.736   141384501.434                                                  
  24346114.434   127939643.890                                                  
 21  9  2  7 47 20.0000000  0 18G 1G 7G 8G 9G14G17G21G30C24C25C26C34
                                E 2E 3E 8E25E30E36
  21628819.178   113660166.540    21628822.377    88566351.273                  
  20090418.364   105575875.804    20090417.685    82266919.602                  
  22085921.044   116062258.624    22085923.349    90438113.832                  
  23971124.284   125969069.187    23971126.679    98157706.356                  
  22914858.157   120418403.622    22914858.354    93832527.183                  
  22965789.733   120686042.447    22965789.733    94041072.171                  
  21413415.308   112528260.187    21413414.307    87684360.007                  
  21335084.676   112116591.973    21335086.517    87363569.552                  
                 115142196.491                   115142196.491    22111842.724  
                 122459663.192                   122459663.192    23517087.439  
                 126717460.657                   126717460.657    24334755.900  
                 116118720.659                   116118720.659    22299379.139  
  24217142.705   127261922.800                                                  
  27128652.386   142562008.113                                                  
  24749060.383   130057181.042                                                  
  24519444.421   128850539.341                                                  
  26904222.140   141382611.711                                                  
  24345766.041   127937813.067                                                  
 21  9  2  7 47 21.0000000  0 18G 1G 7G 8G 9G14G17G21G30C24C25C26C34
                                E 2E 3E 8E25E30E36
  21628306.373   113657471.789    21628309.572    88564251.469                  
  20090391.614   105575735.335    20090390.935    82266810.146                  
  22086457.132   116065075.864    22086459.437    90440309.082                  
  23971723.397   125972217.578    23971725.791    98160159.649                  
  22914462.073   120416322.200    22914462.287    93830905.298                  
  22965275.767   120683341.445    22965275.767    94038967.495                  
  21413373.708   112528041.629    21413372.726    87684189.702                  
  21334678.996   112114460.140    21334680.836    87361908.383                  
                 115142611.613                   115142611.613    22111922.438  
                 122457447.112                   122457447.112    23516661.888  
                 126719811.860                   126719811.860    24335207.414  
                 116117026.687                   116117026.687    22299053.815  
  24216946.253   127260890.497                                                  
  27129136.172   142564550.513                                                  
  24749299.131   130058435.683                                                  
  24519567.181   128851184.456                                                  
  26903862.544   141380721.938                                                  
  24345417.720   127935982.640                                                  
 21  9  2  7 47 22.0000000  0 18G 1G 7G 8G 9G14G17G21G30C24C25C26C34
                                E 2E 3E 8E25E30E36
  21627793.675   113654777.482    21627796.873    88562152.008                  
  20090365.007   105575595.453    20090364.328    82266701.144                  
  22086993.274   116067893.293    22086995.580    90442504.481                  
  23972322.527   125975365.986    23972324.922    98162612.950                  
  22914066.024   120414240.840    22914066.202    93829283.461                  
  22964761.836   120680640.773    22964761.836    94036863.077                  
  21413332.234   112527823.691    21413331.234    87684019.878                  
  21334273.405   112112328.724    21334275.245    87360247.535                  
                 115143027.082                   115143027.082    22112002.223  
                 122455231.172                   122455231.172    23516236.319  
                 126722163.297                   126722163.297    24335659.000  
                 116115333.172                   116115333.172    22298728.599  
  24216749.819   127259858.234                                                  
  27129619.994   142567092.922                                                  
  24749537.933   130059690.668                                                  
  24519689.959   128851829.700                                                  
  26903502.912   141378832.112                                                  
  24345069.489   127934152.595                                                  
 21  9  2  7 47 23.0000000  0 18G 1G 7G 8G 9G14G17G21G30C24C25C26C34
                                E 2E 3E 8E25E30E36
  21627281.066   113652083.626    21627284.247    88560052.898                  
  20090338.507   105575456.169    20090337.828    82266592.609                  
  22087529.435   116070710.918    22087531.758    90444700.036                  
  23972921.640   125978514.411    23972924.034    98165066.266                  
  22913669.957   120412159.547    22913670.135    93827661.672                  
  22964247.976   120677940.417    22964247.976    94034758.906                  
  21413290.886   112527606.386    21413289.903    87683850.554                  
  21333867.885   112110197.698    21333869.726    87358586.995                  
                 115143442.902                   115143442.902    22112082.080  
                 122453015.375                   122453015.375    23515810.804  
                 126724514.960                   126724514.960    24336110.604  
                 116113640.105                   116113640.105    22298403.454  
  24216553.403   127258826.027                                                  
  27130103.798   142569635.328                                                  
  24749776.842   130060945.993                                                  
  24519812.755   128852475.044                                                  
  26903143.280   141376942.222                                                  
  24344721.293   127932322.943                                                  
 21  9  2  7 47 24.0000000  0 18G 1G 7G 8G 9G14G17G21G30C24C25C26C34
                                E 2E 3E 8E25E30E36
  21626768.511   113649390.204    21626771.692    88557954.130                  
  20090312.097   105575317.470    20090311.418    82266484.532                  
  22088065.666   116073528.754    22088067.971    90446895.750                  
  23973520.788   125981662.842    23973523.183    98167519.593                  
  22913273.926   120410078.319    22913274.104    93826039.938                  
  22963734.188   120675240.390    22963734.188    94032654.984                  
  21413249.644   112527389.692    21413248.661    87683681.704                  
  21333462.437   112108067.083    21333464.278    87356926.778                  
                 115143859.068                   115143859.068    22112162.008  
                 122450799.720                   122450799.720    23515385.325  
                 126726866.865                   126726866.865    24336562.261  
                 116111947.491                   116111947.491    22298078.417  
  24216356.987   127257793.853                                                  
  27130587.602   142572177.746                                                  
  24750015.786   130062201.669                                                  
  24519935.605   128853120.499                                                  
  26902783.648   141375052.285                                                  
  24344373.204   127930493.672                                                  
 21  9  2  7 47 25.0000000  0 18G 1G 7G 8G 9G14G17G21G30C24C25C26C34
                                E 2E 3E 8E25E30E36
  21626256.063   113646697.226    21626259.262    88555855.707                  
  20090285.812   105575179.360    20090285.133    82266376.913                  
  22088601.915   116076346.773    22088604.221    90449091.606                  
  23974119.901   125984811.294    23974122.295    98169972.926                  
  22912877.877   120407997.153    22912878.073    93824418.245                  
  22963220.436   120672540.680    22963220.436    94030551.316                  
  21413208.545   112527173.646    21413207.544    87683513.352                  
  21333057.078   112105936.876    21333058.919    87355266.874                  
                 115144275.583                   115144275.583    22112241.972  
                 122448584.204                   122448584.204    23514959.846  
                 126729218.993                   126729218.993    24337013.955  
                 116110255.331                   116110255.331    22297753.469  
  24216160.588   127256761.731                                                  
  27131071.423   142574720.173                                                  
  24750254.802   130063457.684                                                  
  24520058.436   128853766.063                                                  
  26902423.980   141373162.297                                                  
  24344025.187   127928664.789                                                  
 21  9  2  7 47 26.0000000  0 18G 1G 7G 8G 9G14G17G21G30C24C25C26C34
                                E 2E 3E 8E25E30E36
  21625743.687   113644004.696    21625746.886    88553757.632                  
  20090259.651   105575041.837    20090258.972    82266269.753                  
  22089138.201   116079164.964    22089140.524    90451287.602                  
  23974719.031   125987959.767    23974721.444    98172426.285                  
  22912481.863   120405916.054    22912482.060    93822796.614                  
  22962706.755   120669841.301    22962706.755    94028447.907                  
  21413167.536   112526958.207    21413166.535    87683345.480                  
  21332651.773   112103807.086    21332653.631    87353607.300                  
                 115144692.441                   115144692.441    22112322.043  
                 122446368.825                   122446368.825    23514534.402  
                 126731571.354                   126731571.354    24337465.701  
                 116108563.624                   116108563.624    22297428.574  
  24215964.172   127255729.656                                                  
  27131555.227   142577262.591                                                  
  24750493.872   130064714.056                                                  
  24520181.322   128854411.747                                                  
  26902064.312   141371272.251                                                  
  24343677.242   127926836.305                                                  
 21  9  2  7 47 27.0000000  0 18G 1G 7G 8G 9G14G17G21G30C24C25C26C34
                                E 2E 3E 8E25E30E36
  21625231.400   113641312.612    21625234.599    88551659.907                  
  20090233.598   105574904.898    20090232.919    82266163.052                  
  22089674.521   116081983.367    22089676.844    90453483.762                  
  23975318.180   125991108.257    23975320.574    98174879.657                  
  22912085.868   120403835.028    22912086.047    93821175.036                  
  22962193.146   120667142.254    22962193.146    94026344.753                  
  21413126.651   112526743.394    21413125.686    87683178.093                  
  21332246.575   112101677.706    21332248.416    87351948.043                  
                 115145109.651                   115145109.651    22112402.167  
                 122444153.589                   122444153.589    23514108.994  
                 126733923.948                   126733923.948    24337917.502  
                 116106872.368                   116106872.368    22297103.804  
  24215767.791   127254697.625                                                  
  27132039.049   142579805.032                                                  
  24750733.013   130065970.775                                                  
  24520304.207   128855057.546                                                  
  26901704.645   141369382.150                                                  
  24343329.368   127925008.208                                                  
 21  9  2  7 47 28.0000000  0 18G 1G 7G 8G 9G14G17G21G30C24C25C26C34
                                E 2E 3E 8E25E30E36
  21624719.202   113638620.972    21624722.401    88549562.520                  
  20090207.653   105574768.552    20090206.956    82266056.806                  
  22090210.878   116084801.981    22090213.201    90455680.082                  
  23975917.328   125994256.770    23975919.723    98177333.039                  
  22911689.855   120401754.052    22911690.033    93819553.492                  
  22961679.608   120664443.524    22961679.608    94024241.844                  
  21413085.892   112526529.203    21413084.927    87683011.191                  
  21331841.449   112099548.723    21331843.307    87350289.095                  
                 115145527.210                   115145527.210    22112482.364  
                 122441938.495                   122441938.495    23513683.604  
                 126736276.774                   126736276.774    24338369.338  
                 116105181.566                   116105181.566    22296779.106  
  24215571.393   127253665.624                                                  
  27132522.835   142582347.464                                                  
  24750972.226   130067227.828                                                  
  24520427.128   128855703.456                                                  
  26901344.959   141367491.983                                                  
  24342981.565   127923180.496                                                  
 21  9  2  7 47 29.0000000  0 18G 1G 7G 8G 9G14G17G21G30C24C25C26C34
                                E 2E 3E 8E25E30E36
  21624207.076   113635929.778    21624210.275    88547465.488                  
  20090181.814   105574632.789    20090181.135    82265951.015                  
  22090747.306   116087620.794    22090749.593    90457876.558                  
  23976516.459   125997405.275    23976518.853    98179786.417                  
  22911293.877   120399673.141    22911294.056    93817932.007                  
  22961166.106   120661745.108    22961166.106    94022139.183                  
  21413045.258   112526315.634    21413044.257    87682844.773                  
  21331436.394   112097420.156    21331438.234    87348630.474                  
                 115145945.112                   115145945.112    22112562.596  
                 122439723.538                   122439723.538    23513258.232  
                 126738629.833                   126738629.833    24338821.228  
                 116103491.214                   116103491.214    22296454.480  
  24215375.048   127252633.684                                                  
  27133006.656   142584889.914                                                  
  24751211.492   130068485.230                                                  
  24520550.049   128856349.469                                                  
  26900985.256   141365601.776                                                  
  24342633.816   127921353.171                                                  
 21  9  2  7 47 30.0000000  0 18G 1G 7G 8G 9G14G17G21G30C24C25C26C34
                                E 2E 3E 8E25E30E36
  21623695.039   113633239.023    21623698.238    88545368.797                  
  20090156.100   105574497.626    20090155.421    82265845.692                  
  22091283.734   116090439.804    22091286.039    90460073.192                  
  23977115.607   126000553.824    23977118.001    98182239.836                  
  22910897.899   120397592.297    22910898.096    93816310.570                  
  22960652.675   120659047.021    22960652.675    94020036.777                  
  21413004.749   112526102.684    21413003.748    87682678.836                  
  21331031.428   112095292.000    21331033.268    87346972.168                  
                 115146363.366                   115146363.366    22112642.917  
                 122437508.726                   122437508.726    23512832.914  
                 126740983.122                   126740983.122    24339273.135  
                 116101801.319                   116101801.319    22296129.943  
  24215178.685   127251601.776                                                  
  27133490.460   142587432.368                                                  
  24751450.847   130069742.976                                                  
  24520673.006   128856995.591                                                  
  26900625.552   141363711.513                                                  
  24342286.174   127919526.242                                                  
 21  9  2  7 47 31.0000000  0 18G 1G 7G 8G 9G14G17G21G30C24C25C26C34
                                E 2E 3E 8E25E30E36
  21623183.092   113630548.724    21623186.308    88543272.457                  
  20090130.476   105574363.043    20090129.797    82265740.825                  
  22091820.198   116093259.017    22091822.521    90462269.976                  
  23977714.755   126003702.378    23977717.168    98184693.251                  
  22910501.940   120395511.515    22910502.136    93814689.184                  
  22960139.298   120656349.259    22960139.298    94017934.625                  
  21412964.347   112525890.367    21412963.346    87682513.399                  
  21330626.516   112093164.249    21330628.356    87345314.180                  
                 115146781.969                   115146781.969    22112723.327  
                 122435294.054                   122435294.054    23512407.613  
                 126743336.640                   126743336.640    24339725.096  
                 116100111.875                   116100111.875    22295805.495  
  24214982.323   127250569.921                                                  
  27133974.282   142589974.821                                                  
  24751690.257   130071001.071                                                  
  24520795.980   128857641.824                                                  
  26900265.849   141361821.191                                                  
  24341938.604   127917699.703                                                  
 21  9  2  7 47 32.0000000  0 18G 1G 7G 8G 9G14G17G21G30C24C25C26C34
                                E 2E 3E 8E25E30E36
  21622671.234   113627858.862    21622674.414    88541176.465                  
  20090104.995   105574229.050    20090104.298    82265636.415                  
  22092356.715   116096078.435    22092359.038    90464466.925                  
  23978313.904   126006850.950    23978316.316    98187146.684                  
  22910105.998   120393430.806    22910106.177    93813067.848                  
  22959625.992   120653651.808    22959625.992    94015832.720                  
  21412924.034   112525678.668    21412923.052    87682348.438                  
  21330221.693   112091036.909    21330223.552    87343656.513                  
                 115147200.917                   115147200.917    22112803.756  
                 122433079.521                   122433079.521    23511982.348  
                 126745690.394                   126745690.394    24340177.111  
                 116098422.884                   116098422.884    22295481.154  
  24214785.960   127249538.116                                                  
  27134458.104   142592517.274                                                  
  24751929.719   130072259.509                                                  
  24520918.973   128858288.171                                                  
  26899906.127   141359930.805                                                  
  24341591.087   127915873.552                                                  
 21  9  2  7 47 33.0000000  0 18G 1G 7G 8G 9G14G17G21G30C24C25C26C34
                                E 2E 3E 8E25E30E36
  21622159.465   113625169.449    21622162.645    88539080.816                  
  20090079.603   105574095.653    20090078.924    82265532.469                  
  22092893.286   116098898.047    22092895.591    90466664.028                  
  23978913.052   126009999.531    23978915.464    98189600.126                  
  22909710.056   120391350.156    22909710.253    93811446.566                  
  22959112.758   120650954.684    22959112.758    94013731.062                  
  21412883.883   112525467.601    21412882.900    87682183.969                  
  21329816.960   112088909.977    21329818.800    87341999.161                  
                 115147620.215                   115147620.215    22112884.292  
                 122430865.128                   122430865.128    23511557.083  
                 126748044.375                   126748044.375    24340629.180  
                 116096734.347                   116096734.347    22295156.885  
  24214589.615   127248506.344                                                  
  27134941.907   142595059.730                                                  
  24752169.254   130073518.293                                                  
  24521041.983   128858934.627                                                  
  26899546.388   141358040.374                                                  
  24341243.659   127914047.782                                                  
 21  9  2  7 47 34.0000000  0 18G 1G 7G 8G 9G14G17G21G30C24C25C26C34
                                E 2E 3E 8E25E30E36
  21621647.767   113622480.476    21621650.966    88536985.513                  
  20090054.336   105573962.852    20090053.640    82265428.985                  
  22093429.875   116101717.840    22093432.180    90468861.269                  
  23979512.218   126013148.133    23979514.613    98192053.579                  
  22909314.132   120389269.562    22909314.329    93809825.324                  
  22958599.578   120648257.878    22958599.560    94011629.655                  
  21412843.838   112525257.157    21412842.838    87682019.984                  
  21329412.298   112086783.447    21329414.138    87340342.124                  
                 115148039.859                   115148039.859    22112964.881  
                 122428650.880                   122428650.880    23511131.854  
                 126750398.591                   126750398.591    24341081.284  
                 116095046.260                   116095046.260    22294832.723  
  24214393.306   127247474.624                                                  
  27135425.711   142597602.194                                                  
  24752408.859   130074777.421                                                  
  24521165.011   128859581.204                                                  
  26899186.613   141356149.874                                                  
  24340896.304   127912222.400                                                  
 21  9  2  7 47 35.0000000  0 18G 1G 7G 8G 9G14G17G21G30C24C25C26C34
                                E 2E 3E 8E25E30E36
  21621136.159   113619791.958    21621139.340    88534890.563                  
  20090029.177   105573830.637    20090028.480    82265325.961                  
  22093966.500   116104537.854    22093968.823    90471058.683                  
  23980111.384   126016296.749    23980113.797    98194507.046                  
  22908918.226   120387189.049    22908918.423    93808204.146                  
  22958086.433   120645561.399    22958086.433    94009528.505                  
  21412803.901   112525047.327    21412802.918    87681856.484                  
  21329007.725   112084657.336    21329009.566    87338685.417                  
                 115148459.852                   115148459.852    22113045.542  
                 122426436.769                   122426436.769    23510706.661  
                 126752753.040                   126752753.040    24341533.424  
                 116093358.630                   116093358.630    22294508.615  
  24214196.979   127246442.945                                                  
  27135909.533   142600144.671                                                  
  24752648.537   130076036.898                                                  
  24521288.075   128860227.874                                                  
  26898826.856   141354259.332                                                  
  24340549.019   127910397.413                                                  
 21  9  2  7 47 36.0000000  0 18G 1G 7G 8G 9G14G17G21G30C24C25C26C34
                                E 2E 3E 8E25E30E36
  21620624.623   113617103.868    21620627.821    88532795.950                  
  20090004.124   105573698.995    20090003.445    82265223.383                  
  22094503.160   116107358.047    22094505.483    90473256.235                  
  23980710.568   126019445.374    23980712.963    98196960.520                  
  22908522.320   120385108.590    22908522.517    93806583.008                  
  22957573.378   120642865.307    22957573.378    94007427.672                  
  21412764.107   112524838.124    21412763.106    87681693.469                  
  21328603.206   112082531.628    21328605.047    87337029.021                  
                 115148880.190                   115148880.190    22113126.256  
                 122424222.800                   122424222.800    23510281.503  
                 126755107.715                   126755107.715    24341985.617  
                 116091671.448                   116091671.448    22294184.614  
  24214000.652   127245411.305                                                  
  27136393.354   142602687.148                                                  
  24752888.285   130077296.710                                                  
  24521411.157   128860874.659                                                  
  26898467.099   141352368.722                                                  
  24340201.806   127908572.811                                                  
 21  9  2  7 47 37.0000000  0 18G 1G 7G 8G 9G14G17G21G30C24C25C26C34
                                E 2E 3E 8E25E30E36
  21620113.176   113614416.230    21620116.374    88530701.683                  
  20089979.179   105573567.946    20089978.500    82265121.266                  
  22095039.856   116110178.433    22095042.179    90475453.937                  
  23981309.717   126022594.028    23981312.111    98199414.015                  
  22908126.432   120383028.195    22908126.646    93804961.922                  
  22957060.376   120640169.465    22957060.376    94005327.016                  
  21412724.402   112524629.544    21412723.419    87681530.937                  
  21328198.777   112080406.333    21328200.617    87335372.944                  
                 115149300.884                   115149300.884    22113207.042  
                 122422008.971                   122422008.971    23509856.363  
                 126757462.624                   126757462.624    24342437.864  
                 116089984.720                   116089984.720    22293860.702  
  24213804.361   127244379.714                                                  
  27136877.176   142605229.621                                                  
  24753128.088   130078556.871                                                  
  24521534.257   128861521.558                                                  
  26898107.324   141350478.063                                                  
  24339854.665   127906748.603                                                  
 21  9  2  7 47 38.0000000  0 18G 1G 7G 8G 9G14G17G21G30C24C25C26C34
                                E 2E 3E 8E25E30E36
  21619601.818   113611729.038    21619605.016    88528607.769                  
  20089954.359   105573437.500    20089953.680    82265019.621                  
  22095576.606   116112999.016    22095578.911    90477651.794                  
  23981908.883   126025742.683    23981911.295    98201867.517                  
  22907730.562   120380947.868    22907730.758    93803340.887                  
  22956547.446   120637473.954    22956547.446    94003226.617                  
  21412684.840   112524421.597    21412683.839    87681368.903                  
  21327794.419   112078281.446    21327796.259    87333717.191                  
                 115149721.918                   115149721.918    22113287.899  
                 122419795.288                   122419795.288    23509431.241  
                 126759817.765                   126759817.765    24342890.147  
                 116088298.445                   116088298.445    22293536.862  
  24213608.052   127243348.167                                                  
  27137360.998   142607772.098                                                  
  24753367.943   130079817.378                                                  
  24521657.374   128862168.572                                                  
  26897747.514   141348587.339                                                  
  24339507.595   127904924.778                                                  
 21  9  2  7 47 39.0000000  0 18G 1G 7G 8G 9G14G17G21G30C24C25C26C34
                                E 2E 3E 8E25E30E36
  21619090.567   113609042.298    21619093.766    88526514.208                  
  20089929.664   105573307.636    20089928.967    82264918.426                  
  22096113.374   116115819.790    22096115.697    90479849.802                  
  23982508.067   126028891.352    23982510.462    98204321.020                  
  22907334.691   120378867.605    22907334.906    93801719.903                  
  22956034.551   120634778.765    22956034.551    94001126.469                  
  21412645.385   112524214.257    21412644.384    87681207.339                  
  21327390.132   112076156.973    21327392.008    87332061.755                  
                 115150143.306                   115150143.306    22113368.828  
                 122417581.741                   122417581.741    23509006.155  
                 126762173.138                   126762173.138    24343342.466  
                 116086612.626                   116086612.626    22293213.128  
  24213411.778   127242316.668                                                  
  27137844.819   142610314.595                                                  
  24753607.889   130081078.228                                                  
  24521780.545   128862815.691                                                  
  26897387.721   141346696.574                                                  
  24339160.614   127903101.347                                                  
 21  9  2  7 47 40.0000000  0 18G 1G 7G 8G 9G14G17G21G30C24C25C26C34
                                E 2E 3E 8E25E30E36
  21618579.388   113606355.987    21618582.569    88524420.980                  
  20089905.059   105573178.359    20089904.362    82264817.695                  
  22096650.195   116118640.766    22096652.500    90482047.965                  
  23983107.233   126032040.050    23983109.646    98206774.551                  
  22906938.857   120376787.401    22906939.053    93800098.970                  
  22955521.746   120632083.897    22955521.746    93999026.573                  
  21412606.037   112524007.564    21412605.055    87681046.277                  
  21326985.953   112074032.910    21326987.793    87330406.641                  
                 115150565.038                   115150565.038    22113449.828  
                 122415368.339                   122415368.339    23508581.087  
                 126764528.741                   126764528.741    24343794.838  
                 116084927.259                   116084927.259    22292889.467  
  24213215.505   127241285.212                                                  
  27138328.641   142612857.089                                                  
  24753847.888   130082339.413                                                  
  24521903.699   128863462.922                                                  
  26897027.892   141344805.733                                                  
  24338813.705   127901278.301                                                  
 21  9  2  7 47 41.0000000  0 18G 1G 7G 8G 9G14G17G21G30C24C25C26C34
                                E 2E 3E 8E25E30E36
  21618068.281   113603670.148    21618071.461    88522328.114                  
  20089880.560   105573049.684    20089879.881    82264717.426                  
  22097187.034   116121461.919    22097189.357    90484246.265                  
  23983706.417   126035188.760    23983708.812    98209228.090                  
  22906543.022   120374707.273    22906543.219    93798478.086                  
  22955008.994   120629389.352    22955008.976    93996926.930                  
  21412566.833   112523801.492    21412565.832    87680885.704                  
  21326581.845   112071909.253    21326583.685    87328751.843                  
                 115150987.121                   115150987.121    22113530.882  
                 122413155.077                   122413155.077    23508156.054  
                 126766884.577                   126766884.577    24344247.246  
                 116083242.345                   116083242.345    22292565.895  
  24213019.214   127240253.803                                                  
  27138812.463   142615399.577                                                  
  24754087.940   130083600.961                                                  
  24522026.888   128864110.270                                                  
  26896668.082   141342914.851                                                  
  24338466.867   127899455.653                                                  
 21  9  2  7 47 42.0000000  0 18G 1G 7G 8G 9G14G17G21G30C24C25C26C34
                                E 2E 3E 8E25E30E36
  21617557.262   113600984.743    21617560.461    88520235.593                  
  20089856.187   105572921.578    20089855.508    82264617.605                  
  22097723.944   116124283.265    22097726.232    90486444.719                  
  23984305.601   126038337.488    23984307.996    98211681.644                  
  22906147.205   120372627.198    22906147.384    93796857.251                  
  22954496.296   120626695.126    22954496.296    93994827.531                  
  21412527.735   112523596.031    21412526.735    87680725.604                  
  21326177.808   112069786.003    21326179.649    87327097.363                  
                 115151409.550                   115151409.550    22113612.008  
                 122410941.958                   122410941.958    23507731.040  
                 126769240.646                   126769240.646    24344699.707  
                 116081557.884                   116081557.884    22292242.394  
  24212822.958   127239222.439                                                  
  27139296.284   142617942.074                                                  
  24754328.064   130084862.845                                                  
  24522150.077   128864757.723                                                  
  26896308.235   141341023.913                                                  
  24338120.101   127897633.378                                                  
 21  9  2  7 47 43.0000000  0 18G 1G 7G 8G 9G14G17G21G30C24C25C26C34
                                E 2E 3E 8E25E30E36
  21617046.315   113598299.784    21617049.514    88518143.418                  
  20089831.921   105572794.085    20089831.242    82264518.257                  
  22098260.855   116127104.807    22098263.160    90488643.321                  
  23984904.786   126041486.227    23984907.198    98214135.207                  
  22905751.389   120370547.200    22905751.585    93795236.473                  
  22953983.652   120624001.226    22953983.652    93992728.390                  
  21412488.763   112523391.206    21412487.762    87680566.003                  
  21325773.825   112067663.165    21325775.684    87325443.203                  
                 115151832.329                   115151832.329    22113693.186  
                 122408728.978                   122408728.978    23507306.061  
                 126771596.941                   126771596.941    24345152.204  
                 116079873.874                   116079873.874    22291919.018  
  24212626.703   127238191.121                                                  
  27139780.106   142620484.583                                                  
  24754568.259   130086125.065                                                  
  24522273.320   128865405.292                                                  
  26895948.407   141339132.919                                                  
  24337773.406   127895811.509                                                  
 21  9  2  7 47 44.0000000  0 18G 1G 7G 8G 9G14G17G21G30C24C25C26C34
                                E 2E 3E 8E25E30E36
  21616535.476   113595615.281    21616538.674    88516051.597                  
  20089807.780   105572667.173    20089807.101    82264419.363                  
  22098797.819   116129926.567    22098800.124    90490842.093                  
  23985503.987   126044634.987    23985506.382    98216588.786                  
  22905355.572   120368467.251    22905355.786    93793615.734                  
  22953471.097   120621307.649    22953471.079    93990629.497                  
  21412449.898   112523187.001    21412448.897    87680406.880                  
  21325369.932   112065540.737    21325371.808    87323789.363                  
                 115152255.456                   115152255.456    22113774.437  
                 122406516.137                   122406516.137    23506881.117  
                 126773953.472                   126773953.472    24345604.755  
                 116078190.315                   116078190.315    22291595.696  
  24212430.465   127237159.844                                                  
  27140263.928   142623027.074                                                  
  24754808.526   130087387.635                                                  
  24522396.562   128866052.968                                                  
  26895588.543   141337241.867                                                  
  24337426.783   127893990.020                                                  
 21  9  2  7 47 45.0000000  0 18G 1G 7G 8G 9G14G17G21G30C24C25C26C34
                                E 2E 3E 8E25E30E36
  21616024.725   113592931.220    21616027.924    88513960.121                  
  20089783.746   105572540.848    20089783.067    82264320.930                  
  22099334.819   116132748.512    22099337.124    90493041.011                  
  23986103.154   126047783.759    23986105.584    98219042.372                  
  22904959.809   120366387.375    22904959.987    93791995.051                  
  22952958.578   120618614.386    22952958.578    93988530.855                  
  21412411.158   112522983.415    21412410.157    87680248.241                  
  21324966.146   112063418.723    21324967.986    87322135.843                  
                 115152678.929                   115152678.929    22113855.759  
                 122404303.443                   122404303.443    23506456.192  
                 126776310.229                   126776310.229    24346057.342  
                 116076507.216                   116076507.216    22291272.481  
  24212234.228   127236128.609                                                  
  27140747.732   142625569.583                                                  
  24755048.847   130088650.551                                                  
  24522519.841   128866700.754                                                  
  26895228.678   141335350.759                                                  
  24337080.249   127892168.922                                                  
 21  9  2  7 47 46.0000000  0 18G 1G 7G 8G 9G14G17G21G30C24C25C26C34
                                E 2E 3E 8E25E30E36
  21615514.047   113590247.593    21615517.245    88511868.983                  
  20089759.819   105572415.112    20089759.122    82264222.952                  
  22099871.855   116135570.676    22099874.160    90495240.098                  
  23986702.356   126050932.531    23986704.768    98221495.965                  
  22904564.028   120364307.562    22904564.224    93790374.417                  
  22952446.148   120615921.460    22952446.148    93986432.469                  
  21412372.525   112522780.418    21412371.542    87680090.067                  
  21324562.413   112061297.122    21324564.253    87320482.653                  
                 115153102.755                   115153102.755    22113937.152  
                 122402090.887                   122402090.887    23506031.302  
                 126778667.223                   126778667.223    24346509.982  
                 116074824.567                   116074824.567    22290949.338  
  24212038.008   127235097.417                                                  
  27141231.553   142628112.098                                                  
  24755289.239   130089913.802                                                  
  24522643.119   128867348.645                                                  
  26894868.796   141333459.589                                                  
  24336733.786   127890348.214                                                  
 21  9  2  7 47 47.0000000  0 18G 1G 7G 8G 9G14G17G21G30C24C25C26C34
                                E 2E 3E 8E25E30E36
  21615003.457   113587564.425    21615006.638    88509778.202                  
  20089736.000   105572289.970    20089735.321    82264125.441                  
  22100408.926   116138393.008    22100411.249    90497439.320                  
  23987301.558   126054081.332    23987303.952    98223949.574                  
  22904168.265   120362227.812    22904168.461    93788753.836                  
  22951933.735   120613228.851    22951933.735    93984334.337                  
  21412334.017   112522578.068    21412333.034    87679932.386                  
  21324158.752   112059175.933    21324160.592    87318829.778                  
                 115153526.926                   115153526.926    22114018.617  
                 122399878.471                   122399878.471    23505606.413  
                 126781024.445                   126781024.445    24346962.658  
                 116073142.371                   116073142.371    22290626.302  
  24211841.788   127234066.272                                                  
  27141715.393   142630654.613                                                  
  24755529.684   130091177.411                                                  
  24522766.433   128867996.656                                                  
  26894508.914   141331568.375                                                  
  24336387.377   127888527.894                                                  
 21  9  2  7 47 48.0000000  0 18G 1G 7G 8G 9G14G17G21G30C24C25C26C34
                                E 2E 3E 8E25E30E36
  21614492.957   113584881.708    21614496.138    88507687.774                  
