% program   : rnx2rtkp ver.2.4.3 b31
% inp file  : ngs/21_09_02_07_47_06_gacc.obs
% inp file  : ngs/21_09_02_07_47_06_gacc_P1.obs
% inp file  : ngs/21_09_02_07_47_06_brdc.nav
% obs start : 2021/09/02 07:00:00.0 GPST (week2173 370800.0s)
% obs end   : 2021/09/02 07:59:59.0 GPST (week2173 374399.0s)
% ref pos   :   707044.5370  -5282210.9460   3492594.8140
%
% (x/y/z-ecef=WGS84,Q=1:fix,2:float,3:sbas,4:dgps,5:single,6:ppp,ns=# of satellites)
%  GPST              x-ecef(m)      y-ecef(m)      z-ecef(m)   Q  ns   sdx(m)   sdy(m)   sdz(m)  sdxy(m)  sdyz(m)  sdzx(m) age(s)  ratio
2173 373601.000    728280.0734  -5271276.3963   3504619.8432   2   8   0.3953   1.0398   0.6665  -0.1471  -0.6433   0.1972 -30.00    1.1
2173 373602.000    728280.1455  -5271276.4346   3504619.8928   2   8   0.2813   0.7389   0.4745  -0.1054  -0.4573   0.1411 -29.00    1.3
2173 373603.000    728280.1467  -5271276.4765   3504619.8751   2   8   0.2303   0.6048   0.3886  -0.0864  -0.3745   0.1157 -28.00    1.2
2173 373604.000    728280.1366  -5271276.4762   3504619.8376   2   8   0.1998   0.5248   0.3372  -0.0750  -0.3249   0.1003 -27.00    1.1
2173 373605.000    728280.1596  -5271276.4951   3504619.7512   2   8   0.1789   0.4700   0.3020  -0.0672  -0.2911   0.0898 -26.00    1.2
2173 373606.000    728280.1523  -5271276.5674   3504619.7193   2   8   0.1635   0.4295   0.2760  -0.0614  -0.2660   0.0821 -25.00    1.0
2173 373607.000    728280.1814  -5271276.6088   3504619.6770   2   8   0.1515   0.3979   0.2558  -0.0569  -0.2465   0.0760 -24.00    1.1
2173 373608.000    728280.1684  -5271276.6099   3504619.6319   2   8   0.1418   0.3724   0.2394  -0.0533  -0.2307   0.0712 -23.00    1.0
2173 373609.000    728280.1444  -5271276.6202   3504619.6281   2   8   0.1337   0.3512   0.2259  -0.0503  -0.2176   0.0671 -22.00    1.0
2173 373610.000    728280.1321  -5271276.5984   3504619.6050   2   8   0.1269   0.3333   0.2144  -0.0478  -0.2065   0.0637 -21.00    1.1
2173 373611.000    728280.1265  -5271276.5830   3504619.6119   2   8   0.1210   0.3178   0.2044  -0.0456  -0.1969   0.0608 -20.00    1.1
2173 373612.000    728280.1174  -5271276.5691   3504619.6196   2   8   0.1159   0.3042   0.1958  -0.0438  -0.1885   0.0582 -19.00    1.1
2173 373613.000    728280.1165  -5271276.5309   3504619.6151   2   8   0.1113   0.2922   0.1881  -0.0421  -0.1811   0.0559 -18.00    1.1
2173 373614.000    728280.1028  -5271276.4985   3504619.6118   2   8   0.1073   0.2814   0.1812  -0.0407  -0.1745   0.0539 -17.00    1.1
2173 373615.000    728280.0865  -5271276.4742   3504619.6264   2   8   0.1036   0.2717   0.1751  -0.0394  -0.1685   0.0521 -16.00    1.1
2173 373616.000    728280.0649  -5271276.4521   3504619.6296   2   8   0.1003   0.2629   0.1695  -0.0382  -0.1631   0.0505 -15.00    1.1
2173 373617.000    728280.0552  -5271276.4229   3504619.6142   2   8   0.0973   0.2549   0.1644  -0.0371  -0.1581   0.0490 -14.00    1.2
2173 373618.000    728280.0555  -5271276.4404   3504619.6093   2   8   0.0945   0.2475   0.1597  -0.0361  -0.1535   0.0477 -13.00    1.2
2173 373619.000    728280.0527  -5271276.4097   3504619.5979   2   8   0.0919   0.2407   0.1553  -0.0352  -0.1493   0.0464 -12.00    1.2
2173 373620.000    728280.0549  -5271276.3915   3504619.5893   2   8   0.0896   0.2344   0.1514  -0.0344  -0.1454   0.0453 -11.00    1.2
2173 373621.000    728280.0496  -5271276.4058   3504619.6030   2   8   0.0874   0.2286   0.1476  -0.0336  -0.1418   0.0442 -10.00    1.2
2173 373622.000    728280.0438  -5271276.4150   3504619.6108   2   8   0.0853   0.2231   0.1442  -0.0329  -0.1384   0.0432  -9.00    1.3
2173 373623.000    728280.0385  -5271276.4202   3504619.6131   2   8   0.0834   0.2180   0.1409  -0.0323  -0.1353   0.0423  -8.00    1.3
2173 373624.000    728280.0315  -5271276.4528   3504619.6342   2   8   0.0816   0.2132   0.1379  -0.0316  -0.1323   0.0414  -7.00    1.4
2173 373625.000    728280.0243  -5271276.4805   3504619.6509   2   8   0.0800   0.2087   0.1350  -0.0311  -0.1295   0.0406  -6.00    1.5
2173 373626.000    728280.0220  -5271276.4732   3504619.6530   2   8   0.0784   0.2045   0.1323  -0.0305  -0.1269   0.0398  -5.00    1.5
2173 373627.000    728280.0232  -5271276.4950   3504619.6650   2   8   0.0769   0.2005   0.1298  -0.0300  -0.1244   0.0391  -4.00    1.6
2173 373628.000    728280.0197  -5271276.5051   3504619.6727   2   8   0.0755   0.1967   0.1274  -0.0295  -0.1220   0.0384  -3.00    1.7
2173 373629.000    728280.0151  -5271276.5041   3504619.6776   2   8   0.0742   0.1932   0.1251  -0.0290  -0.1198   0.0377  -2.00    1.7
2173 373630.000    728280.0162  -5271276.5162   3504619.7003   2   8   0.0729   0.1898   0.1230  -0.0285  -0.1177   0.0371  -1.00    1.7
2173 373631.000    728280.0136  -5271276.5289   3504619.7094   2   8   0.0717   0.1866   0.1209  -0.0281  -0.1157   0.0365   0.00    1.8
2173 373632.000    728279.8878  -5271277.1730   3504620.3823   2   8   0.3943   1.0340   0.6684  -0.1521  -0.6427   0.1984   0.00    1.3
2173 373633.000    728279.7676  -5271277.1157   3504620.0652   2   8   0.3943   1.0339   0.6685  -0.1523  -0.6428   0.1984   0.00    1.7
2173 373634.000    728279.8331  -5271277.1562   3504620.0675   2   8   0.3943   1.0338   0.6686  -0.1524  -0.6428   0.1985   0.00    1.3
2173 373635.000    728279.9298  -5271277.4813   3504620.2004   2   8   0.3942   1.0337   0.6687  -0.1526  -0.6428   0.1985   0.00    1.5
2173 373636.000    728279.7689  -5271277.7666   3504620.4391   2   8   0.3942   1.0336   0.6688  -0.1527  -0.6429   0.1985   0.00    1.4
2173 373637.000    728279.7372  -5271277.3113   3504619.9035   2   8   0.3942   1.0335   0.6689  -0.1529  -0.6429   0.1986   0.00    1.6
2173 373638.000    728279.7473  -5271278.0101   3504620.1610   2   8   0.3942   1.0333   0.6690  -0.1530  -0.6429   0.1986   0.00    1.8
2173 373639.000    728279.7629  -5271277.7469   3504620.1536   2   8   0.3942   1.0332   0.6691  -0.1532  -0.6429   0.1986   0.00    1.8
2173 373640.000    728279.7018  -5271278.3596   3504620.3594   2   8   0.3942   1.0331   0.6692  -0.1533  -0.6430   0.1987   0.00    1.6
2173 373641.000    728279.5069  -5271277.9536   3504620.1963   2   8   0.3942   1.0330   0.6693  -0.1535  -0.6430   0.1987   0.00    1.4
2173 373642.000    728279.6009  -5271278.3964   3504620.7306   2   8   0.3941   1.0329   0.6694  -0.1536  -0.6430   0.1987   0.00    1.4
2173 373643.000    728279.7855  -5271278.5750   3504620.9766   2   8   0.3941   1.0328   0.6695  -0.1538  -0.6431   0.1988   0.00    1.4
2173 373644.000    728279.6098  -5271278.1830   3504620.7091   2   8   0.3941   1.0327   0.6696  -0.1539  -0.6431   0.1988   0.00    1.2
2173 373645.000    728279.6069  -5271278.0309   3504620.4676   2   8   0.3941   1.0326   0.6697  -0.1541  -0.6431   0.1989   0.00    1.2
2173 373646.000    728279.6593  -5271278.1837   3504620.5570   2   8   0.3941   1.0324   0.6698  -0.1542  -0.6431   0.1989   0.00    1.3
2173 373647.000    728279.7557  -5271277.6945   3504620.2104   2   8   0.3941   1.0323   0.6699  -0.1544  -0.6432   0.1989   0.00    1.4
2173 373648.000    728279.7642  -5271278.1246   3504620.5865   2   8   0.3941   1.0322   0.6700  -0.1545  -0.6432   0.1990   0.00    1.2
2173 373649.000    728279.8110  -5271277.6158   3504620.3530   2   8   0.3940   1.0321   0.6701  -0.1547  -0.6432   0.1990   0.00    1.3
2173 373650.000    728279.8006  -5271277.0693   3504620.0645   2   8   0.3940   1.0320   0.6701  -0.1548  -0.6433   0.1990   0.00    1.3
2173 373651.000    728279.9325  -5271277.2479   3504620.0086   2   8   0.3940   1.0319   0.6702  -0.1550  -0.6433   0.1991   0.00    1.3
2173 373652.000    728279.8379  -5271277.3716   3504620.2281   2   8   0.3940   1.0318   0.6703  -0.1551  -0.6433   0.1991   0.00    1.3
2173 373653.000    728279.8359  -5271277.4276   3504620.0854   2   8   0.3940   1.0317   0.6704  -0.1552  -0.6433   0.1991   0.00    1.4
2173 373654.000    728279.8670  -5271277.3744   3504619.9325   2   8   0.3940   1.0316   0.6705  -0.1554  -0.6434   0.1992   0.00    1.7
2173 373655.000    728279.9108  -5271277.2491   3504619.6866   2   8   0.3940   1.0314   0.6706  -0.1555  -0.6434   0.1992   0.00    1.6
2173 373656.000    728279.8654  -5271278.0158   3504619.8921   2   8   0.3939   1.0313   0.6707  -0.1557  -0.6434   0.1992   0.00    1.9
2173 373657.000    728279.8132  -5271277.6077   3504619.7851   2   8   0.3939   1.0312   0.6708  -0.1558  -0.6435   0.1993   0.00    2.0
2173 373658.000    728279.6779  -5271277.4169   3504619.8674   2   8   0.3939   1.0311   0.6709  -0.1560  -0.6435   0.1993   0.00    1.5
2173 373659.000    728279.7965  -5271277.4784   3504619.7238   2   8   0.3939   1.0310   0.6710  -0.1561  -0.6435   0.1994   0.00    1.6
2173 373660.000    728279.8545  -5271277.4360   3504619.5139   2   8   0.3939   1.0309   0.6711  -0.1563  -0.6435   0.1994   0.00    1.7
2173 373661.000    728280.0132  -5271277.2360   3504619.7962   2   8   0.3939   1.0308   0.6712  -0.1564  -0.6436   0.1994   0.00    1.7
2173 373662.000    728279.9618  -5271277.2197   3504619.8081   2   8   0.3938   1.0307   0.6713  -0.1566  -0.6436   0.1995   0.00    1.6
2173 373663.000    728280.1231  -5271276.9877   3504619.7504   2   8   0.3938   1.0306   0.6714  -0.1567  -0.6436   0.1995   0.00    1.6
2173 373664.000    728280.2117  -5271277.0743   3504619.8434   2   8   0.3938   1.0305   0.6715  -0.1568  -0.6437   0.1995   0.00    1.8
2173 373665.000    728280.2164  -5271277.0812   3504619.8580   2   8   0.3938   1.0303   0.6716  -0.1570  -0.6437   0.1996   0.00    1.4
2173 373666.000    728280.1567  -5271277.0092   3504619.8945   2   8   0.3938   1.0302   0.6717  -0.1571  -0.6437   0.1996   0.00    1.6
2173 373667.000    728280.0500  -5271277.6539   3504620.5002   2   8   0.3938   1.0301   0.6718  -0.1573  -0.6438   0.1996   0.00    1.3
2173 373668.000    728280.0355  -5271277.7851   3504620.1862   2   8   0.3938   1.0300   0.6719  -0.1574  -0.6438   0.1997   0.00    1.3
2173 373669.000    728280.0957  -5271277.9738   3504620.6533   2   8   0.3937   1.0299   0.6720  -0.1576  -0.6438   0.1997   0.00    1.2
2173 373670.000    728280.2383  -5271277.9513   3504620.7982   2   8   0.3937   1.0298   0.6721  -0.1577  -0.6439   0.1998   0.00    1.5
2173 373671.000    728280.2004  -5271277.6263   3504620.3933   2   8   0.3937   1.0297   0.6722  -0.1578  -0.6439   0.1998   0.00    1.3
2173 373672.000    728280.0791  -5271277.8438   3504620.5784   2   8   0.3937   1.0296   0.6723  -0.1580  -0.6439   0.1998   0.00    1.1
2173 373673.000    728280.0615  -5271277.9337   3504620.4932   2   8   0.3937   1.0295   0.6724  -0.1581  -0.6439   0.1999   0.00    1.0
2173 373674.000    728280.0471  -5271278.0560   3504620.5081   2   8   0.3937   1.0294   0.6725  -0.1583  -0.6440   0.1999   0.00    1.0
2173 373675.000    728280.0603  -5271277.6600   3504619.9911   2   8   0.3937   1.0293   0.6726  -0.1584  -0.6440   0.1999   0.00    1.1
2173 373676.000    728280.0541  -5271277.8815   3504620.1328   2   8   0.3936   1.0292   0.6727  -0.1586  -0.6440   0.2000   0.00    1.2
2173 373677.000    728280.0503  -5271277.6328   3504619.9086   2   8   0.3936   1.0290   0.6728  -0.1587  -0.6441   0.2000   0.00    1.1
2173 373678.000    728279.9237  -5271276.9838   3504619.6305   2   8   0.3936   1.0289   0.6729  -0.1588  -0.6441   0.2000   0.00    1.0
2173 373679.000    728279.9397  -5271277.2010   3504619.6231   2   8   0.3936   1.0288   0.6730  -0.1590  -0.6441   0.2001   0.00    1.0
2173 373680.000    728280.1695  -5271277.2199   3504619.7415   2   8   0.3936   1.0287   0.6731  -0.1591  -0.6442   0.2001   0.00    1.2
2173 373681.000    728280.0570  -5271277.3554   3504619.6864   2   8   0.3936   1.0286   0.6732  -0.1593  -0.6442   0.2002   0.00    1.1
2173 373682.000    728280.0081  -5271277.8621   3504620.2538   2   8   0.3936   1.0285   0.6733  -0.1594  -0.6442   0.2002   0.00    1.0
2173 373683.000    728280.0072  -5271277.3659   3504619.9278   2   8   0.3935   1.0284   0.6734  -0.1596  -0.6443   0.2002   0.00    1.1
2173 373684.000    728279.9373  -5271276.7656   3504619.6270   2   8   0.3935   1.0283   0.6735  -0.1597  -0.6443   0.2003   0.00    1.1
2173 373685.000    728280.0091  -5271276.7994   3504619.6132   2   8   0.3935   1.0282   0.6736  -0.1598  -0.6443   0.2003   0.00    1.1
2173 373686.000    728280.0178  -5271276.6577   3504619.6968   2   8   0.3935   1.0281   0.6737  -0.1600  -0.6444   0.2003   0.00    1.0
2173 373687.000    728279.7678  -5271276.9927   3504619.5896   2   8   0.3935   1.0280   0.6738  -0.1601  -0.6444   0.2004   0.00    1.0
2173 373688.000    728279.7413  -5271276.7262   3504619.4862   2   8   0.3935   1.0279   0.6739  -0.1603  -0.6444   0.2004   0.00    1.1
2173 373689.000    728279.6064  -5271276.9694   3504619.7008   2   8   0.3935   1.0278   0.6740  -0.1604  -0.6444   0.2004   0.00    1.1
2173 373690.000    728279.6729  -5271276.8809   3504619.5740   2   8   0.3934   1.0276   0.6741  -0.1605  -0.6445   0.2005   0.00    1.0
2173 373691.000    728279.6486  -5271276.7160   3504619.9467   2   8   0.3934   1.0275   0.6742  -0.1607  -0.6445   0.2005   0.00    1.0
2173 373692.000    728279.5454  -5271277.0817   3504620.1447   2   8   0.3934   1.0274   0.6743  -0.1608  -0.6445   0.2006   0.00    1.2
2173 373693.000    728279.5336  -5271277.3346   3504620.2522   2   8   0.3934   1.0273   0.6744  -0.1610  -0.6446   0.2006   0.00    1.2
2173 373694.000    728279.6701  -5271277.6958   3504620.2221   2   8   0.3934   1.0272   0.6745  -0.1611  -0.6446   0.2006   0.00    1.1
2173 373695.000    728279.5903  -5271277.7637   3504620.4734   2   8   0.3934   1.0271   0.6746  -0.1612  -0.6446   0.2007   0.00    1.1
2173 373696.000    728279.6038  -5271277.5985   3504620.2071   2   8   0.3934   1.0270   0.6747  -0.1614  -0.6447   0.2007   0.00    1.1
2173 373697.000    728279.5830  -5271277.6322   3504619.9113   2   8   0.3934   1.0269   0.6748  -0.1615  -0.6447   0.2007   0.00    1.0
2173 373698.000    728279.5431  -5271277.6393   3504619.8610   2   8   0.3933   1.0268   0.6749  -0.1617  -0.6447   0.2008   0.00    1.1
2173 373699.000    728279.4232  -5271277.3283   3504619.4463   2   8   0.3933   1.0267   0.6750  -0.1618  -0.6448   0.2008   0.00    1.1
2173 373700.000    728279.5193  -5271277.0835   3504619.6505   2   8   0.3933   1.0266   0.6751  -0.1619  -0.6448   0.2009   0.00    1.2
2173 373701.000    728279.5290  -5271277.1750   3504619.4605   2   8   0.3933   1.0265   0.6752  -0.1621  -0.6448   0.2009   0.00    1.3
2173 373702.000    728279.4867  -5271276.9836   3504619.4279   2   8   0.3933   1.0264   0.6753  -0.1622  -0.6449   0.2009   0.00    1.2
2173 373703.000    728279.3998  -5271277.3591   3504619.7623   2   8   0.3933   1.0263   0.6754  -0.1623  -0.6449   0.2010   0.00    1.1
2173 373704.000    728279.4250  -5271277.5380   3504619.6432   2   8   0.3933   1.0262   0.6755  -0.1625  -0.6449   0.2010   0.00    1.2
2173 373705.000    728279.6385  -5271277.3589   3504619.6954   2   8   0.3932   1.0261   0.6756  -0.1626  -0.6450   0.2010   0.00    1.3
2173 373706.000    728279.9377  -5271277.3370   3504619.9781   2   8   0.3932   1.0260   0.6757  -0.1628  -0.6450   0.2011   0.00    1.5
2173 373707.000    728279.6703  -5271277.7557   3504620.0034   2   8   0.3932   1.0258   0.6758  -0.1629  -0.6450   0.2011   0.00    1.2
2173 373708.000    728279.7746  -5271278.0890   3504620.1255   2   8   0.3932   1.0257   0.6759  -0.1630  -0.6451   0.2011   0.00    1.3
2173 373709.000    728279.7014  -5271278.2839   3504620.3528   2   8   0.3932   1.0256   0.6760  -0.1632  -0.6451   0.2012   0.00    1.5
2173 373710.000    728279.5731  -5271277.9522   3504620.4969   2   8   0.3932   1.0255   0.6761  -0.1633  -0.6451   0.2012   0.00    1.2
2173 373711.000    728279.3982  -5271277.9253   3504620.1327   2   8   0.3932   1.0254   0.6762  -0.1634  -0.6452   0.2013   0.00    1.0
2173 373712.000    728279.5427  -5271277.7273   3504620.1139   2   8   0.3931   1.0253   0.6763  -0.1636  -0.6452   0.2013   0.00    1.2
2173 373713.000    728279.2636  -5271277.4366   3504619.8655   2   8   0.3931   1.0252   0.6764  -0.1637  -0.6452   0.2013   0.00    1.0
2173 373714.000    728279.1876  -5271277.6912   3504619.9385   2   8   0.3931   1.0251   0.6765  -0.1639  -0.6453   0.2014   0.00    1.1
2173 373715.000    728279.1207  -5271277.6303   3504620.0112   2   8   0.3931   1.0250   0.6766  -0.1640  -0.6453   0.2014   0.00    1.1
2173 373716.000    728279.3033  -5271277.8108   3504620.0821   2   8   0.3931   1.0249   0.6767  -0.1641  -0.6453   0.2014   0.00    1.0
2173 373717.000    728279.1975  -5271277.8682   3504620.1748   2   8   0.3931   1.0248   0.6768  -0.1643  -0.6454   0.2015   0.00    1.2
2173 373718.000    728279.4003  -5271277.6823   3504620.2207   2   8   0.3931   1.0247   0.6769  -0.1644  -0.6454   0.2015   0.00    1.1
2173 373719.000    728279.2239  -5271278.1138   3504620.4266   2   8   0.3930   1.0246   0.6770  -0.1645  -0.6454   0.2016   0.00    1.0
2173 373720.000    728279.2550  -5271278.0960   3504620.3058   2   8   0.3930   1.0245   0.6771  -0.1647  -0.6455   0.2016   0.00    1.0
2173 373721.000    728279.3385  -5271277.5505   3504620.2611   2   8   0.3930   1.0244   0.6772  -0.1648  -0.6455   0.2016   0.00    1.0
2173 373722.000    728279.2958  -5271277.2106   3504620.0616   2   8   0.3930   1.0243   0.6773  -0.1649  -0.6456   0.2017   0.00    1.1
2173 373723.000    728279.3757  -5271277.3527   3504619.9916   2   8   0.3930   1.0242   0.6774  -0.1651  -0.6456   0.2017   0.00    1.1
2173 373724.000    728279.6099  -5271277.4205   3504620.0954   2   8   0.3930   1.0241   0.6776  -0.1652  -0.6456   0.2017   0.00    1.2
2173 373725.000    728279.3052  -5271277.6972   3504619.9823   2   8   0.3930   1.0240   0.6777  -0.1653  -0.6457   0.2018   0.00    1.0
2173 373726.000    728279.3606  -5271277.8377   3504620.1442   2   8   0.3930   1.0239   0.6778  -0.1655  -0.6457   0.2018   0.00    1.2
2173 373727.000    728279.4529  -5271278.0823   3504620.0830   2   8   0.3929   1.0238   0.6779  -0.1656  -0.6457   0.2019   0.00    1.2
2173 373728.000    728279.6756  -5271278.0678   3504619.7790   2   8   0.3929   1.0237   0.6780  -0.1657  -0.6458   0.2019   0.00    1.4
2173 373729.000    728279.5314  -5271278.0775   3504619.7563   2   8   0.3929   1.0236   0.6781  -0.1659  -0.6458   0.2019   0.00    1.5
2173 373730.000    728279.5516  -5271277.6954   3504619.7356   2   8   0.3929   1.0235   0.6782  -0.1660  -0.6458   0.2020   0.00    1.3
2173 373731.000    728279.4930  -5271277.8900   3504619.8439   2   8   0.3929   1.0234   0.6783  -0.1662  -0.6459   0.2020   0.00    1.5
2173 373732.000    728279.4348  -5271277.6165   3504619.9195   2   8   0.3929   1.0233   0.6784  -0.1663  -0.6459   0.2020   0.00    1.3
2173 373733.000    728279.4312  -5271277.6359   3504619.7504   2   8   0.3929   1.0232   0.6785  -0.1664  -0.6459   0.2021   0.00    1.3
2173 373734.000    728279.5067  -5271278.4488   3504620.2580   2   8   0.3928   1.0231   0.6786  -0.1666  -0.6460   0.2021   0.00    1.4
2173 373735.000    728279.3034  -5271277.9071   3504620.0253   2   8   0.3928   1.0230   0.6787  -0.1667  -0.6460   0.2022   0.00    1.2
2173 373736.000    728279.5076  -5271277.5494   3504619.6171   2   8   0.3928   1.0229   0.6788  -0.1668  -0.6460   0.2022   0.00    1.3
2173 373737.000    728279.4950  -5271277.3173   3504619.0891   2   8   0.3928   1.0228   0.6789  -0.1670  -0.6461   0.2022   0.00    1.3
2173 373738.000    728279.4933  -5271277.2172   3504619.2210   2   8   0.3928   1.0226   0.6790  -0.1671  -0.6461   0.2023   0.00    1.7
2173 373739.000    728279.4676  -5271277.4073   3504619.4883   2   8   0.3928   1.0225   0.6791  -0.1672  -0.6462   0.2023   0.00    1.3
2173 373740.000    728279.3711  -5271277.9955   3504619.9041   2   8   0.3928   1.0224   0.6792  -0.1674  -0.6462   0.2023   0.00    1.2
2173 373741.000    728279.5103  -5271277.6724   3504619.6882   2   8   0.3928   1.0223   0.6793  -0.1675  -0.6462   0.2024   0.00    1.4
2173 373742.000    728279.4410  -5271277.7588   3504619.9525   2   8   0.3927   1.0222   0.6794  -0.1676  -0.6463   0.2024   0.00    1.5
2173 373743.000    728279.3593  -5271277.4166   3504619.7667   2   8   0.3927   1.0221   0.6795  -0.1677  -0.6463   0.2025   0.00    1.3
2173 373744.000    728279.4763  -5271277.8561   3504619.9623   2   8   0.3927   1.0220   0.6796  -0.1679  -0.6463   0.2025   0.00    1.3
2173 373745.000    728279.4954  -5271278.1120   3504620.1403   2   8   0.3927   1.0219   0.6797  -0.1680  -0.6464   0.2025   0.00    1.4
2173 373746.000    728279.3649  -5271278.0501   3504620.1145   2   8   0.3927   1.0218   0.6798  -0.1681  -0.6464   0.2026   0.00    1.4
2173 373747.000    728279.3323  -5271278.4757   3504620.1714   2   8   0.3927   1.0217   0.6799  -0.1683  -0.6464   0.2026   0.00    1.3
2173 373748.000    728279.2369  -5271278.1577   3504620.2419   2   8   0.3927   1.0216   0.6800  -0.1684  -0.6465   0.2027   0.00    1.2
2173 373749.000    728279.5305  -5271278.2691   3504620.3888   2   8   0.3926   1.0215   0.6801  -0.1685  -0.6465   0.2027   0.00    1.3
2173 373750.000    728279.4221  -5271277.8568   3504619.8524   2   8   0.3926   1.0214   0.6803  -0.1687  -0.6466   0.2027   0.00    1.5
2173 373751.000    728279.4691  -5271277.8957   3504619.8451   2   8   0.3926   1.0213   0.6804  -0.1688  -0.6466   0.2028   0.00    1.6
2173 373752.000    728279.3363  -5271277.7288   3504619.5492   2   8   0.3926   1.0212   0.6805  -0.1689  -0.6466   0.2028   0.00    1.6
2173 373753.000    728279.1879  -5271277.9959   3504619.8067   2   8   0.3926   1.0211   0.6806  -0.1691  -0.6467   0.2028   0.00    1.1
2173 373754.000    728279.1891  -5271277.6782   3504619.5538   2   8   0.3926   1.0210   0.6807  -0.1692  -0.6467   0.2029   0.00    1.2
2173 373755.000    728279.5407  -5271277.9329   3504619.2781   2   8   0.3926   1.0209   0.6808  -0.1693  -0.6467   0.2029   0.00    1.5
2173 373756.000    728279.3145  -5271277.7653   3504619.3224   2   8   0.3926   1.0208   0.6809  -0.1695  -0.6468   0.2030   0.00    1.9
2173 373757.000    728279.3857  -5271277.3667   3504618.9815   2   8   0.3925   1.0207   0.6810  -0.1696  -0.6468   0.2030   0.00    1.5
2173 373758.000    728279.2267  -5271277.6157   3504619.1341   2   8   0.3925   1.0206   0.6811  -0.1697  -0.6469   0.2030   0.00    1.4
2173 373759.000    728279.2852  -5271277.6374   3504619.5216   2   8   0.3925   1.0205   0.6812  -0.1698  -0.6469   0.2031   0.00    1.4
2173 373760.000    728279.2321  -5271277.8220   3504619.7719   2   8   0.3925   1.0204   0.6813  -0.1700  -0.6469   0.2031   0.00    1.8
2173 373761.000    728279.4278  -5271277.5617   3504619.8161   2   8   0.3925   1.0203   0.6814  -0.1701  -0.6470   0.2031   0.00    1.5
2173 373762.000    728279.5025  -5271278.1324   3504620.2195   2   8   0.3925   1.0202   0.6815  -0.1702  -0.6470   0.2032   0.00    1.7
2173 373763.000    728279.6044  -5271278.2100   3504620.2842   2   8   0.3925   1.0201   0.6816  -0.1704  -0.6470   0.2032   0.00    1.6
2173 373764.000    728279.5350  -5271278.1507   3504620.1819   2   8   0.3925   1.0200   0.6817  -0.1705  -0.6471   0.2033   0.00    1.6
2173 373765.000    728279.3642  -5271277.8268   3504619.9654   2   8   0.3924   1.0199   0.6818  -0.1706  -0.6471   0.2033   0.00    1.3
2173 373766.000    728279.5576  -5271278.4035   3504620.6262   2   8   0.3924   1.0198   0.6819  -0.1708  -0.6472   0.2033   0.00    1.6
2173 373767.000    728279.7398  -5271278.1052   3504620.4786   2   8   0.3924   1.0198   0.6820  -0.1709  -0.6472   0.2034   0.00    1.8
2173 373768.000    728279.6685  -5271277.8253   3504620.3968   2   8   0.3924   1.0197   0.6822  -0.1710  -0.6472   0.2034   0.00    1.7
2173 373769.000    728279.5278  -5271278.0017   3504620.2774   2   8   0.3924   1.0196   0.6823  -0.1711  -0.6473   0.2035   0.00    1.6
2173 373770.000    728279.7610  -5271277.7092   3504620.0552   2   8   0.3924   1.0195   0.6824  -0.1713  -0.6473   0.2035   0.00    2.0
2173 373771.000    728279.7669  -5271277.6607   3504619.6397   2   8   0.3924   1.0194   0.6825  -0.1714  -0.6474   0.2035   0.00    1.5
2173 373772.000    728279.7921  -5271278.0512   3504619.8999   2   8   0.3924   1.0193   0.6826  -0.1715  -0.6474   0.2036   0.00    1.5
2173 373773.000    728279.7332  -5271277.9180   3504619.6108   2   8   0.3923   1.0192   0.6827  -0.1717  -0.6474   0.2036   0.00    1.6
2173 373774.000    728279.7748  -5271277.4285   3504619.2343   2   8   0.3923   1.0191   0.6828  -0.1718  -0.6475   0.2036   0.00    1.7
2173 373775.000    728279.8418  -5271277.5978   3504619.5723   2   8   0.3923   1.0190   0.6829  -0.1719  -0.6475   0.2037   0.00    1.5
2173 373776.000    728279.7653  -5271277.1439   3504619.3435   2   8   0.3923   1.0189   0.6830  -0.1720  -0.6475   0.2037   0.00    1.5
2173 373777.000    728279.7165  -5271277.3604   3504619.6736   2   8   0.3923   1.0188   0.6831  -0.1722  -0.6476   0.2038   0.00    1.4
2173 373778.000    728279.5582  -5271277.4363   3504619.7449   2   8   0.3923   1.0187   0.6832  -0.1723  -0.6476   0.2038   0.00    1.2
2173 373779.000    728279.5197  -5271277.7739   3504619.6564   2   8   0.3923   1.0186   0.6833  -0.1724  -0.6477   0.2038   0.00    1.4
2173 373780.000    728279.5189  -5271277.7017   3504619.9118   2   8   0.3923   1.0185   0.6834  -0.1726  -0.6477   0.2039   0.00    1.3
2173 373781.000    728279.6259  -5271277.9230   3504620.1367   2   8   0.3922   1.0184   0.6835  -0.1727  -0.6477   0.2039   0.00    1.3
2173 373782.000    728279.6027  -5271277.3435   3504619.6992   2   8   0.3922   1.0183   0.6837  -0.1728  -0.6478   0.2040   0.00    1.2
2173 373783.000    728279.5077  -5271277.9692   3504619.9007   2   8   0.3922   1.0182   0.6838  -0.1729  -0.6478   0.2040   0.00    1.2
2173 373784.000    728279.5881  -5271277.8487   3504619.7140   2   8   0.3922   1.0181   0.6839  -0.1731  -0.6479   0.2040   0.00    1.4
2173 373785.000    728279.2944  -5271277.8778   3504619.7582   2   8   0.3922   1.0180   0.6840  -0.1732  -0.6479   0.2041   0.00    1.3
2173 373786.000    728279.3428  -5271278.6876   3504620.1005   2   8   0.3922   1.0179   0.6841  -0.1733  -0.6479   0.2041   0.00    1.2
2173 373787.000    728279.2871  -5271278.4667   3504619.6236   2   8   0.3922   1.0178   0.6842  -0.1734  -0.6480   0.2042   0.00    1.1
2173 373788.000    728279.4562  -5271278.7561   3504619.5840   2   8   0.3922   1.0177   0.6843  -0.1736  -0.6480   0.2042   0.00    1.3
2173 373789.000    728279.2640  -5271278.2607   3504619.4381   2   8   0.3921   1.0176   0.6844  -0.1737  -0.6481   0.2042   0.00    1.2
2173 373790.000    728279.3010  -5271278.8269   3504619.8197   2   8   0.3921   1.0175   0.6845  -0.1738  -0.6481   0.2043   0.00    1.4
2173 373791.000    728279.2403  -5271278.5138   3504619.6643   2   8   0.3921   1.0174   0.6846  -0.1740  -0.6481   0.2043   0.00    1.5
2173 373792.000    728279.4305  -5271278.2786   3504620.2736   2   8   0.3921   1.0173   0.6847  -0.1741  -0.6482   0.2043   0.00    1.4
2173 373793.000    728279.0813  -5271278.3596   3504619.6773   2   7   0.3978   1.0336   0.7465  -0.2066  -0.6889   0.2485   0.00    1.5
2173 373794.000    728279.0871  -5271277.8977   3504619.6080   2   7   0.3978   1.0335   0.7466  -0.2067  -0.6890   0.2486   0.00    1.3
2173 373795.000    728279.3135  -5271277.7866   3504619.4695   2   7   0.3978   1.0334   0.7467  -0.2068  -0.6890   0.2486   0.00    1.6
2173 373796.000    728279.2151  -5271278.0548   3504619.8320   2   7   0.3978   1.0334   0.7469  -0.2069  -0.6891   0.2486   0.00    1.6
2173 373797.000    728279.3360  -5271277.7178   3504619.5232   2   7   0.3978   1.0333   0.7470  -0.2070  -0.6892   0.2486   0.00    1.6
2173 373798.000    728279.2774  -5271278.1627   3504619.8700   2   7   0.3978   1.0332   0.7471  -0.2072  -0.6893   0.2487   0.00    1.5
2173 373799.000    728279.4836  -5271278.0422   3504619.9364   2   7   0.3977   1.0332   0.7472  -0.2073  -0.6893   0.2487   0.00    1.8
2173 373800.000    728279.2736  -5271278.1393   3504620.1330   2   7   0.3977   1.0331   0.7474  -0.2074  -0.6894   0.2487   0.00    1.5
2173 373801.000    728279.5360  -5271278.0632   3504619.9120   2   7   0.3977   1.0330   0.7475  -0.2075  -0.6895   0.2488   0.00    1.5
2173 373802.000    728279.4208  -5271277.8970   3504619.8556   2   7   0.3977   1.0329   0.7476  -0.2076  -0.6895   0.2488   0.00    1.7
2173 373803.000    728279.6305  -5271277.9849   3504619.4688   2   7   0.3977   1.0329   0.7478  -0.2077  -0.6896   0.2488   0.00    1.6
2173 373804.000    728279.4493  -5271278.0495   3504619.5685   2   7   0.3977   1.0328   0.7479  -0.2079  -0.6897   0.2489   0.00    1.8
2173 373805.000    728279.6567  -5271278.1643   3504619.4422   2   7   0.3976   1.0327   0.7480  -0.2080  -0.6898   0.2489   0.00    1.7
2173 373806.000    728279.6635  -5271278.1983   3504619.4954   2   7   0.3976   1.0326   0.7481  -0.2081  -0.6898   0.2489   0.00    2.0
2173 373807.000    728279.6514  -5271277.8206   3504619.0778   2   7   0.3976   1.0326   0.7483  -0.2082  -0.6899   0.2490   0.00    1.9
2173 373808.000    728279.5333  -5271278.2087   3504619.3597   2   7   0.3976   1.0325   0.7484  -0.2083  -0.6900   0.2490   0.00    2.0
2173 373809.000    728279.4784  -5271278.3990   3504619.4470   2   7   0.3976   1.0324   0.7485  -0.2084  -0.6901   0.2490   0.00    1.7
2173 373810.000    728279.4988  -5271278.6219   3504619.4001   2   7   0.3976   1.0323   0.7487  -0.2085  -0.6901   0.2491   0.00    1.6
2173 373811.000    728279.4346  -5271278.1397   3504619.1694   2   7   0.3976   1.0323   0.7488  -0.2087  -0.6902   0.2491   0.00    1.8
2173 373812.000    728279.5290  -5271277.8207   3504619.2718   2   7   0.3975   1.0322   0.7489  -0.2088  -0.6903   0.2491   0.00    1.8
2173 373813.000    728279.4714  -5271277.7012   3504619.1395   2   7   0.3975   1.0321   0.7490  -0.2089  -0.6903   0.2492   0.00    1.9
2173 373814.000    728279.5100  -5271277.8763   3504619.5139   2   7   0.3975   1.0321   0.7492  -0.2090  -0.6904   0.2492   0.00    2.1
2173 373815.000    728279.6143  -5271277.8919   3504619.7159   2   7   0.3975   1.0320   0.7493  -0.2091  -0.6905   0.2492   0.00    2.2
2173 373816.000    728279.8093  -5271277.9366   3504619.4536   2   7   0.3975   1.0319   0.7494  -0.2092  -0.6906   0.2493   0.00    2.2
2173 373817.000    728279.8856  -5271277.5242   3504619.4619   2   7   0.3975   1.0318   0.7496  -0.2094  -0.6906   0.2493   0.00    2.1
2173 373818.000    728279.7000  -5271277.4244   3504619.2876   2   7   0.3975   1.0318   0.7497  -0.2095  -0.6907   0.2493   0.00    2.0
2173 373819.000    728279.6668  -5271277.0759   3504619.0986   2   7   0.3974   1.0317   0.7498  -0.2096  -0.6908   0.2493   0.00    1.6
2173 373820.000    728279.5932  -5271277.6427   3504619.5427   2   7   0.3974   1.0316   0.7499  -0.2097  -0.6909   0.2494   0.00    1.7
2173 373821.000    728279.8062  -5271277.7186   3504619.4880   2   7   0.3974   1.0316   0.7501  -0.2098  -0.6909   0.2494   0.00    1.8
2173 373822.000    728279.7702  -5271278.1349   3504619.5440   2   7   0.3974   1.0315   0.7502  -0.2099  -0.6910   0.2494   0.00    1.8
2173 373823.000    728279.8173  -5271277.8607   3504619.4024   2   7   0.3974   1.0314   0.7503  -0.2100  -0.6911   0.2495   0.00    1.8
2173 373824.000    728279.6087  -5271277.7720   3504619.2538   2   7   0.3974   1.0313   0.7505  -0.2101  -0.6911   0.2495   0.00    1.9
2173 373825.000    728279.7091  -5271278.2230   3504619.3696   2   7   0.3974   1.0313   0.7506  -0.2103  -0.6912   0.2495   0.00    1.8
2173 373826.000    728279.5063  -5271277.8282   3504619.1988   2   7   0.3973   1.0312   0.7507  -0.2104  -0.6913   0.2496   0.00    1.5
2173 373827.000    728279.7600  -5271277.3464   3504619.1895   2   7   0.3973   1.0311   0.7509  -0.2105  -0.6914   0.2496   0.00    1.8
2173 373828.000    728279.7040  -5271277.7125   3504619.2774   2   7   0.3973   1.0311   0.7510  -0.2106  -0.6914   0.2496   0.00    1.9
2173 373829.000    728279.8720  -5271277.6193   3504619.4151   2   7   0.3973   1.0310   0.7511  -0.2107  -0.6915   0.2497   0.00    2.2
2173 373830.000    728279.7974  -5271277.5805   3504619.0855   2   7   0.3973   1.0309   0.7512  -0.2108  -0.6916   0.2497   0.00    2.4
2173 373831.000    728279.8529  -5271277.2101   3504619.0311   2   7   0.3973   1.0308   0.7514  -0.2109  -0.6917   0.2497   0.00    2.1
2173 373832.000    728279.7863  -5271277.6799   3504619.2862   2   7   0.3973   1.0308   0.7515  -0.2111  -0.6917   0.2498   0.00    2.2
2173 373833.000    728279.4903  -5271277.1160   3504619.0469   2   7   0.3972   1.0307   0.7516  -0.2112  -0.6918   0.2498   0.00    1.7
2173 373834.000    728279.6201  -5271277.4180   3504619.5608   2   7   0.3972   1.0306   0.7518  -0.2113  -0.6919   0.2498   0.00    1.9
2173 373835.000    728279.6390  -5271277.6457   3504619.6531   2   7   0.3972   1.0306   0.7519  -0.2114  -0.6920   0.2499   0.00    1.7
2173 373836.000    728279.6482  -5271277.6320   3504619.7339   2   7   0.3972   1.0305   0.7520  -0.2115  -0.6920   0.2499   0.00    2.0
2173 373837.000    728279.7561  -5271277.8792   3504619.5441   2   7   0.3972   1.0304   0.7522  -0.2116  -0.6921   0.2499   0.00    2.0
2173 373838.000    728279.8276  -5271277.3120   3504619.2803   2   7   0.3972   1.0304   0.7523  -0.2117  -0.6922   0.2500   0.00    2.3
2173 373839.000    728279.7868  -5271277.2936   3504619.1220   2   7   0.3972   1.0303   0.7524  -0.2118  -0.6922   0.2500   0.00    2.2
2173 373840.000    728279.5712  -5271277.5715   3504619.2785   2   7   0.3971   1.0302   0.7526  -0.2120  -0.6923   0.2500   0.00    1.9
2173 373841.000    728279.7253  -5271276.4237   3504618.8664   2   7   0.3971   1.0301   0.7527  -0.2121  -0.6924   0.2501   0.00    2.1
2173 373842.000    728279.7264  -5271276.8401   3504619.1709   2   7   0.3971   1.0301   0.7528  -0.2122  -0.6925   0.2501   0.00    2.0
2173 373843.000    728279.7778  -5271277.1203   3504619.0663   2   7   0.3971   1.0300   0.7529  -0.2123  -0.6925   0.2501   0.00    2.4
2173 373844.000    728279.7325  -5271276.8829   3504619.1615   2   7   0.3971   1.0299   0.7531  -0.2124  -0.6926   0.2502   0.00    2.1
2173 373845.000    728279.8326  -5271276.7364   3504619.1889   2   7   0.3971   1.0299   0.7532  -0.2125  -0.6927   0.2502   0.00    2.0
2173 373846.000    728279.8110  -5271276.9704   3504619.2120   2   7   0.3971   1.0298   0.7533  -0.2126  -0.6928   0.2502   0.00    2.3
2173 373847.000    728279.8952  -5271276.9205   3504619.1271   2   7   0.3970   1.0297   0.7535  -0.2127  -0.6928   0.2503   0.00    2.0
2173 373848.000    728279.8326  -5271277.1201   3504619.4878   2   7   0.3970   1.0297   0.7536  -0.2128  -0.6929   0.2503   0.00    2.0
2173 373849.000    728280.0409  -5271276.9058   3504619.5517   2   7   0.3970   1.0296   0.7537  -0.2130  -0.6930   0.2503   0.00    2.1
2173 373850.000    728279.8855  -5271276.8622   3504619.3175   2   7   0.3970   1.0295   0.7539  -0.2131  -0.6931   0.2504   0.00    1.9
2173 373851.000    728279.7344  -5271277.2632   3504619.4671   2   7   0.3970   1.0295   0.7540  -0.2132  -0.6931   0.2504   0.00    2.2
2173 373852.000    728279.9995  -5271277.6337   3504619.3741   2   7   0.3970   1.0294   0.7541  -0.2133  -0.6932   0.2504   0.00    2.2
2173 373853.000    728280.0505  -5271277.4330   3504619.1982   2   7   0.3970   1.0293   0.7543  -0.2134  -0.6933   0.2505   0.00    1.8
2173 373854.000    728279.8858  -5271276.8451   3504618.8186   2   7   0.3969   1.0293   0.7544  -0.2135  -0.6934   0.2505   0.00    2.1
2173 373855.000    728279.8222  -5271277.0546   3504619.1712   2   7   0.3969   1.0292   0.7545  -0.2136  -0.6934   0.2505   0.00    2.0
2173 373856.000    728279.9537  -5271276.7055   3504618.8806   2   7   0.3969   1.0291   0.7547  -0.2137  -0.6935   0.2506   0.00    2.0
2173 373857.000    728279.8332  -5271277.1849   3504619.1746   2   7   0.3969   1.0291   0.7548  -0.2138  -0.6936   0.2506   0.00    2.2
2173 373858.000    728279.8151  -5271277.3595   3504619.4554   2   7   0.3969   1.0290   0.7549  -0.2140  -0.6937   0.2506   0.00    2.4
2173 373859.000    728279.8763  -5271277.3399   3504619.1738   2   7   0.3969   1.0289   0.7551  -0.2141  -0.6937   0.2507   0.00    2.2
2173 373860.000    728279.6224  -5271277.5181   3504619.2605   2   7   0.3969   1.0289   0.7552  -0.2142  -0.6938   0.2507   0.00    2.3
2173 373861.000    728279.7536  -5271276.9521   3504619.0943   2   7   0.3968   1.0288   0.7553  -0.2143  -0.6939   0.2507   0.00    1.9
2173 373862.000    728279.9361  -5271276.7992   3504619.2003   2   7   0.3968   1.0287   0.7555  -0.2144  -0.6940   0.2508   0.00    2.1
2173 373863.000    728279.8206  -5271276.9549   3504619.3393   2   7   0.3968   1.0286   0.7556  -0.2145  -0.6941   0.2508   0.00    2.2
2173 373864.000    728279.6983  -5271277.2659   3504619.3823   2   7   0.3968   1.0286   0.7557  -0.2146  -0.6941   0.2508   0.00    2.6
2173 373865.000    728279.8300  -5271276.9430   3504619.2918   2   7   0.3968   1.0285   0.7559  -0.2147  -0.6942   0.2509   0.00    2.3
2173 373866.000    728279.6575  -5271277.1597   3504619.5495   2   7   0.3968   1.0284   0.7560  -0.2148  -0.6943   0.2509   0.00    2.3
2173 373867.000    728279.7252  -5271277.2803   3504619.4650   2   7   0.3968   1.0284   0.7561  -0.2149  -0.6944   0.2509   0.00    2.6
2173 373868.000    728279.6383  -5271277.2190   3504619.6091   2   7   0.3968   1.0283   0.7563  -0.2151  -0.6944   0.2510   0.00    2.1
2173 373869.000    728279.5101  -5271277.6763   3504619.7866   2   7   0.3967   1.0282   0.7564  -0.2152  -0.6945   0.2510   0.00    2.0
2173 373870.000    728279.5640  -5271277.1506   3504619.8093   2   7   0.3967   1.0282   0.7565  -0.2153  -0.6946   0.2510   0.00    1.9
2173 373871.000    728279.6565  -5271277.4948   3504620.0643   2   7   0.3967   1.0281   0.7567  -0.2154  -0.6947   0.2511   0.00    2.2
2173 373872.000    728279.4505  -5271277.2466   3504619.5330   2   7   0.3967   1.0281   0.7568  -0.2155  -0.6947   0.2511   0.00    2.0
2173 373873.000    728279.3982  -5271277.3835   3504619.9051   2   7   0.3967   1.0280   0.7569  -0.2156  -0.6948   0.2511   0.00    2.0
2173 373874.000    728279.5182  -5271277.3802   3504619.7319   2   7   0.3967   1.0279   0.7571  -0.2157  -0.6949   0.2512   0.00    1.9
2173 373875.000    728279.2215  -5271277.3613   3504619.7396   2   7   0.3967   1.0279   0.7572  -0.2158  -0.6950   0.2512   0.00    1.8
2173 373876.000    728279.2052  -5271277.2880   3504619.5689   2   7   0.3966   1.0278   0.7573  -0.2159  -0.6950   0.2512   0.00    1.6
2173 373877.000    728279.0837  -5271276.8351   3504619.2519   2   7   0.3966   1.0277   0.7575  -0.2160  -0.6951   0.2513   0.00    1.8
2173 373878.000    728279.2208  -5271277.1004   3504619.1703   2   7   0.3966   1.0277   0.7576  -0.2161  -0.6952   0.2513   0.00    1.8
2173 373879.000    728279.0788  -5271276.7794   3504618.8916   2   7   0.3966   1.0276   0.7577  -0.2163  -0.6953   0.2513   0.00    1.6
2173 373880.000    728279.0210  -5271276.3899   3504618.9268   2   7   0.3966   1.0275   0.7579  -0.2164  -0.6954   0.2514   0.00    1.8
2173 373881.000    728279.1341  -5271276.5478   3504619.0656   2   7   0.3966   1.0275   0.7580  -0.2165  -0.6954   0.2514   0.00    1.5
2173 373882.000    728279.0087  -5271276.5806   3504619.3219   2   7   0.3966   1.0274   0.7581  -0.2166  -0.6955   0.2514   0.00    1.7
2173 373883.000    728278.9671  -5271276.6045   3504619.4091   2   7   0.3966   1.0273   0.7583  -0.2167  -0.6956   0.2515   0.00    1.6
2173 373884.000    728279.0784  -5271276.7582   3504619.6091   2   7   0.3965   1.0273   0.7584  -0.2168  -0.6957   0.2515   0.00    1.5
2173 373885.000    728279.1414  -5271276.8214   3504619.7246   2   7   0.3965   1.0272   0.7585  -0.2169  -0.6957   0.2515   0.00    2.0
2173 373886.000    728278.9781  -5271277.2139   3504619.9510   2   7   0.3965   1.0271   0.7587  -0.2170  -0.6958   0.2516   0.00    1.7
2173 373887.000    728279.1215  -5271277.2515   3504620.0943   2   7   0.3965   1.0271   0.7588  -0.2171  -0.6959   0.2516   0.00    1.8
2173 373888.000    728278.9587  -5271276.8913   3504619.8097   2   7   0.3965   1.0270   0.7589  -0.2172  -0.6960   0.2516   0.00    1.6
2173 373889.000    728279.3005  -5271277.4200   3504620.2253   2   7   0.3965   1.0269   0.7591  -0.2173  -0.6960   0.2517   0.00    2.3
2173 373890.000    728279.1826  -5271276.8147   3504619.7617   2   7   0.3965   1.0269   0.7592  -0.2175  -0.6961   0.2517   0.00    2.6
2173 373891.000    728278.9637  -5271276.9283   3504619.5804   2   7   0.3964   1.0268   0.7593  -0.2176  -0.6962   0.2517   0.00    2.4
2173 373892.000    728279.0304  -5271277.0952   3504619.8571   2   7   0.3964   1.0268   0.7595  -0.2177  -0.6963   0.2518   0.00    2.5
2173 373893.000    728279.0194  -5271276.8657   3504619.7625   2   7   0.3964   1.0267   0.7596  -0.2178  -0.6964   0.2518   0.00    2.5
2173 373894.000    728278.9222  -5271277.2632   3504620.1637   2   7   0.3964   1.0266   0.7597  -0.2179  -0.6964   0.2518   0.00    1.9
2173 373895.000    728278.8502  -5271276.8744   3504619.8343   2   7   0.3964   1.0266   0.7599  -0.2180  -0.6965   0.2519   0.00    1.8
2173 373896.000    728278.9493  -5271276.8346   3504620.0703   2   7   0.3964   1.0265   0.7600  -0.2181  -0.6966   0.2519   0.00    1.9
2173 373897.000    728278.9063  -5271276.5666   3504619.7180   2   7   0.3964   1.0264   0.7602  -0.2182  -0.6967   0.2519   0.00    2.1
2173 373898.000    728279.0824  -5271276.9182   3504620.1445   2   7   0.3964   1.0264   0.7603  -0.2183  -0.6968   0.2520   0.00    2.1
2173 373899.000    728279.0067  -5271276.7520   3504619.9225   2   7   0.3963   1.0263   0.7604  -0.2184  -0.6968   0.2520   0.00    2.1
2173 373900.000    728279.0848  -5271277.1316   3504620.2646   2   7   0.3963   1.0262   0.7606  -0.2185  -0.6969   0.2520   0.00    2.3
2173 373901.000    728279.2078  -5271276.8009   3504619.9040   2   7   0.3963   1.0262   0.7607  -0.2186  -0.6970   0.2521   0.00    2.5
2173 373902.000    728279.1390  -5271276.9815   3504620.1320   2   7   0.3963   1.0261   0.7608  -0.2187  -0.6971   0.2521   0.00    2.3
2173 373903.000    728279.0168  -5271277.0833   3504620.1162   2   7   0.3963   1.0261   0.7610  -0.2188  -0.6971   0.2521   0.00    2.4
2173 373904.000    728278.9694  -5271276.7104   3504620.0655   2   7   0.3963   1.0260   0.7611  -0.2190  -0.6972   0.2522   0.00    2.1
2173 373905.000    728279.2865  -5271277.2726   3504620.3564   2   7   0.3963   1.0259   0.7612  -0.2191  -0.6973   0.2522   0.00    2.1
2173 373906.000    728279.2148  -5271277.2521   3504620.3288   2   7   0.3963   1.0259   0.7614  -0.2192  -0.6974   0.2522   0.00    2.2
2173 373907.000    728279.3320  -5271277.3113   3504620.3220   2   7   0.3962   1.0258   0.7615  -0.2193  -0.6975   0.2523   0.00    1.9
2173 373908.000    728279.1926  -5271277.6480   3504620.7118   2   7   0.3962   1.0258   0.7616  -0.2194  -0.6975   0.2523   0.00    1.8
2173 373909.000    728279.3402  -5271277.5729   3504620.5960   2   7   0.3962   1.0257   0.7618  -0.2195  -0.6976   0.2523   0.00    1.9
2173 373910.000    728279.3805  -5271277.7072   3504620.4807   2   7   0.3962   1.0256   0.7619  -0.2196  -0.6977   0.2524   0.00    2.0
2173 373911.000    728279.4405  -5271277.6041   3504620.5679   2   7   0.3962   1.0256   0.7621  -0.2197  -0.6978   0.2524   0.00    2.0
2173 373912.000    728279.2531  -5271277.3881   3504620.5363   2   7   0.3962   1.0255   0.7622  -0.2198  -0.6979   0.2525   0.00    2.1
2173 373913.000    728279.2241  -5271277.2519   3504620.3926   2   7   0.3962   1.0254   0.7623  -0.2199  -0.6979   0.2525   0.00    2.1
2173 373914.000    728279.2770  -5271277.3217   3504620.3619   2   7   0.3962   1.0254   0.7625  -0.2200  -0.6980   0.2525   0.00    2.3
2173 373915.000    728279.0472  -5271276.8491   3504620.3776   2   7   0.3961   1.0253   0.7626  -0.2201  -0.6981   0.2526   0.00    2.0
2173 373916.000    728278.8919  -5271276.8707   3504620.5441   2   7   0.3961   1.0253   0.7627  -0.2202  -0.6982   0.2526   0.00    2.0
2173 373917.000    728278.9238  -5271277.0937   3504620.2821   2   7   0.3961   1.0252   0.7629  -0.2203  -0.6983   0.2526   0.00    1.9
2173 373918.000    728279.0595  -5271276.9974   3504620.5399   2   7   0.3961   1.0251   0.7630  -0.2204  -0.6983   0.2527   0.00    2.0
2173 373919.000    728279.0278  -5271277.0305   3504620.4833   2   7   0.3961   1.0251   0.7632  -0.2206  -0.6984   0.2527   0.00    1.9
2173 373920.000    728279.2182  -5271277.4509   3504620.8556   2   7   0.3961   1.0250   0.7633  -0.2207  -0.6985   0.2527   0.00    2.4
2173 373921.000    728279.0390  -5271277.7628   3504621.0687   2   7   0.3961   1.0250   0.7634  -0.2208  -0.6986   0.2528   0.00    2.0
2173 373922.000    728278.8431  -5271277.2074   3504620.5739   2   7   0.3961   1.0249   0.7636  -0.2209  -0.6987   0.2528   0.00    2.1
2173 373923.000    728279.0117  -5271276.7509   3504620.3414   2   7   0.3960   1.0248   0.7637  -0.2210  -0.6987   0.2528   0.00    2.2
2173 373924.000    728278.9151  -5271277.1116   3504620.2199   2   7   0.3960   1.0248   0.7638  -0.2211  -0.6988   0.2529   0.00    2.2
2173 373925.000    728278.8371  -5271276.6033   3504620.0208   2   7   0.3960   1.0247   0.7640  -0.2212  -0.6989   0.2529   0.00    2.7
2173 373926.000    728278.9003  -5271276.6458   3504619.9353   2   7   0.3960   1.0247   0.7641  -0.2213  -0.6990   0.2529   0.00    2.3
2173 373927.000    728278.8453  -5271276.4902   3504619.7898   2   7   0.3960   1.0246   0.7643  -0.2214  -0.6991   0.2530   0.00    2.0
2173 373928.000    728278.7520  -5271276.2269   3504619.6615   2   7   0.3960   1.0245   0.7644  -0.2215  -0.6991   0.2530   0.00    1.7
2173 373929.000    728278.7125  -5271276.4764   3504619.7414   2   7   0.3960   1.0245   0.7645  -0.2216  -0.6992   0.2530   0.00    2.1
2173 373930.000    728278.8374  -5271276.5055   3504620.0199   2   7   0.3960   1.0244   0.7647  -0.2217  -0.6993   0.2531   0.00    2.2
2173 373931.000    728278.8267  -5271276.3580   3504619.6327   2   7   0.3959   1.0244   0.7648  -0.2218  -0.6994   0.2531   0.00    2.6
2173 373932.000    728279.6688  -5271277.0675   3504619.8344   1   7   0.0040   0.0103   0.0077  -0.0023  -0.0070   0.0026   0.00    3.1
2173 373933.000    728279.6680  -5271277.0665   3504619.8342   1   7   0.0040   0.0103   0.0077  -0.0023  -0.0070   0.0026   0.00    3.3
2173 373934.000    728279.0764  -5271276.6532   3504620.0854   2   7   0.3959   1.0242   0.7652  -0.2221  -0.6996   0.2532   0.00    2.7
2173 373935.000    728279.0149  -5271276.7299   3504619.9996   2   7   0.3959   1.0241   0.7654  -0.2222  -0.6997   0.2533   0.00    2.6
2173 373936.000    728278.9673  -5271277.0425   3504620.0817   2   7   0.3959   1.0241   0.7655  -0.2223  -0.6998   0.2533   0.00    2.7
2173 373937.000    728279.0686  -5271276.6320   3504619.8536   2   7   0.3959   1.0240   0.7656  -0.2224  -0.6999   0.2533   0.00    2.9
2173 373938.000    728279.6687  -5271277.0598   3504619.8302   1   7   0.0040   0.0103   0.0077  -0.0023  -0.0070   0.0026   0.00    3.1
2173 373939.000    728279.2336  -5271277.4361   3504620.2643   2   7   0.3958   1.0239   0.7659  -0.2227  -0.7000   0.2534   0.00    2.8
2173 373940.000    728279.2711  -5271277.3990   3504620.1172   2   7   0.3958   1.0238   0.7661  -0.2228  -0.7001   0.2534   0.00    2.9
2173 373941.000    728279.4052  -5271277.0068   3504620.0684   2   7   0.3958   1.0238   0.7662  -0.2229  -0.7002   0.2535   0.00    2.7
2173 373942.000    728279.6697  -5271277.0586   3504619.8317   1   7   0.0040   0.0103   0.0077  -0.0023  -0.0071   0.0026   0.00    3.4
2173 373943.000    728279.3047  -5271277.6937   3504620.3665   2   7   0.3958   1.0236   0.7665  -0.2231  -0.7004   0.2535   0.00    2.8
2173 373944.000    728279.5022  -5271277.9242   3504620.4991   2   7   0.3958   1.0236   0.7666  -0.2232  -0.7004   0.2536   0.00    2.6
2173 373945.000    728279.6691  -5271277.0586   3504619.8323   1   7   0.0040   0.0103   0.0077  -0.0023  -0.0071   0.0026   0.00    3.5
2173 373946.000    728279.4745  -5271277.7709   3504620.5899   2   7   0.3958   1.0235   0.7669  -0.2234  -0.7006   0.2537   0.00    2.8
2173 373947.000    728279.6674  -5271277.0564   3504619.8304   1   7   0.0040   0.0103   0.0077  -0.0023  -0.0071   0.0026   0.00    3.2
2173 373948.000    728279.3634  -5271278.0759   3504620.4007   2   7   0.3957   1.0234   0.7672  -0.2236  -0.7008   0.2537   0.00    2.6
2173 373949.000    728279.6683  -5271277.0570   3504619.8301   1   7   0.0040   0.0103   0.0077  -0.0023  -0.0071   0.0026   0.00    4.0
2173 373950.000    728279.6660  -5271277.0567   3504619.8303   1   7   0.0040   0.0103   0.0077  -0.0023  -0.0071   0.0026   0.00    4.1
2173 373951.000    728279.6669  -5271277.0554   3504619.8314   1   7   0.0040   0.0103   0.0077  -0.0023  -0.0071   0.0026   0.00    4.4
2173 373952.000    728279.6667  -5271277.0548   3504619.8306   1   7   0.0040   0.0103   0.0077  -0.0023  -0.0071   0.0026   0.00    4.2
2173 373953.000    728279.6665  -5271277.0550   3504619.8288   1   7   0.0040   0.0103   0.0077  -0.0023  -0.0071   0.0026   0.00    3.6
2173 373954.000    728279.3476  -5271277.4418   3504620.0937   2   7   0.3957   1.0230   0.7680  -0.2242  -0.7013   0.2539   0.00    3.0
2173 373955.000    728279.6634  -5271277.0563   3504619.8321   1   7   0.0040   0.0103   0.0077  -0.0023  -0.0071   0.0026   0.00    3.5
2173 373956.000    728279.6668  -5271277.0573   3504619.8334   1   7   0.0040   0.0103   0.0077  -0.0023  -0.0071   0.0026   0.00    3.8
2173 373957.000    728279.6681  -5271277.0612   3504619.8353   1   7   0.0040   0.0103   0.0077  -0.0023  -0.0071   0.0026   0.00    3.2
2173 373958.000    728279.6659  -5271277.0564   3504619.8331   1   7   0.0040   0.0103   0.0078  -0.0023  -0.0071   0.0026   0.00    4.9
2173 373959.000    728279.6664  -5271277.0571   3504619.8342   1   7   0.0040   0.0103   0.0078  -0.0023  -0.0071   0.0026   0.00    3.7
2173 373960.000    728279.6661  -5271277.0592   3504619.8343   1   7   0.0040   0.0103   0.0078  -0.0023  -0.0071   0.0026   0.00    3.3
2173 373961.000    728279.6685  -5271277.0587   3504619.8359   1   7   0.0040   0.0103   0.0078  -0.0023  -0.0071   0.0026   0.00    4.0
2173 373962.000    728279.6674  -5271277.0588   3504619.8339   1   7   0.0040   0.0103   0.0078  -0.0023  -0.0071   0.0026   0.00    3.3
2173 373963.000    728279.6669  -5271277.0602   3504619.8364   1   7   0.0040   0.0103   0.0078  -0.0023  -0.0071   0.0026   0.00    4.1
2173 373964.000    728279.4687  -5271277.7917   3504620.1764   2   7   0.3955   1.0225   0.7694  -0.2252  -0.7021   0.2543   0.00    2.8
2173 373965.000    728279.6673  -5271277.0569   3504619.8346   1   7   0.0040   0.0103   0.0078  -0.0023  -0.0071   0.0026   0.00    3.7
2173 373966.000    728279.6674  -5271277.0568   3504619.8349   1   7   0.0040   0.0103   0.0078  -0.0023  -0.0071   0.0026   0.00    3.3
2173 373967.000    728279.6683  -5271277.0588   3504619.8366   1   7   0.0040   0.0103   0.0078  -0.0023  -0.0071   0.0026   0.00    4.1
2173 373968.000    728279.6675  -5271277.0573   3504619.8353   1   7   0.0040   0.0103   0.0078  -0.0023  -0.0071   0.0026   0.00    3.2
2173 373969.000    728279.6663  -5271277.0524   3504619.8323   1   7   0.0040   0.0103   0.0078  -0.0023  -0.0071   0.0026   0.00    4.2
2173 373970.000    728279.6679  -5271277.0538   3504619.8339   1   7   0.0040   0.0103   0.0078  -0.0023  -0.0071   0.0026   0.00    3.3
2173 373971.000    728279.6689  -5271277.0525   3504619.8357   1   7   0.0040   0.0103   0.0078  -0.0023  -0.0071   0.0026   0.00    4.7
2173 373972.000    728279.6685  -5271277.0509   3504619.8327   1   7   0.0040   0.0103   0.0078  -0.0023  -0.0071   0.0026   0.00    4.5
2173 373973.000    728279.6675  -5271277.0523   3504619.8341   1   7   0.0040   0.0103   0.0078  -0.0023  -0.0071   0.0026   0.00    4.2
2173 373974.000    728279.6691  -5271277.0522   3504619.8348   1   7   0.0040   0.0103   0.0078  -0.0023  -0.0071   0.0026   0.00    4.7
2173 373975.000    728279.6710  -5271277.0534   3504619.8335   1   7   0.0040   0.0103   0.0078  -0.0023  -0.0071   0.0026   0.00    3.5
2173 373976.000    728279.6684  -5271277.0522   3504619.8338   1   7   0.0040   0.0103   0.0078  -0.0023  -0.0071   0.0026   0.00    4.5
2173 373977.000    728279.6682  -5271277.0528   3504619.8343   1   7   0.0040   0.0103   0.0078  -0.0023  -0.0071   0.0026   0.00    4.5
2173 373978.000    728279.6672  -5271277.0562   3504619.8349   1   7   0.0040   0.0103   0.0078  -0.0023  -0.0071   0.0026   0.00    4.4
2173 373979.000    728279.6677  -5271277.0555   3504619.8347   1   7   0.0040   0.0103   0.0078  -0.0023  -0.0071   0.0026   0.00    5.1
2173 373980.000    728279.6671  -5271277.0558   3504619.8362   1   7   0.0040   0.0103   0.0078  -0.0023  -0.0071   0.0026   0.00    4.2
2173 373981.000    728279.6671  -5271277.0567   3504619.8345   1   7   0.0040   0.0103   0.0078  -0.0023  -0.0071   0.0026   0.00    3.8
2173 373982.000    728279.6673  -5271277.0574   3504619.8345   1   7   0.0040   0.0103   0.0078  -0.0023  -0.0071   0.0026   0.00    3.9
2173 373983.000    728279.6685  -5271277.0587   3504619.8363   1   7   0.0040   0.0103   0.0078  -0.0023  -0.0071   0.0026   0.00    3.9
2173 373984.000    728279.6687  -5271277.0561   3504619.8358   1   7   0.0040   0.0103   0.0078  -0.0023  -0.0071   0.0026   0.00    3.4
2173 373985.000    728279.6671  -5271277.0535   3504619.8325   1   7   0.0040   0.0103   0.0078  -0.0023  -0.0071   0.0026   0.00    3.7
2173 373986.000    728279.8324  -5271278.2685   3504620.3702   2   7   0.3953   1.0213   0.7725  -0.2275  -0.7039   0.2551   0.00    3.0
2173 373987.000    728279.9564  -5271278.4802   3504620.4545   2   7   0.3953   1.0212   0.7727  -0.2276  -0.7040   0.2552   0.00    2.9
2173 373988.000    728280.0689  -5271278.1753   3504620.1582   2   7   0.3953   1.0211   0.7728  -0.2277  -0.7041   0.2552   0.00    2.3
2173 373989.000    728279.8524  -5271278.0213   3504619.9496   2   7   0.3953   1.0211   0.7730  -0.2278  -0.7042   0.2552   0.00    2.5
2173 373990.000    728280.0949  -5271278.1900   3504620.2777   2   7   0.3953   1.0210   0.7731  -0.2279  -0.7043   0.2553   0.00    2.0
2173 373991.000    728280.0759  -5271277.7893   3504620.0209   2   7   0.3952   1.0210   0.7733  -0.2280  -0.7044   0.2553   0.00    2.5
2173 373992.000    728279.9416  -5271277.5099   3504619.7416   2   7   0.3952   1.0209   0.7734  -0.2281  -0.7045   0.2553   0.00    2.4
2173 373993.000    728279.6699  -5271277.0594   3504619.8376   1   7   0.0040   0.0103   0.0078  -0.0023  -0.0071   0.0026   0.00    3.4
2173 373994.000    728279.6687  -5271277.0568   3504619.8342   1   7   0.0040   0.0103   0.0078  -0.0023  -0.0071   0.0026   0.00    3.1
2173 373995.000    728280.0168  -5271277.1635   3504620.1903   2   7   0.3952   1.0208   0.7738  -0.2284  -0.7047   0.2555   0.00    3.0
2173 373996.000    728280.1154  -5271277.3509   3504620.2968   2   7   0.3952   1.0207   0.7740  -0.2285  -0.7048   0.2555   0.00    2.8
2173 373997.000    728280.0591  -5271276.9312   3504620.1661   2   7   0.3952   1.0207   0.7741  -0.2286  -0.7049   0.2555   0.00    2.4
2173 373998.000    728279.6680  -5271277.0533   3504619.8326   1   7   0.0040   0.0103   0.0078  -0.0023  -0.0071   0.0026   0.00    3.1
2173 373999.000    728279.6669  -5271277.0538   3504619.8318   1   7   0.0040   0.0103   0.0078  -0.0023  -0.0071   0.0026   0.00    3.2
2173 374000.000    728279.6688  -5271277.0539   3504619.8335   1   7   0.0040   0.0103   0.0078  -0.0023  -0.0071   0.0026   0.00    3.4
2173 374001.000    728279.9761  -5271276.3533   3504619.5540   2   7   0.3951   1.0205   0.7747  -0.2290  -0.7052   0.2557   0.00    2.9
2173 374002.000    728279.6674  -5271277.0514   3504619.8346   1   7   0.0040   0.0103   0.0078  -0.0023  -0.0071   0.0026   0.00    3.5
2173 374003.000    728279.6657  -5271277.0552   3504619.8338   1   7   0.0040   0.0103   0.0078  -0.0023  -0.0071   0.0026   0.00    3.2
2173 374004.000    728279.6674  -5271277.0575   3504619.8348   1   7   0.0040   0.0103   0.0078  -0.0023  -0.0071   0.0026   0.00    3.3
2173 374005.000    728279.6661  -5271277.0585   3504619.8352   1   7   0.0040   0.0103   0.0078  -0.0023  -0.0071   0.0026   0.00    3.7
2173 374006.000    728279.6665  -5271277.0574   3504619.8353   1   7   0.0040   0.0103   0.0078  -0.0023  -0.0071   0.0026   0.00    4.0
2173 374007.000    728279.6653  -5271277.0584   3504619.8353   1   7   0.0040   0.0103   0.0078  -0.0023  -0.0071   0.0026   0.00    3.5
2173 374008.000    728279.6642  -5271277.0571   3504619.8344   1   7   0.0040   0.0103   0.0078  -0.0023  -0.0071   0.0026   0.00    3.6
2173 374009.000    728279.4167  -5271276.5757   3504619.4008   2   7   0.3950   1.0201   0.7758  -0.2298  -0.7059   0.2560   0.00    2.9
2173 374010.000    728279.5285  -5271277.6757   3504619.4966   2   7   0.3950   1.0200   0.7760  -0.2299  -0.7060   0.2560   0.00    2.7
2173 374011.000    728279.6590  -5271276.9953   3504619.0326   2   7   0.3950   1.0199   0.7761  -0.2300  -0.7061   0.2561   0.00    2.9
2173 374012.000    728279.6644  -5271277.0519   3504619.8318   1   7   0.0040   0.0103   0.0078  -0.0023  -0.0071   0.0026   0.00    3.6
2173 374013.000    728279.6639  -5271277.0510   3504619.8314   1   7   0.0040   0.0103   0.0078  -0.0023  -0.0071   0.0026   0.00    3.5
2173 374014.000    728279.6645  -5271277.0496   3504619.8318   1   7   0.0040   0.0103   0.0078  -0.0023  -0.0071   0.0026   0.00    3.0
2173 374015.000    728279.6636  -5271277.0479   3504619.8315   1   7   0.0040   0.0103   0.0078  -0.0023  -0.0071   0.0026   0.00    3.8
2173 374016.000    728279.6638  -5271277.0470   3504619.8314   1   7   0.0040   0.0103   0.0078  -0.0023  -0.0071   0.0026   0.00    3.8
2173 374017.000    728279.6637  -5271277.0463   3504619.8314   1   7   0.0040   0.0103   0.0078  -0.0023  -0.0071   0.0026   0.00    4.0
2173 374018.000    728279.6634  -5271277.0487   3504619.8319   1   7   0.0040   0.0103   0.0078  -0.0023  -0.0071   0.0026   0.00    3.4
2173 374019.000    728279.7221  -5271276.7767   3504619.6377   2   7   0.3949   1.0195   0.7773  -0.2308  -0.7068   0.2564   0.00    3.0
2173 374020.000    728279.6632  -5271277.0492   3504619.8323   1   7   0.0040   0.0103   0.0078  -0.0023  -0.0071   0.0026   0.00    3.9
2173 374021.000    728279.6631  -5271277.0489   3504619.8325   1   7   0.0040   0.0103   0.0078  -0.0023  -0.0071   0.0026   0.00    3.4
2173 374022.000    728279.6627  -5271277.0507   3504619.8311   1   7   0.0040   0.0103   0.0078  -0.0023  -0.0071   0.0026   0.00    3.5
2173 374023.000    728279.6626  -5271277.0469   3504619.8318   1   7   0.0040   0.0103   0.0078  -0.0023  -0.0071   0.0026   0.00    3.8
2173 374024.000    728279.6604  -5271277.0480   3504619.8307   1   7   0.0040   0.0103   0.0078  -0.0023  -0.0071   0.0026   0.00    3.6
2173 374025.000    728279.6600  -5271277.0514   3504619.8340   1   7   0.0040   0.0103   0.0078  -0.0023  -0.0071   0.0026   0.00    4.0
2173 374026.000    728279.6589  -5271277.0499   3504619.8314   1   7   0.0040   0.0103   0.0078  -0.0023  -0.0071   0.0026   0.00    3.7
2173 374027.000    728279.6608  -5271277.0494   3504619.8313   1   7   0.0040   0.0103   0.0079  -0.0023  -0.0071   0.0026   0.00    3.2
2173 374028.000    728279.7222  -5271278.2340   3504619.1788   2   7   0.3948   1.0191   0.7786  -0.2317  -0.7076   0.2567   0.00    2.9
2173 374029.000    728279.4008  -5271278.4692   3504619.3946   2   7   0.3948   1.0191   0.7788  -0.2318  -0.7077   0.2567   0.00    2.6
2173 374030.000    728279.3223  -5271277.8184   3504619.0036   2   7   0.3948   1.0190   0.7789  -0.2319  -0.7078   0.2568   0.00    2.9
2173 374031.000    728279.3178  -5271278.3680   3504619.6191   2   7   0.3948   1.0190   0.7791  -0.2320  -0.7078   0.2568   0.00    2.4
2173 374032.000    728279.3109  -5271278.3240   3504619.7418   2   7   0.3948   1.0189   0.7792  -0.2321  -0.7079   0.2569   0.00    2.9
2173 374033.000    728279.6607  -5271277.0548   3504619.8331   1   7   0.0040   0.0103   0.0079  -0.0024  -0.0071   0.0026   0.00    3.6
