% program   : rnx2rtkp ver.2.4.3 b31
% inp file  : ngs/21_09_01_09_42_28_mami.obs
% inp file  : ngs/21_09_01_09_42_28_mami_P1.obs
% inp file  : ngs/21_09_01_09_42_28_brdc.nav
% obs start : 2021/09/01 09:00:00.0 GPST (week2173 291600.0s)
% obs end   : 2021/09/01 09:59:59.0 GPST (week2173 295199.0s)
% ref pos   :  1529850.9450  -4473632.6100   4266634.9760
%
% (x/y/z-ecef=WGS84,Q=1:fix,2:float,3:sbas,4:dgps,5:single,6:ppp,ns=# of satellites)
%  GPST              x-ecef(m)      y-ecef(m)      z-ecef(m)   Q  ns   sdx(m)   sdy(m)   sdz(m)  sdxy(m)  sdyz(m)  sdzx(m) age(s)  ratio
2173 294123.000   1535068.4593  -4470499.2114   4268000.7324   1   9   0.0329   0.0663   0.0336  -0.0420  -0.0384   0.0253 -30.00    3.0
2173 294124.000   1535068.4581  -4470499.2080   4268000.7329   1   9   0.0318   0.0642   0.0325  -0.0406  -0.0372   0.0245 -29.00    3.2
2173 294125.000   1535068.4614  -4470499.2107   4268000.7288   1   9   0.0308   0.0621   0.0315  -0.0393  -0.0359   0.0237 -28.00    3.2
2173 294126.000   1535068.4614  -4470499.2100   4268000.7347   1   9   0.0297   0.0600   0.0304  -0.0380  -0.0347   0.0229 -27.00    3.3
2173 294127.000   1535068.4620  -4470499.2101   4268000.7335   1   9   0.0287   0.0579   0.0293  -0.0366  -0.0335   0.0221 -26.00    3.5
2173 294128.000   1535068.4595  -4470499.2058   4268000.7349   1   9   0.0277   0.0558   0.0283  -0.0353  -0.0323   0.0213 -25.00    3.6
2173 294129.000   1535068.4580  -4470499.2036   4268000.7317   1   9   0.0266   0.0537   0.0272  -0.0340  -0.0311   0.0205 -24.00    3.6
2173 294130.000   1535068.4579  -4470499.2026   4268000.7346   1   9   0.0256   0.0516   0.0262  -0.0327  -0.0299   0.0197 -23.00    3.7
2173 294131.000   1535068.4603  -4470499.2053   4268000.7339   1   9   0.0246   0.0495   0.0251  -0.0314  -0.0287   0.0189 -22.00    3.8
2173 294132.000   1535068.4616  -4470499.2089   4268000.7360   1   9   0.0236   0.0474   0.0241  -0.0300  -0.0274   0.0181 -21.00    3.9
2173 294133.000   1535068.4626  -4470499.2094   4268000.7318   1   9   0.0226   0.0453   0.0230  -0.0287  -0.0262   0.0173 -20.00    4.0
2173 294134.000   1535068.4618  -4470499.2077   4268000.7323   1   9   0.0215   0.0433   0.0220  -0.0274  -0.0250   0.0165 -19.00    4.2
2173 294135.000   1535068.4612  -4470499.2060   4268000.7316   1   9   0.0205   0.0412   0.0210  -0.0261  -0.0239   0.0157 -18.00    4.2
2173 294136.000   1535068.4610  -4470499.2044   4268000.7346   1   9   0.0195   0.0391   0.0199  -0.0248  -0.0227   0.0149 -17.00    4.4
2173 294137.000   1535068.4639  -4470499.2102   4268000.7365   1   9   0.0185   0.0371   0.0189  -0.0236  -0.0215   0.0142 -16.00    4.5
2173 294138.000   1535068.4642  -4470499.2069   4268000.7343   1   9   0.0176   0.0351   0.0179  -0.0223  -0.0203   0.0134 -15.00    4.7
2173 294139.000   1535068.4645  -4470499.2052   4268000.7323   1   9   0.0166   0.0331   0.0169  -0.0210  -0.0191   0.0126 -14.00    5.0
2173 294140.000   1535068.4653  -4470499.2091   4268000.7350   1   9   0.0156   0.0311   0.0159  -0.0198  -0.0180   0.0118 -13.00    5.2
2173 294141.000   1535068.4670  -4470499.2106   4268000.7356   1   9   0.0146   0.0291   0.0149  -0.0185  -0.0168   0.0111 -12.00    5.5
2173 294142.000   1535068.4685  -4470499.2108   4268000.7368   1   9   0.0137   0.0272   0.0139  -0.0173  -0.0157   0.0103 -11.00    5.8
2173 294143.000   1535068.4692  -4470499.2136   4268000.7396   1   9   0.0128   0.0252   0.0130  -0.0161  -0.0146   0.0096 -10.00    5.9
2173 294144.000   1535068.4690  -4470499.2135   4268000.7370   1   9   0.0119   0.0234   0.0121  -0.0149  -0.0136   0.0089  -9.00    6.1
2173 294145.000   1535068.4679  -4470499.2116   4268000.7372   1   9   0.0111   0.0216   0.0112  -0.0138  -0.0125   0.0082  -8.00    6.1
2173 294146.000   1535068.4695  -4470499.2112   4268000.7413   1   9   0.0102   0.0198   0.0103  -0.0127  -0.0115   0.0075  -7.00    6.3
2173 294147.000   1535068.4722  -4470499.2144   4268000.7393   1   9   0.0094   0.0181   0.0095  -0.0117  -0.0105   0.0070  -6.00    6.5
2173 294148.000   1535068.4747  -4470499.2189   4268000.7416   1   9   0.0087   0.0166   0.0087  -0.0107  -0.0097   0.0063  -5.00    6.7
2173 294149.000   1535068.4771  -4470499.2211   4268000.7438   1   9   0.0077   0.0152   0.0083  -0.0098  -0.0088   0.0057  -4.00    6.9
2173 294150.000   1535068.4791  -4470499.2225   4268000.7442   1   9   0.0074   0.0139   0.0074  -0.0091  -0.0081   0.0054  -3.00    7.2
2173 294151.000   1535068.4817  -4470499.2249   4268000.7449   1   9   0.0069   0.0130   0.0073  -0.0085  -0.0075   0.0048  -2.00    7.5
2173 294152.000   1535068.4811  -4470499.2254   4268000.7437   1   9   0.0063   0.0123   0.0066  -0.0080  -0.0074   0.0045  -1.00    7.7
2173 294153.000   1535068.4840  -4470499.2298   4268000.7481   1   9   0.0063   0.0121   0.0066  -0.0080  -0.0071   0.0045   0.00    8.0
2173 294154.000   1535068.4834  -4470499.2261   4268000.7454   1   9   0.0064   0.0122   0.0066  -0.0079  -0.0071   0.0045   0.00    7.2
2173 294155.000   1535068.4851  -4470499.2275   4268000.7461   1   9   0.0064   0.0122   0.0066  -0.0079  -0.0071   0.0045   0.00    8.9
2173 294156.000   1535068.4833  -4470499.2291   4268000.7471   1   9   0.0064   0.0122   0.0066  -0.0079  -0.0071   0.0045   0.00    7.0
2173 294157.000   1535068.4848  -4470499.2320   4268000.7469   1   9   0.0064   0.0122   0.0066  -0.0079  -0.0071   0.0045   0.00    8.6
2173 294158.000   1535068.4842  -4470499.2291   4268000.7483   1   9   0.0064   0.0122   0.0066  -0.0079  -0.0071   0.0045   0.00    7.1
2173 294159.000   1535068.4834  -4470499.2323   4268000.7474   1   9   0.0064   0.0122   0.0066  -0.0079  -0.0071   0.0045   0.00    6.8
2173 294160.000   1535068.4844  -4470499.2321   4268000.7477   1   9   0.0064   0.0122   0.0066  -0.0079  -0.0071   0.0045   0.00    8.3
2173 294161.000   1535068.4850  -4470499.2323   4268000.7472   1   9   0.0064   0.0122   0.0066  -0.0079  -0.0071   0.0045   0.00    8.5
2173 294162.000   1535068.4840  -4470499.2302   4268000.7472   1   9   0.0064   0.0122   0.0066  -0.0079  -0.0071   0.0045   0.00    7.8
2173 294163.000   1535068.4829  -4470499.2303   4268000.7460   1   9   0.0064   0.0122   0.0066  -0.0079  -0.0071   0.0045   0.00    8.9
2173 294164.000   1535068.4825  -4470499.2311   4268000.7460   1   9   0.0064   0.0122   0.0066  -0.0079  -0.0071   0.0045   0.00    7.7
2173 294165.000   1535068.4855  -4470499.2334   4268000.7469   1   9   0.0064   0.0122   0.0066  -0.0079  -0.0071   0.0045   0.00    7.8
2173 294166.000   1535068.4844  -4470499.2339   4268000.7476   1   9   0.0064   0.0122   0.0066  -0.0079  -0.0071   0.0045   0.00    8.5
2173 294167.000   1535068.4824  -4470499.2304   4268000.7475   1   9   0.0064   0.0122   0.0066  -0.0079  -0.0071   0.0045   0.00    7.7
2173 294168.000   1535068.4818  -4470499.2296   4268000.7473   1   9   0.0064   0.0122   0.0066  -0.0079  -0.0071   0.0045   0.00    8.2
2173 294169.000   1535068.4828  -4470499.2331   4268000.7480   1   9   0.0064   0.0122   0.0066  -0.0079  -0.0071   0.0045   0.00    7.1
2173 294170.000   1535068.4823  -4470499.2297   4268000.7447   1   9   0.0064   0.0122   0.0066  -0.0079  -0.0071   0.0045   0.00    8.3
2173 294171.000   1535068.4815  -4470499.2309   4268000.7470   1   9   0.0064   0.0122   0.0066  -0.0079  -0.0071   0.0045   0.00    6.5
2173 294172.000   1535068.4814  -4470499.2299   4268000.7450   1   9   0.0064   0.0122   0.0066  -0.0079  -0.0071   0.0045   0.00    6.6
2173 294173.000   1535068.4834  -4470499.2292   4268000.7431   1   9   0.0064   0.0122   0.0066  -0.0079  -0.0071   0.0045   0.00    6.8
2173 294174.000   1535068.4815  -4470499.2304   4268000.7466   1   9   0.0064   0.0122   0.0066  -0.0079  -0.0071   0.0045   0.00    7.4
2173 294175.000   1535068.4818  -4470499.2237   4268000.7432   1   9   0.0064   0.0122   0.0066  -0.0079  -0.0071   0.0045   0.00    9.1
2173 294176.000   1535068.4823  -4470499.2320   4268000.7452   1   9   0.0064   0.0122   0.0066  -0.0079  -0.0071   0.0045   0.00    7.6
2173 294177.000   1535068.4823  -4470499.2313   4268000.7460   1   9   0.0064   0.0122   0.0066  -0.0079  -0.0071   0.0045   0.00    8.5
2173 294178.000   1535068.4796  -4470499.2252   4268000.7423   1   9   0.0064   0.0122   0.0066  -0.0079  -0.0071   0.0045   0.00    7.6
2173 294179.000   1535068.4833  -4470499.2323   4268000.7454   1   9   0.0064   0.0122   0.0066  -0.0079  -0.0071   0.0045   0.00    9.3
2173 294180.000   1535068.4788  -4470499.2231   4268000.7444   1   9   0.0064   0.0122   0.0066  -0.0079  -0.0071   0.0045   0.00    8.5
2173 294181.000   1535068.4844  -4470499.2309   4268000.7432   1   9   0.0064   0.0122   0.0066  -0.0079  -0.0071   0.0045   0.00   10.0
2173 294182.000   1535068.4829  -4470499.2314   4268000.7451   1   9   0.0064   0.0122   0.0066  -0.0079  -0.0071   0.0045   0.00    9.3
2173 294183.000   1535068.4828  -4470499.2317   4268000.7470   1   9   0.0064   0.0122   0.0066  -0.0079  -0.0071   0.0045   0.00    8.3
2173 294184.000   1535068.4834  -4470499.2320   4268000.7474   1   9   0.0064   0.0122   0.0066  -0.0079  -0.0071   0.0045   0.00    9.3
2173 294185.000   1535068.4822  -4470499.2292   4268000.7446   1   9   0.0064   0.0122   0.0066  -0.0079  -0.0071   0.0045   0.00    9.8
2173 294186.000   1535068.4832  -4470499.2323   4268000.7475   1   9   0.0064   0.0122   0.0066  -0.0079  -0.0071   0.0045   0.00   11.1
2173 294187.000   1535068.4822  -4470499.2299   4268000.7480   1   9   0.0064   0.0122   0.0066  -0.0079  -0.0071   0.0045   0.00    9.1
2173 294188.000   1535068.4834  -4470499.2335   4268000.7475   1   9   0.0064   0.0122   0.0066  -0.0079  -0.0071   0.0046   0.00    9.3
2173 294189.000   1535068.4839  -4470499.2331   4268000.7480   1   9   0.0064   0.0122   0.0066  -0.0079  -0.0071   0.0046   0.00    9.1
2173 294190.000   1535068.4812  -4470499.2288   4268000.7441   1   9   0.0064   0.0122   0.0066  -0.0079  -0.0071   0.0046   0.00    9.3
2173 294191.000   1535068.4828  -4470499.2309   4268000.7472   1   9   0.0064   0.0122   0.0066  -0.0079  -0.0071   0.0046   0.00    7.5
2173 294192.000   1535068.4812  -4470499.2289   4268000.7446   1   9   0.0064   0.0122   0.0066  -0.0079  -0.0071   0.0046   0.00    9.8
2173 294193.000   1535068.4841  -4470499.2331   4268000.7453   1   9   0.0064   0.0122   0.0066  -0.0079  -0.0071   0.0046   0.00   10.3
2173 294194.000   1535068.4801  -4470499.2268   4268000.7433   1   9   0.0064   0.0122   0.0066  -0.0079  -0.0071   0.0046   0.00    8.7
2173 294195.000   1535068.4820  -4470499.2294   4268000.7453   1   9   0.0064   0.0122   0.0066  -0.0079  -0.0071   0.0046   0.00    8.5
2173 294196.000   1535068.4844  -4470499.2324   4268000.7446   1   9   0.0064   0.0122   0.0066  -0.0079  -0.0071   0.0046   0.00    8.9
2173 294197.000   1535068.4827  -4470499.2302   4268000.7456   1   9   0.0064   0.0121   0.0066  -0.0079  -0.0071   0.0046   0.00    9.2
2173 294198.000   1535068.4860  -4470499.2393   4268000.7496   1   9   0.0064   0.0121   0.0066  -0.0079  -0.0071   0.0046   0.00    9.9
2173 294199.000   1535068.4829  -4470499.2329   4268000.7478   1   9   0.0064   0.0121   0.0066  -0.0079  -0.0071   0.0046   0.00    7.8
2173 294200.000   1535068.4838  -4470499.2303   4268000.7474   1   9   0.0064   0.0121   0.0066  -0.0079  -0.0071   0.0046   0.00   10.6
2173 294201.000   1535068.4813  -4470499.2293   4268000.7458   1   9   0.0064   0.0121   0.0066  -0.0079  -0.0071   0.0046   0.00   10.1
2173 294202.000   1535068.4814  -4470499.2301   4268000.7456   1   9   0.0064   0.0121   0.0066  -0.0079  -0.0071   0.0046   0.00    8.9
2173 294203.000   1535068.4820  -4470499.2309   4268000.7472   1   9   0.0064   0.0121   0.0066  -0.0079  -0.0071   0.0046   0.00    8.5
2173 294204.000   1535068.4806  -4470499.2299   4268000.7468   1   9   0.0064   0.0121   0.0066  -0.0079  -0.0071   0.0046   0.00    8.3
2173 294205.000   1535068.4845  -4470499.2334   4268000.7460   1   9   0.0064   0.0121   0.0066  -0.0079  -0.0071   0.0046   0.00    9.3
2173 294206.000   1535068.4831  -4470499.2310   4268000.7466   1   9   0.0064   0.0121   0.0066  -0.0079  -0.0071   0.0046   0.00    8.2
2173 294207.000   1535068.4842  -4470499.2310   4268000.7488   1   9   0.0064   0.0121   0.0066  -0.0079  -0.0071   0.0046   0.00    7.6
2173 294208.000   1535068.4833  -4470499.2312   4268000.7482   1   9   0.0064   0.0121   0.0066  -0.0079  -0.0071   0.0046   0.00    7.6
2173 294209.000   1535068.4819  -4470499.2271   4268000.7448   1   9   0.0064   0.0121   0.0066  -0.0079  -0.0071   0.0046   0.00   10.5
2173 294210.000   1535068.4809  -4470499.2244   4268000.7416   1   9   0.0064   0.0121   0.0066  -0.0079  -0.0071   0.0046   0.00    9.0
2173 294211.000   1535068.4823  -4470499.2287   4268000.7435   1   9   0.0064   0.0121   0.0066  -0.0079  -0.0071   0.0046   0.00    8.7
2173 294212.000   1535068.4832  -4470499.2312   4268000.7441   1   9   0.0064   0.0121   0.0066  -0.0079  -0.0071   0.0046   0.00    9.2
2173 294213.000   1535068.4815  -4470499.2239   4268000.7414   1   9   0.0064   0.0121   0.0066  -0.0079  -0.0071   0.0046   0.00    8.3
2173 294214.000   1535068.4826  -4470499.2286   4268000.7441   1   9   0.0064   0.0121   0.0066  -0.0079  -0.0071   0.0046   0.00    8.2
2173 294215.000   1535068.4802  -4470499.2245   4268000.7439   1   9   0.0064   0.0121   0.0066  -0.0079  -0.0071   0.0046   0.00    7.6
2173 294216.000   1535068.4810  -4470499.2241   4268000.7441   1   9   0.0064   0.0121   0.0066  -0.0079  -0.0071   0.0046   0.00    6.6
2173 294217.000   1535068.4813  -4470499.2262   4268000.7449   1   9   0.0064   0.0121   0.0066  -0.0079  -0.0071   0.0046   0.00    6.6
2173 294218.000   1535068.4807  -4470499.2254   4268000.7432   1   9   0.0064   0.0121   0.0066  -0.0079  -0.0071   0.0046   0.00    7.4
2173 294219.000   1535068.4809  -4470499.2239   4268000.7418   1   9   0.0064   0.0121   0.0066  -0.0079  -0.0071   0.0046   0.00    6.5
2173 294220.000   1535068.4819  -4470499.2279   4268000.7456   1   9   0.0064   0.0121   0.0066  -0.0079  -0.0071   0.0046   0.00    7.5
2173 294221.000   1535068.4823  -4470499.2278   4268000.7449   1   9   0.0064   0.0121   0.0066  -0.0079  -0.0071   0.0046   0.00    7.2
2173 294222.000   1535068.4800  -4470499.2206   4268000.7409   1   9   0.0064   0.0121   0.0066  -0.0079  -0.0071   0.0046   0.00    7.0
2173 294223.000   1535068.4826  -4470499.2261   4268000.7427   1   9   0.0064   0.0121   0.0066  -0.0079  -0.0071   0.0046   0.00    6.9
2173 294224.000   1535068.4819  -4470499.2270   4268000.7430   1   9   0.0064   0.0121   0.0066  -0.0079  -0.0071   0.0046   0.00    7.0
2173 294225.000   1535068.4814  -4470499.2228   4268000.7437   1   9   0.0064   0.0121   0.0066  -0.0079  -0.0071   0.0046   0.00    6.3
2173 294226.000   1535068.4832  -4470499.2250   4268000.7435   1   9   0.0064   0.0121   0.0066  -0.0079  -0.0071   0.0046   0.00    6.7
2173 294227.000   1535068.4813  -4470499.2233   4268000.7438   1   9   0.0064   0.0121   0.0066  -0.0079  -0.0071   0.0046   0.00    7.0
2173 294228.000   1535068.4839  -4470499.2273   4268000.7432   1   9   0.0064   0.0121   0.0066  -0.0079  -0.0071   0.0046   0.00    6.6
2173 294229.000   1535068.4815  -4470499.2204   4268000.7418   1   9   0.0064   0.0121   0.0066  -0.0079  -0.0071   0.0046   0.00    6.6
2173 294230.000   1535068.4807  -4470499.2179   4268000.7389   1   9   0.0064   0.0121   0.0066  -0.0079  -0.0070   0.0046   0.00    6.7
2173 294231.000   1535068.4831  -4470499.2243   4268000.7435   1   9   0.0064   0.0121   0.0066  -0.0079  -0.0070   0.0046   0.00    6.4
2173 294232.000   1535068.4848  -4470499.2275   4268000.7447   1   9   0.0064   0.0121   0.0066  -0.0079  -0.0070   0.0046   0.00    7.0
2173 294233.000   1535068.4831  -4470499.2251   4268000.7452   1   9   0.0064   0.0121   0.0066  -0.0079  -0.0070   0.0046   0.00    7.7
2173 294234.000   1535068.4842  -4470499.2253   4268000.7434   1   9   0.0064   0.0121   0.0066  -0.0079  -0.0070   0.0046   0.00    7.3
2173 294235.000   1535068.4816  -4470499.2249   4268000.7438   1   9   0.0064   0.0121   0.0066  -0.0079  -0.0070   0.0046   0.00    6.2
2173 294236.000   1535068.4817  -4470499.2216   4268000.7419   1   9   0.0064   0.0121   0.0066  -0.0079  -0.0070   0.0046   0.00    6.6
2173 294237.000   1535068.4829  -4470499.2257   4268000.7444   1   9   0.0064   0.0121   0.0066  -0.0079  -0.0070   0.0046   0.00    5.9
2173 294238.000   1535068.4822  -4470499.2259   4268000.7440   1   9   0.0064   0.0121   0.0066  -0.0079  -0.0070   0.0046   0.00    6.1
2173 294239.000   1535068.4828  -4470499.2269   4268000.7447   1   9   0.0064   0.0121   0.0066  -0.0079  -0.0070   0.0046   0.00    6.6
2173 294240.000   1535068.4832  -4470499.2292   4268000.7443   1   9   0.0064   0.0121   0.0066  -0.0079  -0.0070   0.0046   0.00    6.8
2173 294241.000   1535068.4839  -4470499.2270   4268000.7455   1   9   0.0064   0.0121   0.0066  -0.0079  -0.0070   0.0046   0.00    6.1
2173 294242.000   1535068.4829  -4470499.2259   4268000.7432   1   9   0.0064   0.0121   0.0066  -0.0079  -0.0070   0.0046   0.00    6.2
2173 294243.000   1535068.4843  -4470499.2295   4268000.7454   1   9   0.0064   0.0121   0.0066  -0.0079  -0.0070   0.0046   0.00    5.6
2173 294244.000   1535068.4815  -4470499.2247   4268000.7450   1   9   0.0064   0.0121   0.0066  -0.0079  -0.0070   0.0046   0.00    4.9
2173 294245.000   1535068.4843  -4470499.2286   4268000.7459   1   9   0.0064   0.0121   0.0066  -0.0079  -0.0070   0.0046   0.00    5.3
2173 294246.000   1535068.4852  -4470499.2290   4268000.7437   1   9   0.0064   0.0121   0.0066  -0.0079  -0.0070   0.0046   0.00    5.8
2173 294247.000   1535068.4841  -4470499.2274   4268000.7434   1   9   0.0064   0.0121   0.0066  -0.0079  -0.0070   0.0046   0.00    5.1
2173 294248.000   1535068.4842  -4470499.2268   4268000.7437   1   9   0.0064   0.0121   0.0066  -0.0079  -0.0070   0.0046   0.00    5.6
2173 294249.000   1535068.4821  -4470499.2235   4268000.7430   1   9   0.0064   0.0121   0.0066  -0.0079  -0.0070   0.0046   0.00    4.8
2173 294250.000   1535068.4819  -4470499.2258   4268000.7450   1   9   0.0064   0.0121   0.0066  -0.0079  -0.0070   0.0046   0.00    4.6
2173 294251.000   1535068.4828  -4470499.2257   4268000.7435   1   9   0.0064   0.0121   0.0066  -0.0079  -0.0070   0.0046   0.00    5.3
2173 294252.000   1535068.4792  -4470499.2228   4268000.7450   1   9   0.0064   0.0121   0.0066  -0.0079  -0.0070   0.0046   0.00    5.1
2173 294253.000   1535068.4824  -4470499.2265   4268000.7434   1   9   0.0064   0.0121   0.0066  -0.0079  -0.0070   0.0046   0.00    5.9
2173 294254.000   1535068.4812  -4470499.2237   4268000.7437   1   9   0.0064   0.0121   0.0066  -0.0079  -0.0070   0.0046   0.00    6.0
2173 294255.000   1535068.4795  -4470499.2211   4268000.7405   1   9   0.0064   0.0121   0.0066  -0.0079  -0.0070   0.0046   0.00    6.2
2173 294256.000   1535068.4807  -4470499.2241   4268000.7434   1   9   0.0064   0.0121   0.0066  -0.0079  -0.0070   0.0046   0.00    6.5
2173 294257.000   1535068.4825  -4470499.2282   4268000.7434   1   9   0.0064   0.0121   0.0066  -0.0079  -0.0070   0.0046   0.00    5.9
2173 294258.000   1535068.4792  -4470499.2266   4268000.7447   1   9   0.0064   0.0121   0.0066  -0.0079  -0.0070   0.0046   0.00    4.8
2173 294259.000   1535068.4813  -4470499.2283   4268000.7435   1   9   0.0064   0.0121   0.0066  -0.0079  -0.0070   0.0046   0.00    6.6
2173 294260.000   1535068.4801  -4470499.2267   4268000.7448   1   9   0.0064   0.0121   0.0066  -0.0079  -0.0070   0.0046   0.00    5.4
2173 294261.000   1535068.4802  -4470499.2265   4268000.7438   1   9   0.0064   0.0121   0.0066  -0.0079  -0.0070   0.0046   0.00    6.4
2173 294262.000   1535068.4797  -4470499.2222   4268000.7419   1   9   0.0064   0.0121   0.0066  -0.0079  -0.0070   0.0046   0.00    5.8
2173 294263.000   1535068.4812  -4470499.2251   4268000.7439   1   9   0.0064   0.0121   0.0066  -0.0079  -0.0070   0.0046   0.00    5.8
2173 294264.000   1535068.4797  -4470499.2228   4268000.7425   1   9   0.0064   0.0121   0.0066  -0.0079  -0.0070   0.0046   0.00    6.1
2173 294265.000   1535068.4797  -4470499.2223   4268000.7432   1   9   0.0064   0.0121   0.0066  -0.0079  -0.0070   0.0046   0.00    5.7
2173 294266.000   1535068.4812  -4470499.2258   4268000.7444   1   9   0.0064   0.0121   0.0066  -0.0079  -0.0070   0.0046   0.00    6.0
2173 294267.000   1535068.4820  -4470499.2255   4268000.7465   1   9   0.0064   0.0121   0.0066  -0.0079  -0.0070   0.0046   0.00    6.2
2173 294268.000   1535068.4826  -4470499.2266   4268000.7471   1   9   0.0064   0.0121   0.0066  -0.0079  -0.0070   0.0046   0.00    5.7
2173 294269.000   1535068.4799  -4470499.2249   4268000.7474   1   9   0.0064   0.0121   0.0066  -0.0079  -0.0070   0.0046   0.00    6.0
2173 294270.000   1535068.4816  -4470499.2291   4268000.7448   1   9   0.0065   0.0121   0.0066  -0.0079  -0.0070   0.0046   0.00    6.7
2173 294271.000   1535068.4800  -4470499.2230   4268000.7467   1   9   0.0065   0.0121   0.0066  -0.0079  -0.0070   0.0046   0.00    6.8
2173 294272.000   1535068.4819  -4470499.2280   4268000.7447   1   9   0.0065   0.0121   0.0066  -0.0079  -0.0070   0.0046   0.00    7.3
2173 294273.000   1535068.4808  -4470499.2259   4268000.7449   1   9   0.0065   0.0121   0.0066  -0.0079  -0.0070   0.0046   0.00    6.8
2173 294274.000   1535068.4804  -4470499.2213   4268000.7458   1   9   0.0065   0.0121   0.0066  -0.0079  -0.0070   0.0046   0.00    7.7
2173 294275.000   1535068.4792  -4470499.2222   4268000.7462   1   9   0.0065   0.0121   0.0066  -0.0079  -0.0070   0.0046   0.00    7.2
2173 294276.000   1535068.4805  -4470499.2238   4268000.7446   1   9   0.0065   0.0121   0.0066  -0.0079  -0.0070   0.0046   0.00    6.5
2173 294277.000   1535068.4796  -4470499.2242   4268000.7462   1   9   0.0065   0.0121   0.0066  -0.0079  -0.0070   0.0046   0.00    7.8
2173 294278.000   1535068.4817  -4470499.2232   4268000.7463   1   9   0.0065   0.0121   0.0066  -0.0079  -0.0070   0.0046   0.00    6.7
2173 294279.000   1535068.4794  -4470499.2246   4268000.7457   1   9   0.0065   0.0121   0.0066  -0.0079  -0.0070   0.0046   0.00    6.7
2173 294280.000   1535068.4800  -4470499.2252   4268000.7470   1   9   0.0065   0.0121   0.0066  -0.0079  -0.0070   0.0046   0.00    7.0
2173 294281.000   1535068.4810  -4470499.2219   4268000.7446   1   9   0.0065   0.0121   0.0066  -0.0079  -0.0070   0.0046   0.00    7.4
2173 294282.000   1535068.4785  -4470499.2241   4268000.7472   1   9   0.0065   0.0121   0.0066  -0.0079  -0.0070   0.0046   0.00    7.1
2173 294283.000   1535068.4797  -4470499.2235   4268000.7450   1   9   0.0065   0.0121   0.0066  -0.0079  -0.0070   0.0046   0.00    7.3
2173 294284.000   1535068.4776  -4470499.2210   4268000.7467   1   9   0.0065   0.0121   0.0066  -0.0079  -0.0070   0.0046   0.00    6.6
2173 294285.000   1535068.4780  -4470499.2188   4268000.7453   1   9   0.0065   0.0121   0.0066  -0.0079  -0.0070   0.0046   0.00    6.4
2173 294286.000   1535068.4798  -4470499.2225   4268000.7456   1   9   0.0065   0.0121   0.0066  -0.0079  -0.0070   0.0046   0.00    7.0
2173 294287.000   1535068.4787  -4470499.2217   4268000.7476   1   9   0.0065   0.0121   0.0066  -0.0079  -0.0070   0.0046   0.00    6.7
2173 294288.000   1535068.4790  -4470499.2231   4268000.7479   1   9   0.0065   0.0121   0.0066  -0.0079  -0.0070   0.0046   0.00    7.1
2173 294289.000   1535068.4799  -4470499.2209   4268000.7469   1   9   0.0065   0.0121   0.0066  -0.0079  -0.0070   0.0046   0.00    7.5
2173 294290.000   1535068.4774  -4470499.2208   4268000.7481   1   9   0.0065   0.0121   0.0066  -0.0079  -0.0070   0.0046   0.00    6.5
2173 294291.000   1535068.4801  -4470499.2233   4268000.7453   1   9   0.0065   0.0121   0.0066  -0.0079  -0.0070   0.0046   0.00    9.0
2173 294292.000   1535068.4815  -4470499.2257   4268000.7448   1   9   0.0065   0.0121   0.0066  -0.0079  -0.0070   0.0046   0.00    7.6
2173 294293.000   1535068.4820  -4470499.2295   4268000.7493   1   9   0.0065   0.0121   0.0066  -0.0079  -0.0070   0.0046   0.00    7.1
2173 294294.000   1535068.4806  -4470499.2225   4268000.7470   1   9   0.0065   0.0121   0.0066  -0.0079  -0.0070   0.0046   0.00    6.5
2173 294295.000   1535068.4821  -4470499.2272   4268000.7472   1   9   0.0065   0.0121   0.0066  -0.0079  -0.0070   0.0046   0.00    7.5
2173 294296.000   1535068.4797  -4470499.2214   4268000.7467   1   9   0.0065   0.0121   0.0066  -0.0079  -0.0070   0.0046   0.00    6.8
2173 294297.000   1535068.4791  -4470499.2207   4268000.7460   1   9   0.0065   0.0121   0.0066  -0.0079  -0.0070   0.0046   0.00    6.7
2173 294298.000   1535068.4807  -4470499.2236   4268000.7480   1   9   0.0065   0.0121   0.0066  -0.0079  -0.0070   0.0046   0.00    8.9
2173 294299.000   1535068.4792  -4470499.2201   4268000.7454   1   9   0.0065   0.0121   0.0066  -0.0079  -0.0070   0.0046   0.00    9.7
2173 294300.000   1535068.4806  -4470499.2230   4268000.7468   1   9   0.0065   0.0121   0.0066  -0.0079  -0.0070   0.0046   0.00   10.1
2173 294301.000   1535068.4805  -4470499.2247   4268000.7467   1   9   0.0065   0.0121   0.0066  -0.0079  -0.0070   0.0046   0.00    8.2
2173 294302.000   1535068.4784  -4470499.2182   4268000.7435   1   9   0.0065   0.0121   0.0066  -0.0079  -0.0070   0.0046   0.00   10.6
2173 294303.000   1535068.4787  -4470499.2196   4268000.7456   1   9   0.0065   0.0121   0.0066  -0.0079  -0.0070   0.0046   0.00    8.0
2173 294304.000   1535068.4787  -4470499.2217   4268000.7476   1   9   0.0065   0.0121   0.0066  -0.0079  -0.0070   0.0046   0.00    8.2
2173 294305.000   1535068.4753  -4470499.2167   4268000.7479   1   9   0.0065   0.0121   0.0066  -0.0079  -0.0070   0.0046   0.00    8.2
2173 294306.000   1535068.4783  -4470499.2192   4268000.7452   1   9   0.0065   0.0121   0.0066  -0.0079  -0.0070   0.0046   0.00    7.5
2173 294307.000   1535068.4764  -4470499.2192   4268000.7463   1   9   0.0065   0.0121   0.0066  -0.0079  -0.0070   0.0046   0.00   10.2
2173 294308.000   1535068.4760  -4470499.2198   4268000.7460   1   9   0.0065   0.0121   0.0066  -0.0079  -0.0070   0.0046   0.00   11.2
2173 294309.000   1535068.4761  -4470499.2209   4268000.7500   1   9   0.0065   0.0121   0.0066  -0.0079  -0.0070   0.0046   0.00    8.5
2173 294310.000   1535068.4789  -4470499.2204   4268000.7471   1   9   0.0065   0.0121   0.0066  -0.0079  -0.0070   0.0046   0.00    7.8
2173 294311.000   1535068.4759  -4470499.2187   4268000.7481   1   9   0.0065   0.0121   0.0066  -0.0079  -0.0070   0.0046   0.00    8.4
2173 294312.000   1535068.4747  -4470499.2176   4268000.7457   1   9   0.0065   0.0121   0.0066  -0.0079  -0.0070   0.0046   0.00    8.2
2173 294313.000   1535068.4776  -4470499.2206   4268000.7478   1   9   0.0065   0.0121   0.0066  -0.0079  -0.0070   0.0046   0.00    9.8
2173 294314.000   1535068.4768  -4470499.2172   4268000.7501   1   9   0.0065   0.0121   0.0066  -0.0079  -0.0070   0.0046   0.00    8.6
2173 294315.000   1535068.4791  -4470499.2228   4268000.7500   1   9   0.0065   0.0121   0.0066  -0.0079  -0.0070   0.0046   0.00    9.5
2173 294316.000   1535068.4748  -4470499.2160   4268000.7503   1   9   0.0065   0.0121   0.0066  -0.0079  -0.0070   0.0046   0.00    7.7
2173 294317.000   1535068.4748  -4470499.2163   4268000.7465   1   9   0.0065   0.0121   0.0066  -0.0079  -0.0070   0.0046   0.00    8.6
2173 294318.000   1535068.4761  -4470499.2189   4268000.7484   1   9   0.0065   0.0121   0.0066  -0.0079  -0.0070   0.0046   0.00    8.3
2173 294319.000   1535068.4752  -4470499.2161   4268000.7468   1   9   0.0065   0.0121   0.0066  -0.0079  -0.0070   0.0046   0.00    8.3
2173 294320.000   1535068.4761  -4470499.2183   4268000.7468   1   9   0.0065   0.0121   0.0066  -0.0079  -0.0070   0.0046   0.00    9.7
2173 294321.000   1535068.4754  -4470499.2190   4268000.7482   1   9   0.0065   0.0121   0.0066  -0.0079  -0.0070   0.0046   0.00   10.6
2173 294322.000   1535068.4744  -4470499.2167   4268000.7480   1   9   0.0065   0.0121   0.0066  -0.0079  -0.0070   0.0046   0.00    7.6
2173 294323.000   1535068.4759  -4470499.2185   4268000.7495   1   9   0.0065   0.0121   0.0066  -0.0079  -0.0070   0.0046   0.00   11.1
2173 294324.000   1535068.4757  -4470499.2196   4268000.7507   1   9   0.0065   0.0121   0.0066  -0.0079  -0.0070   0.0046   0.00    9.3
2173 294325.000   1535068.4761  -4470499.2196   4268000.7485   1   9   0.0065   0.0121   0.0066  -0.0079  -0.0070   0.0046   0.00    8.2
2173 294326.000   1535068.4742  -4470499.2155   4268000.7460   1   9   0.0065   0.0121   0.0066  -0.0079  -0.0070   0.0046   0.00    7.9
2173 294327.000   1535068.4770  -4470499.2203   4268000.7481   1   9   0.0065   0.0121   0.0066  -0.0079  -0.0070   0.0046   0.00    8.8
2173 294328.000   1535068.4746  -4470499.2169   4268000.7474   1   9   0.0065   0.0121   0.0066  -0.0079  -0.0070   0.0046   0.00    8.1
2173 294329.000   1535068.4729  -4470499.2150   4268000.7471   1   9   0.0065   0.0121   0.0066  -0.0079  -0.0070   0.0046   0.00    8.1
2173 294330.000   1535068.4752  -4470499.2154   4268000.7458   1   9   0.0065   0.0121   0.0066  -0.0079  -0.0070   0.0046   0.00    7.3
2173 294331.000   1535068.4717  -4470499.2157   4268000.7452   1   9   0.0065   0.0121   0.0066  -0.0079  -0.0070   0.0046   0.00    8.4
2173 294332.000   1535068.4724  -4470499.2127   4268000.7456   1   9   0.0065   0.0121   0.0066  -0.0079  -0.0070   0.0046   0.00    7.7
2173 294333.000   1535068.4732  -4470499.2132   4268000.7442   1   9   0.0065   0.0121   0.0066  -0.0079  -0.0070   0.0046   0.00    8.1
2173 294334.000   1535068.4730  -4470499.2116   4268000.7419   1   9   0.0065   0.0121   0.0066  -0.0079  -0.0070   0.0046   0.00    9.4
2173 294335.000   1535068.4732  -4470499.2144   4268000.7433   1   9   0.0065   0.0121   0.0066  -0.0079  -0.0070   0.0046   0.00    8.3
2173 294336.000   1535068.4746  -4470499.2175   4268000.7459   1   9   0.0065   0.0121   0.0066  -0.0079  -0.0070   0.0046   0.00    9.0
2173 294337.000   1535068.4731  -4470499.2160   4268000.7446   1   9   0.0065   0.0121   0.0066  -0.0079  -0.0070   0.0046   0.00    7.2
2173 294338.000   1535068.4741  -4470499.2171   4268000.7456   1   9   0.0065   0.0121   0.0066  -0.0079  -0.0070   0.0046   0.00    7.5
2173 294339.000   1535068.4713  -4470499.2112   4268000.7446   1   9   0.0065   0.0121   0.0066  -0.0079  -0.0070   0.0046   0.00    6.7
2173 294340.000   1535068.4747  -4470499.2188   4268000.7465   1   9   0.0065   0.0121   0.0066  -0.0079  -0.0070   0.0046   0.00    7.8
2173 294341.000   1535068.4740  -4470499.2171   4268000.7458   1   9   0.0065   0.0121   0.0066  -0.0079  -0.0070   0.0046   0.00    8.2
2173 294342.000   1535068.4737  -4470499.2154   4268000.7433   1   9   0.0065   0.0121   0.0066  -0.0079  -0.0070   0.0046   0.00    8.1
2173 294343.000   1535068.4739  -4470499.2172   4268000.7452   1   9   0.0065   0.0121   0.0066  -0.0079  -0.0070   0.0046   0.00    6.8
2173 294344.000   1535068.4738  -4470499.2147   4268000.7442   1   9   0.0065   0.0121   0.0066  -0.0079  -0.0070   0.0046   0.00    5.9
2173 294345.000   1535068.4722  -4470499.2153   4268000.7436   1   9   0.0065   0.0121   0.0066  -0.0079  -0.0070   0.0046   0.00    7.2
2173 294346.000   1535068.4730  -4470499.2138   4268000.7425   1   9   0.0065   0.0121   0.0066  -0.0079  -0.0070   0.0046   0.00    6.7
2173 294347.000   1535068.4712  -4470499.2103   4268000.7418   1   9   0.0065   0.0121   0.0066  -0.0079  -0.0070   0.0046   0.00    6.8
2173 294348.000   1535068.4704  -4470499.2053   4268000.7394   1   9   0.0065   0.0121   0.0066  -0.0079  -0.0070   0.0046   0.00    7.0
2173 294349.000   1535068.4694  -4470499.2080   4268000.7415   1   9   0.0065   0.0121   0.0066  -0.0079  -0.0070   0.0046   0.00    6.4
2173 294350.000   1535068.4707  -4470499.2096   4268000.7423   1   9   0.0065   0.0121   0.0066  -0.0079  -0.0070   0.0046   0.00    6.9
2173 294351.000   1535068.4709  -4470499.2110   4268000.7429   1   9   0.0065   0.0121   0.0066  -0.0079  -0.0070   0.0046   0.00    6.1
2173 294352.000   1535068.4722  -4470499.2118   4268000.7413   1   9   0.0065   0.0121   0.0066  -0.0079  -0.0070   0.0046   0.00    7.7
2173 294353.000   1535068.4711  -4470499.2100   4268000.7427   1   9   0.0065   0.0121   0.0066  -0.0079  -0.0070   0.0046   0.00    7.1
2173 294354.000   1535068.4704  -4470499.2093   4268000.7419   1   9   0.0065   0.0121   0.0066  -0.0079  -0.0070   0.0046   0.00    5.5
2173 294355.000   1535068.4729  -4470499.2130   4268000.7436   1   9   0.0065   0.0121   0.0066  -0.0079  -0.0070   0.0046   0.00    6.3
2173 294356.000   1535068.4718  -4470499.2126   4268000.7440   1   9   0.0065   0.0121   0.0066  -0.0079  -0.0070   0.0046   0.00    5.4
2173 294357.000   1535068.4703  -4470499.2112   4268000.7422   1   9   0.0065   0.0121   0.0066  -0.0079  -0.0070   0.0046   0.00    5.9
2173 294358.000   1535068.4718  -4470499.2113   4268000.7438   1   9   0.0065   0.0121   0.0066  -0.0079  -0.0070   0.0046   0.00    5.9
2173 294359.000   1535068.4725  -4470499.2137   4268000.7433   1   9   0.0065   0.0121   0.0066  -0.0079  -0.0070   0.0046   0.00    6.0
2173 294360.000   1535068.4719  -4470499.2104   4268000.7423   1   9   0.0065   0.0121   0.0066  -0.0079  -0.0070   0.0046   0.00    6.6
2173 294361.000   1535068.4706  -4470499.2104   4268000.7428   1   9   0.0065   0.0121   0.0066  -0.0079  -0.0070   0.0046   0.00    6.3
2173 294362.000   1535068.4709  -4470499.2117   4268000.7409   1   9   0.0065   0.0121   0.0066  -0.0079  -0.0070   0.0046   0.00    6.6
2173 294363.000   1535068.4712  -4470499.2110   4268000.7425   1   9   0.0065   0.0121   0.0066  -0.0079  -0.0070   0.0046   0.00    6.2
2173 294364.000   1535068.4742  -4470499.2157   4268000.7450   1   9   0.0065   0.0121   0.0066  -0.0079  -0.0070   0.0046   0.00    5.6
2173 294365.000   1535068.4701  -4470499.2128   4268000.7454   1   9   0.0065   0.0121   0.0066  -0.0079  -0.0070   0.0046   0.00    5.7
2173 294366.000   1535068.4713  -4470499.2136   4268000.7448   1   9   0.0065   0.0121   0.0066  -0.0079  -0.0070   0.0046   0.00    6.0
2173 294367.000   1535068.4730  -4470499.2147   4268000.7461   1   9   0.0065   0.0121   0.0066  -0.0079  -0.0070   0.0046   0.00    5.7
2173 294368.000   1535068.4733  -4470499.2176   4268000.7455   1   9   0.0065   0.0121   0.0066  -0.0080  -0.0070   0.0046   0.00    5.8
2173 294369.000   1535068.4699  -4470499.2103   4268000.7435   1   9   0.0065   0.0121   0.0066  -0.0080  -0.0070   0.0046   0.00    5.1
2173 294370.000   1535068.4723  -4470499.2145   4268000.7428   1   9   0.0065   0.0121   0.0066  -0.0080  -0.0070   0.0046   0.00    5.3
2173 294371.000   1535068.4704  -4470499.2105   4268000.7430   1   9   0.0065   0.0121   0.0066  -0.0080  -0.0070   0.0046   0.00    5.4
2173 294372.000   1535068.4718  -4470499.2132   4268000.7444   1   9   0.0065   0.0121   0.0066  -0.0080  -0.0070   0.0046   0.00    5.9
2173 294373.000   1535068.4748  -4470499.2162   4268000.7465   1   9   0.0065   0.0121   0.0066  -0.0080  -0.0070   0.0046   0.00    5.6
2173 294374.000   1535068.4723  -4470499.2111   4268000.7437   1   9   0.0065   0.0121   0.0066  -0.0080  -0.0070   0.0046   0.00    6.8
2173 294375.000   1535068.4718  -4470499.2114   4268000.7427   1   9   0.0065   0.0121   0.0066  -0.0080  -0.0070   0.0046   0.00    5.9
2173 294376.000   1535068.4723  -4470499.2106   4268000.7435   1   9   0.0065   0.0121   0.0066  -0.0080  -0.0070   0.0046   0.00    6.3
2173 294377.000   1535068.4703  -4470499.2103   4268000.7435   1   9   0.0065   0.0121   0.0066  -0.0080  -0.0070   0.0046   0.00    5.8
2173 294378.000   1535068.4706  -4470499.2084   4268000.7451   1   9   0.0065   0.0121   0.0066  -0.0080  -0.0070   0.0046   0.00    6.6
2173 294379.000   1535068.4722  -4470499.2143   4268000.7454   1   9   0.0065   0.0121   0.0066  -0.0080  -0.0070   0.0046   0.00    4.9
2173 294380.000   1535068.4725  -4470499.2115   4268000.7447   1   9   0.0065   0.0121   0.0066  -0.0080  -0.0070   0.0046   0.00    5.6
2173 294381.000   1535068.4702  -4470499.2098   4268000.7415   1   9   0.0065   0.0121   0.0066  -0.0080  -0.0070   0.0046   0.00    6.3
2173 294382.000   1535068.4713  -4470499.2146   4268000.7440   1   9   0.0065   0.0121   0.0066  -0.0080  -0.0070   0.0046   0.00    5.9
2173 294383.000   1535068.4687  -4470499.2058   4268000.7435   1   9   0.0065   0.0121   0.0066  -0.0080  -0.0070   0.0046   0.00    5.7
2173 294384.000   1535068.4712  -4470499.2120   4268000.7445   1   9   0.0065   0.0121   0.0066  -0.0080  -0.0070   0.0046   0.00    6.0
2173 294385.000   1535068.4713  -4470499.2133   4268000.7444   1   9   0.0065   0.0121   0.0066  -0.0080  -0.0070   0.0046   0.00    6.0
2173 294386.000   1535068.4717  -4470499.2134   4268000.7456   1   9   0.0065   0.0121   0.0066  -0.0080  -0.0070   0.0046   0.00    6.7
2173 294387.000   1535068.4697  -4470499.2114   4268000.7453   1   9   0.0065   0.0121   0.0066  -0.0080  -0.0070   0.0046   0.00    6.3
2173 294388.000   1535068.4676  -4470499.2093   4268000.7466   1   9   0.0065   0.0121   0.0066  -0.0080  -0.0070   0.0046   0.00    5.5
2173 294389.000   1535068.4701  -4470499.2126   4268000.7460   1   9   0.0065   0.0121   0.0066  -0.0080  -0.0070   0.0046   0.00    5.1
2173 294390.000   1535068.4707  -4470499.2140   4268000.7459   1   9   0.0065   0.0121   0.0066  -0.0080  -0.0070   0.0046   0.00    5.0
2173 294391.000   1535068.4705  -4470499.2119   4268000.7448   1   9   0.0065   0.0121   0.0066  -0.0080  -0.0070   0.0046   0.00    5.6
2173 294392.000   1535068.4695  -4470499.2111   4268000.7436   1   9   0.0065   0.0121   0.0066  -0.0080  -0.0070   0.0046   0.00    6.3
2173 294393.000   1535068.4703  -4470499.2119   4268000.7447   1   9   0.0065   0.0121   0.0066  -0.0080  -0.0070   0.0046   0.00    5.5
2173 294394.000   1535068.4712  -4470499.2133   4268000.7447   1   9   0.0065   0.0121   0.0066  -0.0080  -0.0070   0.0046   0.00    5.1
2173 294395.000   1535068.4670  -4470499.2086   4268000.7448   1   9   0.0065   0.0121   0.0066  -0.0080  -0.0070   0.0046   0.00    5.5
2173 294396.000   1535068.4688  -4470499.2108   4268000.7430   1   9   0.0065   0.0121   0.0066  -0.0080  -0.0070   0.0046   0.00    6.3
2173 294397.000   1535068.4720  -4470499.2148   4268000.7462   1   9   0.0065   0.0121   0.0066  -0.0080  -0.0070   0.0046   0.00    6.0
2173 294398.000   1535068.4720  -4470499.2147   4268000.7467   1   9   0.0065   0.0121   0.0066  -0.0080  -0.0070   0.0046   0.00    6.0
2173 294399.000   1535068.4703  -4470499.2130   4268000.7482   1   9   0.0065   0.0121   0.0066  -0.0080  -0.0070   0.0046   0.00    4.9
2173 294400.000   1535068.4723  -4470499.2148   4268000.7464   1   9   0.0065   0.0121   0.0066  -0.0080  -0.0070   0.0046   0.00    4.9
2173 294401.000   1535068.4734  -4470499.2188   4268000.7484   1   9   0.0065   0.0121   0.0066  -0.0080  -0.0070   0.0046   0.00    5.7
2173 294402.000   1535068.4692  -4470499.2122   4268000.7485   1   9   0.0065   0.0121   0.0066  -0.0080  -0.0070   0.0046   0.00    5.1
2173 294403.000   1535068.4688  -4470499.2112   4268000.7463   1   9   0.0065   0.0121   0.0066  -0.0080  -0.0070   0.0046   0.00    4.8
2173 294404.000   1535068.4738  -4470499.2172   4268000.7484   1   9   0.0065   0.0121   0.0066  -0.0080  -0.0070   0.0046   0.00    4.7
2173 294405.000   1535068.4697  -4470499.2100   4268000.7495   1   9   0.0065   0.0121   0.0066  -0.0080  -0.0070   0.0046   0.00    4.9
2173 294406.000   1535068.4690  -4470499.2090   4268000.7454   1   9   0.0065   0.0121   0.0066  -0.0080  -0.0070   0.0046   0.00    4.9
2173 294407.000   1535068.4704  -4470499.2137   4268000.7478   1   9   0.0065   0.0121   0.0066  -0.0080  -0.0070   0.0046   0.00    5.7
2173 294408.000   1535068.4694  -4470499.2098   4268000.7490   1   9   0.0065   0.0121   0.0066  -0.0080  -0.0070   0.0046   0.00    5.4
2173 294409.000   1535068.4679  -4470499.2074   4268000.7458   1   9   0.0065   0.0121   0.0066  -0.0080  -0.0070   0.0046   0.00    6.0
2173 294410.000   1535068.4676  -4470499.2069   4268000.7430   1   9   0.0065   0.0121   0.0066  -0.0080  -0.0070   0.0046   0.00    5.7
2173 294411.000   1535068.4696  -4470499.2083   4268000.7440   1   9   0.0065   0.0121   0.0066  -0.0080  -0.0070   0.0046   0.00    6.7
2173 294412.000   1535068.4715  -4470499.2130   4268000.7473   1   9   0.0065   0.0121   0.0066  -0.0080  -0.0070   0.0046   0.00    6.7
2173 294413.000   1535068.4702  -4470499.2137   4268000.7498   1   9   0.0065   0.0121   0.0066  -0.0080  -0.0070   0.0046   0.00    7.0
2173 294414.000   1535068.4711  -4470499.2127   4268000.7460   1   9   0.0065   0.0121   0.0066  -0.0080  -0.0070   0.0046   0.00    6.9
2173 294415.000   1535068.4712  -4470499.2120   4268000.7466   1   9   0.0065   0.0121   0.0066  -0.0080  -0.0070   0.0046   0.00    7.3
2173 294416.000   1535068.4687  -4470499.2098   4268000.7455   1   9   0.0065   0.0121   0.0066  -0.0080  -0.0070   0.0046   0.00    6.9
2173 294417.000   1535068.4686  -4470499.2072   4268000.7440   1   9   0.0065   0.0121   0.0066  -0.0080  -0.0070   0.0046   0.00    6.2
2173 294418.000   1535068.4698  -4470499.2096   4268000.7442   1   9   0.0065   0.0121   0.0066  -0.0080  -0.0070   0.0046   0.00    6.1
2173 294419.000   1535068.4698  -4470499.2088   4268000.7449   1   9   0.0065   0.0121   0.0066  -0.0080  -0.0070   0.0046   0.00    6.8
2173 294420.000   1535068.4689  -4470499.2111   4268000.7465   1   9   0.0065   0.0121   0.0066  -0.0080  -0.0070   0.0046   0.00    5.9
2173 294421.000   1535068.4694  -4470499.2093   4268000.7479   1   9   0.0065   0.0121   0.0066  -0.0080  -0.0070   0.0046   0.00    6.1
2173 294422.000   1535068.4706  -4470499.2115   4268000.7467   1   9   0.0065   0.0121   0.0066  -0.0080  -0.0070   0.0046   0.00    4.4
2173 294423.000   1535068.4686  -4470499.2071   4268000.7453   1   9   0.0065   0.0121   0.0066  -0.0080  -0.0070   0.0046   0.00    6.0
2173 294424.000   1535068.4673  -4470499.2044   4268000.7469   1   9   0.0065   0.0121   0.0066  -0.0080  -0.0070   0.0046   0.00    6.0
2173 294425.000   1535068.4686  -4470499.2100   4268000.7499   1   9   0.0065   0.0121   0.0066  -0.0080  -0.0070   0.0046   0.00    5.3
2173 294426.000   1535068.4676  -4470499.2056   4268000.7441   1   9   0.0065   0.0121   0.0066  -0.0080  -0.0070   0.0046   0.00    6.6
2173 294427.000   1535068.4662  -4470499.2050   4268000.7454   1   9   0.0065   0.0121   0.0066  -0.0080  -0.0070   0.0046   0.00    6.4
2173 294428.000   1535068.4684  -4470499.2070   4268000.7464   1   9   0.0065   0.0121   0.0066  -0.0080  -0.0070   0.0046   0.00    6.0
2173 294429.000   1535068.4702  -4470499.2115   4268000.7461   1   9   0.0065   0.0121   0.0066  -0.0080  -0.0070   0.0046   0.00    7.6
2173 294430.000   1535068.4674  -4470499.2053   4268000.7451   1   9   0.0065   0.0121   0.0066  -0.0080  -0.0070   0.0046   0.00    6.3
2173 294431.000   1535068.4681  -4470499.2068   4268000.7455   1   9   0.0065   0.0121   0.0066  -0.0080  -0.0070   0.0046   0.00    6.6
2173 294432.000   1535068.4666  -4470499.2072   4268000.7455   1   9   0.0065   0.0121   0.0066  -0.0080  -0.0070   0.0046   0.00    6.1
2173 294433.000   1535068.4675  -4470499.2064   4268000.7450   1   9   0.0065   0.0121   0.0066  -0.0080  -0.0070   0.0046   0.00    7.2
2173 294434.000   1535068.4678  -4470499.2050   4268000.7423   1   9   0.0065   0.0121   0.0066  -0.0080  -0.0070   0.0046   0.00    8.4
2173 294435.000   1535068.4690  -4470499.2074   4268000.7463   1   9   0.0065   0.0121   0.0066  -0.0080  -0.0070   0.0046   0.00    7.8
2173 294436.000   1535068.4667  -4470499.2057   4268000.7432   1   9   0.0065   0.0121   0.0066  -0.0080  -0.0070   0.0046   0.00    8.7
2173 294437.000   1535068.4682  -4470499.2069   4268000.7434   1   9   0.0065   0.0121   0.0066  -0.0080  -0.0070   0.0046   0.00    8.7
2173 294438.000   1535068.4676  -4470499.2039   4268000.7418   1   9   0.0065   0.0121   0.0066  -0.0080  -0.0070   0.0046   0.00    7.6
2173 294439.000   1535068.4684  -4470499.2076   4268000.7442   1   9   0.0065   0.0121   0.0066  -0.0080  -0.0070   0.0046   0.00    7.0
2173 294440.000   1535068.4669  -4470499.2056   4268000.7442   1   9   0.0065   0.0121   0.0066  -0.0080  -0.0070   0.0046   0.00    7.8
2173 294441.000   1535068.4664  -4470499.2023   4268000.7416   1   9   0.0065   0.0121   0.0066  -0.0080  -0.0070   0.0046   0.00   10.0
2173 294442.000   1535068.4661  -4470499.1982   4268000.7422   1   9   0.0065   0.0121   0.0066  -0.0080  -0.0070   0.0046   0.00   10.8
2173 294443.000   1535068.4672  -4470499.2056   4268000.7433   1   9   0.0065   0.0121   0.0066  -0.0080  -0.0070   0.0046   0.00    9.5
2173 294444.000   1535068.4684  -4470499.2079   4268000.7459   1   9   0.0065   0.0121   0.0066  -0.0080  -0.0070   0.0046   0.00   11.1
2173 294445.000   1535068.4677  -4470499.2079   4268000.7470   1   9   0.0065   0.0121   0.0066  -0.0080  -0.0070   0.0046   0.00    9.1
2173 294446.000   1535068.4672  -4470499.2069   4268000.7445   1   9   0.0065   0.0121   0.0066  -0.0080  -0.0070   0.0046   0.00   11.2
2173 294447.000   1535068.4671  -4470499.2067   4268000.7429   1   9   0.0065   0.0121   0.0066  -0.0080  -0.0070   0.0046   0.00   10.6
2173 294448.000   1535068.4657  -4470499.2036   4268000.7423   1   9   0.0065   0.0121   0.0066  -0.0080  -0.0070   0.0046   0.00   10.6
2173 294449.000   1535068.4669  -4470499.2079   4268000.7453   1   9   0.0065   0.0121   0.0066  -0.0080  -0.0070   0.0046   0.00   11.1
2173 294450.000   1535068.4673  -4470499.2078   4268000.7453   1   9   0.0065   0.0121   0.0066  -0.0080  -0.0070   0.0046   0.00   10.9
2173 294451.000   1535068.4669  -4470499.2070   4268000.7430   1   9   0.0065   0.0121   0.0066  -0.0080  -0.0070   0.0046   0.00   10.5
2173 294452.000   1535068.4677  -4470499.2066   4268000.7439   1   9   0.0065   0.0121   0.0066  -0.0080  -0.0070   0.0046   0.00   11.1
2173 294453.000   1535068.4687  -4470499.2071   4268000.7416   1   9   0.0065   0.0121   0.0066  -0.0080  -0.0070   0.0046   0.00   10.9
2173 294454.000   1535068.4668  -4470499.2062   4268000.7420   1   9   0.0065   0.0121   0.0066  -0.0080  -0.0070   0.0046   0.00   10.8
2173 294455.000   1535068.4665  -4470499.2027   4268000.7421   1   9   0.0065   0.0121   0.0066  -0.0080  -0.0070   0.0046   0.00    9.0
2173 294456.000   1535068.4673  -4470499.2059   4268000.7422   1   9   0.0065   0.0121   0.0066  -0.0080  -0.0070   0.0046   0.00   10.0
2173 294457.000   1535068.4656  -4470499.2032   4268000.7403   1   9   0.0065   0.0121   0.0066  -0.0080  -0.0070   0.0046   0.00    9.7
2173 294458.000   1535068.4689  -4470499.2089   4268000.7440   1   9   0.0065   0.0121   0.0066  -0.0080  -0.0070   0.0046   0.00    9.1
2173 294459.000   1535068.4681  -4470499.2071   4268000.7439   1   9   0.0065   0.0121   0.0066  -0.0080  -0.0070   0.0046   0.00   13.1
2173 294460.000   1535068.4651  -4470499.2035   4268000.7425   1   9   0.0065   0.0121   0.0066  -0.0080  -0.0070   0.0046   0.00   10.1
2173 294461.000   1535068.4683  -4470499.2086   4268000.7436   1   9   0.0065   0.0121   0.0066  -0.0080  -0.0070   0.0046   0.00   10.5
2173 294462.000   1535068.4681  -4470499.2086   4268000.7419   1   9   0.0065   0.0121   0.0066  -0.0080  -0.0070   0.0046   0.00    9.4
2173 294463.000   1535068.4676  -4470499.2098   4268000.7442   1   9   0.0065   0.0121   0.0066  -0.0080  -0.0070   0.0046   0.00    8.5
2173 294464.000   1535068.4675  -4470499.2103   4268000.7448   1   9   0.0065   0.0121   0.0066  -0.0080  -0.0070   0.0046   0.00    8.1
2173 294465.000   1535068.4664  -4470499.2080   4268000.7441   1   9   0.0065   0.0121   0.0066  -0.0080  -0.0070   0.0046   0.00    7.5
2173 294466.000   1535068.4688  -4470499.2116   4268000.7445   1   9   0.0065   0.0121   0.0066  -0.0080  -0.0070   0.0046   0.00    6.7
2173 294467.000   1535068.4673  -4470499.2100   4268000.7447   1   9   0.0065   0.0121   0.0066  -0.0080  -0.0070   0.0046   0.00    7.9
2173 294468.000   1535068.4675  -4470499.2049   4268000.7411   1   9   0.0065   0.0121   0.0066  -0.0080  -0.0070   0.0046   0.00    8.5
2173 294469.000   1535068.4671  -4470499.2073   4268000.7428   1   9   0.0065   0.0121   0.0066  -0.0080  -0.0070   0.0046   0.00    6.8
2173 294470.000   1535068.4674  -4470499.2087   4268000.7437   1   9   0.0065   0.0121   0.0066  -0.0080  -0.0070   0.0046   0.00    6.2
2173 294471.000   1535068.4692  -4470499.2133   4268000.7449   1   9   0.0065   0.0121   0.0066  -0.0080  -0.0070   0.0046   0.00    8.2
2173 294472.000   1535068.4666  -4470499.2051   4268000.7413   1   9   0.0065   0.0121   0.0066  -0.0080  -0.0070   0.0046   0.00    6.5
2173 294473.000   1535068.4666  -4470499.2040   4268000.7435   1   9   0.0065   0.0121   0.0066  -0.0080  -0.0070   0.0046   0.00    6.9
2173 294474.000   1535068.4652  -4470499.2055   4268000.7432   1   9   0.0065   0.0121   0.0066  -0.0080  -0.0070   0.0046   0.00    6.5
2173 294475.000   1535068.4669  -4470499.2069   4268000.7421   1   9   0.0065   0.0121   0.0066  -0.0080  -0.0070   0.0046   0.00    6.1
2173 294476.000   1535068.4668  -4470499.2081   4268000.7440   1   9   0.0065   0.0121   0.0066  -0.0080  -0.0070   0.0046   0.00    6.7
2173 294477.000   1535068.4677  -4470499.2066   4268000.7431   1   9   0.0065   0.0121   0.0066  -0.0080  -0.0070   0.0046   0.00    7.3
2173 294478.000   1535068.4684  -4470499.2057   4268000.7418   1   9   0.0065   0.0121   0.0066  -0.0080  -0.0070   0.0046   0.00    8.8
2173 294479.000   1535068.4651  -4470499.2000   4268000.7382   1   9   0.0065   0.0121   0.0066  -0.0080  -0.0070   0.0046   0.00    7.8
2173 294480.000   1535068.4651  -4470499.2008   4268000.7415   1   9   0.0065   0.0121   0.0066  -0.0080  -0.0070   0.0046   0.00    7.3
2173 294481.000   1535068.4664  -4470499.2071   4268000.7419   1   9   0.0065   0.0121   0.0066  -0.0080  -0.0070   0.0046   0.00    7.4
2173 294482.000   1535068.4668  -4470499.2057   4268000.7411   1   9   0.0065   0.0121   0.0066  -0.0080  -0.0070   0.0046   0.00    7.2
2173 294483.000   1535068.4654  -4470499.2042   4268000.7391   1   9   0.0065   0.0121   0.0066  -0.0080  -0.0070   0.0046   0.00    6.0
2173 294484.000   1535068.4665  -4470499.2053   4268000.7393   1   9   0.0065   0.0121   0.0066  -0.0080  -0.0070   0.0046   0.00    7.1
2173 294485.000   1535068.4658  -4470499.2018   4268000.7390   1   9   0.0065   0.0121   0.0066  -0.0080  -0.0070   0.0046   0.00    8.4
2173 294486.000   1535068.4649  -4470499.2046   4268000.7418   1   9   0.0065   0.0121   0.0066  -0.0080  -0.0070   0.0046   0.00    7.7
2173 294487.000   1535068.4681  -4470499.2067   4268000.7398   1   9   0.0065   0.0121   0.0066  -0.0080  -0.0070   0.0046   0.00    7.0
2173 294488.000   1535068.4664  -4470499.2035   4268000.7388   1   9   0.0065   0.0121   0.0066  -0.0080  -0.0070   0.0046   0.00    7.2
2173 294489.000   1535068.4665  -4470499.2013   4268000.7391   1   9   0.0065   0.0121   0.0066  -0.0080  -0.0070   0.0046   0.00    7.2
2173 294490.000   1535068.4698  -4470499.2098   4268000.7412   1   9   0.0065   0.0121   0.0066  -0.0080  -0.0070   0.0046   0.00   10.0
2173 294491.000   1535068.4689  -4470499.2055   4268000.7411   1   9   0.0065   0.0121   0.0066  -0.0080  -0.0070   0.0046   0.00    6.4
2173 294492.000   1535068.4676  -4470499.2038   4268000.7392   1   9   0.0065   0.0121   0.0066  -0.0080  -0.0070   0.0046   0.00    6.9
2173 294493.000   1535068.4699  -4470499.2092   4268000.7413   1   9   0.0065   0.0121   0.0066  -0.0080  -0.0070   0.0046   0.00    6.8
2173 294494.000   1535068.4673  -4470499.2025   4268000.7398   1   9   0.0065   0.0121   0.0066  -0.0080  -0.0070   0.0046   0.00    6.8
2173 294495.000   1535068.4667  -4470499.2030   4268000.7383   1   9   0.0065   0.0121   0.0066  -0.0080  -0.0070   0.0046   0.00    6.8
2173 294496.000   1535068.4676  -4470499.2004   4268000.7408   1   9   0.0065   0.0121   0.0066  -0.0080  -0.0070   0.0046   0.00    5.9
2173 294497.000   1535068.4674  -4470499.2013   4268000.7394   1   9   0.0065   0.0121   0.0066  -0.0080  -0.0070   0.0046   0.00    6.4
2173 294498.000   1535068.4687  -4470499.2041   4268000.7392   1   9   0.0065   0.0121   0.0066  -0.0080  -0.0069   0.0046   0.00    7.4
2173 294499.000   1535068.4680  -4470499.2057   4268000.7380   1   9   0.0065   0.0121   0.0066  -0.0080  -0.0069   0.0046   0.00    5.9
2173 294500.000   1535068.4685  -4470499.2065   4268000.7391   1   9   0.0065   0.0121   0.0066  -0.0080  -0.0069   0.0046   0.00    6.4
2173 294501.000   1535068.4701  -4470499.2074   4268000.7396   1   9   0.0065   0.0121   0.0066  -0.0080  -0.0069   0.0046   0.00    6.1
2173 294502.000   1535068.4674  -4470499.2021   4268000.7354   1   9   0.0065   0.0121   0.0066  -0.0080  -0.0069   0.0046   0.00    6.4
2173 294503.000   1535068.4688  -4470499.2088   4268000.7396   1   9   0.0065   0.0121   0.0066  -0.0080  -0.0069   0.0046   0.00    7.8
2173 294504.000   1535068.4679  -4470499.2060   4268000.7379   1   9   0.0065   0.0121   0.0066  -0.0080  -0.0069   0.0046   0.00    7.3
2173 294505.000   1535068.4682  -4470499.2068   4268000.7407   1   9   0.0065   0.0121   0.0066  -0.0080  -0.0069   0.0046   0.00    5.5
2173 294506.000   1535068.4693  -4470499.2074   4268000.7405   1   9   0.0065   0.0121   0.0066  -0.0080  -0.0069   0.0046   0.00    5.6
2173 294507.000   1535068.4707  -4470499.2107   4268000.7403   1   9   0.0065   0.0121   0.0066  -0.0080  -0.0069   0.0046   0.00    6.8
2173 294508.000   1535068.4678  -4470499.2082   4268000.7397   1   9   0.0065   0.0121   0.0066  -0.0080  -0.0069   0.0046   0.00    7.2
2173 294509.000   1535068.4685  -4470499.2084   4268000.7396   1   9   0.0065   0.0121   0.0066  -0.0080  -0.0069   0.0046   0.00    7.0
2173 294510.000   1535068.4687  -4470499.2096   4268000.7413   1   9   0.0065   0.0121   0.0066  -0.0080  -0.0069   0.0046   0.00    6.1
2173 294511.000   1535068.4715  -4470499.2125   4268000.7413   1   9   0.0065   0.0121   0.0066  -0.0080  -0.0069   0.0046   0.00    6.3
2173 294512.000   1535068.4681  -4470499.2081   4268000.7387   1   9   0.0065   0.0121   0.0066  -0.0080  -0.0069   0.0046   0.00    7.0
2173 294513.000   1535068.4676  -4470499.2080   4268000.7406   1   9   0.0065   0.0121   0.0066  -0.0080  -0.0069   0.0046   0.00    6.4
2173 294514.000   1535068.4679  -4470499.2085   4268000.7422   1   9   0.0065   0.0121   0.0066  -0.0080  -0.0069   0.0046   0.00    6.2
2173 294515.000   1535068.4710  -4470499.2116   4268000.7414   1   9   0.0065   0.0121   0.0066  -0.0080  -0.0069   0.0046   0.00    8.1
2173 294516.000   1535068.4678  -4470499.2088   4268000.7403   1   9   0.0065   0.0121   0.0066  -0.0080  -0.0069   0.0046   0.00    7.0
2173 294517.000   1535068.4699  -4470499.2141   4268000.7433   1   9   0.0065   0.0121   0.0066  -0.0080  -0.0069   0.0046   0.00    6.0
2173 294518.000   1535068.4690  -4470499.2086   4268000.7407   1   9   0.0065   0.0121   0.0066  -0.0080  -0.0069   0.0046   0.00    5.7
2173 294519.000   1535068.4720  -4470499.2142   4268000.7439   1   9   0.0065   0.0121   0.0066  -0.0080  -0.0069   0.0046   0.00    6.0
2173 294520.000   1535068.4700  -4470499.2101   4268000.7402   1   9   0.0065   0.0121   0.0066  -0.0080  -0.0069   0.0046   0.00    5.7
2173 294521.000   1535068.4723  -4470499.2167   4268000.7429   1   9   0.0065   0.0121   0.0066  -0.0080  -0.0069   0.0046   0.00    5.8
2173 294522.000   1535068.4692  -4470499.2114   4268000.7421   1   9   0.0065   0.0120   0.0066  -0.0080  -0.0069   0.0046   0.00    5.7
2173 294523.000   1535068.4686  -4470499.2136   4268000.7414   1   9   0.0065   0.0120   0.0066  -0.0080  -0.0069   0.0046   0.00    5.5
2173 294524.000   1535068.4676  -4470499.2114   4268000.7411   1   9   0.0065   0.0120   0.0066  -0.0080  -0.0069   0.0046   0.00    6.0
2173 294525.000   1535068.4705  -4470499.2146   4268000.7426   1   9   0.0065   0.0120   0.0066  -0.0080  -0.0069   0.0046   0.00    6.2
2173 294526.000   1535068.4697  -4470499.2116   4268000.7395   1   9   0.0065   0.0120   0.0066  -0.0080  -0.0069   0.0046   0.00    6.3
2173 294527.000   1535068.4712  -4470499.2129   4268000.7412   1   9   0.0065   0.0120   0.0066  -0.0080  -0.0069   0.0046   0.00    7.7
2173 294528.000   1535068.4695  -4470499.2137   4268000.7436   1   9   0.0065   0.0120   0.0066  -0.0080  -0.0069   0.0046   0.00    6.1
2173 294529.000   1535068.4687  -4470499.2155   4268000.7451   1   9   0.0065   0.0120   0.0066  -0.0080  -0.0069   0.0046   0.00    6.6
2173 294530.000   1535068.4714  -4470499.2145   4268000.7429   1   9   0.0065   0.0120   0.0066  -0.0080  -0.0069   0.0046   0.00    7.2
2173 294531.000   1535068.4703  -4470499.2161   4268000.7411   1   9   0.0065   0.0120   0.0066  -0.0080  -0.0069   0.0046   0.00    6.8
2173 294532.000   1535068.4707  -4470499.2172   4268000.7404   1   9   0.0065   0.0120   0.0066  -0.0080  -0.0069   0.0046   0.00    9.4
2173 294533.000   1535068.4677  -4470499.2093   4268000.7383   1   9   0.0065   0.0120   0.0066  -0.0080  -0.0069   0.0046   0.00    6.5
2173 294534.000   1535068.4680  -4470499.2115   4268000.7401   1   9   0.0065   0.0120   0.0066  -0.0080  -0.0069   0.0046   0.00    7.3
2173 294535.000   1535068.4675  -4470499.2113   4268000.7407   1   9   0.0065   0.0120   0.0066  -0.0080  -0.0069   0.0046   0.00    7.8
2173 294536.000   1535068.4689  -4470499.2117   4268000.7390   1   9   0.0065   0.0120   0.0066  -0.0080  -0.0069   0.0046   0.00    7.5
2173 294537.000   1535068.4694  -4470499.2165   4268000.7410   1   9   0.0065   0.0120   0.0066  -0.0080  -0.0069   0.0046   0.00    7.3
2173 294538.000   1535068.4682  -4470499.2115   4268000.7409   1   9   0.0065   0.0120   0.0066  -0.0080  -0.0069   0.0046   0.00    6.5
2173 294539.000   1535068.4702  -4470499.2170   4268000.7399   1   9   0.0065   0.0120   0.0066  -0.0080  -0.0069   0.0046   0.00    5.6
2173 294540.000   1535068.4667  -4470499.2114   4268000.7423   1   9   0.0065   0.0120   0.0066  -0.0080  -0.0069   0.0046   0.00    6.6
2173 294541.000   1535068.4695  -4470499.2127   4268000.7411   1   9   0.0065   0.0120   0.0066  -0.0080  -0.0069   0.0046   0.00    8.7
2173 294542.000   1535068.4710  -4470499.2154   4268000.7423   1   9   0.0065   0.0120   0.0066  -0.0080  -0.0069   0.0046   0.00    6.2
2173 294543.000   1535068.4693  -4470499.2144   4268000.7398   1   9   0.0065   0.0120   0.0066  -0.0080  -0.0069   0.0046   0.00    6.3
2173 294544.000   1535068.4690  -4470499.2160   4268000.7394   1   9   0.0065   0.0120   0.0066  -0.0080  -0.0069   0.0046   0.00    6.7
2173 294545.000   1535068.4689  -4470499.2120   4268000.7370   1   9   0.0065   0.0120   0.0066  -0.0080  -0.0069   0.0046   0.00    6.9
2173 294546.000   1535068.4688  -4470499.2139   4268000.7369   1   9   0.0065   0.0120   0.0066  -0.0080  -0.0069   0.0046   0.00    5.2
2173 294547.000   1535068.4682  -4470499.2152   4268000.7397   1   9   0.0065   0.0120   0.0066  -0.0080  -0.0069   0.0046   0.00    5.6
2173 294548.000   1535068.4661  -4470499.2137   4268000.7384   1   9   0.0065   0.0120   0.0066  -0.0080  -0.0069   0.0046   0.00    5.3
2173 294549.000   1535068.4687  -4470499.2158   4268000.7387   1   9   0.0065   0.0120   0.0066  -0.0080  -0.0069   0.0046   0.00    5.8
2173 294550.000   1535068.4703  -4470499.2162   4268000.7383   1   9   0.0065   0.0120   0.0066  -0.0080  -0.0069   0.0046   0.00    6.6
2173 294551.000   1535068.4677  -4470499.2133   4268000.7389   1   9   0.0065   0.0120   0.0066  -0.0080  -0.0069   0.0046   0.00    5.3
2173 294552.000   1535068.4689  -4470499.2141   4268000.7383   1   9   0.0065   0.0120   0.0066  -0.0080  -0.0069   0.0046   0.00    6.3
2173 294553.000   1535068.4707  -4470499.2187   4268000.7412   1   9   0.0065   0.0120   0.0066  -0.0080  -0.0069   0.0046   0.00    6.8
2173 294554.000   1535068.4689  -4470499.2118   4268000.7375   1   9   0.0065   0.0120   0.0066  -0.0080  -0.0069   0.0046   0.00    7.1
2173 294555.000   1535068.4704  -4470499.2182   4268000.7404   1   9   0.0065   0.0120   0.0066  -0.0080  -0.0069   0.0046   0.00    6.4
