% program   : rnx2rtkp ver.2.4.3 b31
% inp file  : ngs/21_08_31_19_18_41_pbch.obs
% inp file  : ngs/21_08_31_19_18_41_pbch_P1.obs
% inp file  : ngs/21_08_31_19_18_41_brdc.nav
% obs start : 2021/08/31 19:00:00.0 GPST (week2173 241200.0s)
% obs end   : 2021/08/31 19:59:59.0 GPST (week2173 244799.0s)
% ref pos   :   981335.1290  -5615090.0770   2852006.0730
%
% (x/y/z-ecef=WGS84,Q=1:fix,2:float,3:sbas,4:dgps,5:single,6:ppp,ns=# of satellites)
%  GPST              x-ecef(m)      y-ecef(m)      z-ecef(m)   Q  ns   sdx(m)   sdy(m)   sdz(m)  sdxy(m)  sdyz(m)  sdzx(m) age(s)  ratio
2173 242296.000    967386.1688  -5611811.9745   2863022.8762   2   7   0.6059   1.3113   0.6830  -0.6843  -0.8240   0.4619 -30.00    1.9
2173 242297.000    967386.1669  -5611811.9668   2863022.8656   2   7   0.4307   0.9325   0.4854  -0.4862  -0.5857   0.3282 -29.00    1.9
2173 242298.000    967386.1631  -5611811.9576   2863022.8625   2   7   0.3526   0.7633   0.3973  -0.3979  -0.4794   0.2687 -28.00    1.9
2173 242299.000    967386.1615  -5611811.9555   2863022.8631   2   7   0.3059   0.6621   0.3447  -0.3452  -0.4158   0.2331 -27.00    1.9
2173 242300.000    967386.1572  -5611811.9580   2863022.8661   2   7   0.2740   0.5929   0.3087  -0.3092  -0.3724   0.2087 -26.00    1.9
2173 242301.000    967386.1574  -5611811.9641   2863022.8687   2   7   0.2504   0.5417   0.2821  -0.2825  -0.3402   0.1907 -25.00    1.8
2173 242302.000    967386.1585  -5611811.9675   2863022.8685   2   7   0.2320   0.5018   0.2613  -0.2617  -0.3152   0.1767 -24.00    1.8
2173 242303.000    967386.1572  -5611811.9690   2863022.8682   2   7   0.2171   0.4696   0.2446  -0.2449  -0.2949   0.1654 -23.00    1.7
2173 242304.000    967386.1586  -5611811.9780   2863022.8728   2   7   0.2048   0.4428   0.2306  -0.2310  -0.2781   0.1560 -22.00    1.7
2173 242305.000    967386.1564  -5611811.9745   2863022.8711   2   7   0.1944   0.4201   0.2188  -0.2192  -0.2638   0.1480 -21.00    1.7
2173 242306.000    967386.1577  -5611811.9817   2863022.8737   2   7   0.1853   0.4005   0.2086  -0.2089  -0.2515   0.1411 -20.00    1.7
2173 242307.000    967386.1569  -5611811.9835   2863022.8748   2   7   0.1774   0.3834   0.1997  -0.2000  -0.2408   0.1350 -19.00    1.6
2173 242308.000    967386.1611  -5611811.9911   2863022.8769   2   7   0.1705   0.3682   0.1918  -0.1921  -0.2312   0.1297 -18.00    1.6
2173 242309.000    967386.1593  -5611811.9950   2863022.8776   2   7   0.1642   0.3547   0.1848  -0.1850  -0.2227   0.1249 -17.00    1.5
2173 242310.000    967386.1578  -5611811.9938   2863022.8794   2   7   0.1586   0.3425   0.1784  -0.1786  -0.2150   0.1206 -16.00    1.5
2173 242311.000    967386.1588  -5611811.9945   2863022.8795   2   7   0.1535   0.3314   0.1726  -0.1728  -0.2080   0.1167 -15.00    1.5
2173 242312.000    967386.1570  -5611811.9959   2863022.8819   2   7   0.1489   0.3213   0.1674  -0.1675  -0.2016   0.1131 -14.00    1.4
2173 242313.000    967386.1567  -5611811.9906   2863022.8784   2   7   0.1446   0.3120   0.1625  -0.1627  -0.1958   0.1098 -13.00    1.4
2173 242314.000    967386.1567  -5611811.9951   2863022.8803   2   7   0.1406   0.3034   0.1581  -0.1582  -0.1904   0.1068 -12.00    1.4
2173 242315.000    967386.1562  -5611811.9920   2863022.8801   2   7   0.1370   0.2954   0.1539  -0.1540  -0.1854   0.1040 -11.00    1.4
2173 242316.000    967386.1549  -5611811.9918   2863022.8787   2   7   0.1336   0.2880   0.1501  -0.1501  -0.1807   0.1014 -10.00    1.4
2173 242317.000    967386.1499  -5611811.9840   2863022.8777   2   7   0.1304   0.2811   0.1465  -0.1465  -0.1763   0.0989  -9.00    1.4
2173 242318.000    967386.1518  -5611811.9834   2863022.8770   2   7   0.1275   0.2746   0.1431  -0.1431  -0.1722   0.0966  -8.00    1.4
2173 242319.000    967386.1501  -5611811.9776   2863022.8745   2   7   0.1247   0.2686   0.1399  -0.1399  -0.1684   0.0945  -7.00    1.4
2173 242320.000    967386.1510  -5611811.9792   2863022.8741   2   7   0.1221   0.2628   0.1369  -0.1369  -0.1648   0.0924  -6.00    1.4
2173 242321.000    967386.1478  -5611811.9752   2863022.8725   2   7   0.1197   0.2574   0.1341  -0.1341  -0.1613   0.0905  -5.00    1.4
2173 242322.000    967386.1465  -5611811.9695   2863022.8687   2   7   0.1173   0.2522   0.1315  -0.1314  -0.1581   0.0887  -4.00    1.4
2173 242323.000    967386.1476  -5611811.9688   2863022.8691   2   7   0.1151   0.2474   0.1289  -0.1288  -0.1550   0.0870  -3.00    1.4
2173 242324.000    967386.1472  -5611811.9659   2863022.8665   2   7   0.1131   0.2427   0.1266  -0.1264  -0.1520   0.0853  -2.00    1.3
2173 242325.000    967386.1498  -5611811.9699   2863022.8667   2   7   0.1111   0.2383   0.1243  -0.1241  -0.1492   0.0838  -1.00    1.3
2173 242326.000    967386.1497  -5611811.9757   2863022.8698   2   7   0.1092   0.2342   0.1221  -0.1219  -0.1466   0.0823   0.00    1.2
2173 242327.000    967386.1976  -5611812.0092   2863022.8951   2   7   0.6051   1.3038   0.6801  -0.6806  -0.8187   0.4600   0.00    1.1
2173 242328.000    967386.2189  -5611812.0714   2863022.9078   2   7   0.6051   1.3037   0.6800  -0.6805  -0.8185   0.4600   0.00    1.0
2173 242329.000    967386.2842  -5611812.1051   2863022.9659   2   7   0.6051   1.3035   0.6800  -0.6805  -0.8184   0.4600   0.00    1.0
2173 242330.000    967386.2903  -5611812.2197   2863022.9877   2   7   0.6051   1.3033   0.6799  -0.6804  -0.8183   0.4599   0.00    1.0
2173 242331.000    967386.3749  -5611812.3302   2863023.0103   2   7   0.6051   1.3031   0.6799  -0.6803  -0.8182   0.4599   0.00    1.1
2173 242332.000    967386.4048  -5611812.4370   2863023.0726   2   7   0.6051   1.3029   0.6798  -0.6802  -0.8180   0.4599   0.00    1.1
2173 242333.000    967386.3751  -5611812.3304   2863023.0430   2   7   0.6051   1.3028   0.6798  -0.6801  -0.8179   0.4598   0.00    1.1
2173 242334.000    967386.3604  -5611812.3645   2863023.0541   2   7   0.6051   1.3026   0.6797  -0.6801  -0.8178   0.4598   0.00    1.1
2173 242335.000    967386.3600  -5611812.3490   2863023.0699   2   7   0.6051   1.3024   0.6796  -0.6800  -0.8176   0.4598   0.00    1.1
2173 242336.000    967386.3676  -5611812.2506   2863023.0667   2   7   0.6051   1.3022   0.6796  -0.6799  -0.8175   0.4597   0.00    1.1
2173 242337.000    967386.2344  -5611812.0656   2863023.0184   2   7   0.6051   1.3020   0.6795  -0.6798  -0.8174   0.4597   0.00    1.2
2173 242338.000    967386.1667  -5611812.0624   2863023.0234   2   7   0.6051   1.3019   0.6795  -0.6797  -0.8173   0.4597   0.00    1.1
2173 242339.000    967386.1868  -5611812.0190   2863022.9982   2   7   0.6051   1.3017   0.6794  -0.6797  -0.8171   0.4596   0.00    1.1
2173 242340.000    967386.1256  -5611811.8202   2863022.9633   2   7   0.6051   1.3015   0.6794  -0.6796  -0.8170   0.4596   0.00    1.1
2173 242341.000    967386.1150  -5611811.8967   2863022.9682   2   7   0.6052   1.3013   0.6793  -0.6795  -0.8169   0.4596   0.00    1.1
2173 242342.000    967386.1420  -5611811.9024   2863022.9262   2   7   0.6052   1.3011   0.6793  -0.6794  -0.8167   0.4595   0.00    1.1
2173 242343.000    967386.1052  -5611811.8330   2863022.9288   2   7   0.6052   1.3010   0.6792  -0.6793  -0.8166   0.4595   0.00    1.1
2173 242344.000    967386.1348  -5611811.8132   2863022.9146   2   7   0.6052   1.3008   0.6792  -0.6793  -0.8165   0.4595   0.00    1.1
2173 242345.000    967386.1376  -5611811.8241   2863022.9372   2   7   0.6052   1.3006   0.6791  -0.6792  -0.8164   0.4594   0.00    1.1
2173 242346.000    967386.1493  -5611811.8787   2863022.9945   2   7   0.6052   1.3004   0.6790  -0.6791  -0.8162   0.4594   0.00    1.2
2173 242347.000    967386.2022  -5611811.9516   2863023.0081   2   7   0.6052   1.3002   0.6790  -0.6790  -0.8161   0.4593   0.00    1.1
2173 242348.000    967386.2136  -5611811.9803   2863022.9838   2   7   0.6052   1.3000   0.6789  -0.6789  -0.8160   0.4593   0.00    1.0
2173 242349.000    967386.2138  -5611812.1327   2863023.0407   2   7   0.6052   1.2999   0.6789  -0.6789  -0.8158   0.4593   0.00    1.0
2173 242350.000    967386.2460  -5611812.1023   2863023.0424   2   7   0.6052   1.2997   0.6788  -0.6788  -0.8157   0.4592   0.00    1.0
2173 242351.000    967386.2405  -5611812.1431   2863023.0197   2   7   0.6052   1.2995   0.6788  -0.6787  -0.8156   0.4592   0.00    1.1
2173 242352.000    967386.2005  -5611812.1351   2863023.0557   2   7   0.6052   1.2993   0.6787  -0.6786  -0.8154   0.4592   0.00    1.0
2173 242353.000    967386.1724  -5611812.2698   2863023.1050   2   7   0.6052   1.2991   0.6787  -0.6785  -0.8153   0.4591   0.00    1.0
2173 242354.000    967386.1609  -5611812.2174   2863023.0909   2   7   0.6052   1.2989   0.6786  -0.6784  -0.8152   0.4591   0.00    1.1
2173 242355.000    967386.1494  -5611812.1629   2863023.0479   2   7   0.6052   1.2988   0.6785  -0.6784  -0.8151   0.4591   0.00    1.0
2173 242356.000    967386.0712  -5611811.8789   2863022.9661   2   7   0.6052   1.2986   0.6785  -0.6783  -0.8149   0.4590   0.00    1.0
2173 242357.000    967386.0643  -5611811.9179   2863022.9530   2   7   0.6053   1.2984   0.6784  -0.6782  -0.8148   0.4590   0.00    1.1
2173 242358.000    967385.9563  -5611811.6184   2863022.8089   2   7   0.6053   1.2982   0.6784  -0.6781  -0.8147   0.4590   0.00    1.1
2173 242359.000    967386.0128  -5611811.6227   2863022.8182   2   7   0.6053   1.2980   0.6783  -0.6780  -0.8145   0.4589   0.00    1.1
2173 242360.000    967386.0407  -5611811.6206   2863022.7913   2   7   0.6053   1.2979   0.6783  -0.6780  -0.8144   0.4589   0.00    1.1
2173 242361.000    967386.0444  -5611811.6659   2863022.7362   2   7   0.6053   1.2977   0.6782  -0.6779  -0.8143   0.4589   0.00    1.1
2173 242362.000    967386.0865  -5611811.7656   2863022.6636   2   7   0.6053   1.2975   0.6782  -0.6778  -0.8141   0.4588   0.00    1.1
2173 242363.000    967386.0017  -5611811.7345   2863022.6666   2   7   0.6053   1.2973   0.6781  -0.6777  -0.8140   0.4588   0.00    1.0
2173 242364.000    967386.0090  -5611811.8483   2863022.7448   2   7   0.6053   1.2971   0.6781  -0.6776  -0.8139   0.4587   0.00    1.0
2173 242365.000    967386.0046  -5611811.9270   2863022.7681   2   7   0.6053   1.2969   0.6780  -0.6775  -0.8138   0.4587   0.00    1.0
2173 242366.000    967386.1062  -5611812.0834   2863022.8759   2   7   0.6053   1.2967   0.6779  -0.6775  -0.8136   0.4587   0.00    1.0
2173 242367.000    967386.1667  -5611812.2339   2863022.9798   2   7   0.6053   1.2966   0.6779  -0.6774  -0.8135   0.4586   0.00    1.0
2173 242368.000    967386.1598  -5611812.3381   2863023.0159   2   7   0.6053   1.2964   0.6778  -0.6773  -0.8134   0.4586   0.00    1.0
2173 242369.000    967386.1627  -5611812.3551   2863023.0342   2   7   0.6053   1.2962   0.6778  -0.6772  -0.8132   0.4586   0.00    1.0
2173 242370.000    967386.1876  -5611812.3468   2863023.0644   2   7   0.6053   1.2960   0.6777  -0.6771  -0.8131   0.4585   0.00    1.0
2173 242371.000    967386.1463  -5611812.2118   2863023.0822   2   7   0.6053   1.2958   0.6777  -0.6771  -0.8130   0.4585   0.00    1.0
2173 242372.000    967386.1576  -5611812.1339   2863023.0871   2   7   0.6053   1.2956   0.6776  -0.6770  -0.8128   0.4585   0.00    1.0
2173 242373.000    967386.1341  -5611812.0858   2863023.0517   2   7   0.6053   1.2955   0.6776  -0.6769  -0.8127   0.4584   0.00    1.0
2173 242374.000    967386.1024  -5611812.0216   2863023.0751   2   7   0.6054   1.2953   0.6775  -0.6768  -0.8126   0.4584   0.00    1.0
2173 242375.000    967386.0843  -5611811.8854   2863023.0138   2   7   0.6054   1.2951   0.6775  -0.6767  -0.8124   0.4584   0.00    1.0
2173 242376.000    967386.0707  -5611811.7329   2863022.9062   2   7   0.6054   1.2949   0.6774  -0.6766  -0.8123   0.4583   0.00    1.0
2173 242377.000    967386.0145  -5611811.8116   2863022.8915   2   7   0.6054   1.2947   0.6773  -0.6766  -0.8122   0.4583   0.00    1.0
2173 242378.000    967386.0644  -5611811.9993   2863022.8791   2   7   0.6054   1.2945   0.6773  -0.6765  -0.8120   0.4582   0.00    1.0
2173 242379.000    967386.0245  -5611812.1019   2863022.8828   2   7   0.6054   1.2944   0.6772  -0.6764  -0.8119   0.4582   0.00    1.1
2173 242380.000    967386.0921  -5611812.1127   2863022.9502   2   7   0.6054   1.2942   0.6772  -0.6763  -0.8118   0.4582   0.00    1.1
2173 242381.000    967386.1158  -5611812.1354   2863023.0027   2   7   0.6054   1.2940   0.6771  -0.6762  -0.8116   0.4581   0.00    1.0
2173 242382.000    967386.1763  -5611812.1185   2863022.9781   2   7   0.6054   1.2938   0.6771  -0.6761  -0.8115   0.4581   0.00    1.0
2173 242383.000    967386.1039  -5611812.0710   2863022.9612   2   7   0.6054   1.2936   0.6770  -0.6761  -0.8114   0.4581   0.00    1.0
2173 242384.000    967386.0430  -5611811.9991   2863022.9268   2   7   0.6054   1.2934   0.6770  -0.6760  -0.8113   0.4580   0.00    1.1
2173 242385.000    967386.0248  -5611812.0171   2863022.9562   2   7   0.6054   1.2932   0.6769  -0.6759  -0.8111   0.4580   0.00    1.1
2173 242386.000    967385.9583  -5611811.9986   2863022.9607   2   7   0.6054   1.2931   0.6768  -0.6758  -0.8110   0.4580   0.00    1.1
2173 242387.000    967385.9865  -5611811.9443   2863022.9180   2   7   0.6054   1.2929   0.6768  -0.6757  -0.8109   0.4579   0.00    1.0
2173 242388.000    967386.0304  -5611812.1151   2863023.0328   2   7   0.6054   1.2927   0.6767  -0.6756  -0.8107   0.4579   0.00    1.0
2173 242389.000    967385.9994  -5611812.1292   2863022.9808   2   7   0.6054   1.2925   0.6767  -0.6756  -0.8106   0.4578   0.00    1.0
2173 242390.000    967386.0835  -5611812.2698   2863023.0816   2   7   0.6054   1.2923   0.6766  -0.6755  -0.8105   0.4578   0.00    1.0
2173 242391.000    967386.1017  -5611812.2172   2863023.0503   2   7   0.6054   1.2921   0.6766  -0.6754  -0.8103   0.4578   0.00    1.0
2173 242392.000    967386.0696  -5611812.0201   2863022.9489   2   7   0.6055   1.2919   0.6765  -0.6753  -0.8102   0.4577   0.00    1.0
2173 242393.000    967386.1118  -5611812.1553   2863022.9266   2   7   0.6055   1.2917   0.6765  -0.6752  -0.8101   0.4577   0.00    1.0
2173 242394.000    967386.1321  -5611812.2731   2863022.9420   2   7   0.6055   1.2916   0.6764  -0.6751  -0.8099   0.4577   0.00    1.0
2173 242395.000    967386.0911  -5611812.3219   2863022.9514   2   7   0.6055   1.2914   0.6764  -0.6750  -0.8098   0.4576   0.00    1.1
2173 242396.000    967386.0427  -5611812.1681   2863022.8899   2   7   0.6055   1.2912   0.6763  -0.6750  -0.8097   0.4576   0.00    1.1
2173 242397.000    967385.9780  -5611812.2498   2863022.9294   2   7   0.6055   1.2910   0.6762  -0.6749  -0.8095   0.4576   0.00    1.1
2173 242398.000    967386.0543  -5611812.2564   2863022.9002   2   7   0.6055   1.2908   0.6762  -0.6748  -0.8094   0.4575   0.00    1.1
2173 242399.000    967386.0902  -5611812.2726   2863022.9440   2   7   0.6055   1.2906   0.6761  -0.6747  -0.8093   0.4575   0.00    1.1
2173 242400.000    967386.0393  -5611812.1954   2863022.8969   2   7   0.6055   1.2904   0.6761  -0.6746  -0.8091   0.4574   0.00    1.2
2173 242401.000    967385.9517  -5611811.9764   2863022.8409   2   7   0.6055   1.2903   0.6760  -0.6745  -0.8090   0.4574   0.00    1.0
2173 242402.000    967385.9847  -5611811.9511   2863022.8828   2   7   0.6055   1.2901   0.6760  -0.6745  -0.8089   0.4574   0.00    1.1
2173 242403.000    967386.1041  -5611812.1973   2863022.9784   2   7   0.6055   1.2899   0.6759  -0.6744  -0.8087   0.4573   0.00    1.1
2173 242404.000    967386.1781  -5611812.0827   2863022.9526   2   7   0.6055   1.2897   0.6759  -0.6743  -0.8086   0.4573   0.00    1.1
2173 242405.000    967386.2664  -5611812.2750   2863023.0524   2   7   0.6055   1.2895   0.6758  -0.6742  -0.8085   0.4573   0.00    1.0
2173 242406.000    967386.2924  -5611812.3935   2863023.0559   2   7   0.6055   1.2893   0.6758  -0.6741  -0.8083   0.4572   0.00    1.2
2173 242407.000    967386.3582  -5611812.4650   2863023.0819   2   7   0.6055   1.2891   0.6757  -0.6740  -0.8082   0.4572   0.00    1.1
2173 242408.000    967386.3519  -5611812.4337   2863023.0545   2   7   0.6055   1.2889   0.6756  -0.6739  -0.8081   0.4571   0.00    1.1
2173 242409.000    967386.3409  -5611812.3262   2863023.0422   2   7   0.6055   1.2888   0.6756  -0.6739  -0.8079   0.4571   0.00    1.1
2173 242410.000    967386.2515  -5611812.3326   2863023.0248   2   7   0.6056   1.2886   0.6755  -0.6738  -0.8078   0.4571   0.00    1.1
2173 242411.000    967386.2516  -5611812.1909   2863022.9736   2   7   0.6056   1.2884   0.6755  -0.6737  -0.8077   0.4570   0.00    1.0
2173 242412.000    967386.2389  -5611812.2548   2863022.9514   2   7   0.6056   1.2882   0.6754  -0.6736  -0.8075   0.4570   0.00    1.0
2173 242413.000    967386.2035  -5611812.1435   2863022.8832   2   7   0.6056   1.2880   0.6754  -0.6735  -0.8074   0.4570   0.00    1.0
2173 242414.000    967386.1536  -5611811.9871   2863022.8525   2   7   0.6056   1.2878   0.6753  -0.6734  -0.8073   0.4569   0.00    1.0
2173 242415.000    967386.2157  -5611812.1332   2863022.9791   2   8   0.4918   1.1090   0.6102  -0.4715  -0.6799   0.3265   0.00    1.0
2173 242416.000    967386.2460  -5611812.2887   2863023.0539   2   8   0.4918   1.1089   0.6102  -0.4714  -0.6798   0.3265   0.00    1.0
2173 242417.000    967386.2066  -5611812.3669   2863023.0752   2   8   0.4918   1.1087   0.6101  -0.4713  -0.6797   0.3264   0.00    1.1
2173 242418.000    967386.2421  -5611812.3497   2863023.0546   2   8   0.4918   1.1086   0.6101  -0.4712  -0.6795   0.3264   0.00    1.0
2173 242419.000    967386.2536  -5611812.3825   2863023.0610   2   8   0.4918   1.1084   0.6100  -0.4711  -0.6794   0.3263   0.00    1.1
2173 242420.000    967386.2915  -5611812.3337   2863023.0343   2   8   0.4918   1.1083   0.6100  -0.4710  -0.6793   0.3263   0.00    1.1
2173 242421.000    967386.3100  -5611812.3644   2863023.0719   2   8   0.4918   1.1081   0.6100  -0.4709  -0.6792   0.3263   0.00    1.1
2173 242422.000    967386.2150  -5611812.2182   2863022.9849   2   8   0.4918   1.1080   0.6099  -0.4708  -0.6791   0.3262   0.00    1.1
2173 242423.000    967386.2055  -5611812.2693   2863022.9546   2   8   0.4918   1.1078   0.6099  -0.4707  -0.6790   0.3262   0.00    1.1
2173 242424.000    967386.2438  -5611812.2877   2863022.9623   2   8   0.4917   1.1077   0.6099  -0.4707  -0.6789   0.3262   0.00    1.1
2173 242425.000    967386.2690  -5611812.2369   2863022.9631   2   8   0.4917   1.1075   0.6098  -0.4706  -0.6788   0.3261   0.00    1.1
2173 242426.000    967386.2787  -5611812.3619   2863022.9717   2   8   0.4917   1.1074   0.6098  -0.4705  -0.6787   0.3261   0.00    1.1
2173 242427.000    967386.2895  -5611812.3941   2863022.9930   2   8   0.4917   1.1072   0.6098  -0.4704  -0.6786   0.3261   0.00    1.1
2173 242428.000    967386.2992  -5611812.3902   2863023.0050   2   8   0.4917   1.1071   0.6097  -0.4703  -0.6785   0.3260   0.00    1.0
2173 242429.000    967386.3335  -5611812.4217   2863022.9609   2   8   0.4917   1.1069   0.6097  -0.4702  -0.6784   0.3260   0.00    1.1
2173 242430.000    967386.4338  -5611812.4937   2863023.0187   2   8   0.4917   1.1068   0.6097  -0.4701  -0.6783   0.3260   0.00    1.1
2173 242431.000    967386.3741  -5611812.4699   2863023.0378   2   8   0.4917   1.1066   0.6096  -0.4700  -0.6781   0.3259   0.00    1.1
2173 242432.000    967386.3717  -5611812.4778   2863022.9915   2   8   0.4917   1.1065   0.6096  -0.4699  -0.6780   0.3259   0.00    1.1
2173 242433.000    967386.2971  -5611812.3682   2863022.9608   2   8   0.4917   1.1063   0.6096  -0.4698  -0.6779   0.3259   0.00    1.1
2173 242434.000    967386.2383  -5611812.3069   2863022.9760   2   8   0.4916   1.1062   0.6095  -0.4697  -0.6778   0.3258   0.00    1.0
2173 242435.000    967386.2895  -5611812.3953   2863022.9664   2   8   0.4916   1.1061   0.6095  -0.4696  -0.6777   0.3258   0.00    1.0
2173 242436.000    967386.2774  -5611812.4004   2863022.9767   2   8   0.4916   1.1059   0.6094  -0.4695  -0.6776   0.3258   0.00    1.0
2173 242437.000    967386.2839  -5611812.3607   2863022.9091   2   8   0.4916   1.1058   0.6094  -0.4694  -0.6775   0.3257   0.00    1.0
2173 242438.000    967386.2545  -5611812.2836   2863022.9404   2   8   0.4916   1.1056   0.6094  -0.4693  -0.6774   0.3257   0.00    1.0
2173 242439.000    967386.3211  -5611812.3617   2863022.9686   2   8   0.4916   1.1055   0.6093  -0.4692  -0.6773   0.3257   0.00    1.0
2173 242440.000    967386.3287  -5611812.4191   2863022.9651   2   8   0.4916   1.1053   0.6093  -0.4692  -0.6772   0.3256   0.00    1.0
2173 242441.000    967386.3068  -5611812.5149   2863023.0159   2   8   0.4916   1.1052   0.6093  -0.4691  -0.6771   0.3256   0.00    1.0
2173 242442.000    967386.2521  -5611812.6027   2863022.9986   2   8   0.4916   1.1050   0.6092  -0.4690  -0.6770   0.3256   0.00    1.0
2173 242443.000    967386.2936  -5611812.6427   2863023.0850   2   8   0.4916   1.1049   0.6092  -0.4689  -0.6768   0.3255   0.00    1.0
2173 242444.000    967386.2878  -5611812.6104   2863023.0600   2   8   0.4915   1.1047   0.6092  -0.4688  -0.6767   0.3255   0.00    1.0
2173 242445.000    967386.2429  -5611812.5751   2863022.9919   2   8   0.4915   1.1046   0.6091  -0.4687  -0.6766   0.3255   0.00    1.1
2173 242446.000    967386.2792  -5611812.6148   2863022.9967   2   8   0.4915   1.1044   0.6091  -0.4686  -0.6765   0.3254   0.00    1.1
2173 242447.000    967386.3054  -5611812.5237   2863022.9504   2   8   0.4915   1.1043   0.6091  -0.4685  -0.6764   0.3254   0.00    1.1
2173 242448.000    967386.3454  -5611812.5354   2863022.9461   2   8   0.4915   1.1041   0.6090  -0.4684  -0.6763   0.3254   0.00    1.1
2173 242449.000    967386.3707  -5611812.5829   2863022.9629   2   8   0.4915   1.1040   0.6090  -0.4683  -0.6762   0.3253   0.00    1.1
2173 242450.000    967386.4240  -5611812.6671   2863022.9892   2   8   0.4915   1.1038   0.6090  -0.4682  -0.6761   0.3253   0.00    1.1
2173 242451.000    967386.4149  -5611812.7661   2863023.0032   2   8   0.4915   1.1037   0.6089  -0.4681  -0.6760   0.3253   0.00    1.2
2173 242452.000    967386.3875  -5611812.6276   2863022.9534   2   8   0.4915   1.1035   0.6089  -0.4680  -0.6759   0.3252   0.00    1.1
2173 242453.000    967386.3553  -5611812.6176   2863022.9638   2   8   0.4915   1.1034   0.6089  -0.4679  -0.6758   0.3252   0.00    1.1
2173 242454.000    967386.3176  -5611812.4272   2863022.8634   2   8   0.4914   1.1032   0.6088  -0.4678  -0.6757   0.3252   0.00    1.1
2173 242455.000    967386.3462  -5611812.4212   2863022.8469   2   8   0.4914   1.1031   0.6088  -0.4677  -0.6755   0.3251   0.00    1.0
2173 242456.000    967386.2847  -5611812.4248   2863022.8145   2   8   0.4914   1.1029   0.6088  -0.4676  -0.6754   0.3251   0.00    1.0
2173 242457.000    967386.3580  -5611812.3385   2863022.7564   2   8   0.4914   1.1028   0.6087  -0.4675  -0.6753   0.3251   0.00    1.0
2173 242458.000    967386.3092  -5611812.3614   2863022.7778   2   8   0.4914   1.1026   0.6087  -0.4675  -0.6752   0.3250   0.00    1.0
2173 242459.000    967386.3101  -5611812.3899   2863022.7639   2   8   0.4914   1.1025   0.6086  -0.4674  -0.6751   0.3250   0.00    1.0
2173 242460.000    967386.3150  -5611812.2595   2863022.6901   2   8   0.4914   1.1023   0.6086  -0.4673  -0.6750   0.3250   0.00    1.1
2173 242461.000    967386.2986  -5611812.2884   2863022.7354   2   8   0.4914   1.1022   0.6086  -0.4672  -0.6749   0.3249   0.00    1.1
2173 242462.000    967386.2221  -5611812.3141   2863022.7465   2   8   0.4914   1.1020   0.6085  -0.4671  -0.6748   0.3249   0.00    1.0
2173 242463.000    967386.2335  -5611812.4073   2863022.8287   2   8   0.4914   1.1019   0.6085  -0.4670  -0.6747   0.3249   0.00    1.0
2173 242464.000    967386.2094  -5611812.3563   2863022.8036   2   8   0.4913   1.1017   0.6085  -0.4669  -0.6746   0.3248   0.00    1.1
2173 242465.000    967386.1796  -5611812.4968   2863022.8235   2   8   0.4913   1.1016   0.6084  -0.4668  -0.6745   0.3248   0.00    1.1
2173 242466.000    967386.1834  -5611812.3664   2863022.7387   2   8   0.4913   1.1014   0.6084  -0.4667  -0.6743   0.3248   0.00    1.0
2173 242467.000    967386.2353  -5611812.3664   2863022.7711   2   8   0.4913   1.1013   0.6084  -0.4666  -0.6742   0.3247   0.00    1.0
2173 242468.000    967386.2164  -5611812.4175   2863022.7946   2   8   0.4913   1.1011   0.6083  -0.4665  -0.6741   0.3247   0.00    1.1
2173 242469.000    967386.2287  -5611812.4282   2863022.7354   2   8   0.4913   1.1010   0.6083  -0.4664  -0.6740   0.3247   0.00    1.1
2173 242470.000    967386.2022  -5611812.3654   2863022.7678   2   8   0.4913   1.1008   0.6083  -0.4663  -0.6739   0.3246   0.00    1.0
2173 242471.000    967386.2619  -5611812.4208   2863022.8140   2   8   0.4913   1.1007   0.6082  -0.4662  -0.6738   0.3246   0.00    1.2
2173 242472.000    967386.3374  -5611812.6237   2863022.8933   2   8   0.4913   1.1005   0.6082  -0.4661  -0.6737   0.3246   0.00    1.1
2173 242473.000    967386.3263  -5611812.5268   2863022.9253   2   8   0.4913   1.1004   0.6082  -0.4660  -0.6736   0.3245   0.00    1.2
2173 242474.000    967386.3191  -5611812.5263   2863022.9395   2   8   0.4913   1.1003   0.6081  -0.4659  -0.6735   0.3245   0.00    1.2
2173 242475.000    967386.2930  -5611812.5220   2863022.9754   2   8   0.4912   1.1001   0.6081  -0.4658  -0.6734   0.3245   0.00    1.1
2173 242476.000    967386.2634  -5611812.4522   2863022.8947   2   8   0.4912   1.1000   0.6081  -0.4657  -0.6733   0.3244   0.00    1.1
2173 242477.000    967386.2641  -5611812.3546   2863022.8751   2   8   0.4912   1.0998   0.6080  -0.4657  -0.6732   0.3244   0.00    1.1
2173 242478.000    967386.2591  -5611812.3343   2863022.8550   2   8   0.4912   1.0997   0.6080  -0.4656  -0.6730   0.3244   0.00    1.0
2173 242479.000    967386.2726  -5611812.4255   2863022.8776   2   8   0.4912   1.0995   0.6080  -0.4655  -0.6729   0.3243   0.00    1.0
2173 242480.000    967386.3101  -5611812.4272   2863022.9020   2   8   0.4912   1.0994   0.6079  -0.4654  -0.6728   0.3243   0.00    1.1
2173 242481.000    967386.2613  -5611812.4135   2863022.9006   2   8   0.4912   1.0992   0.6079  -0.4653  -0.6727   0.3243   0.00    1.0
2173 242482.000    967386.3108  -5611812.5609   2863022.9877   2   8   0.4912   1.0991   0.6079  -0.4652  -0.6726   0.3242   0.00    1.1
2173 242483.000    967386.2724  -5611812.5559   2863023.0082   2   8   0.4912   1.0989   0.6078  -0.4651  -0.6725   0.3242   0.00    1.0
2173 242484.000    967386.2380  -5611812.7515   2863023.1010   2   8   0.4912   1.0988   0.6078  -0.4650  -0.6724   0.3242   0.00    1.1
2173 242485.000    967386.2071  -5611812.7082   2863023.0873   2   8   0.4911   1.0986   0.6078  -0.4649  -0.6723   0.3241   0.00    1.1
2173 242486.000    967386.1721  -5611812.7000   2863023.0957   2   8   0.4911   1.0985   0.6077  -0.4648  -0.6722   0.3241   0.00    1.0
2173 242487.000    967386.1418  -5611812.6262   2863023.0486   2   8   0.4911   1.0983   0.6077  -0.4647  -0.6721   0.3241   0.00    1.0
2173 242488.000    967386.0904  -5611812.5267   2863022.9547   2   8   0.4911   1.0982   0.6077  -0.4646  -0.6720   0.3240   0.00    1.1
2173 242489.000    967386.1072  -5611812.4241   2863022.9270   2   8   0.4911   1.0980   0.6076  -0.4645  -0.6718   0.3240   0.00    1.0
2173 242490.000    967386.0892  -5611812.3694   2863022.8857   2   8   0.4911   1.0979   0.6076  -0.4644  -0.6717   0.3240   0.00    1.0
2173 242491.000    967386.1062  -5611812.3025   2863022.8986   2   8   0.4911   1.0977   0.6076  -0.4643  -0.6716   0.3239   0.00    1.0
2173 242492.000    967386.0809  -5611812.2692   2863022.8683   2   8   0.4911   1.0976   0.6075  -0.4642  -0.6715   0.3239   0.00    1.0
2173 242493.000    967386.0616  -5611812.3316   2863022.8209   2   8   0.4911   1.0974   0.6075  -0.4641  -0.6714   0.3239   0.00    1.0
2173 242494.000    967386.1366  -5611812.4919   2863022.9085   2   8   0.4911   1.0973   0.6075  -0.4640  -0.6713   0.3238   0.00    1.1
2173 242495.000    967386.1415  -5611812.4420   2863022.8973   2   8   0.4910   1.0971   0.6074  -0.4639  -0.6712   0.3238   0.00    1.0
2173 242496.000    967386.1754  -5611812.5479   2863022.9726   2   8   0.4910   1.0970   0.6074  -0.4638  -0.6711   0.3237   0.00    1.0
2173 242497.000    967386.2017  -5611812.4448   2863022.9202   2   8   0.4910   1.0968   0.6074  -0.4637  -0.6710   0.3237   0.00    1.1
2173 242498.000    967386.2273  -5611812.4812   2863022.9735   2   8   0.4910   1.0967   0.6073  -0.4636  -0.6709   0.3237   0.00    1.1
2173 242499.000    967386.2859  -5611812.5166   2863023.0238   2   8   0.4910   1.0965   0.6073  -0.4636  -0.6707   0.3236   0.00    1.1
2173 242500.000    967386.2350  -5611812.3261   2863022.8961   2   8   0.4910   1.0964   0.6073  -0.4635  -0.6706   0.3236   0.00    1.1
2173 242501.000    967386.1920  -5611812.2727   2863022.9533   2   8   0.4910   1.0962   0.6072  -0.4634  -0.6705   0.3236   0.00    1.0
2173 242502.000    967386.1001  -5611812.2243   2863022.9121   2   8   0.4910   1.0961   0.6072  -0.4633  -0.6704   0.3235   0.00    1.0
2173 242503.000    967386.1052  -5611812.2773   2863022.9100   2   8   0.4910   1.0959   0.6072  -0.4632  -0.6703   0.3235   0.00    1.0
2173 242504.000    967386.1152  -5611812.3693   2863022.9697   2   8   0.4910   1.0958   0.6071  -0.4631  -0.6702   0.3235   0.00    1.0
2173 242505.000    967386.1198  -5611812.2916   2863022.9716   2   8   0.4910   1.0956   0.6071  -0.4630  -0.6701   0.3234   0.00    1.0
2173 242506.000    967386.1149  -5611812.2425   2863022.9816   2   8   0.4909   1.0955   0.6071  -0.4629  -0.6700   0.3234   0.00    1.1
2173 242507.000    967386.0527  -5611812.1595   2863022.9143   2   8   0.4909   1.0953   0.6070  -0.4628  -0.6699   0.3234   0.00    1.0
2173 242508.000    967386.0562  -5611812.1338   2863022.8713   2   8   0.4909   1.0952   0.6070  -0.4627  -0.6698   0.3233   0.00    1.0
2173 242509.000    967386.1040  -5611812.1839   2863022.8551   2   8   0.4909   1.0950   0.6070  -0.4626  -0.6697   0.3233   0.00    1.0
2173 242510.000    967386.1286  -5611812.2046   2863022.8859   2   8   0.4909   1.0949   0.6069  -0.4625  -0.6695   0.3233   0.00    1.0
2173 242511.000    967386.1526  -5611812.2638   2863022.9378   2   8   0.4909   1.0947   0.6069  -0.4624  -0.6694   0.3232   0.00    1.0
2173 242512.000    967386.1616  -5611812.2241   2863022.9317   2   8   0.4909   1.0946   0.6069  -0.4623  -0.6693   0.3232   0.00    1.0
2173 242513.000    967386.1671  -5611812.2239   2863022.9361   2   8   0.4909   1.0944   0.6068  -0.4622  -0.6692   0.3232   0.00    1.0
2173 242514.000    967386.1404  -5611812.1829   2863022.8760   2   8   0.4909   1.0943   0.6068  -0.4621  -0.6691   0.3231   0.00    1.0
2173 242515.000    967386.0825  -5611812.2178   2863022.9475   2   8   0.4909   1.0941   0.6068  -0.4620  -0.6690   0.3231   0.00    1.0
2173 242516.000    967386.0781  -5611812.2431   2863023.0266   2   8   0.4909   1.0940   0.6067  -0.4619  -0.6689   0.3231   0.00    1.1
2173 242517.000    967386.1035  -5611812.4257   2863023.0450   2   8   0.4908   1.0938   0.6067  -0.4618  -0.6688   0.3230   0.00    1.0
2173 242518.000    967386.0515  -5611812.2701   2863022.9560   2   8   0.4908   1.0937   0.6067  -0.4617  -0.6687   0.3230   0.00    1.0
2173 242519.000    967386.1306  -5611812.3748   2863022.9390   2   8   0.4908   1.0935   0.6066  -0.4616  -0.6686   0.3230   0.00    1.1
2173 242520.000    967386.1582  -5611812.2691   2863022.8626   2   8   0.4908   1.0934   0.6066  -0.4615  -0.6685   0.3229   0.00    1.0
2173 242521.000    967386.1843  -5611812.2056   2863022.8258   2   8   0.4908   1.0932   0.6066  -0.4614  -0.6683   0.3229   0.00    1.0
2173 242522.000    967386.1714  -5611812.2968   2863022.8548   2   8   0.4908   1.0931   0.6065  -0.4613  -0.6682   0.3229   0.00    1.0
2173 242523.000    967386.1845  -5611812.2236   2863022.8606   2   8   0.4908   1.0929   0.6065  -0.4612  -0.6681   0.3228   0.00    1.0
2173 242524.000    967386.2108  -5611812.2482   2863022.9109   2   8   0.4908   1.0928   0.6065  -0.4611  -0.6680   0.3228   0.00    1.0
2173 242525.000    967386.2234  -5611812.1832   2863022.9563   2   8   0.4908   1.0926   0.6064  -0.4611  -0.6679   0.3228   0.00    1.0
2173 242526.000    967386.2466  -5611812.2429   2863022.9706   2   8   0.4908   1.0925   0.6064  -0.4610  -0.6678   0.3227   0.00    1.1
2173 242527.000    967386.2106  -5611812.3467   2863022.9868   2   8   0.4907   1.0923   0.6064  -0.4609  -0.6677   0.3227   0.00    1.0
2173 242528.000    967386.2198  -5611812.3830   2863023.0162   2   8   0.4907   1.0922   0.6063  -0.4608  -0.6676   0.3227   0.00    1.0
2173 242529.000    967386.2654  -5611812.3851   2863022.9371   2   8   0.4907   1.0920   0.6063  -0.4607  -0.6675   0.3226   0.00    1.1
2173 242530.000    967386.2464  -5611812.4379   2863022.9326   2   8   0.4907   1.0919   0.6063  -0.4606  -0.6674   0.3226   0.00    1.1
2173 242531.000    967386.2697  -5611812.5218   2863023.0063   2   8   0.4907   1.0917   0.6062  -0.4605  -0.6672   0.3226   0.00    1.1
2173 242532.000    967386.2461  -5611812.5076   2863023.0310   2   8   0.4907   1.0916   0.6062  -0.4604  -0.6671   0.3225   0.00    1.1
2173 242533.000    967386.2562  -5611812.5276   2863023.1078   2   8   0.4907   1.0914   0.6062  -0.4603  -0.6670   0.3225   0.00    1.1
2173 242534.000    967386.2677  -5611812.4394   2863023.1216   2   8   0.4907   1.0913   0.6061  -0.4602  -0.6669   0.3225   0.00    1.0
2173 242535.000    967386.3011  -5611812.4863   2863023.1645   2   8   0.4907   1.0911   0.6061  -0.4601  -0.6668   0.3224   0.00    1.0
2173 242536.000    967386.3663  -5611812.4939   2863023.1281   2   8   0.4907   1.0910   0.6061  -0.4600  -0.6667   0.3224   0.00    1.0
2173 242537.000    967386.2768  -5611812.3958   2863023.1425   2   8   0.4907   1.0908   0.6060  -0.4599  -0.6666   0.3224   0.00    1.0
2173 242538.000    967386.2834  -5611812.3205   2863023.1403   2   8   0.4906   1.0906   0.6060  -0.4598  -0.6665   0.3223   0.00    1.0
2173 242539.000    967386.2729  -5611812.4767   2863023.1340   2   8   0.4906   1.0905   0.6060  -0.4597  -0.6664   0.3223   0.00    1.0
2173 242540.000    967386.2775  -5611812.4259   2863023.0976   2   8   0.4906   1.0903   0.6059  -0.4596  -0.6663   0.3223   0.00    1.0
2173 242541.000    967386.2695  -5611812.4076   2863023.0878   2   8   0.4906   1.0902   0.6059  -0.4595  -0.6661   0.3222   0.00    1.0
2173 242542.000    967386.2912  -5611812.5127   2863023.1148   2   8   0.4906   1.0900   0.6059  -0.4594  -0.6660   0.3222   0.00    1.0
2173 242543.000    967386.3455  -5611812.5886   2863023.0955   2   8   0.4906   1.0899   0.6058  -0.4593  -0.6659   0.3222   0.00    1.1
2173 242544.000    967386.3129  -5611812.6168   2863023.1320   2   8   0.4906   1.0897   0.6058  -0.4592  -0.6658   0.3221   0.00    1.1
2173 242545.000    967386.3227  -5611812.5389   2863023.0645   2   8   0.4906   1.0896   0.6058  -0.4591  -0.6657   0.3221   0.00    1.1
2173 242546.000    967386.2822  -5611812.5313   2863023.1179   2   8   0.4906   1.0894   0.6057  -0.4590  -0.6656   0.3221   0.00    1.1
2173 242547.000    967386.2851  -5611812.5426   2863023.1797   2   8   0.4906   1.0893   0.6057  -0.4589  -0.6655   0.3220   0.00    1.0
2173 242548.000    967386.2732  -5611812.4723   2863023.1281   2   8   0.4906   1.0891   0.6057  -0.4588  -0.6654   0.3220   0.00    1.0
2173 242549.000    967386.2457  -5611812.3696   2863023.0734   2   8   0.4905   1.0890   0.6056  -0.4587  -0.6653   0.3220   0.00    1.0
2173 242550.000    967386.2845  -5611812.5721   2863023.1440   2   8   0.4905   1.0888   0.6056  -0.4586  -0.6652   0.3219   0.00    1.1
2173 242551.000    967386.3241  -5611812.5994   2863023.1181   2   8   0.4905   1.0887   0.6056  -0.4585  -0.6650   0.3219   0.00    1.1
2173 242552.000    967386.3534  -5611812.6516   2863023.0983   2   8   0.4905   1.0885   0.6055  -0.4584  -0.6649   0.3219   0.00    1.1
2173 242553.000    967386.3785  -5611812.6811   2863023.1218   2   8   0.4905   1.0884   0.6055  -0.4583  -0.6648   0.3218   0.00    1.0
2173 242554.000    967386.3674  -5611812.6449   2863023.1531   2   8   0.4905   1.0882   0.6055  -0.4582  -0.6647   0.3218   0.00    1.1
2173 242555.000    967386.3738  -5611812.4519   2863023.1118   2   8   0.4905   1.0881   0.6055  -0.4582  -0.6646   0.3218   0.00    1.1
2173 242556.000    967386.3602  -5611812.5178   2863023.1920   2   8   0.4905   1.0879   0.6054  -0.4581  -0.6645   0.3217   0.00    1.0
2173 242557.000    967386.3523  -5611812.5620   2863023.1608   2   8   0.4905   1.0878   0.6054  -0.4580  -0.6644   0.3217   0.00    1.0
2173 242558.000    967386.3550  -5611812.4695   2863023.1254   2   8   0.4905   1.0876   0.6054  -0.4579  -0.6643   0.3217   0.00    1.0
2173 242559.000    967386.3226  -5611812.4857   2863023.1328   2   8   0.4905   1.0875   0.6053  -0.4578  -0.6642   0.3216   0.00    1.0
2173 242560.000    967386.3569  -5611812.4568   2863023.1093   2   8   0.4905   1.0873   0.6053  -0.4577  -0.6641   0.3216   0.00    1.0
2173 242561.000    967386.3620  -5611812.5444   2863023.1503   2   8   0.4904   1.0872   0.6053  -0.4576  -0.6639   0.3216   0.00    1.1
2173 242562.000    967386.3591  -5611812.5230   2863023.1605   2   8   0.4904   1.0870   0.6052  -0.4575  -0.6638   0.3215   0.00    1.1
2173 242563.000    967386.3888  -5611812.5683   2863023.2270   2   8   0.4904   1.0869   0.6052  -0.4574  -0.6637   0.3215   0.00    1.1
2173 242564.000    967386.3868  -5611812.6148   2863023.2587   2   8   0.4904   1.0867   0.6052  -0.4573  -0.6636   0.3215   0.00    1.0
2173 242565.000    967386.3717  -5611812.6805   2863023.3093   2   8   0.4904   1.0866   0.6051  -0.4572  -0.6635   0.3214   0.00    1.0
2173 242566.000    967386.3583  -5611812.8362   2863023.2980   2   8   0.4904   1.0864   0.6051  -0.4571  -0.6634   0.3214   0.00    1.1
2173 242567.000    967386.4390  -5611812.9375   2863023.2995   2   8   0.4904   1.0863   0.6051  -0.4570  -0.6633   0.3214   0.00    1.1
2173 242568.000    967386.5540  -5611813.1351   2863023.3517   2   8   0.4904   1.0861   0.6050  -0.4569  -0.6632   0.3213   0.00    1.1
2173 242569.000    967386.5654  -5611813.1306   2863023.3549   2   8   0.4904   1.0860   0.6050  -0.4568  -0.6631   0.3213   0.00    1.0
2173 242570.000    967386.6045  -5611813.0758   2863023.3737   2   8   0.4904   1.0858   0.6050  -0.4567  -0.6630   0.3213   0.00    1.1
2173 242571.000    967386.5871  -5611812.9759   2863023.3757   2   8   0.4904   1.0857   0.6049  -0.4566  -0.6628   0.3212   0.00    1.1
2173 242572.000    967386.5324  -5611812.8610   2863023.3128   2   8   0.4903   1.0855   0.6049  -0.4565  -0.6627   0.3212   0.00    1.1
2173 242573.000    967386.5677  -5611812.8528   2863023.3385   2   8   0.4903   1.0854   0.6049  -0.4564  -0.6626   0.3212   0.00    1.1
2173 242574.000    967386.5798  -5611812.8101   2863023.3315   2   8   0.4903   1.0852   0.6048  -0.4563  -0.6625   0.3211   0.00    1.1
2173 242575.000    967386.5877  -5611812.8894   2863023.3452   2   8   0.4903   1.0851   0.6048  -0.4562  -0.6624   0.3211   0.00    1.1
2173 242576.000    967386.6053  -5611812.8325   2863023.3554   2   8   0.4903   1.0849   0.6048  -0.4561  -0.6623   0.3211   0.00    1.1
2173 242577.000    967386.5733  -5611812.6871   2863023.2847   2   8   0.4903   1.0848   0.6048  -0.4560  -0.6622   0.3210   0.00    1.1
2173 242578.000    967386.5913  -5611812.7467   2863023.3063   2   8   0.4903   1.0846   0.6047  -0.4559  -0.6621   0.3210   0.00    1.0
2173 242579.000    967386.5642  -5611812.8238   2863023.3852   2   8   0.4903   1.0845   0.6047  -0.4558  -0.6620   0.3210   0.00    1.0
2173 242580.000    967386.5840  -5611812.8705   2863023.4428   2   8   0.4903   1.0843   0.6047  -0.4557  -0.6619   0.3209   0.00    1.0
2173 242581.000    967386.5939  -5611812.9092   2863023.4199   2   8   0.4903   1.0842   0.6046  -0.4556  -0.6617   0.3209   0.00    1.0
2173 242582.000    967386.6337  -5611812.9618   2863023.3708   2   8   0.4903   1.0840   0.6046  -0.4555  -0.6616   0.3209   0.00    1.0
2173 242583.000    967386.6269  -5611812.9498   2863023.3672   2   8   0.4902   1.0839   0.6046  -0.4554  -0.6615   0.3208   0.00    1.0
2173 242584.000    967386.6303  -5611812.9012   2863023.3253   2   8   0.4902   1.0837   0.6045  -0.4553  -0.6614   0.3208   0.00    1.0
2173 242585.000    967386.6177  -5611812.8033   2863023.3201   2   8   0.4902   1.0836   0.6045  -0.4552  -0.6613   0.3208   0.00    1.0
2173 242586.000    967386.6406  -5611812.8525   2863023.3288   2   8   0.4902   1.0834   0.6045  -0.4551  -0.6612   0.3207   0.00    1.1
2173 242587.000    967386.6619  -5611812.9350   2863023.3599   2   8   0.4902   1.0833   0.6044  -0.4550  -0.6611   0.3207   0.00    1.1
2173 242588.000    967386.6972  -5611812.9662   2863023.3725   2   8   0.4902   1.0831   0.6044  -0.4549  -0.6610   0.3207   0.00    1.0
2173 242589.000    967386.7576  -5611812.9220   2863023.3988   2   8   0.4902   1.0829   0.6044  -0.4548  -0.6609   0.3206   0.00    1.0
2173 242590.000    967386.7650  -5611813.0954   2863023.4925   2   8   0.4902   1.0828   0.6043  -0.4547  -0.6608   0.3206   0.00    1.0
2173 242591.000    967386.8098  -5611813.0671   2863023.4769   2   8   0.4902   1.0826   0.6043  -0.4546  -0.6606   0.3206   0.00    1.0
2173 242592.000    967386.8619  -5611813.0229   2863023.4089   2   8   0.4902   1.0825   0.6043  -0.4545  -0.6605   0.3205   0.00    1.0
2173 242593.000    967386.8761  -5611812.9432   2863023.4158   2   8   0.4902   1.0823   0.6043  -0.4544  -0.6604   0.3205   0.00    1.1
2173 242594.000    967386.8066  -5611812.7835   2863023.3652   2   8   0.4902   1.0822   0.6042  -0.4543  -0.6603   0.3205   0.00    1.0
2173 242595.000    967386.7793  -5611812.8376   2863023.3404   2   8   0.4901   1.0820   0.6042  -0.4543  -0.6602   0.3204   0.00    1.0
2173 242596.000    967386.7617  -5611812.8386   2863023.3413   2   8   0.4901   1.0819   0.6042  -0.4542  -0.6601   0.3204   0.00    1.0
2173 242597.000    967386.7724  -5611812.7767   2863023.3268   2   8   0.4901   1.0817   0.6041  -0.4541  -0.6600   0.3204   0.00    1.0
2173 242598.000    967386.8091  -5611812.7712   2863023.3401   2   8   0.4901   1.0816   0.6041  -0.4540  -0.6599   0.3203   0.00    1.0
2173 242599.000    967386.8569  -5611812.8347   2863023.3308   2   8   0.4901   1.0814   0.6041  -0.4539  -0.6598   0.3203   0.00    1.1
2173 242600.000    967386.8381  -5611812.7536   2863023.2937   2   8   0.4901   1.0813   0.6040  -0.4538  -0.6597   0.3203   0.00    1.1
2173 242601.000    967386.8322  -5611812.8382   2863023.2973   2   8   0.4901   1.0811   0.6040  -0.4537  -0.6595   0.3202   0.00    1.0
2173 242602.000    967386.8686  -5611812.8164   2863023.2917   2   8   0.4901   1.0810   0.6040  -0.4536  -0.6594   0.3202   0.00    1.0
2173 242603.000    967386.8833  -5611812.6956   2863023.2207   2   8   0.4901   1.0808   0.6040  -0.4535  -0.6593   0.3202   0.00    1.0
2173 242604.000    967386.8721  -5611812.7239   2863023.2020   2   8   0.4901   1.0807   0.6039  -0.4534  -0.6592   0.3201   0.00    1.0
2173 242605.000    967386.8958  -5611812.6793   2863023.1945   2   8   0.4901   1.0805   0.6039  -0.4533  -0.6591   0.3201   0.00    1.0
2173 242606.000    967386.8592  -5611812.6179   2863023.2095   2   8   0.4901   1.0804   0.6039  -0.4532  -0.6590   0.3201   0.00    1.0
2173 242607.000    967386.7912  -5611812.5729   2863023.1908   2   8   0.4900   1.0802   0.6038  -0.4531  -0.6589   0.3200   0.00    1.0
2173 242608.000    967386.7012  -5611812.5053   2863023.1197   2   8   0.4900   1.0801   0.6038  -0.4530  -0.6588   0.3200   0.00    1.0
2173 242609.000    967386.6875  -5611812.4133   2863023.0498   2   8   0.4900   1.0799   0.6038  -0.4529  -0.6587   0.3200   0.00    1.0
2173 242610.000    967386.6571  -5611812.4060   2863023.0224   2   8   0.4900   1.0798   0.6037  -0.4528  -0.6586   0.3199   0.00    1.0
2173 242611.000    967386.6690  -5611812.4913   2863023.0151   2   8   0.4900   1.0796   0.6037  -0.4527  -0.6584   0.3199   0.00    1.0
2173 242612.000    967386.6956  -5611812.5180   2863023.0258   2   8   0.4900   1.0795   0.6037  -0.4526  -0.6583   0.3199   0.00    1.0
2173 242613.000    967386.7252  -5611812.4671   2863023.0821   2   8   0.4900   1.0793   0.6036  -0.4525  -0.6582   0.3198   0.00    1.0
2173 242614.000    967386.7928  -5611812.5057   2863023.1079   2   8   0.4900   1.0792   0.6036  -0.4524  -0.6581   0.3198   0.00    1.0
2173 242615.000    967386.8353  -5611812.5344   2863023.1211   2   8   0.4900   1.0790   0.6036  -0.4523  -0.6580   0.3198   0.00    1.0
2173 242616.000    967386.8133  -5611812.5678   2863023.1413   2   8   0.4900   1.0789   0.6036  -0.4522  -0.6579   0.3197   0.00    1.1
2173 242617.000    967386.7822  -5611812.4840   2863023.1235   2   8   0.4900   1.0787   0.6035  -0.4521  -0.6578   0.3197   0.00    1.1
2173 242618.000    967386.7446  -5611812.4713   2863023.1372   2   8   0.4900   1.0786   0.6035  -0.4520  -0.6577   0.3197   0.00    1.0
2173 242619.000    967386.7431  -5611812.4429   2863023.1764   2   8   0.4899   1.0784   0.6035  -0.4519  -0.6576   0.3196   0.00    1.0
2173 242620.000    967386.7364  -5611812.4858   2863023.1791   2   8   0.4899   1.0783   0.6034  -0.4518  -0.6575   0.3196   0.00    1.0
2173 242621.000    967386.7445  -5611812.5182   2863023.1881   2   8   0.4899   1.0781   0.6034  -0.4517  -0.6573   0.3196   0.00    1.0
2173 242622.000    967386.7748  -5611812.5816   2863023.1754   2   8   0.4899   1.0780   0.6034  -0.4516  -0.6572   0.3196   0.00    1.0
2173 242623.000    967386.8457  -5611812.6819   2863023.2729   2   8   0.4899   1.0778   0.6033  -0.4515  -0.6571   0.3195   0.00    1.1
2173 242624.000    967386.8756  -5611812.7723   2863023.2803   2   8   0.4899   1.0777   0.6033  -0.4514  -0.6570   0.3195   0.00    1.0
2173 242625.000    967386.8638  -5611812.6961   2863023.3106   2   8   0.4899   1.0775   0.6033  -0.4513  -0.6569   0.3195   0.00    1.0
2173 242626.000    967386.8912  -5611812.6722   2863023.2948   2   8   0.4899   1.0773   0.6033  -0.4512  -0.6568   0.3194   0.00    1.0
2173 242627.000    967386.9397  -5611812.7444   2863023.3309   2   8   0.4899   1.0772   0.6032  -0.4511  -0.6567   0.3194   0.00    1.0
2173 242628.000    967386.8871  -5611812.7104   2863023.3380   2   8   0.4899   1.0770   0.6032  -0.4510  -0.6566   0.3194   0.00    1.0
2173 242629.000    967386.8400  -5611812.6360   2863023.2792   2   8   0.4899   1.0769   0.6032  -0.4509  -0.6565   0.3193   0.00    1.0
2173 242630.000    967386.7403  -5611812.5236   2863023.1595   2   8   0.4899   1.0767   0.6031  -0.4508  -0.6564   0.3193   0.00    1.0
2173 242631.000    967386.7011  -5611812.4919   2863023.1298   2   8   0.4898   1.0766   0.6031  -0.4507  -0.6562   0.3193   0.00    1.1
2173 242632.000    967386.6884  -5611812.5305   2863023.1052   2   8   0.4898   1.0764   0.6031  -0.4506  -0.6561   0.3192   0.00    1.1
2173 242633.000    967386.6956  -5611812.6219   2863023.0871   2   8   0.4898   1.0763   0.6031  -0.4505  -0.6560   0.3192   0.00    1.1
2173 242634.000    967386.7496  -5611812.7096   2863023.1336   2   8   0.4898   1.0761   0.6030  -0.4504  -0.6559   0.3192   0.00    1.0
2173 242635.000    967386.8117  -5611812.7539   2863023.1318   2   8   0.4898   1.0760   0.6030  -0.4503  -0.6558   0.3191   0.00    1.1
2173 242636.000    967386.8360  -5611812.7312   2863023.1575   2   8   0.4898   1.0758   0.6030  -0.4502  -0.6557   0.3191   0.00    1.0
2173 242637.000    967386.8205  -5611812.6577   2863023.1047   2   8   0.4898   1.0757   0.6029  -0.4501  -0.6556   0.3191   0.00    1.1
2173 242638.000    967386.7980  -5611812.5793   2863023.1012   2   8   0.4898   1.0755   0.6029  -0.4500  -0.6555   0.3190   0.00    1.1
2173 242639.000    967386.8293  -5611812.7854   2863023.2075   2   8   0.4898   1.0754   0.6029  -0.4499  -0.6554   0.3190   0.00    1.1
2173 242640.000    967386.7955  -5611812.7538   2863023.2009   2   8   0.4898   1.0752   0.6028  -0.4498  -0.6552   0.3190   0.00    1.1
2173 242641.000    967386.8453  -5611812.7099   2863023.2017   2   8   0.4898   1.0751   0.6028  -0.4497  -0.6551   0.3189   0.00    1.0
2173 242642.000    967386.8328  -5611812.5821   2863023.1737   2   8   0.4898   1.0749   0.6028  -0.4496  -0.6550   0.3189   0.00    1.1
2173 242643.000    967386.8698  -5611812.7308   2863023.2156   2   8   0.4897   1.0748   0.6028  -0.4495  -0.6549   0.3189   0.00    1.1
2173 242644.000    967386.8575  -5611812.7687   2863023.2588   2   8   0.4897   1.0746   0.6027  -0.4494  -0.6548   0.3188   0.00    1.0
2173 242645.000    967386.8650  -5611812.8716   2863023.2491   2   8   0.4897   1.0745   0.6027  -0.4493  -0.6547   0.3188   0.00    1.0
2173 242646.000    967386.8629  -5611812.9819   2863023.2357   2   8   0.4897   1.0743   0.6027  -0.4492  -0.6546   0.3188   0.00    1.0
2173 242647.000    967386.7930  -5611812.8284   2863023.1569   2   8   0.4897   1.0742   0.6026  -0.4491  -0.6545   0.3187   0.00    1.0
2173 242648.000    967386.7259  -5611812.8091   2863023.1137   2   8   0.4897   1.0740   0.6026  -0.4490  -0.6544   0.3187   0.00    1.0
2173 242649.000    967386.6809  -5611812.6624   2863023.0031   2   8   0.4897   1.0739   0.6026  -0.4489  -0.6543   0.3187   0.00    1.0
2173 242650.000    967386.6751  -5611812.6174   2863022.9608   2   8   0.4897   1.0737   0.6026  -0.4488  -0.6541   0.3186   0.00    1.1
2173 242651.000    967386.6133  -5611812.6687   2863022.9442   2   8   0.4897   1.0736   0.6025  -0.4487  -0.6540   0.3186   0.00    1.1
2173 242652.000    967386.6182  -5611812.6911   2863022.9918   2   8   0.4897   1.0734   0.6025  -0.4486  -0.6539   0.3186   0.00    1.1
2173 242653.000    967386.6045  -5611812.7185   2863023.0178   2   8   0.4897   1.0733   0.6025  -0.4486  -0.6538   0.3185   0.00    1.0
2173 242654.000    967386.6277  -5611812.8014   2863023.0654   2   8   0.4897   1.0731   0.6024  -0.4485  -0.6537   0.3185   0.00    1.0
2173 242655.000    967386.6717  -5611812.7822   2863023.1221   2   8   0.4897   1.0730   0.6024  -0.4484  -0.6536   0.3185   0.00    1.0
2173 242656.000    967386.6527  -5611812.8698   2863023.1792   2   8   0.4896   1.0728   0.6024  -0.4483  -0.6535   0.3184   0.00    1.1
2173 242657.000    967386.6825  -5611813.0486   2863023.2722   2   8   0.4896   1.0727   0.6024  -0.4482  -0.6534   0.3184   0.00    1.1
2173 242658.000    967386.6310  -5611813.0789   2863023.2737   2   8   0.4896   1.0725   0.6023  -0.4481  -0.6533   0.3184   0.00    1.0
2173 242659.000    967386.5803  -5611813.0933   2863023.2539   2   8   0.4896   1.0724   0.6023  -0.4480  -0.6532   0.3183   0.00    1.1
2173 242660.000    967386.5717  -5611812.9847   2863023.2413   2   8   0.4896   1.0722   0.6023  -0.4479  -0.6530   0.3183   0.00    1.1
2173 242661.000    967386.5990  -5611812.9768   2863023.2441   2   8   0.4896   1.0720   0.6022  -0.4478  -0.6529   0.3183   0.00    1.0
2173 242662.000    967386.5435  -5611812.9613   2863023.2513   2   8   0.4896   1.0719   0.6022  -0.4477  -0.6528   0.3183   0.00    1.0
2173 242663.000    967386.5165  -5611812.8302   2863023.1443   2   8   0.4896   1.0717   0.6022  -0.4476  -0.6527   0.3182   0.00    1.1
2173 242664.000    967386.5248  -5611812.8075   2863023.0930   2   8   0.4896   1.0716   0.6022  -0.4475  -0.6526   0.3182   0.00    1.0
2173 242665.000    967386.4905  -5611812.7593   2863023.0610   2   8   0.4896   1.0714   0.6021  -0.4474  -0.6525   0.3182   0.00    1.1
2173 242666.000    967386.4931  -5611812.6005   2863022.9979   2   8   0.4896   1.0713   0.6021  -0.4473  -0.6524   0.3181   0.00    1.1
2173 242667.000    967386.4315  -5611812.5610   2863022.9615   2   8   0.4896   1.0711   0.6021  -0.4472  -0.6523   0.3181   0.00    1.0
2173 242668.000    967386.4637  -5611812.7802   2863023.0381   2   8   0.4896   1.0710   0.6020  -0.4471  -0.6522   0.3181   0.00    1.1
2173 242669.000    967386.4878  -5611812.6921   2863023.0302   2   8   0.4895   1.0708   0.6020  -0.4470  -0.6521   0.3180   0.00    1.0
2173 242670.000    967386.4673  -5611812.5458   2863022.9615   2   8   0.4895   1.0707   0.6020  -0.4469  -0.6519   0.3180   0.00    1.1
2173 242671.000    967386.4839  -5611812.5554   2863022.9446   2   8   0.4895   1.0705   0.6020  -0.4468  -0.6518   0.3180   0.00    1.0
2173 242672.000    967386.4444  -5611812.4361   2863022.9462   2   8   0.4895   1.0704   0.6019  -0.4467  -0.6517   0.3179   0.00    1.0
2173 242673.000    967386.4101  -5611812.3660   2863022.9500   2   8   0.4895   1.0702   0.6019  -0.4466  -0.6516   0.3179   0.00    1.0
2173 242674.000    967386.4051  -5611812.4471   2863023.0180   2   8   0.4895   1.0701   0.6019  -0.4465  -0.6515   0.3179   0.00    1.0
2173 242675.000    967386.3964  -5611812.4348   2863023.0058   2   8   0.4895   1.0699   0.6018  -0.4464  -0.6514   0.3178   0.00    1.0
2173 242676.000    967386.3790  -5611812.5606   2863023.0198   2   8   0.4895   1.0698   0.6018  -0.4463  -0.6513   0.3178   0.00    1.0
2173 242677.000    967386.3245  -5611812.5793   2863022.9593   2   8   0.4895   1.0696   0.6018  -0.4462  -0.6512   0.3178   0.00    1.0
2173 242678.000    967386.3314  -5611812.6120   2863022.9741   2   8   0.4895   1.0695   0.6018  -0.4461  -0.6511   0.3177   0.00    1.0
2173 242679.000    967386.3526  -5611812.6233   2863022.8778   2   8   0.4895   1.0693   0.6017  -0.4460  -0.6510   0.3177   0.00    1.0
2173 242680.000    967386.3396  -5611812.6078   2863022.9129   2   8   0.4895   1.0692   0.6017  -0.4459  -0.6508   0.3177   0.00    1.0
2173 242681.000    967386.4042  -5611812.6344   2863022.9325   2   8   0.4895   1.0690   0.6017  -0.4458  -0.6507   0.3176   0.00    1.1
2173 242682.000    967386.4336  -5611812.4678   2863022.8959   2   8   0.4894   1.0689   0.6016  -0.4457  -0.6506   0.3176   0.00    1.0
2173 242683.000    967386.4167  -5611812.4390   2863022.8608   2   8   0.4894   1.0687   0.6016  -0.4456  -0.6505   0.3176   0.00    1.0
2173 242684.000    967386.4159  -5611812.3341   2863022.7743   2   8   0.4894   1.0686   0.6016  -0.4455  -0.6504   0.3175   0.00    1.0
2173 242685.000    967386.4025  -5611812.3130   2863022.7821   2   8   0.4894   1.0684   0.6016  -0.4454  -0.6503   0.3175   0.00    1.1
2173 242686.000    967386.3837  -5611812.2606   2863022.7344   2   8   0.4894   1.0683   0.6015  -0.4453  -0.6502   0.3175   0.00    1.0
2173 242687.000    967386.3998  -5611812.2043   2863022.7731   2   8   0.4894   1.0681   0.6015  -0.4452  -0.6501   0.3175   0.00    1.1
2173 242688.000    967386.3485  -5611812.4227   2863022.8226   2   8   0.4894   1.0680   0.6015  -0.4451  -0.6500   0.3174   0.00    1.0
2173 242689.000    967386.4154  -5611812.3883   2863022.8813   2   8   0.4894   1.0678   0.6015  -0.4450  -0.6499   0.3174   0.00    1.0
2173 242690.000    967386.3653  -5611812.2718   2863022.8056   2   8   0.4894   1.0677   0.6014  -0.4449  -0.6497   0.3174   0.00    1.0
2173 242691.000    967386.3283  -5611812.2037   2863022.7684   2   8   0.4894   1.0675   0.6014  -0.4448  -0.6496   0.3173   0.00    1.0
2173 242692.000    967386.2884  -5611812.1110   2863022.7419   2   8   0.4894   1.0674   0.6014  -0.4447  -0.6495   0.3173   0.00    1.0
2173 242693.000    967386.2842  -5611812.0348   2863022.7494   2   8   0.4894   1.0672   0.6013  -0.4446  -0.6494   0.3173   0.00    1.1
2173 242694.000    967386.2531  -5611812.0816   2863022.7310   2   8   0.4894   1.0671   0.6013  -0.4445  -0.6493   0.3172   0.00    1.1
2173 242695.000    967386.2461  -5611812.0522   2863022.7486   2   8   0.4894   1.0669   0.6013  -0.4444  -0.6492   0.3172   0.00    1.1
2173 242696.000    967386.1790  -5611812.1263   2863022.6957   2   8   0.4893   1.0668   0.6013  -0.4443  -0.6491   0.3172   0.00    1.0
2173 242697.000    967386.1407  -5611812.2470   2863022.7498   2   8   0.4893   1.0666   0.6012  -0.4442  -0.6490   0.3171   0.00    1.0
2173 242698.000    967386.1361  -5611812.3191   2863022.7536   2   8   0.4893   1.0665   0.6012  -0.4441  -0.6489   0.3171   0.00    1.1
2173 242699.000    967386.1405  -5611812.2559   2863022.7434   2   8   0.4893   1.0663   0.6012  -0.4440  -0.6488   0.3171   0.00    1.0
2173 242700.000    967386.2116  -5611812.0603   2863022.7059   2   8   0.4893   1.0661   0.6012  -0.4439  -0.6486   0.3170   0.00    1.0
2173 242701.000    967386.2779  -5611812.0324   2863022.7205   2   8   0.4893   1.0660   0.6011  -0.4438  -0.6485   0.3170   0.00    1.0
2173 242702.000    967386.2914  -5611812.0572   2863022.7044   2   8   0.4893   1.0658   0.6011  -0.4437  -0.6484   0.3170   0.00    1.0
2173 242703.000    967386.2529  -5611811.9857   2863022.6736   2   8   0.4893   1.0657   0.6011  -0.4436  -0.6483   0.3169   0.00    1.0
2173 242704.000    967386.2429  -5611811.9842   2863022.6941   2   8   0.4893   1.0655   0.6010  -0.4435  -0.6482   0.3169   0.00    1.0
2173 242705.000    967386.2237  -5611811.9715   2863022.6124   2   8   0.4893   1.0654   0.6010  -0.4434  -0.6481   0.3169   0.00    1.1
2173 242706.000    967386.2487  -5611811.8911   2863022.5681   2   8   0.4893   1.0652   0.6010  -0.4433  -0.6480   0.3168   0.00    1.1
2173 242707.000    967386.2457  -5611811.8835   2863022.5808   2   8   0.4893   1.0651   0.6010  -0.4432  -0.6479   0.3168   0.00    1.1
2173 242708.000    967386.2391  -5611811.9246   2863022.6126   2   8   0.4893   1.0649   0.6009  -0.4431  -0.6478   0.3168   0.00    1.0
2173 242709.000    967386.3027  -5611812.0394   2863022.6740   2   8   0.4893   1.0648   0.6009  -0.4430  -0.6477   0.3168   0.00    1.1
2173 242710.000    967386.3175  -5611811.9298   2863022.6542   2   8   0.4892   1.0646   0.6009  -0.4429  -0.6475   0.3167   0.00    1.1
2173 242711.000    967386.2785  -5611811.8379   2863022.5749   2   8   0.4892   1.0645   0.6009  -0.4428  -0.6474   0.3167   0.00    1.0
2173 242712.000    967386.3274  -5611812.0089   2863022.6634   2   8   0.4892   1.0643   0.6008  -0.4427  -0.6473   0.3167   0.00    1.0
2173 242713.000    967386.3355  -5611812.0067   2863022.6812   2   8   0.4892   1.0642   0.6008  -0.4426  -0.6472   0.3166   0.00    1.0
2173 242714.000    967386.2525  -5611812.0954   2863022.7546   2   8   0.4892   1.0640   0.6008  -0.4425  -0.6471   0.3166   0.00    1.1
2173 242715.000    967386.2698  -5611812.1316   2863022.7660   2   8   0.4892   1.0639   0.6008  -0.4424  -0.6470   0.3166   0.00    1.1
2173 242716.000    967386.2244  -5611812.0079   2863022.7071   2   8   0.4892   1.0637   0.6007  -0.4423  -0.6469   0.3165   0.00    1.0
2173 242717.000    967386.2242  -5611811.9726   2863022.6188   2   8   0.4892   1.0636   0.6007  -0.4422  -0.6468   0.3165   0.00    1.2
2173 242718.000    967386.1910  -5611811.9944   2863022.6177   2   8   0.4892   1.0634   0.6007  -0.4421  -0.6467   0.3165   0.00    1.2
2173 242719.000    967386.1979  -5611812.0020   2863022.5912   2   8   0.4892   1.0633   0.6006  -0.4420  -0.6466   0.3164   0.00    1.2
2173 242720.000    967386.1809  -5611811.9517   2863022.5518   2   8   0.4892   1.0631   0.6006  -0.4419  -0.6464   0.3164   0.00    1.2
2173 242721.000    967386.1493  -5611811.8868   2863022.5472   2   8   0.4892   1.0630   0.6006  -0.4418  -0.6463   0.3164   0.00    1.2
2173 242722.000    967386.1274  -5611811.9085   2863022.5917   2   8   0.4892   1.0628   0.6006  -0.4417  -0.6462   0.3163   0.00    1.2
2173 242723.000    967386.0932  -5611811.8508   2863022.5888   2   8   0.4892   1.0627   0.6005  -0.4416  -0.6461   0.3163   0.00    1.1
2173 242724.000    967386.0951  -5611812.0321   2863022.6169   2   8   0.4891   1.0625   0.6005  -0.4415  -0.6460   0.3163   0.00    1.2
2173 242725.000    967386.1182  -5611812.0499   2863022.6096   2   8   0.4891   1.0624   0.6005  -0.4414  -0.6459   0.3163   0.00    1.1
2173 242726.000    967386.1003  -5611811.9542   2863022.5932   2   8   0.4891   1.0622   0.6005  -0.4413  -0.6458   0.3162   0.00    1.1
2173 242727.000    967386.1210  -5611812.1125   2863022.7053   2   8   0.4891   1.0621   0.6004  -0.4412  -0.6457   0.3162   0.00    1.1
2173 242728.000    967386.1197  -5611812.1342   2863022.7227   2   8   0.4891   1.0619   0.6004  -0.4411  -0.6456   0.3162   0.00    1.1
