     2.11           OBSERVATION DATA    M (MIXED)           RINEX VERSION / TYPE
CONVBIN 2.4.3                           20210901 004845 UTC PGM / RUN BY / DATE 
log: logs/21_08_31_18_18_22_okdt_SNOK.rtcm                  COMMENT             
format: RTCM 3, station ID: 5                               COMMENT             
0005                                                        MARKER NAME         
                                                            MARKER NUMBER       
                                                            OBSERVER / AGENCY   
1705700             LEICA GR30          4.50                REC # / TYPE / VERS 
                    GPPNULLANTENNA                          ANT # / TYPE        
  -679303.2208 -5154477.6564  3682276.0515                  APPROX POSITION XYZ 
        0.0000        0.0000        0.0000                  ANTENNA: DELTA H/E/N
     1     1                                                WAVELENGTH FACT L1/2
     7    C1    L1    C2    L2    P2    C5    L5            # / TYPES OF OBSERV 
  2021     8    31    18    18   49.0000000     GPS         TIME OF FIRST OBS   
  2021     8    31    18    48   26.0000000     GPS         TIME OF LAST OBS    
                                                            END OF HEADER       
 21  8 31 18 18 49.0000000  0 16G 5G13G15G18G23G29R 3R 4R 5R18R19R20
                                E 5E 9E11E36
  22542781.535   118463115.644    22542780.016    92308912.073    22542779.390  
                                
  21722123.926   114150531.526                    88948454.193    21722121.227  
                                
  20299525.316   106674724.927    20299523.315    83123151.401    20299522.654  
                                
  20983131.843   110267102.478    20983129.949    85922408.026    20983129.574  
  20983134.274    82342325.349  
  21634400.210   113689539.806    21634398.798    88589244.608    21634398.423  
  21634403.016    84898043.762  
  20968358.504   110189466.962    20968356.788    85861912.757    20968356.145  
                                
  22852303.676   122330170.572    22852302.925    95145684.959    22852302.854  
                                
  19429235.013   104042670.773    19429233.387    80922070.784    19429233.351  
                                
  20157968.346   107755893.349    20157968.310    83810138.254    20157968.346  
                                
  21801197.033   116376269.430    21801198.784    90514883.563    21801198.766  
                                
  19449461.371   104041502.889    19449460.745    80921166.156    19449460.424  
                                
  21441003.149   114654679.068    21441004.990    89175868.864    21441004.096  
                                
  24195127.604   127146254.752                                                  
  24195130.839    94946889.604  
  22279430.036   117079195.600                                                  
  22279432.413    87429277.863  
  24824330.355   130452737.309                                                  
  24824330.748    97416006.017  
  23624016.333   124145044.672                                                  
  23624019.514    92705726.274  
 21  8 31 18 18 50.0000000  0 16G 5G13G15G18G23G29R 3R 4R 5R18R19R20
                                E 5E 9E11E36
  22543296.699   118465822.911    22543295.180    92311021.641    22543294.554  
                                
  21722364.228   114151794.448                    88949438.301    21722361.548  
                                
  20299489.006   106674534.197    20299486.987    83123002.796    20299486.326  
                                
  20982818.063   110265453.488    20982816.169    85921123.119    20982815.776  
  20982820.458    82341093.961  
  21634075.262   113687832.253    21634073.868    88587914.070    21634073.493  
  21634078.067    84896768.650  
  20968755.303   110191552.263    20968753.588    85863537.685    20968752.944  
                                
  22853039.236   122334108.169    22853038.468    95148747.548    22853038.414  
                                
  19429522.257   104044209.083    19429520.631    80923267.261    19429520.613  
                                
  20157523.747   107753516.771    20157523.711    83808289.826    20157523.729  
                                
  21801769.592   116379325.957    21801771.361    90517260.871    21801771.361  
                                
  19449509.760   104041761.912    19449509.153    80921367.632    19449508.831  
                                
  21440375.267   114651321.547    21440377.108    89173257.473    21440376.197  
                                
  24194766.060   127144354.814                                                  
  24194769.277    94945470.819  
  22279584.389   117080006.714                                                  
  22279586.748    87429883.558  
  24824708.177   130454722.628                                                  
  24824708.552    97417488.551  
  23624057.378   124145260.342                                                  
  23624060.559    92705887.324  
 21  8 31 18 18 51.0000000  0 16G 5G13G15G18G23G29R 3R 4R 5R18R19R20
                                E 5E 9E11E36
  22543811.845   118468530.057    22543810.326    92313131.114    22543809.700  
                                
  21722604.638   114153057.804                    88950422.749    21722601.940  
                                
  20299452.804   106674343.959    20299450.784    83122854.568    20299450.123  
                                
  20982504.283   110263804.492    20982502.371    85919838.197    20982501.996  
  20982506.678    82339862.559  
  21633750.349   113686124.789    21633748.956    88586583.590    21633748.598  
  21633753.155    84895493.589  
  20969152.192   110193637.907    20969150.459    85865162.874    20969149.815  
                                
  22853774.779   122338045.619    22853774.028    95151810.011    22853773.939  
                                
  19429809.609   104045747.844    19429807.983    80924464.087    19429807.965  
                                
  20157079.237   107751140.614    20157079.183    83806441.713    20157079.219  
                                
  21802342.222   116382382.683    21802343.974    90519638.328    21802343.974  
                                
  19449558.274   104042021.384    19449557.649    80921569.455    19449557.327  
                                
  21439747.368   114647964.005    21439749.208    89170646.063    21439748.315  
                                
  24194404.534   127142455.002                                                  
  24194407.751    94944052.126  
  22279738.759   117080818.010                                                  
  22279741.154    87430489.394  
  24825085.946   130456707.879                                                  
  24825086.339    97418971.046  
  23624098.406   124145476.015                                                  
  23624101.604    92706048.383  
 21  8 31 18 18 52.0000000  0 16G 5G13G15G18G23G29R 3R 4R 5R18R19R20
                                E 5E 9E11E36
  22544327.026   118471237.314    22544325.508    92315240.679    22544324.864  
                                
  21722845.173   114154321.856                    88951407.738    21722842.493  
                                
  20299416.726   106674154.470    20299414.707    83122706.931    20299414.046  
                                
  20982190.521   110262155.749    20982188.627    85918553.475    20982188.252  
  20982192.933    82338631.361  
  21633425.491   113684417.682    21633424.097    88585253.393    21633423.739  
  21633428.296    84894218.804  
  20969549.188   110195724.171    20969547.455    85866788.548    20969546.811  
                                
  22854510.357   122341983.242    22854509.607    95154872.616    22854509.517  
                                
  19430097.086   104047287.309    19430095.460    80925661.464    19430095.424  
                                
  20156634.834   107748765.156    20156634.781    83804594.149    20156634.816  
                                
  21802914.925   116385439.905    21802916.694    90522016.178    21802916.694  
                                
  19449606.896   104042281.560    19449606.253    80921771.831    19449605.967  
                                
  21439119.540   114644606.705    21439121.380    89168034.846    21439120.469  
                                
  24194043.116   127140555.604                                                  
  24194046.314    94942633.747  
  22279893.255   117081629.790                                                  
  22279895.632    87431095.589  
  24825463.787   130458693.377                                                  
  24825464.180    97420453.716  
  23624139.522   124145692.011                                                  
  23624142.721    92706209.679  
 21  8 31 18 18 53.0000000  0 16G 5G13G15G18G23G29R 3R 4R 5R18R19R20
                                E 5E 9E11E36
  22544842.244   118473944.810    22544840.689    92317350.418    22544840.082  
                                
  21723085.851   114155586.694                    88952393.333    21723083.153  
                                
  20299380.827   106673965.835    20299378.808    83122559.949    20299378.147  
                                
  20981876.848   110260507.346    20981874.972    85917269.017    20981874.579  
  20981879.261    82337400.404  
  21633100.721   113682711.007    21633099.327    88583923.525    21633098.970  
  21633103.527    84892944.336  
  20969946.309   110197811.118    20969944.576    85868414.750    20969943.915  
                                
  22855245.971   122345921.096    22855245.221    95157935.398    22855245.149  
                                
  19430384.706   104048827.556    19430383.080    80926859.442    19430383.044  
                                
  20156190.592   107746390.456    20156190.539    83802747.169    20156190.575  
                                
  21803487.752   116388497.711    21803489.521    90524394.483    21803489.485  
                                
  19449655.679   104042542.522    19449655.035    80921974.808    19449654.714  
                                
  21438491.765   114641249.751    21438493.588    89165423.893    21438492.694  
                                
  24193681.732   127138656.661                                                  
  24193684.967    94941215.711  
  22280047.822   117082442.092                                                  
  22280050.181    87431702.185  
  24825841.663   130460679.177                                                  
  24825842.074    97421936.617  
  23624180.675   124145908.359                                                  
  23624183.873    92706371.235  
 21  8 31 18 18 54.0000000  0 16G 5G13G15G18G23G29R 3R 4R 5R18R19R20
                                E 5E 9E11E36
  22545357.479   118476652.361    22545355.960    92319460.191    22545355.335  
                                
  21723326.672   114156852.155                    88953379.399    21723323.991  
                                
  20299345.071   106673777.890    20299343.034    83122413.493    20299342.373  
                                
  20981563.193   110258859.140    20981561.317    85915984.691    20981560.924  
  20981565.624    82336169.603  
  21632776.005   113681004.610    21632774.611    88582593.861    21632774.236  
  21632778.811    84891670.088  
  20970343.555   110199898.620    20970341.822    85870041.363    20970341.179  
                                
  22855981.621   122349859.051    22855980.870    95160998.245    22855980.799  
                                
  19430672.468   104050368.480    19430670.824    80928057.931    19430670.807  
                                
  20155746.494   107744016.398    20155746.440    83800900.675    20155746.458  
                                
  21804060.686   116391555.952    21804062.420    90526773.108    21804062.420  
                                
  19449704.586   104042804.123    19449703.961    80922178.267    19449703.639  
                                
  21437864.026   114637892.962    21437865.867    89162813.050    21437864.956  
                                
  24193320.457   127136758.079                                                  
  24193323.673    94939797.934  
  22280202.478   117083254.817                                                  
  22280204.855    87432309.090  
  24826219.575   130462665.126                                                  
  24826219.968    97423419.642  
  23624221.898   124146124.954                                                  
  23624225.079    92706532.973  
 21  8 31 18 18 55.0000000  0 16G 5G13G15G18G23G29R 3R 4R 5R18R19R20
                                E 5E 9E11E36
  22545872.751   118479360.088    22545871.232    92321570.095    22545870.606  
                                
  21723567.635   114158118.343                    88954366.028    21723564.955  
                                
  20299309.476   106673590.731    20299307.457    83122267.639    20299306.796  
                                
  20981249.610   110257211.221    20981247.716    85914700.583    20981247.341  
  20981252.022    82334939.014  
  21632451.361   113679298.598    21632449.967    88581264.487    21632449.592  
  21632454.166    84890396.118  
  20970740.927   110201986.751    20970739.194    85871668.464    20970738.550  
                                
  22856717.324   122353797.182    22856716.556    95164061.220    22856716.484  
                                
  19430960.374   104051910.157    19430958.748    80929257.002    19430958.712  
                                
  20155302.520   107741643.062    20155302.448    83799054.730    20155302.502  
                                
  21804633.692   116394614.708    21804635.444    90529152.125    21804635.444  
                                
  19449753.636   104043066.489    19449753.011    80922382.315    19449752.707  
                                
  21437236.359   114634536.459    21437238.200    89160202.425    21437237.288  
                                
  24192959.252   127134859.913                                                  
  24192962.469    94938380.480  
  22280357.224   117084068.017                                                  
  22280359.619    87432916.349  
  24826597.540   130464651.349                                                  
  24826597.934    97424902.871  
  23624263.176   124146341.856                                                  
  23624266.374    92706694.948  
 21  8 31 18 18 56.0000000  0 16G 5G13G15G18G23G29R 3R 4R 5R18R19R20
                                E 5E 9E11E36
  22546388.022   118482067.829    22546386.503    92323680.012    22546385.895  
                                
  21723808.706   114159385.129                    88955353.121    21723806.026  
                                
  20299273.988   106673404.223    20299271.969    83122122.297    20299271.308  
                                
  20980936.044   110255563.452    20980934.150    85913416.598    20980933.775  
  20980938.474    82333708.544  
  21632126.770   113677592.847    21632125.376    88579935.317    21632125.001  
  21632129.575    84889122.339  
  20971138.387   110204075.388    20971136.654    85873295.958    20971136.029  
                                
  22857452.992   122357735.323    22857452.259    95167124.204    22857452.170  
                                
  19431248.405   104053452.441    19431246.779    80930456.542    19431246.743  
                                
  20154858.653   107739270.341    20154858.618    83797209.269    20154858.635  
                                
  21805206.788   116397673.864    21805208.557    90531531.454    21805208.557  
                                
  19449802.794   104043329.444    19449802.187    80922586.824    19449801.865  
                                
  21436608.710   114631180.076    21436610.550    89157591.896    21436609.639  
                                
  24192598.101   127132962.041                                                  
  24192601.300    94936963.240  
  22280512.041   117084881.587                                                  
  22280514.418    87433523.885  
  24826975.542   130466637.718                                                  
  24826975.935    97426386.175  
  23624304.507   124146558.967                                                  
  23624307.688    92706857.074  
 21  8 31 18 18 57.0000000  0 16G 5G13G15G18G23G29R 3R 4R 5R18R19R20
                                E 5E 9E11E36
  22546903.329   118484775.768    22546901.828    92325790.080    22546901.202  
                                
  21724049.920   114160652.653                    88956340.787    21724047.240  
                                
  20299238.661   106673218.516    20299236.642    83121977.572    20299235.981  
                                
  20980622.550   110253915.994    20980620.638    85912132.846    20980620.263  
  20980624.962    82332478.297  
  21631802.251   113675887.484    21631800.839    88578606.449    21631800.482  
  21631805.038    84887848.857  
  20971535.973   110206164.692    20971534.258    85874923.966    20971533.615  
                                
  22858188.731   122361673.663    22858187.981    95170187.342    22858187.909  
                                
  19431536.543   104054995.449    19431534.935    80931656.643    19431534.899  
                                
  20154414.948   107736898.366    20154414.894    83795364.388    20154414.930  
                                
  21805779.972   116400733.536    21805781.759    90533911.176    21805781.741  
                                
  19449852.113   104043593.187    19449851.505    80922791.946    19449851.183  
                                
  21435981.114   114627823.997    21435982.954    89154981.598    21435982.061  
                                
  24192237.022   127131064.630                                                  
  24192240.220    94935546.333  
  22280666.948   117085695.665                                                  
  22280669.325    87434131.796  
  24827353.579   130468624.349                                                  
  24827353.990    97427869.704  
  23624345.874   124146776.401                                                  
  23624349.054    92707019.448  
 21  8 31 18 18 58.0000000  0 16G 5G13G15G18G23G29R 3R 4R 5R18R19R20
                                E 5E 9E11E36
  22547418.653   118487483.797    22547417.134    92327900.221    22547416.527  
                                
  21724291.259   114161920.848                    88957328.978    21724288.597  
                                
  20299203.459   106673033.535    20299201.440    83121833.419    20299200.815  
                                
  20980309.092   110252268.765    20980307.198    85910849.282    20980306.804  
  20980311.504    82331248.221  
  21631477.785   113674182.440    21631476.373    88577277.827    21631476.016  
  21631480.590    84886575.606  
  20971933.684   110208254.565    20971931.969    85876552.432    20971931.308  
                                
  22858924.452   122365612.130    22858923.720    95173250.589    22858923.666  
                                
  19431824.824   104056539.124    19431823.216    80932857.272    19431823.180  
                                
  20153971.349   107734527.048    20153971.313    83793520.023    20153971.331  
                                
  21806353.246   116403793.655    21806355.033    90536291.257    21806355.015  
                                
  19449901.556   104043857.587    19449900.931    80922997.581    19449900.627  
                                
  21435353.536   114624468.130    21435355.412    89152371.473    21435354.483  
                                
  24191876.014   127129167.573                                                  
  24191879.248    94934129.700  
  22280821.962   117086510.171                                                  
  22280824.320    87434740.033  
  24827731.669   130470611.170                                                  
  24827732.063    97429353.358  
  23624387.294   124146994.108                                                  
  23624390.475    92707182.017  
 21  8 31 18 18 59.0000000  0 16G 5G13G15G18G23G29R 3R 4R 5R18R19R20
                                E 5E 9E11E36
  22547933.996   118490192.011    22547932.477    92330010.541    22547931.852  
                                
  21724532.723   114163189.791                    88958317.783    21724530.061  
                                
  20299168.400   106672849.357    20299166.381    83121689.925    20299165.720  
                                
  20979995.687   110250621.844    20979993.793    85909565.983    20979993.418  
  20979998.117    82330018.373  
  21631153.409   113672477.799    21631151.997    88575949.558    21631151.640  
  21631156.214    84885302.657  
  20972331.484   110210345.087    20972329.769    85878181.423    20972329.126  
                                
  22859660.227   122369550.826    22859659.495    95176314.038    22859659.405  
                                
  19432113.230   104058083.594    19432111.604    80934058.547    19432111.586  
                                
  20153527.858   107732156.464    20153527.822    83791676.254    20153527.840  
                                
  21806926.610   116406854.307    21806928.379    90538671.780    21806928.361  
                                
  19449951.125   104044122.779    19449950.500    80923203.860    19449950.178  
                                
  21434726.012   114621112.538    21434727.852    89149761.584    21434726.959  
                                
  24191515.113   127127270.954                                                  
  24191518.330    94932713.398  
  22280977.047   117087325.190                                                  
  22280979.441    87435348.650  
  24828109.814   130472598.270                                                  
  24828110.207    97430837.249  
  23624428.786   124147212.149                                                  
  23624431.985    92707344.840  
 21  8 31 18 19  0.0000000  0 16G 5G13G15G18G23G29R 3R 4R 5R18R19R20
                                E 5E 9E11E36
  22548449.321   118492900.120    22548447.820    92332120.767    22548447.176  
                                
  21724774.277   114164459.196                    88959306.936    21724771.614  
                                
  20299133.448   106672665.701    20299131.429    83121546.826    20299130.786  
                                
  20979682.282   110248974.926    20979680.388    85908282.683    20979680.013  
  20979684.712    82328788.538  
  21630829.050   113670773.266    21630827.656    88574621.362    21630827.281  
  21630831.856    84884029.791  
  20972729.356   110212435.981    20972727.641    85879810.701    20972726.997  
                                
  22860396.002   122373489.442    22860395.252    95179377.411    22860395.180  
                                
  19432401.725   104059628.542    19432400.117    80935260.178    19432400.081  
                                
  20153084.492   107729786.331    20153084.420    83789832.827    20153084.456  
                                
  21807500.027   116409915.228    21807501.778    90541052.497    21807501.760  
                                
  19450000.783   104044388.431    19450000.140    80923410.487    19449999.818  
                                
  21434098.505   114617756.979    21434100.346    89147151.714    21434099.452  
                                
  24191154.231   127125374.502                                                  
  24191157.447    94931297.216  
  22281132.186   117088140.430                                                  
  22281134.545    87435957.435  
  24828487.940   130474585.343                                                  
  24828488.315    97432321.098  
  23624470.296   124147430.252                                                  
  23624473.494    92707507.707  
 21  8 31 18 19  1.0000000  0 16G 5G13G15G18G23G29R 3R 4R 5R18R19R20
                                E 5E 9E11E36
  22548964.681   118495608.305    22548963.127    92334231.054    22548962.519  
                                
  21725015.938   114165729.207                    88960296.569    21725013.275  
                                
  20299098.622   106672482.736    20299096.603    83121404.269    20299095.941  
                                
  20979368.949   110247328.219    20979367.037    85906999.547    20979366.662  
  20979371.343    82327558.855  
  21630504.745   113669069.020    21630503.334    88573293.390    21630502.976  
  21630507.533    84882757.147  
  20973127.335   110214527.418    20973125.619    85881440.403    20973124.976  
                                
  22861131.777   122377428.150    22861131.027    95182440.860    22861130.955  
                                
  19432690.364   104061174.178    19432688.737    80936462.351    19432688.720  
                                
  20152641.197   107727416.813    20152641.143    83787989.882    20152641.179  
                                
  21808073.515   116412976.581    21808075.266    90543433.563    21808075.248  
                                
  19450050.548   104044654.719    19450049.923    80923617.614    19450049.601  
                                
  21433471.016   114614401.542    21433472.857    89144541.944    21433471.964  
                                
  24190793.401   127123478.379                                                  
  24190796.618    94929881.287  
  22281287.396   117088956.072                                                  
  22281289.773    87436566.520  
  24828866.084   130476572.572                                                  
  24828866.477    97433805.079  
  23624511.841   124147648.584                                                  
  23624515.040    92707670.745  
 21  8 31 18 19  2.0000000  0 16G 5G13G15G18G23G29R 3R 4R 5R18R19R20
                                E 5E 9E11E36
  22549480.006   118498316.530    22549478.487    92336341.367    22549477.862  
                                
  21725257.723   114166999.856                    88961286.696    21725255.061  
                                
  20299063.938   106672300.451    20299061.919    83121262.231    20299061.258  
                                
  20979055.615   110245681.685    20979053.721    85905716.540    20979053.346  
  20979058.028    82326329.303  
  21630180.476   113667365.053    21630179.082    88571965.628    21630178.725  
  21630183.282    84881484.698  
  20973525.421   110216619.378    20973523.705    85883070.506    20973523.044  
                                
  22861867.570   122381366.904    22861866.819    95185504.337    22861866.748  
                                
  19432979.109   104062720.433    19432977.501    80937665.001    19432977.447  
                                
  20152198.027   107725047.892    20152197.974    83786147.393    20152198.009  
                                
  21808647.075   116416038.348    21808648.844    90545814.940    21808648.808  
                                
  19450100.438   104044921.649    19450099.795    80923825.229    19450099.509  
                                
  21432843.564   114611046.294    21432845.404    89141932.313    21432844.511  
                                
  24190432.644   127121582.582                                                  
  24190435.842    94928465.589  
  22281442.696   117089772.098                                                  
  22281445.055    87437175.884  
  24829244.282   130478559.980                                                  
  24829244.657    97435289.169  
  23624553.422   124147867.118                                                  
  23624556.603    92707833.942  
 21  8 31 18 19  3.0000000  0 16G 5G13G15G18G23G29R 3R 4R 5R18R19R20
                                E 5E 9E11E36
  22549995.384   118501024.836    22549993.848    92338451.744    22549993.222  
                                
  21725499.634   114168271.120                    88962277.299    21725496.972  
                                
  20299029.379   106672118.855    20299027.360    83121120.737    20299026.699  
                                
  20978742.318   110244035.331    20978740.442    85904433.673    20978740.031  
  20978744.730    82325099.884  
  21629856.278   113665661.345    21629854.867    88570638.070    21629854.509  
  21629859.066    84880212.457  
  20973923.596   110218711.886    20973921.881    85884701.039    20973921.238  
                                
  22862603.363   122385305.714    22862602.612    95188567.860    22862602.541  
                                
  19433267.980   104064267.298    19433266.336    80938868.123    19433266.318  
                                
  20151755.001   107722679.592    20151754.929    83784305.391    20151754.965  
                                
  21809220.724   116419100.554    21809222.475    90548196.655    21809222.475  
                                
  19450150.436   104045189.198    19450149.828    80924033.329    19450149.507  
                                
  21432216.146   114607691.183    21432217.969    89139322.791    21432217.058  
                                
  24190071.940   127119687.104                                                  
  24190075.156    94927050.137  
  22281598.031   117090588.508                                                  
  22281600.426    87437785.552  
  24829622.498   130480547.552                                                  
  24829622.909    97436773.395  
  23624595.057   124148085.881                                                  
  23624598.256    92707997.307  
 21  8 31 18 19  4.0000000  0 16G 5G13G15G18G23G29R 3R 4R 5R18R19R20
                                E 5E 9E11E36
  22550510.745   118503733.188    22550509.226    92340562.157    22550508.600  
                                
  21725741.652   114169543.007                    88963268.387    21725739.008  
                                
  20298994.928   106671937.935    20298992.909    83120979.769    20298992.247  
                                
  20978429.074   110242389.178    20978427.198    85903150.967    20978426.787  
  20978431.486    82323870.608  
  21629532.116   113663957.924    21629530.723    88569310.740    21629530.365  
  21629534.940    84878940.417  
  20974321.897   110220804.908    20974320.146    85886331.972    20974319.520  
                                
  22863339.173   122389244.589    22863338.423    95191631.435    22863338.369  
                                
  19433556.940   104065814.783    19433555.314    80940071.729    19433555.296  
                                
  20151312.063   107720311.919    20151312.010    83782463.871    20151312.045  
                                
  21809794.445   116422163.147    21809796.214    90550578.679    21809796.214  
                                
  19450200.576   104045457.383    19450199.951    80924241.922    19450199.629  
                                
  21431588.747   114604336.233    21431590.570    89136713.388    21431589.676  
                                
  24189711.307   127117791.955                                                  
  24189714.523    94925634.929  
  22281753.474   117091405.312                                                  
  22281755.850    87438395.496  
  24830000.749   130482535.263                                                  
  24830001.143    97438257.724  
  23624636.728   124148304.858                                                  
  23624639.926    92708160.818  
 21  8 31 18 19  5.0000000  0 16G 5G13G15G18G23G29R 3R 4R 5R18R19R20
                                E 5E 9E11E36
  22551026.159   118506441.681    22551024.622    92342672.681    22551023.997  
                                
  21725983.813   114170815.584                    88964260.007    21725981.169  
                                
  20298960.637   106671757.760    20298958.618    83120839.378    20298957.957  
                                
  20978115.866   110240743.267    20978113.972    85901868.440    20978113.578  
  20978118.260    82322641.520  
  21629208.044   113662254.846    21629206.650    88567983.669    21629206.293  
  21629210.849    84877668.643  
  20974720.287   110222898.531    20974718.571    85887963.371    20974717.928  
                                
  22864075.020   122393183.612    22864074.269    95194695.119    22864074.198  
                                
  19433846.060   104067362.978    19433844.434    80941275.881    19433844.399  
                                
  20150869.287   107717944.941    20150869.197    83780622.891    20150869.251  
                                
  21810368.273   116425226.222    21810370.042    90552961.071    21810370.024  
                                
  19450250.842   104045726.297    19450250.217    80924451.080    19450249.913  
                                
  21430961.384   114600981.483    21430963.224    89134104.145    21430962.313  
                                
  24189350.746   127115897.191                                                  
  24189353.962    94924220.009  
  22281909.006   117092222.565                                                  
  22281911.365    87439005.782  
  24830379.055   130484523.187                                                  
  24830379.430    97439742.200  
  23624678.452   124148524.123                                                  
  23624681.633    92708324.559  
 21  8 31 18 19  6.0000000  0 16G 5G13G15G18G23G29R 3R 4R 5R18R19R20
                                E 5E 9E11E36
  22551541.555   118509150.118    22551540.018    92344783.149    22551539.393  
                                
  21726226.099   114172088.668                    88965252.004    21726223.437  
                                
  20298926.489   106671578.168    20298924.435    83120699.427    20298923.773  
                                
  20977802.657   110239097.426    20977800.781    85900585.958    20977800.388  
  20977805.088    82321412.481  
  21628883.989   113660551.939    21628882.595    88566656.721    21628882.238  
  21628886.795    84876396.987  
  20975118.784   110224992.583    20975117.051    85889595.091    20975116.425  
                                
  22864810.866   122397122.607    22864810.115    95197758.773    22864810.044  
                                
  19434135.288   104068911.736    19434133.662    80942480.461    19434133.644  
                                
  20150426.582   107715578.479    20150426.528    83778782.303    20150426.564  
                                
  21810942.154   116428289.596    21810943.906    90555343.686    21810943.906  
                                
  19450301.233   104045995.685    19450300.589    80924660.592    19450300.268  
                                
  21430334.056   114597626.834    21430335.896    89131494.965    21430334.967  
                                
  24188990.238   127114002.646                                                  
  24188993.455    94922805.250  
  22282064.574   117093040.099                                                  
  22282066.932    87439616.279  
  24830757.342   130486511.156                                                  
  24830757.735    97441226.722  
  23624720.194   124148743.497                                                  
  23624723.393    92708488.381  
 21  8 31 18 19  7.0000000  0 16G 5G13G15G18G23G29R 3R 4R 5R18R19R20
                                E 5E 9E11E36
  22552057.023   118511858.761    22552055.504    92346893.761    22552054.861  
                                
  21726468.510   114173362.521                    88966244.594    21726465.866  
                                
  20298892.485   106671399.414    20298890.466    83120560.115    20298889.804  
                                
  20977489.539   110237451.925    20977487.644    85899303.726    20977487.251  
  20977491.951    82320183.698  
  21628560.024   113658849.451    21628558.594    88565330.085    21628558.237  
  21628562.829    84875125.653  
  20975517.406   110227087.324    20975515.691    85891227.338    20975515.047  
                                
  22865546.766   122401061.839    22865546.015    95200822.599    22865545.962  
                                
  19434424.659   104070461.278    19434423.051    80943685.639    19434423.033  
                                
  20149984.037   107713212.776    20149983.984    83776942.293    20149984.020  
                                
  21811516.125   116431353.546    21811517.912    90557726.739    21811517.912  
                                
  19450351.748   104046265.895    19450351.123    80924870.737    19450350.801  
                                
  21429706.782   114594272.437    21429708.622    89128885.968    21429707.711  
                                
  24188629.802   127112108.574                                                  
  24188633.001    94921390.850  
  22282220.249   117093858.179                                                  
  22282222.625    87440227.183  
  24831135.700   130488499.429                                                  
  24831136.076    97442711.463  
  23624762.025   124148963.252                                                  
  23624765.206    92708652.477  
 21  8 31 18 19  8.0000000  0 16G 5G13G15G18G23G29R 3R 4R 5R18R19R20
                                E 5E 9E11E36
  22552572.455   118514567.474    22552570.936    92349004.444    22552570.310  
                                
  21726711.029   114174637.013                    88967237.714    21726708.384  
                                
  20298858.587   106671221.351    20298856.568    83120421.372    20298855.907  
                                
  20977176.455   110235806.612    20977174.543    85898021.669    20977174.150  
  20977178.850    82318955.060  
  21628236.094   113657147.254    21628234.682    88564003.702    21628234.325  
  21628238.917    84873854.532  
  20975916.135   110229182.599    20975914.402    85892860.021    20975913.759  
                                
  22866282.666   122405001.160    22866281.915    95203886.522    22866281.844  
                                
  19434714.155   104072011.453    19434712.529    80944891.336    19434712.494  
                                
  20149541.618   107710847.697    20149541.547    83775102.794    20149541.565  
                                
  21812090.203   116434417.939    21812091.955    90560110.161    21812091.955  
                                
  19450402.389   104046536.766    19450401.746    80925081.417    19450401.424  
                                
  21429079.507   114590918.236    21429081.348    89126277.150    21429080.455  
                                
  24188269.438   127110214.834                                                  
  24188272.636    94919976.693  
  22282375.995   117094676.644                                                  
  22282378.354    87440838.376  
  24831514.095   130490487.856                                                  
  24831514.488    97444196.336  
  23624803.875   124149183.218                                                  
  23624807.055    92708816.742  
 21  8 31 18 19  9.0000000  0 16G 5G13G15G18G23G29R 3R 4R 5R18R19R20
                                E 5E 9E11E36
  22553087.940   118517276.201    22553086.439    92351115.105    22553085.796  
                                
  21726953.690   114175912.081                    88968231.248    21726951.063  
                                
  20298824.850   106671043.929    20298822.831    83120283.086    20298822.170  
                                
  20976863.390   110234161.449    20976861.496    85896739.696    20976861.085  
  20976865.785    82317726.528  
  21627912.236   113655445.298    21627910.824    88562677.477    21627910.449  
  21627915.041    84872583.590  
  20976314.954   110231278.374    20976313.239    85894493.062    20976312.595  
                                
  22867018.584   122408940.538    22867017.851    95206950.448    22867017.780  
                                
  19435003.777   104073562.233    19435002.150    80946097.470    19435002.133  
                                
  20149099.289   107708483.188    20149099.253    83773263.699    20149099.271  
                                
  21812664.353   116437482.684    21812666.122    90562493.819    21812666.122  
                                
  19450453.155   104046808.192    19450452.530    80925292.495    19450452.208  
                                
  21428452.305   114587564.179    21428454.145    89123668.411    21428453.252  
                                
  24187909.109   127108321.375                                                  
  24187912.325    94918562.747  
  22282531.795   117095495.466                                                  
  22282534.171    87441449.830  
  24831892.489   130492476.402                                                  
  24831892.882    97445681.294  
  23624845.778   124149403.384                                                  
  23624848.958    92708981.147  
 21  8 31 18 19 10.0000000  0 16G 5G13G15G18G23G29R 3R 4R 5R18R19R20
                                E 5E 9E11E36
  22553603.480   118519985.255    22553601.979    92353226.032    22553601.335  
                                
  21727196.530   114177188.044                    88969225.471    21727193.903  
                                
  20298791.292   106670867.451    20298789.273    83120145.546    20298788.630  
                                
  20976550.396   110232516.731    20976548.484    85895458.073    20976548.109  
  20976552.809    82316498.331  
  21627588.449   113653743.869    21627587.020    88561351.663    21627586.662  
  21627591.237    84871313.050  
  20976713.952   110233374.943    20976712.236    85896126.727    20976711.593  
                                
  22867754.573   122412880.227    22867753.840    95210014.627    22867753.769  
                                
  19435293.559   104075113.906    19435291.950    80947304.301    19435291.915  
                                
  20148657.137   107706119.565    20148657.102    83771425.304    20148657.120  
                                
  21813238.645   116440548.106    21813240.414    90564878.006    21813240.414  
                                
  19450504.082   104047080.546    19450503.456    80925504.306    19450503.153  
                                
  21427825.174   114584210.525    21427827.014    89121059.988    21427826.121  
                                
  24187548.923   127106428.515                                                  
  24187552.139    94917149.249  
  22282687.756   117096314.943                                                  
  22282690.114    87442061.779  
  24832270.991   130494465.380                                                  
  24832271.366    97447166.565  
  23624887.752   124149624.013                                                  
  23624890.950    92709145.903  
 21  8 31 18 19 11.0000000  0 16G 5G13G15G18G23G29R 3R 4R 5R18R19R20
                                E 5E 9E11E36
  22554119.037   118522694.537    22554117.518    92355337.159    22554116.892  
                                
  21727439.477   114178464.787                    88970220.338    21727436.851  
                                
  20298757.859   106670691.818    20298755.858    83120008.694    20298755.197  
                                
  20976237.492   110230872.360    20976235.580    85894176.745    20976235.205  
  20976239.904    82315270.389  
  21627264.770   113652042.893    21627263.358    88560026.227    21627262.983  
  21627267.575    84870042.836  
  20977113.038   110235472.220    20977111.323    85897760.969    20977110.680  
                                
  22868490.580   122416820.176    22868489.865    95213079.037    22868489.776  
                                
  19435583.466   104076666.369    19435581.857    80948511.775    19435581.822  
                                
  20148215.129   107703756.748    20148215.076    83769587.560    20148215.111  
                                
  21813813.009   116443614.115    21813814.778    90567262.682    21813814.778  
                                
  19450555.134   104047353.672    19450554.508    80925716.739    19450554.204  
                                
  21427198.096   114580857.244    21427199.954    89118451.888    21427199.025  
                                
  24187188.809   127104536.127                                                  
  24187192.007    94915736.101  
  22282843.788   117097134.960                                                  
  22282846.165    87442674.136  
  24832649.546   130496454.669                                                  
  24832649.921    97448652.062  
  23624929.816   124149845.036                                                  
  23624932.996    92709310.953  
 21  8 31 18 19 12.0000000  0 16G 5G13G15G18G23G29R 3R 4R 5R18R19R20
                                E 5E 9E11E36
  22554634.594   118525403.969    22554633.093    92357448.435    22554632.449  
                                
  21727682.568   114179742.258                    88971215.795    21727679.941  
                                
  20298724.587   106670516.966    20298722.568    83119872.466    20298721.907  
                                
  20975924.641   110229228.280    20975922.729    85892895.666    20975922.336  
  20975927.035    82314042.671  
  21626941.162   113650342.292    21626939.732    88558701.106    21626939.375  
  21626943.949    84868772.911  
  20977512.232   110237570.116    20977510.517    85899395.716    20977509.874  
                                
  22869226.605   122420760.274    22869225.873    95216143.576    22869225.819  
                                
  19435873.498   104078219.552    19435871.872    80949719.830    19435871.854  
                                
  20147773.228   107701394.657    20147773.193    83767750.397    20147773.210  
                                
  21814387.445   116446680.639    21814389.232    90569647.775    21814389.232  
                                
  19450606.311   104047627.565    19450605.703    80925929.791    19450605.381  
                                
  21426571.036   114577504.208    21426572.877    89115843.992    21426571.983  
                                
  24186828.783   127102644.180                                                  
  24186832.000    94914323.283  
  22282999.928   117097955.482                                                  
  22283002.286    87443286.857  
  24833028.137   130498444.219                                                  
  24833028.530    97450137.776  
  23624971.933   124150066.378                                                  
  23624975.131    92709476.243  
 21  8 31 18 19 13.0000000  0 16G 5G13G15G18G23G29R 3R 4R 5R18R19R20
                                E 5E 9E11E36
  22555150.169   118528113.395    22555148.650    92359559.690    22555148.024  
                                
  21727925.747   114181020.269                    88972211.659    21727923.120  
                                
  20298691.405   106670342.730    20298689.403    83119736.716    20298688.742  
                                
  20975611.790   110227584.302    20975609.896    85891614.663    20975609.485  
  20975614.185    82312815.027  
  21626617.589   113648641.887    21626616.160    88557376.134    21626615.803  
  21626620.377    84867503.126  
  20977911.533   110239668.475    20977909.818    85901030.812    20977909.175  
                                
  22869962.630   122424700.361    22869961.916    95219208.104    22869961.826  
                                
  19436163.637   104079773.298    19436162.029    80950928.313    19436161.975  
                                
  20147331.452   107699033.118    20147331.381    83765913.663    20147331.435  
                                
  21814961.988   116449747.498    21814963.757    90572033.121    21814963.757  
                                
  19450657.595   104047902.008    19450656.987    80926143.256    19450656.665  
                                
  21425944.012   114574151.259    21425945.853    89113236.159    21425944.941  
                                
  24186468.812   127100752.476                                                  
  24186472.011    94912910.649  
  22283156.121   117098776.300                                                  
  22283158.497    87443899.803  
  24833406.764   130500433.849                                                  
  24833407.157    97451623.532  
  23625014.068   124150287.871                                                  
  23625017.284    92709641.639  
 21  8 31 18 19 14.0000000  0 16G 5G13G15G18G23G29R 3R 4R 5R18R19R20
                                E 5E 9E11E36
  22555665.743   118530822.871    22555664.225    92361670.981    22555663.617  
                                
  21728169.034   114182298.890                    88973208.001    21728166.407  
                                
  20298658.347   106670169.152    20298656.328    83119601.476    20298655.702  
                                
  20975298.993   110225940.509    20975297.081    85890333.799    20975296.706  
  20975301.405    82311587.513  
  21626294.053   113646941.744    21626292.623    88556051.359    21626292.266  
  21626296.858    84866233.541  
  20978310.924   110241767.351    20978309.209    85902666.316    20978308.565  
                                
  22870698.673   122428640.501    22870697.941    95222272.667    22870697.869  
                                
  19436453.901   104081327.684    19436452.275    80952137.293    19436452.240  
                                
  20146889.784   107696672.175    20146889.730    83764077.388    20146889.748  
                                
  21815536.566   116452814.747    21815538.353    90574418.778    21815538.335  
                                
  19450709.004   104048177.057    19450708.378    80926357.199    19450708.057  
                                
  21425317.006   114570798.474    21425318.847    89110628.453    21425317.935  
                                
  24186108.876   127098861.074                                                  
  24186112.111    94911498.241  
  22283312.403   117099597.503                                                  
  22283314.780    87444513.043  
  24833785.391   130502423.598                                                  
  24833785.802    97453109.377  
  23625056.257   124150509.559                                                  
  23625059.473    92709807.192  
 21  8 31 18 19 15.0000000  0 16G 5G13G15G18G23G29R 3R 4R 5R18R19R20
                                E 5E 9E11E36
  22556181.301   118533532.159    22556179.764    92363782.131    22556179.138  
                                
  21728412.428   114183577.902                    88974204.654    21728409.801  
                                
  20298625.414   106669996.049    20298623.395    83119466.609    20298622.734  
                                
  20974986.178   110224296.666    20974984.284    85889052.898    20974983.908  
  20974988.590    82310359.966  
  21625970.534   113645241.663    21625969.140    88554726.641    21625968.783  
  21625973.340    84864963.997  
  20978710.386   110243866.547    20978708.653    85904302.069    20978708.009  
                                
  22871434.698   122432580.498    22871433.948    95225337.123    22871433.876  
                                
  19436744.219   104082882.485    19436742.611    80953346.599    19436742.593  
                                
  20146448.169   107694311.606    20146448.097    83762241.411    20146448.133  
                                
  21816111.180   116455882.172    21816112.949    90576804.566    21816112.949  
                                
  19450760.484   104048452.516    19450759.859    80926571.463    19450759.555  
                                
  21424690.000   114567445.605    21424691.823    89108020.685    21424690.911  
                                
  24185748.976   127096969.784                                                  
  24185752.193    94910085.914  
  22283468.686   117100418.869                                                  
  22283471.062    87445126.397  
  24834164.017   130504413.295                                                  
  24834164.410    97454595.194  
  23625098.446   124150731.251                                                  
  23625101.662    92709972.743  
 21  8 31 18 19 16.0000000  0 16G 5G13G15G18G23G29R 3R 4R 5R18R19R20
                                E 5E 9E11E36
  22556696.929   118536241.764    22556695.392    92365893.514    22556694.767  
                                
  21728655.965   114184857.776                    88975201.964    21728653.356  
                                
  20298592.625   106669823.844    20298590.605    83119332.428    20298589.944  
                                
  20974673.434   110222653.237    20974671.558    85887772.314    20974671.165  
  20974675.864    82309132.732  
  21625647.123   113643542.080    21625645.729    88553402.297    21625645.354  
  21625649.928    84863694.826  
  20979109.973   110245966.491    20979108.258    85905938.394    20979107.614  
                                
  22872170.777   122436520.832    22872170.026    95228401.841    22872169.955  
                                
  19437034.734   104084438.153    19437033.108    80954556.573    19437033.072  
                                
  20146006.732   107691951.888    20146006.679    83760406.082    20146006.697  
                                
  21816685.919   116458950.261    21816687.706    90579190.863    21816687.689  
                                
  19450812.144   104048728.835    19450811.518    80926786.385    19450811.197  
                                
  21424063.047   114564093.128    21424064.870    89105413.209    21424063.977  
                                
  24185389.183   127095079.037                                                  
  24185392.382    94908673.999  
  22283625.111   117101240.849                                                  
  22283627.506    87445740.216  
  24834542.716   130506403.374                                                  
  24834543.109    97456081.287  
  23625140.724   124150953.386                                                  
  23625143.922    92710138.623  
 21  8 31 18 19 17.0000000  0 16G 5G13G15G18G23G29R 3R 4R 5R18R19R20
                                E 5E 9E11E36
  22557212.558   118538951.399    22557211.021    92368004.912    22557210.413  
                                
  21728899.645   114186138.243                    88976199.728    21728897.018  
                                
  20298559.978   106669652.305    20298557.959    83119198.759    20298557.298  
                                
  20974360.726   110221009.970    20974358.850    85886491.843    20974358.457  
  20974363.156    82307905.619  
  21625323.747   113641842.750    21625322.353    88552078.139    21625321.996  
  21625326.553    84862425.850  
  20979509.685   110248066.949    20979507.970    85907575.114    20979507.309  
                                
  22872906.856   122440461.238    22872906.123    95231466.597    22872906.069  
                                
  19437325.356   104085994.426    19437323.730    80955767.002    19437323.712  
                                
  20145565.403   107689592.764    20145565.350    83758571.205    20145565.385  
                                
  21817260.748   116462018.762    21817262.535    90581577.472    21817262.535  
                                
  19450863.910   104049005.796    19450863.303    80927001.794    19450862.981  
                                
  21423436.166   114560740.793    21423437.989    89102805.834    21423437.060  
                                
  24185029.444   127093188.603                                                  
  24185032.661    94907262.307  
  22283781.590   117102063.193                                                  
  22283783.967    87446354.306  
  24834921.467   130508393.590                                                  
  24834921.843    97457567.488  
  23625183.037   124151175.729                                                  
  23625186.236    92710304.654  
 21  8 31 18 19 18.0000000  0 16G 5G13G15G18G23G29R 3R 4R 5R18R19R20
                                E 5E 9E11E36
  22557728.258   118541661.327    22557726.739    92370116.513    22557726.131  
                                
  21729143.485   114187419.541                    88977198.110    21729140.859  
                                
  20298527.546   106669481.663    20298525.526    83119065.762    20298524.883  
                                
  20974048.108   110219367.110    20974046.214    85885211.660    20974045.838  
  20974050.538    82306678.804  
  21625000.461   113640143.916    21624999.049    88550754.345    21624998.692  
  21625003.248    84861157.245  
  20979909.558   110250168.160    20979907.843    85909212.383    20979907.200  
                                
  22873643.042   122444401.887    22873642.291    95234531.518    22873642.237  
                                
  19437616.174   104087551.563    19437614.548    80956978.078    19437614.512  
                                
  20145124.253   107687234.502    20145124.199    83756736.973    20145124.235  
                                
  21817835.738   116465087.910    21817837.524    90583964.553    21817837.507  
                                
  19450915.856   104049283.563    19450915.230    80927217.808    19450914.926  
                                
  21422809.357   114557388.856    21422811.179    89100198.744    21422810.286  
                                
  24184669.812   127091298.710                                                  
  24184673.029    94905851.025  
  22283938.194   117102886.151                                                  
  22283940.571    87446968.845  
  24835300.255   130510384.164                                                  
  24835300.630    97459053.964  
  23625225.423   124151398.501                                                  
  23625228.621    92710471.005  
 21  8 31 18 19 19.0000000  0 16G 5G13G15G18G23G29R 3R 4R 5R18R19R20
                                E 5E 9E11E36
  22558243.958   118544371.211    22558242.457    92372228.083    22558241.831  
                                
  21729387.415   114188701.378                    88978196.923    21729384.806  
                                
  20298495.221   106669311.630    20298493.201    83118933.248    20298492.540  
                                
  20973735.507   110217724.353    20973733.613    85883931.567    20973733.202  
