     2.11           OBSERVATION DATA    M (MIXED)           RINEX VERSION / TYPE
CONVBIN 2.4.3                           20210902 202023 UTC PGM / RUN BY / DATE 
log: logs/21_09_02_07_16_57_scwt_SW.rtcm                    COMMENT             
format: RTCM 3, station ID: 3053                            COMMENT             
3053                                                        MARKER NAME         
                                                            MARKER NUMBER       
                                                            OBSERVER / AGENCY   
                    SWFT                                    REC # / TYPE / VERS 
                    NULL                                    ANT # / TYPE        
   877834.0614 -5342142.3465  3360930.2191                  APPROX POSITION XYZ 
        0.0000        0.0000        0.0000                  ANTENNA: DELTA H/E/N
     1     1                                                WAVELENGTH FACT L1/2
     5    C1    L1    P2    L2    C2                        # / TYPES OF OBSERV 
  2021     9     2     7    17    2.0000000     GPS         TIME OF FIRST OBS   
  2021     9     2     7    47    0.0000000     GPS         TIME OF LAST OBS    
                                                            END OF HEADER       
 21  9  2  7 17  2.0000000  0 19G 1G 4G 7G 8G 9G14G17G21C24C25C26C34
                                C35E 2E 3E 8E24E25E36
  22562810.958   118568323.085    22562814.353    92390887.997                  
  24606310.995   129307025.755    24606312.675   100758719.859                  
  20346487.092   106921525.655    20346486.449    83315477.804                  
  21170771.094   111253112.475    21170773.453    86690727.024                  
  22919843.061   120444550.887    22919845.348    93852887.347                  
  23796914.641   125053634.520    23796915.213    97444393.597                  
  24032554.894   126291928.004    24032555.126    98409293.851                  
  21563994.634   113319556.626    21563993.847    88300953.784                  
                 114884076.254                   114884076.254    22062273.554  
                 127334583.942                   127334583.942    24453265.208  
                 122183128.735                   122183128.735    23463985.027  
                 119806101.694                   119806101.694    23007502.859  
                 132431887.500                   132431887.500    25432151.478  
  24688785.542   129740419.683                                                  
  26307129.541   138244876.984                                                  
  24569011.893   129111021.981                                                  
  27831132.408   146253623.565                                                  
  24300856.344   127701849.879                                                  
  24993819.002   131343350.132                                                  
 21  9  2  7 17  3.0000000  0 19G 1G 4G 7G 8G 9G14G17G21C24C25C26C34
                                C35E 2E 3E 8E24E25E36
  22562185.739   118565037.554    22562189.134    92388327.840                  
  24606972.864   129310503.843    24606974.525   100761430.059                  
  20346256.725   106920314.993    20346256.063    83314534.431                  
  21171208.153   111255409.224    21171210.511    86692516.696                  
  22920389.728   120447423.589    22920391.997    93855125.816                  
  23796495.898   125051433.969    23796496.488    97442678.884                  
  24031952.815   126288764.085    24031953.047    98406828.464                  
  21563756.904   113318307.328    21563756.100    88299980.308                  
                 114883820.355                   114883820.355    22062224.414  
                 127332152.059                   127332152.059    24452798.183  
                 122184992.192                   122184992.192    23464342.872  
                 119803689.046                   119803689.046    23007039.515  
                 132434827.597                   132434827.597    25432716.104  
  24688567.522   129739273.993                                                  
  26307579.609   138247242.015                                                  
  24569113.157   129111554.047                                                  
  27831440.702   146255243.759                                                  
  24300931.269   127702243.570                                                  
  24993361.359   131340945.160                                                  
 21  9  2  7 17  4.0000000  0 19G 1G 4G 7G 8G 9G14G17G21C24C25C26C34
                                C35E 2E 3E 8E24E25E36
  22561560.555   118561752.233    22561563.968    92385767.852                  
  24607634.696   129313981.845    24607636.376   100764140.188                  
  20346026.429   106919104.797    20346025.785    83313591.421                  
  21171645.283   111257706.304    21171647.641    86694306.629                  
  22920936.395   120450296.440    22920938.700    93857364.401                  
  23796077.155   125049233.452    23796077.727    97440964.196                  
  24031350.808   126285600.409    24031351.022    98404363.262                  
  21563519.282   113317058.589    21563518.478    88299007.266                  
                 114883564.751                   114883564.751    22062175.346  
                 127329720.214                   127329720.214    24452331.158  
                 122186855.902                   122186855.902    23464700.788  
                 119801276.765                   119801276.765    23006576.279  
                 132437767.878                   132437767.878    25433280.747  
  24688349.502   129738128.319                                                  
  26308029.676   138249607.198                                                  
  24569214.474   129112086.526                                                  
  27831749.014   146256863.985                                                  
  24301006.176   127702637.324                                                  
  24992903.769   131338540.465                                                  
 21  9  2  7 17  5.0000000  0 19G 1G 4G 7G 8G 9G14G17G21C24C25C26C34
                                C35E 2E 3E 8E24E25E36
  22560935.443   118558467.145    22560938.839    92383208.043                  
  24608296.511   129317459.759    24608298.191   100766850.251                  
  20345796.222   106917895.085    20345795.579    83312648.788                  
  21172082.466   111260003.757    21172084.843    86696096.854                  
  22921483.133   120453169.556    22921485.421    93859603.190                  
  23795658.413   125047033.000    23795659.002    97439249.558                  
  24030748.818   126282436.956    24030749.033    98401898.234                  
  21563281.749   113315810.397    21563280.963    88298034.648                  
                 114883309.425                   114883309.425    22062126.295  
                 127327288.415                   127327288.415    24451864.151  
                 122188719.874                   122188719.874    23465058.741  
                 119798864.864                   119798864.864    23006113.096  
                 132440708.341                   132440708.341    25433845.444  
  24688131.500   129736982.655                                                  
  26308479.778   138251972.495                                                  
  24569315.899   129112619.422                                                  
  27832057.362   146258484.265                                                  
  24301081.136   127703031.159                                                  
  24992446.197   131336136.045                                                  
 21  9  2  7 17  6.0000000  0 19G 1G 4G 7G 8G 9G14G17G21C24C25C26C34
                                C35E 2E 3E 8E24E25E36
  22560310.331   118555182.273    22560313.744    92380648.403                  
  24608958.344   129320937.591    24608960.006   100769560.250                  
  20345566.123   106916685.866    20345565.461    83311706.540                  
  21172519.721   111262301.571    21172522.098    86697887.356                  
  22922029.926   120456042.885    22922032.195    93861842.153                  
  23795239.706   125044832.610    23795240.278    97437534.968                  
  24030146.882   126279273.736    24030147.097    98399433.382                  
  21563044.323   113314562.761    21563043.537    88297062.466                  
                 114883054.390                   114883054.390    22062077.316  
                 127324856.652                   127324856.652    24451397.180  
                 122190584.101                   122190584.101    23465416.746  
                 119796453.333                   119796453.333    23005649.984  
                 132443648.979                   132443648.979    25434410.159  
  24687913.480   129735837.008                                                  
  26308929.917   138254337.954                                                  
  24569417.377   129113152.758                                                  
  27832365.692   146260104.603                                                  
  24301156.097   127703425.073                                                  
  24991988.714   131333731.911                                                  
 21  9  2  7 17  7.0000000  0 19G 1G 4G 7G 8G 9G14G17G21C24C25C26C34
                                C35E 2E 3E 8E24E25E36
  22559685.309   118551897.645    22559688.704    92378088.952                  
  24609620.124   129324415.341    24609621.803   100772270.183                  
  20345336.095   106915477.120    20345335.451    83310764.660                  
  21172957.065   111264599.726    21172959.424    86699678.128                  
  22922576.736   120458916.450    22922579.023    93864081.290                  
  23794820.981   125042632.267    23794821.553    97435820.415                  
  24029544.982   126276110.738    24029545.197    98396968.715                  
  21562807.023   113313315.685    21562806.218    88296090.718                  
                 114882799.640                   114882799.640    22062028.409  
                 127322424.935                   127322424.935    24450930.173  
                 122192448.585                   122192448.585    23465774.806  
                 119794042.171                   119794042.171    23005186.944  
                 132446589.801                   132446589.801    25434974.891  
  24687695.478   129734691.356                                                  
  26309380.073   138256703.551                                                  
  24569518.963   129113686.505                                                  
  27832674.040   146261724.993                                                  
  24301231.057   127703819.049                                                  
  24991531.285   131331328.063                                                  
 21  9  2  7 17  8.0000000  0 19G 1G 4G 7G 8G 9G14G17G21C24C25C26C34
                                C35E 2E 3E 8E24E25E36
  22559060.304   118548613.197    22559063.699    92375529.644                  
  24610281.903   129327892.999    24610283.583   100774980.047                  
  20345106.174   106914268.829    20345105.513    83309823.132                  
  21173394.445   111266898.250    21173396.822    86701469.184                  
  22923123.599   120461790.235    22923125.904    93866320.605                  
  23794402.274   125040431.976    23794402.864    97434105.903                  
  24028943.118   126272948.004    24028943.332    98394504.245                  
  21562569.793   113312069.146    21562569.025    88295119.387                  
                 114882545.175                   114882545.175    22061979.537  
                 127319993.253                   127319993.253    24450463.202  
                 122194313.324                   122194313.324    23466132.901  
                 119791631.387                   119791631.387    23004723.976  
                 132449530.799                   132449530.799    25435539.695  
  24687477.458   129733545.747                                                  
  26309830.266   138259069.286                                                  
  24569620.602   129114220.677                                                  
  27832982.406   146263345.422                                                  
  24301306.054   127704213.111                                                  
  24991073.891   131328924.492                                                  
 21  9  2  7 17  9.0000000  0 19G 1G 4G 7G 8G 9G14G17G21C24C25C26C34
                                C35E 2E 3E 8E24E25E36
  22558435.335   118545329.003    22558438.748    92372970.532                  
  24610943.664   129331370.567    24610945.344   100777689.840                  
  20344876.343   106913061.039    20344875.681    83308881.999                  
  21173831.897   111269197.120    21173834.274    86703260.511                  
  22923670.498   120464664.230    22923672.804    93868560.077                  
  23793983.603   125038231.742    23793984.175    97432391.434                  
  24028341.325   126269785.481    24028341.539    98392039.942                  
  21562332.707   113310823.161    21562331.921    88294148.492                  
                 114882290.995                   114882290.995    22061930.719  
                 127317561.617                   127317561.617    24449996.249  
                 122196178.325                   122196178.325    23466491.068  
                 119789220.972                   119789220.972    23004261.079  
                 132452471.984                   132452471.984    25436104.517  
  24687259.474   129732400.217                                                  
  26310280.458   138261435.152                                                  
  24569722.312   129114755.263                                                  
  27833290.772   146264965.898                                                  
  24301381.068   127704607.245                                                  
  24990616.552   131326521.196                                                  
 21  9  2  7 17 10.0000000  0 19G 1G 4G 7G 8G 9G14G17G21C24C25C26C34
                                C35E 2E 3E 8E24E25E36
  22557810.419   118542045.026    22557813.814    92370411.589                  
  24611605.408   129334848.044    24611607.088   100780399.562                  
  20344646.600   106911853.740    20344645.939    83307941.242                  
  21174269.438   111271496.363    21174271.797    86705052.129                  
  22924217.451   120467538.493    22924219.739    93870799.765                  
  23793564.914   125036031.571    23793565.503    97430677.011                  
  24027739.568   126266623.196    24027739.782    98389575.824                  
  21562095.692   113309577.732    21562094.924    88293178.027                  
                 114882037.109                   114882037.109    22061881.954  
                 127315130.019                   127315130.019    24449529.278  
                 122198043.579                   122198043.579    23466849.252  
                 119786810.932                   119786810.932    23003798.253  
                 132455413.344                   132455413.344    25436669.375  
  24687041.472   129731254.656                                                  
  26310730.704   138263801.169                                                  
  24569824.148   129115290.281                                                  
  27833599.155   146266586.432                                                  
  24301456.064   127705001.450                                                  
  24990159.283   131324118.191                                                  
 21  9  2  7 17 11.0000000  0 19G 1G 4G 7G 8G 9G14G17G21C24C25C26C34
                                C35E 2E 3E 8E24E25E36
  22557185.540   118538761.273    22557188.935    92367852.820                  
  24612267.133   129338325.448    24612268.795   100783109.229                  
  20344416.948   106910646.915    20344416.305    83307000.864                  
  21174707.032   111273795.923    21174709.391    86706843.992                  
  22924764.440   120470412.929    22924766.745    93873039.585                  
  23793146.242   125033831.442    23793146.814    97428962.629                  
  24027137.846   126263461.140    24027138.060    98387111.886                  
  21561858.821   113308332.848    21561858.017    88292207.988                  
                 114881783.505                   114881783.505    22061833.261  
                 127312698.462                   127312698.462    24449062.324  
                 122199909.089                   122199909.089    23467207.526  
                 119784401.271                   119784401.271    23003335.517  
                 132458354.886                   132458354.886    25437234.268  
  24686823.505   129730109.109                                                  
  26311180.985   138266167.332                                                  
  24569926.019   129115825.712                                                  
  27833907.539   146268207.011                                                  
  24301531.096   127705395.723                                                  
  24989702.069   131321715.465                                                  
 21  9  2  7 17 12.0000000  0 19G 1G 4G 7G 8G 9G14G17G21C24C25C26C34
                                C35E 2E 3E 8E24E25E36
  22556560.696   118535477.754    22556564.109    92365294.234                  
  24612928.841   129341802.760    24612930.521   100785818.824                  
  20344187.384   106909440.567    20344186.741    83306060.852                  
  21175144.681   111276095.823    21175147.057    86708636.124                  
  22925311.482   120473287.618    22925313.787    93875279.602                  
  23792727.571   125031631.375    23792728.161    97427248.293                  
  24026536.160   126260299.316    24026536.375    98384648.130                  
  21561622.020   113307088.512    21561621.234    88291238.376                  
                 114881530.189                   114881530.189    22061784.622  
                 127310266.946                   127310266.946    24448595.389  
                 122201774.855                   122201774.855    23467565.818  
                 119781991.975                   119781991.975    23002872.834  
                 132461296.606                   132461296.606    25437799.198  
  24686605.503   129728963.573                                                  
  26311631.267   138268533.621                                                  
  24570027.997   129116361.571                                                  
  27834215.940   146269827.645                                                  
  24301606.146   127705790.086                                                  
  24989244.872   131319313.023                                                  
 21  9  2  7 17 13.0000000  0 19G 1G 4G 7G 8G 9G14G17G21C24C25C26C34
                                C35E 2E 3E 8E24E25E36
  22555935.905   118532194.456    22555939.300    92362735.824                  
  24613590.531   129345279.991    24613592.229   100788528.352                  
  20343957.928   106908234.696    20343957.267    83305121.210                  
  21175582.418   111278396.073    21175584.777    86710428.527                  
  22925858.560   120476162.509    22925860.848    93877519.772                  
  23792308.936   125029431.363    23792309.525    97425533.996                  
  24025934.546   126257137.739    24025934.743    98382184.558                  
  21561385.345   113305844.744    21561384.559    88290269.208                  
                 114881277.157                   114881277.157    22061736.018  
                 127307835.473                   127307835.473    24448128.435  
                 122203640.883                   122203640.883    23467924.163  
                 119779583.055                   119779583.055    23002410.223  
                 132464238.509                   132464238.509    25438364.162  
  24686387.519   129727818.067                                                  
  26312081.584   138270900.057                                                  
  24570130.065   129116897.851                                                  
  27834524.342   146271448.335                                                  
  24301681.196   127706184.511                                                  
  24988787.782   131316910.863                                                  
 21  9  2  7 17 14.0000000  0 21G 1G 4G 7G 8G 9G14G17G21G27G30C24C25
                                C26C34C35E 2E 3E 8E24E25E36
  22555311.168   118528911.386    22555314.564    92360177.586                  
  24614252.221   129348757.136    24614253.883   100791237.815                  
  20343728.544   106907029.310    20343727.883    83304181.948                  
  21176020.191   111280696.675    21176022.568    86712221.203                  
  22926405.656   120479037.622    22926407.961    93879760.125                  
  23791890.300   125027231.398    23791890.872    97423819.743                  
  24025332.932   126253976.390    24025333.164    98379721.172                  
  21561148.759   113304601.523    21561147.973    88289300.465                  
  23504632.908   123517648.727    23504634.802    96247511.727                  
  22290828.382   117139057.339    22290830.348    91277178.505                  
                 114881024.411                   114881024.411    22061687.486  
                 127305404.038                   127305404.038    24447661.500  
                 122205507.163                   122205507.163    23468282.562  
                 119777174.510                   119777174.510    23001947.683  
                 132467180.589                   132467180.589    25438929.163  
  24686169.535   129726672.559                                                  
  26312531.919   138273266.634                                                  
  24570232.187   129117434.549                                                  
  27834832.761   146273069.075                                                  
  24301756.264   127706579.013                                                  
  24988330.693   131314508.976                                                  
 21  9  2  7 17 15.0000000  0 21G 1G 4G 7G 8G 9G14G17G21G27G30C24C25
                                C26C34C35E 2E 3E 8E24E25E36
  22554686.467   118525628.539    22554689.863    92357619.519                  
  24614913.875   129352234.199    24614915.555   100793947.215                  
  20343499.266   106905824.402    20343498.605    83303243.059                  
  21176458.054   111282997.570    21176460.412    86714014.079                  
  22926952.823   120481912.930    22926955.129    93882000.618                  
  23791471.683   125025031.524    23791472.237    97422105.571                  
  24024731.407   126250815.378    24024731.621    98377258.094                  
  21560912.299   113303358.849    21560911.494    88288332.145                  
  23505288.916   123521096.094    23505290.792    96250198.003                  
  22290299.316   117136277.169    22290301.282    91275012.148                  
                 114880771.952                   114880771.952    22061639.007  
                 127302972.643                   127302972.643    24447194.582  
                 122207373.703                   122207373.703    23468641.015  
                 119774766.335                   119774766.335    23001485.215  
                 132470122.853                   132470122.853    25439494.182  
  24685951.569   129725527.038                                                  
  26312982.308   138275633.507                                                  
  24570334.398   129117971.574                                                  
  27835141.180   146274689.917                                                  
  24301831.367   127706973.590                                                  
  24987873.692   131312107.332                                                  
 21  9  2  7 17 16.0000000  0 21G 1G 4G 7G 8G 9G14G17G21G27G30C24C25
                                C26C34C35E 2E 3E 8E24E25E36
  22554061.802   118522345.910    22554065.197    92355061.628                  
  24615575.512   129355711.168    24615577.191   100796656.542                  
  20343270.060   106904619.981    20343269.399    83302304.551                  
  21176895.988   111285298.888    21176898.346    86715807.313                  
  22927500.027   120484788.493    22927502.314    93884241.316                  
  23791053.065   125022831.677    23791053.619    97420391.397                  
  24024129.918   126247654.487    24024130.114    98374795.062                  
  21560675.927   113302116.738    21560675.141    88287364.271                  
  23505944.941   123524543.542    23505946.835    96252884.329                  
  22289770.322   117133497.246    22289772.287    91272845.974                  
                 114880519.782                   114880519.782    22061590.582  
                 127300541.293                   127300541.293    24446727.665  
                 122209240.501                   122209240.501    23468999.521  
                 119772358.540                   119772358.540    23001022.836  
                 132473065.288                   132473065.288    25440059.236  
  24685733.602   129724381.591                                                  
  26313432.696   138278000.366                                                  
  24570436.680   129118509.124                                                  
  27835449.618   146276310.763                                                  
  24301906.453   127707368.238                                                  
  24987416.746   131309706.020                                                  
 21  9  2  7 17 17.0000000  0 21G 1G 4G 7G 8G 9G14G17G21G27G30C24C25
                                C26C34C35E 2E 3E 8E24E25E36
  22553437.173   118519063.515    22553440.586    92352503.918                  
  24616237.166   129359188.050    24616238.828   100799365.800                  
  20343040.962   106903416.035    20343040.300    83301366.410                  
  21177333.975   111287600.540    21177336.334    86717600.809                  
  22928047.265   120487664.267    22928049.553    93886482.184                  
  23790634.448   125020631.871    23790635.019    97418677.265                  
  24023528.464   126244493.831    24023528.679    98372332.215                  
  21560439.663   113300875.173    21560438.877    88286396.813                  
  23506600.985   123527991.094    23506602.879    96255570.726                  
  22289241.363   117130717.542    22289243.328    91270679.973                  
                 114880267.899                   114880267.899    22061542.193  
                 127298109.986                   127298109.986    24446260.765  
                 122211107.552                   122211107.552    23469358.063  
                 119769951.114                   119769951.114    23000560.493  
                 132476007.909                   132476007.909    25440624.344  
  24685515.618   129723236.149                                                  
  26313883.121   138280367.357                                                  
  24570539.052   129119047.096                                                  
  27835758.055   146277931.661                                                  
  24301981.556   127707762.966                                                  
  24986959.835   131307304.987                                                  
 21  9  2  7 17 18.0000000  0 21G 1G 4G 7G 8G 9G14G17G21G27G30C24C25
                                C26C34C35E 2E 3E 8E24E25E36
  22552812.597   118515781.358    22552815.992    92349946.395                  
  24616898.766   129362664.843    24616900.446   100802074.992                  
  20342811.934   106902212.574    20342811.309    83300428.648                  
  21177772.034   111289902.556    21177774.393    86719394.585                  
  22928594.558   120490540.279    22928596.845    93888723.230                  
  23790215.848   125018432.132    23790216.420    97416963.187                  
  24022927.064   126241333.419    24022927.261    98369869.554                  
  21560203.506   113299634.157    21560202.720    88285429.789                  
  23507257.064   123531438.739    23507258.940    96258257.202                  
  22288712.458   117127938.086    22288714.405    91268514.161                  
                 114880016.301                   114880016.301    22061493.875  
                 127295678.713                   127295678.713    24445793.865  
                 122212974.859                   122212974.859    23469716.659  
                 119767544.058                   119767544.058    23000098.257  
                 132478950.708                   132478950.708    25441189.487  
  24685297.652   129722090.725                                                  
  26314333.563   138282734.503                                                  
  24570641.495   129119585.491                                                  
  27836066.528   146279552.598                                                  
  24302056.696   127708157.772                                                  
  24986502.995   131304904.247                                                  
 21  9  2  7 17 19.0000000  0 21G 1G 4G 7G 8G 9G14G17G21G27G30C24C25
                                C26C34C35E 2E 3E 8E24E25E36
  22552188.056   118512499.398    22552191.451    92347389.024                  
  24617560.367   129366141.542    24617562.047   100804784.110                  
  20342583.014   106901009.591    20342582.389    83299491.258                  
  21178210.165   111292204.939    21178212.524    86721188.652                  
  22929141.886   120493416.508    22929144.173    93890964.445                  
  23789797.266   125016232.446    23789797.838    97415249.144                  
  24022325.700   126238173.244    24022325.897    98367407.082                  
  21559967.456   113298393.689    21559966.652    88284463.191                  
  23507913.143   123534886.481    23507915.019    96260943.757                  
  22288183.588   117125158.867    22288185.536    91266348.535                  
                 114879764.991                   114879764.991    22061445.629  
                 127293247.488                   127293247.488    24445326.966  
                 122214842.424                   122214842.424    23470075.308  
                 119765137.383                   119765137.383    22999636.075  
                 132481893.687                   132481893.687    25441754.649  
  24685079.685   129720945.319                                                  
  26314784.041   138285101.769                                                  
  24570744.045   129120124.294                                                  
  27836374.983   146281173.570                                                  
  24302131.835   127708552.649                                                  
  24986046.192   131302503.769                                                  
 21  9  2  7 17 20.0000000  0 21G 1G 4G 7G 8G 9G14G17G21G27G30C24C25
                                C26C34C35E 2E 3E 8E24E25E36
  22551563.588   118509217.675    22551566.983    92344831.839                  
  24618221.932   129369618.168    24618223.611   100807493.165                  
  20342354.201   106899807.086    20342353.540    83298554.242                  
  21178648.367   111294507.668    21178650.726    86722982.984                  
  22929689.268   120496292.945    22929691.537    93893205.825                  
  23789378.684   125014032.810    23789379.256    97413535.140                  
  24021724.372   126235013.292    24021724.586    98364944.784                  
  21559731.496   113297153.782    21559730.727    88283497.032                  
  23508569.240   123538334.323    23508571.134    96263630.387                  
  22287654.754   117122379.882    22287656.720    91264183.093                  
                 114879513.969                   114879513.969    22061397.418  
                 127290816.300                   127290816.300    24444860.084  
                 122216710.249                   122216710.249    23470433.993  
                 119762731.079                   119762731.079    22999173.982  
                 132484836.843                   132484836.843    25442319.846  
  24684861.719   129719799.931                                                  
  26315234.537   138287469.191                                                  
  24570846.649   129120663.531                                                  
  27836683.438   146282794.615                                                  
  24302206.974   127708947.597                                                  
  24985589.459   131300103.589                                                  
 21  9  2  7 17 21.0000000  0 21G 1G 4G 7G 8G 9G14G17G21G27G30C24C25
                                C26C34C35E 2E 3E 8E24E25E36
  22550939.119   118505936.187    22550942.514    92342274.836                  
  24618883.497   129373094.691    24618885.176   100810202.144                  
  20342125.460   106898605.060    20342124.799    83297617.598                  
  21179086.623   111296810.732    21179088.981    86724777.582                  
  22930236.667   120499169.608    22930238.955    93895447.383                  
  23788960.120   125011833.235    23788960.692    97411821.188                  
  24021123.097   126231853.577    24021123.312    98362482.669                  
  21559495.660   113295914.426    21559494.874    88282531.298                  
  23509225.354   123541782.276    23509227.266    96266317.106                  
  22287125.974   117119601.144    22287127.940    91262017.841                  
                 114879263.235                   114879263.235    22061349.279  
                 127288385.156                   127288385.156    24444393.202  
                 122218578.329                   122218578.329    23470792.767  
                 119760325.146                   119760325.146    22998711.943  
                 132487780.183                   132487780.183    25442885.079  
  24684643.753   129718654.554                                                  
  26315685.087   138289836.740                                                  
  24570949.342   129121203.179                                                  
  27836991.947   146284415.710                                                  
  24302282.167   127709342.617                                                  
  24985132.781   131297703.683                                                  
 21  9  2  7 17 22.0000000  0 21G 1G 4G 7G 8G 9G14G17G21G27G30C24C25
                                C26C34C35E 2E 3E 8E24E25E36
  22550314.722   118502654.910    22550318.117    92339717.997                  
  24619545.044   129376571.141    24619546.723   100812911.066                  
  20341896.826   106897403.515    20341896.165    83296681.331                  
  21179524.932   111299114.153    21179527.309    86726572.453                  
  22930784.121   120502046.497    22930786.408    93897689.112                  
  23788541.556   125009633.702    23788542.146    97410107.266                  
  24020521.858   126228694.107    24020522.073    98360020.741                  
  21559259.914   113294675.614    21559259.146    88281565.992                  
  23509881.505   123545230.330    23509883.399    96269003.899                  
  22286597.266   117116822.636    22286599.196    91259852.773                  
                 114879012.785                   114879012.785    22061301.175  
                 127285954.052                   127285954.052    24443926.338  
                 122220446.669                   122220446.669    23471151.541  
                 119757919.590                   119757919.590    22998249.975  
                 132490723.700                   132490723.700    25443450.365  
  24684425.822   129717509.195                                                  
  26316135.636   138292204.423                                                  
  24571052.125   129121743.247                                                  
  27837300.420   146286036.848                                                  
  24302357.342   127709737.712                                                  
  24984676.138   131295304.055                                                  
 21  9  2  7 17 23.0000000  0 21G 1G 4G 7G 8G 9G14G17G21G27G30C24C25
                                C26C34C35E 2E 3E 8E24E25E36
  22549690.360   118499373.871    22549693.755    92337161.340                  
  24620206.573   129380047.503    24620208.234   100815619.922                  
  20341668.263   106896202.454    20341667.602    83295745.437                  
  21179963.348   111301417.910    21179965.707    86728367.590                  
  22931331.628   120504923.610    22931333.897    93899931.016                  
  23788123.028   125007434.230    23788123.582    97408393.391                  
  24019920.673   126225534.865    24019920.905    98357558.997                  
  21559024.293   113293437.356    21559023.507    88280601.113                  
  23510537.656   123548678.468    23510539.568    96271690.762                  
  22286068.557   117114044.370    22286070.523    91257687.891                  
                 114878762.621                   114878762.621    22061253.143  
                 127283522.989                   127283522.989    24443459.474  
                 122222315.261                   122222315.261    23471510.387  
                 119755514.406                   119755514.406    22997788.079  
                 132493667.394                   132493667.394    25444015.652  
  24684207.856   129716363.847                                                  
  26316586.222   138294572.247                                                  
  24571154.961   129122283.731                                                  
  27837608.928   146287658.029                                                  
  24302432.535   127710132.879                                                  
  24984219.567   131292904.715                                                  
 21  9  2  7 17 24.0000000  0 21G 1G 4G 7G 8G 9G14G17G21G27G30C24C25
                                C26C34C35E 2E 3E 8E24E25E36
  22549066.034   118496093.058    22549069.447    92334604.863                  
  24620868.102   129383523.777    24620869.764   100818328.706                  
  20341439.808   106895001.863    20341439.147    83294809.914                  
  21180401.801   111303722.036    21180404.159    86730163.011                  
  22931879.134   120507800.933    22931881.440    93902173.090                  
  23787704.482   125005234.814    23787705.054    97406679.563                  
  24019319.541   126222375.863    24019319.755    98355097.437                  
  21558788.762   113292199.643    21558787.976    88279636.669                  
  23511193.842   123552126.718    23511195.736    96274377.710                  
  22285539.920   117111266.343    22285541.885    91255523.194                  
                 114878512.747                   114878512.747    22061205.147  
                 127281091.970                   127281091.970    24442992.628  
                 122224184.115                   122224184.115    23471869.286  
                 119753109.598                   119753109.598    22997326.272  
                 132496611.265                   132496611.265    25444580.992  
  24683989.925   129715218.523                                                  
  26317036.825   138296940.218                                                  
  24571257.904   129122824.647                                                  
  27837917.437   146289279.264                                                  
  24302507.763   127710528.129                                                  
  24983763.013   131290505.645                                                  
 21  9  2  7 17 25.0000000  0 21G 1G 4G 7G 8G 9G14G17G21G27G30C24C25
                                C26C34C35E 2E 3E 8E24E25E36
  22548441.762   118492812.474    22548445.157    92332048.563                  
  24621529.577   129386999.960    24621531.257   100821037.418                  
  20341211.424   106893801.761    20341210.763    83293874.765                  
  21180840.324   111306026.517    21180842.683    86731958.710                  
  22932426.713   120510678.477    22932429.018    93904415.328                  
  23787285.953   125003035.445    23787286.525    97404965.769                  
  24018718.463   126219217.091    24018718.659    98352636.054                  
  21558553.337   113290962.489    21558552.551    88278672.648                  
  23511850.046   123555575.073    23511851.940    96277064.738                  
  22285011.318   117108488.561    22285013.284    91253358.687                  
                 114878263.159                   114878263.159    22061157.223  
                 127278660.989                   127278660.989    24442525.782  
                 122226053.219                   122226053.219    23472228.221  
                 119750705.161                   119750705.161    22996864.518  
                 132499555.320                   132499555.320    25445146.386  
  24683771.959   129714073.211                                                  
  26317487.464   138299308.320                                                  
  24571360.902   129123365.974                                                  
  27838225.963   146290900.559                                                  
  24302582.974   127710923.446                                                  
  24983306.567   131288106.863                                                  
 21  9  2  7 17 26.0000000  0 21G 1G 4G 7G 8G 9G14G17G21G27G30C24C25
                                C26C34C35E 2E 3E 8E24E25E36
  22547817.543   118489532.109    22547820.921    92329492.438                  
  24622191.053   129390476.051    24622192.732   100823746.063                  
  20340983.147   106892602.144    20340982.486    83292940.001                  
  21181278.920   111308331.353    21181281.278    86733754.687                  
  22932974.345   120513556.249    22932976.632    93906657.745                  
  23786867.443   125000836.140    23786868.015    97403252.027                  
  24018117.402   126216058.559    24018117.617    98350174.863                  
  21558318.020   113289725.892    21558317.234    88277709.066                  
  23512506.268   123559023.531    23512508.162    96279751.848                  
  22284482.788   117105711.024    22284484.736    91251194.370                  
                 114878013.858                   114878013.858    22061109.334  
                 127276230.051                   127276230.051    24442058.936  
                 122227922.581                   122227922.581    23472587.228  
                 119748301.103                   119748301.103    22996402.836  
                 132502499.549                   132502499.549    25445711.780  
  24683554.028   129712927.925                                                  
  26317938.120   138301676.570                                                  
  24571464.006   129123907.731                                                  
  27838534.508   146292521.897                                                  
  24302658.220   127711318.839                                                  
  24982850.138   131285708.380                                                  
 21  9  2  7 17 27.0000000  0 21G 1G 4G 7G 8G 9G14G17G21G27G30C24C25
                                C26C34C35E 2E 3E 8E24E25E36
  22547193.343   118486251.971    22547196.738    92326936.488                  
  24622852.528   129393952.061    24622854.208   100826454.640                  
  20340754.960   106891402.996    20340754.298    83292005.602                  
  21181717.586   111310636.535    21181719.945    86735550.933                  
  22933522.012   120516434.239    22933524.300    93908900.337                  
  23786448.933   124998636.892    23786449.522    97401538.325                  
  24017516.396   126212900.268    24017516.628    98347713.859                  
  21558082.792   113288489.820    21558082.024    88276745.895                  
  23513162.508   123562472.083    23513164.402    96282439.031                  
  22283954.276   117102933.715    22283956.242    91249030.238                  
                 114877764.848                   114877764.848    22061061.516  
                 127273799.157                   127273799.157    24441592.126  
                 122229792.206                   122229792.206    23472946.252  
                 119745897.414                   119745897.414    22995941.244  
                 132505443.962                   132505443.962    25446277.245  
  24683336.080   129711782.648                                                  
  26318388.813   138304044.957                                                  
  24571567.182   129124449.906                                                  
  27838843.034   146294143.286                                                  
  24302733.485   127711714.300                                                  
  24982393.781   131283310.164                                                  
 21  9  2  7 17 28.0000000  0 21G 1G 4G 7G 8G 9G14G17G21G27G30C24C25
                                C26C34C35E 2E 3E 8E24E25E36
  22546569.196   118482972.071    22546572.609    92324380.719                  
  24623513.986   129397427.989    24623515.648   100829163.157                  
  20340526.861   106890204.345    20340526.200    83291071.586                  
  21182156.306   111312942.058    21182158.665    86737347.446                  
  22934069.716   120519312.446    22934072.021    93911143.093                  
  23786030.440   124996437.687    23786031.012    97399824.661                  
  24016915.443   126209742.203    24016915.657    98345253.027                  
  21557847.708   113287254.297    21557846.903    88275783.152                  
  23513818.766   123565920.729    23513820.660    96285126.288                  
  22283425.818   117100156.653    22283427.783    91246866.293                  
                 114877516.120                   114877516.120    22061013.752  
                 127271368.300                   127271368.300    24441125.297  
                 122231662.083                   122231662.083    23473305.348  
                 119743494.103                   119743494.103    22995479.722  
                 132508388.552                   132508388.552    25446842.692  
  24683118.167   129710637.391                                                  
  26318839.523   138306413.477                                                  
  24571670.429   129124992.491                                                  
  27839151.579   146295764.718                                                  
  24302808.731   127712109.835                                                  
  24981937.460   131280912.235                                                  
 21  9  2  7 17 29.0000000  0 21G 1G 4G 7G 8G 9G14G17G21G27G30C24C25
                                C26C34C35E 2E 3E 8E24E25E36
  22545945.102   118479692.390    22545948.497    92321825.124                  
  24624175.408   129400903.828    24624177.087   100831871.601                  
  20340298.835   106889006.165    20340298.192    83290137.937                  
  21182595.098   111315247.921    21182597.457    86739144.223                  
  22934617.455   120522190.876    22934619.760    93913386.023                  
  23785611.966   124994238.538    23785612.537    97398111.038                  
  24016314.525   126206584.388    24016314.740    98342792.391                  
  21557612.694   113286019.331    21557611.908    88274820.839                  
  23514475.041   123569369.484    23514476.917    96287813.629                  
  22282897.395   117097379.831    22282899.361    91244702.534                  
                 114877267.680                   114877267.680    22060966.042  
                 127268937.488                   127268937.488    24440658.487  
                 122233532.220                   122233532.220    23473664.480  
                 119741091.164                   119741091.164    22995018.255  
                 132511333.319                   132511333.319    25447408.211  
  24682900.218   129709492.144                                                  
  26319290.251   138308782.137                                                  
  24571773.765   129125535.505                                                  
  27839460.141   146297386.212                                                  
  24302884.013   127712505.457                                                  
  24981481.192   131278514.582                                                  
 21  9  2  7 17 30.0000000  0 21G 1G 4G 7G 8G 9G14G17G21G27G30C24C25
                                C26C34C35E 2E 3E 8E24E25E36
  22545321.044   118476412.939    22545324.440    92319269.707                  
  24624836.812   129404379.568    24624838.474   100834579.972                  
  20340070.933   106887808.461    20340070.272    83289204.664                  
  21183033.961   111317554.136    21183036.320    86740941.274                  
  22935165.266   120525069.531    22935167.553    93915629.134                  
  23785193.473   124992039.444    23785194.063    97396397.457                  
  24015713.661   126203426.792    24015713.876    98340331.929                  
  21557377.788   113284784.917    21557377.002    88273858.958                  
  23515131.317   123572818.332    23515133.229    96290501.044                  
  22282369.044   117094603.250    22282370.992    91242538.964                  
                 114877019.531                   114877019.531    22060918.403  
                 127266506.716                   127266506.716    24440191.677  
                 122235402.609                   122235402.609    23474023.683  
                 119738688.597                   119738688.597    22994556.859  
                 132514278.266                   132514278.266    25447973.766  
  24682682.288   129708346.922                                                  
  26319741.033   138311150.930                                                  
  24571877.155   129126078.939                                                  
  27839768.703   146299007.750                                                  
  24302959.314   127712901.150                                                  
  24981024.996   131276117.223                                                  
 21  9  2  7 17 31.0000000  0 21G 1G 4G 7G 8G 9G14G17G21G27G30C24C25
                                C26C34C35E 2E 3E 8E24E25E36
  22544697.022   118473133.716    22544700.418    92316714.469                  
  24625498.216   129407855.225    24625499.878   100837288.275                  
  20339843.121   106886611.250    20339842.460    83288271.770                  
  21183472.878   111319860.704    21183475.237    86742738.599                  
  22935713.076   120527948.398    22935715.381    93917872.407                  
  23784775.016   124989840.410    23784775.606    97394683.926                  
  24015112.833   126200269.437    24015113.048    98337871.653                  
  21557143.007   113283551.067    21557142.203    88272897.521                  
  23515787.646   123576267.286    23515789.540    96293188.538                  
  22281840.728   117091826.907    22281842.676    91240375.582                  
                 114876771.667                   114876771.667    22060870.800  
                 127264075.987                   127264075.987    24439724.884  
                 122237273.263                   122237273.263    23474382.922  
                 119736286.406                   119736286.406    22994095.552  
                 132517223.391                   132517223.391    25448539.338  
  24682464.357   129707201.716                                                  
  26320191.815   138313519.863                                                  
  24571980.653   129126622.800                                                  
  27840077.284   146300629.347                                                  
  24303034.631   127713296.913                                                  
  24980568.854   131273720.146                                                  
 21  9  2  7 17 32.0000000  0 21G 1G 4G 7G 8G 9G14G17G21G27G30C24C25
                                C26C34C35E 2E 3E 8E24E25E36
  22544073.036   118469854.720    22544076.431    92314159.407                  
  24626159.602   129411330.792    24626161.264   100839996.508                  
  20339615.381   106885414.515    20339614.719    83287339.251                  
  21183911.866   111322167.614    21183914.243    86744536.187                  
  22936260.958   120530827.488    22936263.263    93920115.856                  
  23784356.559   124987641.422    23784357.131    97392970.427                  
  24014512.059   126197112.328    24014512.256    98335411.571                  
  21556908.297   113282317.768    21556907.529    88271936.504                  
  23516443.975   123579716.337    23516445.851    96295876.110                  
  22281312.449   117089050.807    22281314.396    91238212.388                  
                 114876524.090                   114876524.090    22060823.233  
                 127261645.300                   127261645.300    24439258.092  
                 122239144.169                   122239144.169    23474742.196  
                 119733884.595                   119733884.595    22993634.299  
                 132520168.691                   132520168.691    25449104.964  
  24682246.444   129706056.535                                                  
  26320642.633   138315888.937                                                  
  24572084.240   129127167.073                                                  
  27840385.882   146302250.994                                                  
  24303109.967   127713692.755                                                  
  24980112.765   131271323.347                                                  
 21  9  2  7 17 33.0000000  0 21G 1G 4G 7G 8G 9G14G17G21G27G30C24C25
                                C26C34C35E 2E 3E 8E24E25E36
  22543449.121   118466575.958    22543452.516    92311604.527                  
  24626820.952   129414806.273    24626822.614   100842704.676                  
  20339387.747   106884218.269    20339387.104    83286407.114                  
  21184350.944   111324474.904    21184353.303    86746334.077                  
  22936808.876   120533706.801    22936811.181    93922359.472                  
  23783938.121   124985442.493    23783938.692    97391256.976                  
  24013911.320   126193955.446    24013911.535    98332951.660                  
  21556673.713   113281085.027    21556672.944    88270975.929                  
  23517100.322   123583165.488    23517102.216    96298563.762                  
  22280784.222   117086274.945    22280786.188    91236049.378                  
                 114876276.802                   114876276.802    22060775.755  
                 127259214.653                   127259214.653    24438791.317  
                 122241015.329                   122241015.329    23475101.542  
                 119731483.154                   119731483.154    22993173.135  
                 132523114.173                   132523114.173    25449670.608  
  24682028.514   129704911.358                                                  
  26321093.504   138318258.155                                                  
  24572187.880   129127711.774                                                  
  27840694.480   146303872.684                                                  
  24303185.303   127714088.668                                                  
  24979656.712   131268926.833                                                  
 21  9  2  7 17 34.0000000  0 21G 1G 4G 7G 8G 9G14G17G21G27G30C24C25
                                C26C34C35E 2E 3E 8E24E25E36
  22542825.242   118463297.407    22542828.619    92309049.817                  
  24627482.303   129418281.667    24627483.982   100845412.777                  
  20339160.203   106883022.505    20339159.542    83285475.347                  
  21184790.057   111326782.551    21184792.416    86748132.246                  
  22937356.848   120536586.329    22937359.117    93924603.257                  
  23783519.699   124983243.626    23783520.253    97389543.575                  
  24013310.617   126190798.798    24013310.832    98330491.934                  
  21556439.235   113279852.828    21556438.467    88270015.774                  
  23517756.705   123586614.741    23517758.599    96301251.492                  
  22280256.032   117083499.321    22280257.997    91233886.554                  
                 114876029.801                   114876029.801    22060728.312  
                 127256784.052                   127256784.052    24438324.542  
                 122242886.751                   122242886.751    23475460.942  
                 119729082.085                   119729082.085    22992712.043  
                 132526059.833                   132526059.833    25450236.306  
  24681810.601   129703766.210                                                  
  26321544.375   138320627.511                                                  
  24572291.627   129128256.892                                                  
  27841003.078   146305494.419                                                  
  24303260.657   127714484.651                                                  
  24979200.712   131266530.594                                                  
 21  9  2  7 17 35.0000000  0 21G 1G 4G 7G 8G 9G14G17G21G27G30C24C25
                                C26C34C35E 2E 3E 8E24E25E36
  22542201.381   118460019.097    22542204.776    92306495.290                  
  24628143.617   129421756.981    24628145.297   100848120.811                  
