% program   : rnx2rtkp ver.2.4.3 b31
% inp file  : ngs/21_08_31_06_47_45_al50.obs
% inp file  : ngs/21_08_31_06_47_45_al50_VZ.obs
% inp file  : ngs/21_08_31_06_47_45_brdc.nav
% obs start : 2021/08/31 06:00:00.0 GPST (week2173 194400.0s)
% obs end   : 2021/08/31 06:59:59.0 GPST (week2173 197999.0s)
% ref pos   :   298415.8239  -5317127.2089   3498591.9750
%
% (x/y/z-ecef=WGS84,Q=1:fix,2:float,3:sbas,4:dgps,5:single,6:ppp,ns=# of satellites)
%  GPST              x-ecef(m)      y-ecef(m)      z-ecef(m)   Q  ns   sdx(m)   sdy(m)   sdz(m)  sdxy(m)  sdyz(m)  sdzx(m) age(s)  ratio
2173 197253.000    232977.5483  -5339307.1830   3469621.4369   2   8   0.4574   1.0054   0.5855  -0.0915  -0.6228  -0.0825 -30.00    1.4
2173 197254.000    232977.5514  -5339307.1689   3469621.4286   2   8   0.3258   0.7153   0.4166  -0.0685  -0.4431  -0.0580 -29.00    1.4
2173 197255.000    232977.5544  -5339307.1662   3469621.4298   2   8   0.2668   0.5857   0.3410  -0.0568  -0.3628  -0.0473 -28.00    1.5
2173 197256.000    232977.5579  -5339307.1623   3469621.4287   2   8   0.2315   0.5081   0.2959  -0.0494  -0.3147  -0.0410 -27.00    1.5
2173 197257.000    232977.5578  -5339307.1675   3469621.4305   2   8   0.2073   0.4551   0.2650  -0.0443  -0.2819  -0.0367 -26.00    1.6
2173 197258.000    232977.5598  -5339307.1604   3469621.4276   2   8   0.1894   0.4159   0.2421  -0.0405  -0.2576  -0.0335 -25.00    1.6
2173 197259.000    232977.5601  -5339307.1577   3469621.4237   2   8   0.1755   0.3853   0.2243  -0.0375  -0.2386  -0.0311 -24.00    1.7
2173 197260.000    232977.5632  -5339307.1565   3469621.4202   2   8   0.1643   0.3606   0.2099  -0.0352  -0.2234  -0.0291 -23.00    1.8
2173 197261.000    232977.5654  -5339307.1531   3469621.4165   2   8   0.1549   0.3402   0.1980  -0.0332  -0.2107  -0.0274 -22.00    1.8
2173 197262.000    232977.5658  -5339307.1475   3469621.4091   2   8   0.1470   0.3228   0.1879  -0.0316  -0.1999  -0.0260 -21.00    1.7
2173 197263.000    232977.5660  -5339307.1437   3469621.4063   2   8   0.1402   0.3078   0.1792  -0.0302  -0.1906  -0.0248 -20.00    1.8
2173 197264.000    232977.5696  -5339307.1456   3469621.4033   2   8   0.1342   0.2947   0.1715  -0.0290  -0.1825  -0.0237 -19.00    1.8
2173 197265.000    232977.5690  -5339307.1444   3469621.4005   2   8   0.1290   0.2832   0.1648  -0.0279  -0.1753  -0.0227 -18.00    1.8
2173 197266.000    232977.5696  -5339307.1424   3469621.3970   2   8   0.1243   0.2728   0.1588  -0.0270  -0.1689  -0.0219 -17.00    1.9
2173 197267.000    232977.5676  -5339307.1404   3469621.3927   2   8   0.1201   0.2635   0.1533  -0.0262  -0.1632  -0.0211 -16.00    1.9
2173 197268.000    232977.5666  -5339307.1388   3469621.3878   2   8   0.1162   0.2551   0.1484  -0.0255  -0.1579  -0.0204 -15.00    1.9
2173 197269.000    232977.5658  -5339307.1355   3469621.3835   2   8   0.1127   0.2473   0.1439  -0.0248  -0.1531  -0.0198 -14.00    2.0
2173 197270.000    232977.5667  -5339307.1305   3469621.3786   2   8   0.1095   0.2403   0.1398  -0.0242  -0.1488  -0.0192 -13.00    2.0
2173 197271.000    232977.5637  -5339307.1300   3469621.3748   2   8   0.1066   0.2337   0.1360  -0.0237  -0.1447  -0.0187 -12.00    2.0
2173 197272.000    232977.5622  -5339307.1289   3469621.3728   2   8   0.1039   0.2277   0.1325  -0.0232  -0.1409  -0.0182 -11.00    2.1
2173 197273.000    232977.5607  -5339307.1233   3469621.3669   2   8   0.1013   0.2221   0.1292  -0.0227  -0.1375  -0.0177 -10.00    2.1
2173 197274.000    232977.5577  -5339307.1160   3469621.3610   2   8   0.0990   0.2168   0.1262  -0.0223  -0.1342  -0.0173  -9.00    2.1
2173 197275.000    232977.5603  -5339307.1174   3469621.3588   2   8   0.0968   0.2119   0.1233  -0.0219  -0.1311  -0.0169  -8.00    2.1
2173 197276.000    232977.5588  -5339307.1129   3469621.3561   2   8   0.0947   0.2073   0.1206  -0.0215  -0.1283  -0.0165  -7.00    2.1
2173 197277.000    232977.5596  -5339307.1076   3469621.3517   2   8   0.0928   0.2030   0.1181  -0.0211  -0.1256  -0.0162  -6.00    2.0
2173 197278.000    232977.5579  -5339307.1005   3469621.3462   2   8   0.0909   0.1989   0.1157  -0.0207  -0.1230  -0.0159  -5.00    1.9
2173 197279.000    232977.5557  -5339307.0952   3469621.3433   2   8   0.0892   0.1950   0.1135  -0.0204  -0.1206  -0.0156  -4.00    1.9
2173 197280.000    232977.5570  -5339307.0840   3469621.3361   2   8   0.0876   0.1913   0.1114  -0.0200  -0.1183  -0.0153  -3.00    1.8
2173 197281.000    232977.5589  -5339307.0576   3469621.3268   2   8   0.0861   0.1878   0.1094  -0.0196  -0.1161  -0.0151  -2.00    1.7
2173 197282.000    232977.5566  -5339307.0452   3469621.3182   2   8   0.0846   0.1846   0.1075  -0.0193  -0.1141  -0.0149  -1.00    1.6
2173 197283.000    232977.5533  -5339307.0379   3469621.3120   2   8   0.0832   0.1814   0.1056  -0.0190  -0.1121  -0.0146   0.00    1.6
2173 197284.000    232977.5511  -5339307.0306   3469621.3053   2   8   0.0819   0.1785   0.1039  -0.0187  -0.1102  -0.0143   0.00    1.5
2173 197285.000    232977.5475  -5339307.0133   3469621.3012   2   8   0.0807   0.1756   0.1023  -0.0184  -0.1085  -0.0144   0.00    1.5
2173 197286.000    232977.5477  -5339307.0087   3469621.2942   2   8   0.0795   0.1729   0.1007  -0.0180  -0.1068  -0.0141   0.00    1.5
2173 197287.000    232977.5508  -5339307.0048   3469621.2928   2   8   0.0783   0.1703   0.0992  -0.0178  -0.1051  -0.0138   0.00    1.4
2173 197288.000    232977.5484  -5339306.9959   3469621.2895   2   8   0.0772   0.1678   0.0977  -0.0175  -0.1036  -0.0138   0.00    1.4
2173 197289.000    232977.5476  -5339306.9834   3469621.2874   2   8   0.0762   0.1654   0.0964  -0.0172  -0.1021  -0.0136   0.00    1.4
2173 197290.000    232977.5473  -5339306.9874   3469621.2863   2   8   0.0752   0.1631   0.0950  -0.0169  -0.1006  -0.0134   0.00    1.4
2173 197291.000    232977.5456  -5339306.9730   3469621.2821   2   8   0.0742   0.1608   0.0937  -0.0166  -0.0992  -0.0132   0.00    1.4
2173 197292.000    232977.5448  -5339306.9741   3469621.2843   2   8   0.0733   0.1587   0.0925  -0.0163  -0.0978  -0.0132   0.00    1.4
2173 197293.000    232977.5474  -5339306.9772   3469621.2844   2   8   0.0724   0.1566   0.0913  -0.0161  -0.0965  -0.0130   0.00    1.4
2173 197294.000    232977.5483  -5339306.9782   3469621.2847   2   8   0.0715   0.1545   0.0901  -0.0159  -0.0952  -0.0131   0.00    1.4
2173 197295.000    232977.5421  -5339306.9731   3469621.2846   2   8   0.0707   0.1526   0.0890  -0.0156  -0.0940  -0.0129   0.00    1.4
2173 197296.000    232977.5444  -5339306.9758   3469621.2859   2   8   0.0699   0.1507   0.0879  -0.0153  -0.0928  -0.0128   0.00    1.4
2173 197297.000    232977.5441  -5339306.9842   3469621.2909   2   8   0.0691   0.1488   0.0868  -0.0151  -0.0916  -0.0126   0.00    1.4
2173 197298.000    232977.5402  -5339306.9823   3469621.2951   2   8   0.0683   0.1470   0.0858  -0.0148  -0.0904  -0.0125   0.00    1.4
2173 197299.000    232977.5414  -5339306.9839   3469621.2951   2   8   0.0676   0.1452   0.0848  -0.0145  -0.0893  -0.0124   0.00    1.4
2173 197300.000    232977.5430  -5339306.9939   3469621.2992   2   8   0.0669   0.1435   0.0838  -0.0143  -0.0882  -0.0123   0.00    1.4
2173 197301.000    232977.5410  -5339307.0015   3469621.3044   2   8   0.0662   0.1418   0.0828  -0.0140  -0.0872  -0.0124   0.00    1.4
2173 197302.000    232977.5428  -5339307.0078   3469621.3051   2   8   0.0655   0.1402   0.0819  -0.0138  -0.0861  -0.0122   0.00    1.4
2173 197303.000    232977.5426  -5339307.0083   3469621.3105   2   8   0.0649   0.1386   0.0810  -0.0136  -0.0851  -0.0122   0.00    1.4
2173 197304.000    232977.5449  -5339307.0169   3469621.3128   2   8   0.0643   0.1370   0.0801  -0.0133  -0.0841  -0.0122   0.00    1.4
2173 197305.000    232977.5435  -5339307.0234   3469621.3193   2   8   0.0637   0.1354   0.0792  -0.0129  -0.0831  -0.0121   0.00    1.4
2173 197306.000    232977.5431  -5339307.0324   3469621.3276   2   8   0.0631   0.1339   0.0784  -0.0128  -0.0821  -0.0120   0.00    1.4
2173 197307.000    232977.5425  -5339307.0474   3469621.3368   2   8   0.0624   0.1325   0.0776  -0.0124  -0.0812  -0.0120   0.00    1.4
2173 197308.000    232977.5412  -5339307.0541   3469621.3445   2   8   0.0619   0.1310   0.0768  -0.0122  -0.0803  -0.0119   0.00    1.4
2173 197309.000    232977.5420  -5339307.0649   3469621.3500   2   8   0.0614   0.1296   0.0760  -0.0119  -0.0793  -0.0120   0.00    1.4
2173 197310.000    232977.5409  -5339307.0735   3469621.3577   2   8   0.0609   0.1282   0.0752  -0.0117  -0.0784  -0.0119   0.00    1.4
2173 197311.000    232977.5430  -5339307.0788   3469621.3609   2   8   0.0603   0.1269   0.0744  -0.0115  -0.0776  -0.0119   0.00    1.4
2173 197312.000    232977.5415  -5339307.0880   3469621.3679   2   8   0.0598   0.1255   0.0737  -0.0111  -0.0767  -0.0119   0.00    1.5
2173 197313.000    232977.5390  -5339307.0972   3469621.3778   2   8   0.0593   0.1242   0.0729  -0.0108  -0.0758  -0.0118   0.00    1.5
2173 197314.000    232977.5402  -5339307.1118   3469621.3849   2   8   0.0588   0.1229   0.0722  -0.0105  -0.0750  -0.0118   0.00    1.5
2173 197315.000    232977.5401  -5339307.1264   3469621.3953   2   8   0.0584   0.1217   0.0715  -0.0102  -0.0742  -0.0115   0.00    1.5
2173 197316.000    232977.5400  -5339307.1418   3469621.4050   2   8   0.0579   0.1204   0.0708  -0.0100  -0.0734  -0.0118   0.00    1.5
2173 197317.000    232977.5402  -5339307.1410   3469621.4077   2   8   0.0574   0.1192   0.0701  -0.0098  -0.0726  -0.0119   0.00    1.5
2173 197318.000    232977.5403  -5339307.1541   3469621.4163   2   8   0.0570   0.1180   0.0695  -0.0095  -0.0718  -0.0118   0.00    1.5
2173 197319.000    232977.5373  -5339307.1612   3469621.4217   2   8   0.0566   0.1168   0.0689  -0.0090  -0.0710  -0.0117   0.00    1.5
2173 197320.000    232977.5378  -5339307.1730   3469621.4301   2   8   0.0561   0.1156   0.0682  -0.0088  -0.0703  -0.0118   0.00    1.5
2173 197321.000    232977.5401  -5339307.1783   3469621.4367   2   8   0.0558   0.1145   0.0675  -0.0085  -0.0695  -0.0116   0.00    1.5
2173 197322.000    232977.5389  -5339307.1842   3469621.4426   2   8   0.0554   0.1133   0.0669  -0.0082  -0.0688  -0.0115   0.00    1.5
2173 197323.000    232977.5406  -5339307.2019   3469621.4517   2   8   0.0549   0.1122   0.0663  -0.0077  -0.0680  -0.0117   0.00    1.5
2173 197324.000    232977.5407  -5339307.2125   3469621.4590   2   8   0.0546   0.1111   0.0657  -0.0074  -0.0673  -0.0117   0.00    1.5
2173 197325.000    232977.5423  -5339307.2252   3469621.4696   2   8   0.0542   0.1100   0.0651  -0.0071  -0.0666  -0.0117   0.00    1.5
2173 197326.000    232977.5415  -5339307.2417   3469621.4811   2   8   0.0539   0.1090   0.0646  -0.0066  -0.0659  -0.0115   0.00    1.5
2173 197327.000    232977.5410  -5339307.2547   3469621.4905   2   8   0.0535   0.1079   0.0640  -0.0065  -0.0652  -0.0116   0.00    1.5
2173 197328.000    232977.5473  -5339307.2700   3469621.5006   2   8   0.0531   0.1069   0.0634  -0.0059  -0.0645  -0.0117   0.00    1.5
2173 197329.000    232977.5466  -5339307.2682   3469621.5050   2   8   0.0528   0.1058   0.0628  -0.0054  -0.0638  -0.0116   0.00    1.5
2173 197330.000    232977.5478  -5339307.2783   3469621.5110   2   8   0.0525   0.1048   0.0623  -0.0052  -0.0632  -0.0117   0.00    1.5
2173 197331.000    232977.5470  -5339307.2843   3469621.5209   2   8   0.0520   0.1038   0.0617  -0.0046  -0.0625  -0.0117   0.00    1.5
2173 197332.000    232977.5500  -5339307.3068   3469621.5363   2   8   0.0517   0.1028   0.0612  -0.0040  -0.0619  -0.0117   0.00    1.5
2173 197333.000    232977.5556  -5339307.3143   3469621.5439   2   8   0.0514   0.1019   0.0607  -0.0036  -0.0612  -0.0116   0.00    1.5
2173 197334.000    232977.5557  -5339307.3194   3469621.5488   2   8   0.0511   0.1009   0.0601  -0.0028  -0.0606  -0.0116   0.00    1.5
2173 197335.000    232977.5575  -5339307.3391   3469621.5648   2   8   0.0508   0.1000   0.0596  -0.0018  -0.0600  -0.0115   0.00    1.5
2173 197336.000    232977.5600  -5339307.3515   3469621.5746   2   8   0.0505   0.0990   0.0591   0.0007  -0.0593  -0.0117   0.00    1.5
2173 197337.000    232977.5625  -5339307.3728   3469621.5864   2   8   0.0502   0.0981   0.0587   0.0025  -0.0587  -0.0116   0.00    1.5
2173 197338.000    232977.5648  -5339307.3844   3469621.5963   2   8   0.0499   0.0972   0.0581   0.0031  -0.0581  -0.0116   0.00    1.5
2173 197339.000    232977.5660  -5339307.4021   3469621.6063   2   8   0.0497   0.0963   0.0576   0.0037  -0.0575  -0.0116   0.00    1.5
2173 197340.000    232977.5684  -5339307.4176   3469621.6175   2   8   0.0493   0.0954   0.0572   0.0042  -0.0569  -0.0117   0.00    1.5
2173 197341.000    232977.5702  -5339307.4295   3469621.6264   2   8   0.0490   0.0945   0.0567   0.0047  -0.0563  -0.0116   0.00    1.5
2173 197342.000    232977.5737  -5339307.4466   3469621.6370   2   8   0.0488   0.0937   0.0563   0.0052  -0.0557  -0.0115   0.00    1.5
2173 197343.000    232977.5755  -5339307.4562   3469621.6415   2   8   0.0485   0.0928   0.0558   0.0057  -0.0552  -0.0114   0.00    1.5
2173 197344.000    232977.5775  -5339307.4686   3469621.6515   2   8   0.0482   0.0920   0.0553   0.0059  -0.0546  -0.0117   0.00    1.5
2173 197345.000    232977.5793  -5339307.4833   3469621.6610   2   8   0.0479   0.0911   0.0549   0.0060  -0.0541  -0.0116   0.00    1.5
2173 197346.000    232977.5821  -5339307.4873   3469621.6663   2   8   0.0478   0.0903   0.0544   0.0064  -0.0535  -0.0116   0.00    1.5
2173 197347.000    232977.5836  -5339307.4912   3469621.6717   2   8   0.0475   0.0895   0.0540   0.0067  -0.0530  -0.0116   0.00    1.5
2173 197348.000    232977.5876  -5339307.5007   3469621.6754   2   8   0.0472   0.0887   0.0536   0.0069  -0.0524  -0.0115   0.00    1.5
2173 197349.000    232977.5875  -5339307.5048   3469621.6785   2   8   0.0470   0.0879   0.0532   0.0072  -0.0519  -0.0115   0.00    1.5
2173 197350.000    232977.5874  -5339307.5078   3469621.6841   2   8   0.0467   0.0871   0.0527   0.0074  -0.0514  -0.0116   0.00    1.5
2173 197351.000    232977.5898  -5339307.5189   3469621.6935   2   8   0.0465   0.0863   0.0523   0.0077  -0.0508  -0.0114   0.00    1.5
2173 197352.000    232977.5881  -5339307.5323   3469621.7002   2   8   0.0463   0.0856   0.0519   0.0078  -0.0503  -0.0115   0.00    1.5
2173 197353.000    232977.5912  -5339307.5397   3469621.7071   2   8   0.0460   0.0848   0.0514   0.0079  -0.0499  -0.0116   0.00    1.5
2173 197354.000    232977.5932  -5339307.5581   3469621.7161   2   8   0.0458   0.0841   0.0511   0.0082  -0.0493  -0.0116   0.00    1.5
2173 197355.000    232977.5925  -5339307.5654   3469621.7220   2   8   0.0456   0.0833   0.0508   0.0084  -0.0488  -0.0114   0.00    1.5
2173 197356.000    232977.5942  -5339307.5738   3469621.7304   2   8   0.0453   0.0826   0.0503   0.0086  -0.0483  -0.0114   0.00    1.5
2173 197357.000    232977.5974  -5339307.5805   3469621.7368   2   8   0.0451   0.0819   0.0500   0.0087  -0.0479  -0.0114   0.00    1.5
2173 197358.000    232977.5999  -5339307.5925   3469621.7435   2   8   0.0449   0.0812   0.0496   0.0089  -0.0474  -0.0114   0.00    1.5
2173 197359.000    232977.6018  -5339307.5990   3469621.7468   2   8   0.0447   0.0805   0.0492   0.0091  -0.0469  -0.0115   0.00    1.5
2173 197360.000    232977.6035  -5339307.6139   3469621.7562   2   8   0.0445   0.0798   0.0488   0.0092  -0.0465  -0.0114   0.00    1.5
2173 197361.000    232977.6015  -5339307.6219   3469621.7642   2   8   0.0442   0.0791   0.0485   0.0092  -0.0460  -0.0115   0.00    1.5
2173 197362.000    232977.6064  -5339307.6444   3469621.7759   2   8   0.0440   0.0784   0.0481   0.0094  -0.0456  -0.0116   0.00    1.5
2173 197363.000    232977.6052  -5339307.6558   3469621.7865   2   8   0.0438   0.0778   0.0477   0.0096  -0.0451  -0.0114   0.00    1.5
2173 197364.000    232977.6080  -5339307.6715   3469621.7941   2   8   0.0436   0.0771   0.0474   0.0097  -0.0446  -0.0114   0.00    1.4
2173 197365.000    232977.6094  -5339307.6784   3469621.7982   2   8   0.0434   0.0764   0.0470   0.0097  -0.0442  -0.0115   0.00    1.4
2173 197366.000    232977.6122  -5339307.6983   3469621.8066   2   8   0.0432   0.0758   0.0468   0.0100  -0.0438  -0.0114   0.00    1.4
2173 197367.000    232977.6141  -5339307.7051   3469621.8145   2   8   0.0431   0.0752   0.0464   0.0101  -0.0433  -0.0113   0.00    1.4
2173 197368.000    232977.6139  -5339307.7110   3469621.8190   2   8   0.0429   0.0745   0.0460   0.0102  -0.0429  -0.0115   0.00    1.4
2173 197369.000    232977.6167  -5339307.7206   3469621.8254   2   8   0.0426   0.0739   0.0458   0.0104  -0.0425  -0.0114   0.00    1.4
2173 197370.000    232977.6194  -5339307.7271   3469621.8312   2   8   0.0425   0.0733   0.0453   0.0105  -0.0421  -0.0115   0.00    1.4
2173 197371.000    232977.6188  -5339307.7296   3469621.8339   2   8   0.0423   0.0727   0.0451   0.0105  -0.0417  -0.0114   0.00    1.4
2173 197372.000    232977.6210  -5339307.7406   3469621.8361   2   8   0.0421   0.0721   0.0447   0.0106  -0.0413  -0.0115   0.00    1.4
2173 197373.000    232977.6206  -5339307.7548   3469621.8489   2   8   0.0419   0.0715   0.0444   0.0107  -0.0409  -0.0114   0.00    1.4
2173 197374.000    232977.6196  -5339307.7568   3469621.8516   2   8   0.0418   0.0709   0.0441   0.0108  -0.0405  -0.0113   0.00    1.4
2173 197375.000    232977.6223  -5339307.7617   3469621.8581   2   8   0.0416   0.0703   0.0438   0.0109  -0.0400  -0.0112   0.00    1.4
2173 197376.000    232977.6230  -5339307.7781   3469621.8634   2   8   0.0415   0.0698   0.0435   0.0110  -0.0397  -0.0114   0.00    1.4
2173 197377.000    232977.6224  -5339307.7825   3469621.8668   2   8   0.0413   0.0692   0.0432   0.0111  -0.0393  -0.0113   0.00    1.4
2173 197378.000    232977.6258  -5339307.7919   3469621.8706   2   8   0.0411   0.0686   0.0429   0.0111  -0.0389  -0.0114   0.00    1.4
2173 197379.000    232977.6226  -5339307.7809   3469621.8682   2   8   0.0409   0.0681   0.0426   0.0112  -0.0385  -0.0113   0.00    1.4
2173 197380.000    232977.6238  -5339307.7973   3469621.8782   2   8   0.0407   0.0675   0.0423   0.0112  -0.0382  -0.0113   0.00    1.4
2173 197381.000    232977.6245  -5339307.7940   3469621.8777   2   8   0.0406   0.0670   0.0420   0.0113  -0.0378  -0.0112   0.00    1.4
2173 197382.000    232977.6253  -5339307.8060   3469621.8847   2   8   0.0404   0.0665   0.0417   0.0114  -0.0375  -0.0113   0.00    1.4
2173 197383.000    232977.6276  -5339307.8144   3469621.8894   2   8   0.0403   0.0659   0.0414   0.0115  -0.0371  -0.0112   0.00    1.4
2173 197384.000    232977.6280  -5339307.8261   3469621.8962   2   8   0.0401   0.0654   0.0412   0.0116  -0.0368  -0.0112   0.00    1.4
2173 197385.000    232977.6270  -5339307.8185   3469621.8972   2   8   0.0400   0.0649   0.0408   0.0116  -0.0364  -0.0111   0.00    1.5
2173 197386.000    232977.6289  -5339307.8336   3469621.9011   2   8   0.0398   0.0644   0.0406   0.0117  -0.0361  -0.0112   0.00    1.5
2173 197387.000    232977.6271  -5339307.8268   3469621.9014   2   8   0.0397   0.0639   0.0403   0.0118  -0.0357  -0.0112   0.00    1.5
2173 197388.000    232977.6275  -5339307.8274   3469621.9001   2   8   0.0395   0.0634   0.0402   0.0118  -0.0354  -0.0112   0.00    1.5
2173 197389.000    232977.6277  -5339307.8284   3469621.9051   2   8   0.0394   0.0629   0.0399   0.0118  -0.0351  -0.0112   0.00    1.5
2173 197390.000    232977.6293  -5339307.8400   3469621.9089   2   8   0.0392   0.0624   0.0397   0.0119  -0.0347  -0.0111   0.00    1.5
2173 197391.000    232977.6312  -5339307.8360   3469621.9082   2   8   0.0391   0.0619   0.0393   0.0119  -0.0344  -0.0110   0.00    1.5
2173 197392.000    232977.6281  -5339307.8345   3469621.9091   2   8   0.0389   0.0615   0.0391   0.0120  -0.0341  -0.0109   0.00    1.5
2173 197393.000    232977.6322  -5339307.8386   3469621.9115   2   8   0.0388   0.0610   0.0388   0.0120  -0.0338  -0.0111   0.00    1.5
2173 197394.000    232977.6312  -5339307.8387   3469621.9149   2   8   0.0386   0.0605   0.0386   0.0121  -0.0335  -0.0110   0.00    1.5
2173 197395.000    232977.6323  -5339307.8391   3469621.9145   2   8   0.0385   0.0601   0.0383   0.0121  -0.0332  -0.0110   0.00    1.5
2173 197396.000    232977.6349  -5339307.8335   3469621.9110   2   8   0.0384   0.0596   0.0381   0.0122  -0.0328  -0.0110   0.00    1.5
2173 197397.000    232977.6322  -5339307.8348   3469621.9120   2   8   0.0382   0.0592   0.0378   0.0122  -0.0326  -0.0110   0.00    1.5
2173 197398.000    232977.6318  -5339307.8224   3469621.9119   2   8   0.0381   0.0587   0.0376   0.0122  -0.0322  -0.0109   0.00    1.5
2173 197399.000    232977.6300  -5339307.8184   3469621.9097   2   8   0.0380   0.0583   0.0373   0.0123  -0.0320  -0.0109   0.00    1.5
2173 197400.000    232977.6326  -5339307.8117   3469621.9076   2   8   0.0378   0.0579   0.0371   0.0123  -0.0317  -0.0108   0.00    1.5
2173 197401.000    232977.6333  -5339307.8068   3469621.9048   2   8   0.0377   0.0575   0.0369   0.0124  -0.0314  -0.0109   0.00    1.6
2173 197402.000    232977.6319  -5339307.7999   3469621.9028   2   8   0.0376   0.0570   0.0367   0.0125  -0.0311  -0.0109   0.00    1.6
2173 197403.000    232977.6305  -5339307.7936   3469621.9041   2   8   0.0375   0.0566   0.0364   0.0125  -0.0308  -0.0108   0.00    1.6
2173 197404.000    232977.6322  -5339307.7800   3469621.8957   2   8   0.0373   0.0562   0.0363   0.0125  -0.0305  -0.0109   0.00    1.6
2173 197405.000    232977.6334  -5339307.7707   3469621.8911   2   8   0.0372   0.0558   0.0361   0.0126  -0.0302  -0.0109   0.00    1.6
2173 197406.000    232977.6310  -5339307.7672   3469621.8915   2   8   0.0371   0.0554   0.0358   0.0126  -0.0300  -0.0107   0.00    1.6
2173 197407.000    232977.6333  -5339307.7565   3469621.8874   2   8   0.0370   0.0550   0.0356   0.0126  -0.0297  -0.0108   0.00    1.6
2173 197408.000    232977.6307  -5339307.7405   3469621.8815   2   8   0.0368   0.0546   0.0353   0.0127  -0.0294  -0.0107   0.00    1.6
2173 197409.000    232977.6319  -5339307.7339   3469621.8791   2   8   0.0367   0.0542   0.0352   0.0127  -0.0292  -0.0107   0.00    1.6
2173 197410.000    232977.6296  -5339307.7241   3469621.8729   2   8   0.0366   0.0538   0.0350   0.0127  -0.0290  -0.0107   0.00    1.6
2173 197411.000    232977.6324  -5339307.7243   3469621.8684   2   8   0.0365   0.0535   0.0347   0.0127  -0.0287  -0.0107   0.00    1.7
2173 197412.000    232977.6303  -5339307.7088   3469621.8598   2   8   0.0364   0.0531   0.0346   0.0127  -0.0284  -0.0107   0.00    1.7
2173 197413.000    232977.6300  -5339307.7005   3469621.8581   2   8   0.0362   0.0527   0.0344   0.0127  -0.0282  -0.0106   0.00    1.7
2173 197414.000    232977.6276  -5339307.6846   3469621.8543   2   8   0.0361   0.0524   0.0341   0.0128  -0.0279  -0.0106   0.00    1.7
2173 197415.000    232977.6288  -5339307.6796   3469621.8508   2   8   0.0360   0.0520   0.0339   0.0128  -0.0277  -0.0105   0.00    1.7
2173 197416.000    232977.6280  -5339307.6702   3469621.8462   2   8   0.0359   0.0516   0.0337   0.0128  -0.0275  -0.0105   0.00    1.7
2173 197417.000    232977.6279  -5339307.6598   3469621.8422   2   8   0.0358   0.0513   0.0336   0.0128  -0.0272  -0.0107   0.00    1.7
2173 197418.000    232977.6268  -5339307.6414   3469621.8351   2   8   0.0357   0.0509   0.0334   0.0128  -0.0270  -0.0104   0.00    1.7
2173 197419.000    232977.6241  -5339307.6198   3469621.8233   2   8   0.0356   0.0506   0.0331   0.0128  -0.0268  -0.0105   0.00    1.7
2173 197420.000    232977.6258  -5339307.6171   3469621.8235   2   8   0.0354   0.0502   0.0329   0.0129  -0.0265  -0.0103   0.00    1.7
2173 197421.000    232977.6255  -5339307.6008   3469621.8163   2   8   0.0353   0.0499   0.0328   0.0129  -0.0263  -0.0102   0.00    1.7
2173 197422.000    232977.6240  -5339307.5896   3469621.8117   2   8   0.0352   0.0496   0.0327   0.0129  -0.0260  -0.0104   0.00    1.7
2173 197423.000    232977.6259  -5339307.5771   3469621.8038   2   8   0.0351   0.0492   0.0324   0.0129  -0.0259  -0.0104   0.00    1.7
2173 197424.000    232977.6246  -5339307.5618   3469621.7956   2   8   0.0350   0.0489   0.0322   0.0129  -0.0256  -0.0103   0.00    1.8
2173 197425.000    232977.6297  -5339307.5527   3469621.7907   2   8   0.0349   0.0486   0.0322   0.0130  -0.0254  -0.0103   0.00    1.8
2173 197426.000    232977.6263  -5339307.5440   3469621.7899   2   8   0.0348   0.0483   0.0320   0.0130  -0.0252  -0.0103   0.00    1.8
2173 197427.000    232977.6266  -5339307.5284   3469621.7848   2   8   0.0347   0.0480   0.0317   0.0130  -0.0249  -0.0103   0.00    1.8
2173 197428.000    232977.6289  -5339307.5170   3469621.7803   2   8   0.0346   0.0476   0.0316   0.0130  -0.0248  -0.0102   0.00    1.8
2173 197429.000    232977.6282  -5339307.5084   3469621.7762   2   8   0.0345   0.0473   0.0313   0.0130  -0.0246  -0.0102   0.00    1.8
2173 197430.000    232977.6272  -5339307.4943   3469621.7738   2   8   0.0344   0.0470   0.0312   0.0130  -0.0244  -0.0102   0.00    1.8
2173 197431.000    232977.6266  -5339307.4872   3469621.7692   2   8   0.0343   0.0467   0.0309   0.0130  -0.0242  -0.0100   0.00    1.8
2173 197432.000    232977.6279  -5339307.4759   3469621.7600   2   8   0.0342   0.0464   0.0309   0.0130  -0.0240  -0.0101   0.00    1.8
2173 197433.000    232977.6258  -5339307.4666   3469621.7556   2   8   0.0341   0.0461   0.0307   0.0130  -0.0238  -0.0102   0.00    1.8
2173 197434.000    232977.6253  -5339307.4551   3469621.7513   2   8   0.0340   0.0459   0.0306   0.0131  -0.0235  -0.0101   0.00    1.8
2173 197435.000    232977.6267  -5339307.4373   3469621.7463   2   8   0.0339   0.0456   0.0304   0.0131  -0.0233  -0.0101   0.00    1.8
2173 197436.000    232977.6279  -5339307.4337   3469621.7405   2   8   0.0338   0.0453   0.0303   0.0131  -0.0232  -0.0100   0.00    1.8
2173 197437.000    232977.6286  -5339307.4131   3469621.7320   2   8   0.0338   0.0450   0.0300   0.0131  -0.0230  -0.0100   0.00    1.9
2173 197438.000    232977.6297  -5339307.4085   3469621.7269   2   8   0.0337   0.0447   0.0299   0.0131  -0.0228  -0.0100   0.00    1.9
2173 197439.000    232977.6278  -5339307.4039   3469621.7258   2   8   0.0335   0.0444   0.0297   0.0131  -0.0227  -0.0099   0.00    1.9
2173 197440.000    232977.6292  -5339307.3829   3469621.7164   2   8   0.0335   0.0442   0.0296   0.0131  -0.0224  -0.0100   0.00    1.9
2173 197441.000    232977.6294  -5339307.3774   3469621.7131   2   8   0.0334   0.0439   0.0294   0.0132  -0.0223  -0.0100   0.00    1.9
2173 197442.000    232977.6298  -5339307.3717   3469621.7091   2   8   0.0333   0.0436   0.0292   0.0131  -0.0221  -0.0099   0.00    1.9
2173 197443.000    232977.6314  -5339307.3653   3469621.7038   2   8   0.0332   0.0433   0.0292   0.0131  -0.0219  -0.0098   0.00    1.9
2173 197444.000    232977.6314  -5339307.3514   3469621.6998   2   8   0.0331   0.0431   0.0289   0.0131  -0.0218  -0.0098   0.00    1.9
2173 197445.000    232977.6333  -5339307.3491   3469621.6967   2   8   0.0330   0.0428   0.0288   0.0131  -0.0216  -0.0099   0.00    1.9
2173 197446.000    232977.6331  -5339307.3397   3469621.6919   2   8   0.0329   0.0426   0.0287   0.0131  -0.0214  -0.0096   0.00    1.9
2173 197447.000    232977.6337  -5339307.3370   3469621.6888   2   8   0.0329   0.0423   0.0286   0.0131  -0.0213  -0.0098   0.00    1.9
2173 197448.000    232977.6325  -5339307.3309   3469621.6831   2   8   0.0328   0.0421   0.0285   0.0132  -0.0211  -0.0097   0.00    1.9
2173 197449.000    232977.6342  -5339307.3249   3469621.6800   2   8   0.0326   0.0418   0.0282   0.0131  -0.0209  -0.0097   0.00    1.9
2173 197450.000    232977.6352  -5339307.3223   3469621.6765   2   8   0.0326   0.0416   0.0282   0.0132  -0.0207  -0.0098   0.00    1.9
2173 197451.000    232977.6372  -5339307.3209   3469621.6750   2   8   0.0325   0.0413   0.0279   0.0132  -0.0207  -0.0097   0.00    1.9
2173 197452.000    232977.6386  -5339307.3191   3469621.6767   2   8   0.0324   0.0411   0.0279   0.0132  -0.0205  -0.0096   0.00    1.9
2173 197453.000    232977.6424  -5339307.3154   3469621.6694   2   8   0.0323   0.0409   0.0277   0.0131  -0.0203  -0.0096   0.00    1.9
2173 197454.000    232977.6459  -5339307.3104   3469621.6651   2   8   0.0323   0.0406   0.0276   0.0132  -0.0201  -0.0096   0.00    1.9
2173 197455.000    232977.6461  -5339307.3115   3469621.6668   2   8   0.0322   0.0404   0.0273   0.0131  -0.0201  -0.0096   0.00    1.9
2173 197456.000    232977.6489  -5339307.3063   3469621.6602   2   8   0.0321   0.0402   0.0273   0.0131  -0.0198  -0.0094   0.00    1.9
2173 197457.000    232977.6475  -5339307.2927   3469621.6512   2   8   0.0320   0.0399   0.0272   0.0131  -0.0197  -0.0097   0.00    1.9
2173 197458.000    232977.6482  -5339307.2934   3469621.6493   2   8   0.0319   0.0397   0.0270   0.0131  -0.0195  -0.0095   0.00    1.9
2173 197459.000    232977.6483  -5339307.2968   3469621.6478   2   8   0.0318   0.0395   0.0270   0.0132  -0.0194  -0.0095   0.00    1.9
2173 197460.000    232977.6523  -5339307.2939   3469621.6457   2   8   0.0318   0.0393   0.0267   0.0131  -0.0193  -0.0094   0.00    1.9
2173 197461.000    232977.6511  -5339307.2918   3469621.6410   2   8   0.0317   0.0390   0.0266   0.0131  -0.0191  -0.0094   0.00    1.9
2173 197462.000    232977.6531  -5339307.2952   3469621.6384   2   8   0.0316   0.0388   0.0264   0.0132  -0.0190  -0.0093   0.00    1.9
2173 197463.000    232977.6547  -5339307.2946   3469621.6350   2   8   0.0316   0.0386   0.0264   0.0131  -0.0188  -0.0094   0.00    1.9
2173 197464.000    232977.6559  -5339307.2903   3469621.6317   2   8   0.0314   0.0384   0.0262   0.0131  -0.0187  -0.0094   0.00    1.9
2173 197465.000    232977.6534  -5339307.2802   3469621.6234   2   8   0.0314   0.0382   0.0262   0.0131  -0.0185  -0.0092   0.00    1.9
2173 197466.000    232977.6555  -5339307.2798   3469621.6215   2   8   0.0313   0.0380   0.0260   0.0131  -0.0185  -0.0092   0.00    1.9
2173 197467.000    232977.6562  -5339307.2746   3469621.6154   2   8   0.0312   0.0378   0.0260   0.0131  -0.0183  -0.0093   0.00    1.9
2173 197468.000    232977.6574  -5339307.2727   3469621.6116   2   8   0.0311   0.0376   0.0258   0.0131  -0.0182  -0.0092   0.00    1.9
2173 197469.000    232977.6576  -5339307.2666   3469621.6059   2   8   0.0311   0.0374   0.0256   0.0131  -0.0181  -0.0092   0.00    1.9
2173 197470.000    232977.6579  -5339307.2684   3469621.6027   2   8   0.0310   0.0372   0.0255   0.0131  -0.0179  -0.0092   0.00    1.9
2173 197471.000    232977.6570  -5339307.2659   3469621.6006   2   8   0.0310   0.0370   0.0253   0.0131  -0.0178  -0.0092   0.00    1.9
2173 197472.000    232977.6559  -5339307.2584   3469621.5953   2   8   0.0309   0.0368   0.0254   0.0131  -0.0176  -0.0092   0.00    1.9
2173 197473.000    232977.6588  -5339307.2584   3469621.5927   2   8   0.0308   0.0366   0.0251   0.0131  -0.0175  -0.0090   0.00    1.9
2173 197474.000    232977.6585  -5339307.2502   3469621.5850   2   8   0.0307   0.0364   0.0250   0.0131  -0.0175  -0.0090   0.00    1.9
2173 197475.000    232977.6606  -5339307.2418   3469621.5812   2   8   0.0306   0.0362   0.0249   0.0131  -0.0173  -0.0091   0.00    1.9
2173 197476.000    232977.6585  -5339307.2374   3469621.5751   2   8   0.0306   0.0360   0.0248   0.0131  -0.0172  -0.0090   0.00    1.9
2173 197477.000    232977.6605  -5339307.2355   3469621.5689   2   8   0.0305   0.0358   0.0247   0.0131  -0.0170  -0.0090   0.00    1.9
2173 197478.000    232977.6611  -5339307.2345   3469621.5653   2   8   0.0304   0.0357   0.0246   0.0131  -0.0169  -0.0089   0.00    1.9
2173 197479.000    232977.6599  -5339307.2267   3469621.5594   2   8   0.0303   0.0355   0.0244   0.0131  -0.0169  -0.0089   0.00    1.9
2173 197480.000    232977.6626  -5339307.2236   3469621.5529   2   8   0.0303   0.0353   0.0245   0.0130  -0.0167  -0.0089   0.00    1.9
2173 197481.000    232977.6630  -5339307.2233   3469621.5474   2   8   0.0302   0.0351   0.0243   0.0130  -0.0166  -0.0089   0.00    1.9
2173 197482.000    232977.6627  -5339307.2124   3469621.5396   2   8   0.0301   0.0349   0.0242   0.0131  -0.0165  -0.0089   0.00    1.9
2173 197483.000    232977.6639  -5339307.2096   3469621.5365   2   8   0.0300   0.0348   0.0241   0.0131  -0.0164  -0.0088   0.00    1.9
2173 197484.000    232977.6633  -5339307.2162   3469621.5331   2   8   0.0300   0.0346   0.0240   0.0130  -0.0163  -0.0089   0.00    1.9
2173 197485.000    232977.6662  -5339307.2098   3469621.5274   2   8   0.0299   0.0344   0.0239   0.0131  -0.0162  -0.0087   0.00    1.9
2173 197486.000    232977.6709  -5339307.2142   3469621.5222   2   8   0.0298   0.0342   0.0237   0.0130  -0.0160  -0.0087   0.00    1.9
2173 197487.000    232977.6708  -5339307.2115   3469621.5189   2   8   0.0298   0.0341   0.0236   0.0130  -0.0159  -0.0087   0.00    1.9
2173 197488.000    232977.6710  -5339307.2089   3469621.5133   2   8   0.0297   0.0339   0.0236   0.0130  -0.0158  -0.0087   0.00    1.9
2173 197489.000    232977.6710  -5339307.2094   3469621.5067   2   8   0.0297   0.0338   0.0236   0.0130  -0.0158  -0.0087   0.00    1.9
2173 197490.000    232977.6678  -5339307.2000   3469621.5017   2   8   0.0296   0.0336   0.0233   0.0130  -0.0157  -0.0086   0.00    1.9
2173 197491.000    232977.6699  -5339307.2036   3469621.4980   2   8   0.0296   0.0334   0.0232   0.0130  -0.0156  -0.0085   0.00    1.9
2173 197492.000    232977.6714  -5339307.1979   3469621.4935   2   8   0.0295   0.0333   0.0230   0.0130  -0.0154  -0.0085   0.00    1.9
2173 197493.000    232977.6689  -5339307.1991   3469621.4912   2   8   0.0295   0.0331   0.0231   0.0130  -0.0154  -0.0085   0.00    1.9
2173 197494.000    232977.6694  -5339307.1968   3469621.4872   2   8   0.0294   0.0329   0.0231   0.0130  -0.0152  -0.0086   0.00    1.9
2173 197495.000    232977.6693  -5339307.1911   3469621.4804   2   8   0.0293   0.0328   0.0229   0.0130  -0.0152  -0.0084   0.00    1.9
2173 197496.000    232977.6724  -5339307.1875   3469621.4755   2   8   0.0292   0.0326   0.0228   0.0130  -0.0151  -0.0085   0.00    1.9
2173 197497.000    232977.6745  -5339307.1866   3469621.4703   2   8   0.0292   0.0325   0.0227   0.0129  -0.0150  -0.0086   0.00    1.9
2173 197498.000    232977.6704  -5339307.1765   3469621.4647   2   8   0.0291   0.0323   0.0225   0.0129  -0.0149  -0.0085   0.00    1.9
2173 197499.000    232977.6715  -5339307.1742   3469621.4588   2   8   0.0291   0.0322   0.0225   0.0129  -0.0147  -0.0085   0.00    1.9
2173 197500.000    232977.6744  -5339307.1712   3469621.4507   2   8   0.0289   0.0320   0.0223   0.0129  -0.0147  -0.0082   0.00    1.9
2173 197501.000    232977.6721  -5339307.1707   3469621.4491   2   8   0.0290   0.0319   0.0222   0.0129  -0.0146  -0.0083   0.00    1.9
2173 197502.000    232977.6752  -5339307.1719   3469621.4412   2   8   0.0289   0.0317   0.0221   0.0129  -0.0145  -0.0083   0.00    1.8
2173 197503.000    232977.6745  -5339307.1679   3469621.4361   2   8   0.0288   0.0316   0.0221   0.0129  -0.0145  -0.0084   0.00    1.8
2173 197504.000    232977.6764  -5339307.1662   3469621.4299   2   8   0.0288   0.0314   0.0221   0.0129  -0.0144  -0.0082   0.00    1.8
2173 197505.000    232977.6735  -5339307.1555   3469621.4248   2   8   0.0287   0.0313   0.0219   0.0128  -0.0143  -0.0082   0.00    1.8
2173 197506.000    232977.6732  -5339307.1566   3469621.4195   2   8   0.0286   0.0312   0.0218   0.0129  -0.0142  -0.0083   0.00    1.8
2173 197507.000    232977.6733  -5339307.1547   3469621.4140   2   8   0.0285   0.0310   0.0217   0.0129  -0.0142  -0.0083   0.00    1.8
2173 197508.000    232977.6766  -5339307.1534   3469621.4092   2   8   0.0285   0.0309   0.0216   0.0129  -0.0140  -0.0081   0.00    1.8
2173 197509.000    232977.6761  -5339307.1518   3469621.4074   2   8   0.0284   0.0308   0.0215   0.0128  -0.0139  -0.0083   0.00    1.8
2173 197510.000    232977.6765  -5339307.1479   3469621.4021   2   8   0.0284   0.0306   0.0215   0.0128  -0.0138  -0.0083   0.00    1.8
2173 197511.000    232977.6744  -5339307.1377   3469621.3960   2   8   0.0283   0.0305   0.0215   0.0128  -0.0138  -0.0081   0.00    1.8
2173 197512.000    232977.6769  -5339307.1435   3469621.3943   2   8   0.0282   0.0304   0.0213   0.0128  -0.0137  -0.0082   0.00    1.8
2173 197513.000    232977.6744  -5339307.1322   3469621.3878   2   8   0.0282   0.0302   0.0212   0.0128  -0.0136  -0.0081   0.00    1.8
2173 197514.000    232977.6753  -5339307.1268   3469621.3847   2   8   0.0282   0.0301   0.0211   0.0128  -0.0136  -0.0080   0.00    1.8
2173 197515.000    232977.6764  -5339307.1289   3469621.3818   2   8   0.0281   0.0300   0.0210   0.0128  -0.0135  -0.0080   0.00    1.8
2173 197516.000    232977.6744  -5339307.1245   3469621.3792   2   8   0.0281   0.0299   0.0210   0.0128  -0.0134  -0.0080   0.00    1.8
2173 197517.000    232977.6765  -5339307.1203   3469621.3751   2   8   0.0280   0.0297   0.0209   0.0127  -0.0133  -0.0080   0.00    1.8
2173 197518.000    232977.6793  -5339307.1117   3469621.3686   2   8   0.0280   0.0296   0.0209   0.0127  -0.0132  -0.0080   0.00    1.8
2173 197519.000    232977.6788  -5339307.1037   3469621.3648   2   8   0.0279   0.0295   0.0207   0.0127  -0.0131  -0.0078   0.00    1.8
2173 197520.000    232977.6795  -5339307.1128   3469621.3656   2   8   0.0279   0.0293   0.0207   0.0127  -0.0130  -0.0080   0.00    1.8
2173 197521.000    232977.6807  -5339307.1073   3469621.3615   2   8   0.0278   0.0292   0.0207   0.0127  -0.0130  -0.0080   0.00    1.8
2173 197522.000    232977.6806  -5339307.0980   3469621.3566   2   8   0.0277   0.0291   0.0206   0.0127  -0.0129  -0.0080   0.00    1.8
2173 197523.000    232977.6796  -5339307.0946   3469621.3559   2   8   0.0277   0.0290   0.0204   0.0127  -0.0130  -0.0079   0.00    1.8
2173 197524.000    232977.6792  -5339307.0855   3469621.3483   2   8   0.0276   0.0289   0.0203   0.0127  -0.0128  -0.0078   0.00    1.8
2173 197525.000    232977.6795  -5339307.0889   3469621.3516   2   8   0.0275   0.0287   0.0202   0.0126  -0.0128  -0.0078   0.00    1.8
2173 197526.000    232977.6801  -5339307.0820   3469621.3492   2   8   0.0275   0.0286   0.0203   0.0127  -0.0127  -0.0078   0.00    1.8
2173 197527.000    232977.6833  -5339307.0824   3469621.3442   2   8   0.0275   0.0285   0.0202   0.0126  -0.0126  -0.0078   0.00    1.8
2173 197528.000    232977.6844  -5339307.0809   3469621.3432   2   8   0.0274   0.0284   0.0201   0.0126  -0.0125  -0.0078   0.00    1.8
2173 197529.000    232977.6854  -5339307.0686   3469621.3362   2   8   0.0274   0.0283   0.0200   0.0126  -0.0125  -0.0078   0.00    1.9
2173 197530.000    232977.6870  -5339307.0670   3469621.3335   2   8   0.0273   0.0282   0.0199   0.0126  -0.0124  -0.0078   0.00    1.9
2173 197531.000    232977.6911  -5339307.0718   3469621.3349   2   8   0.0273   0.0281   0.0198   0.0126  -0.0123  -0.0079   0.00    1.9
2173 197532.000    232977.6924  -5339307.0614   3469621.3309   2   8   0.0272   0.0279   0.0197   0.0126  -0.0123  -0.0076   0.00    1.9
2173 197533.000    232977.6924  -5339307.0524   3469621.3239   2   8   0.0272   0.0278   0.0196   0.0126  -0.0123  -0.0076   0.00    1.9
2173 197534.000    232977.6950  -5339307.0589   3469621.3271   2   8   0.0272   0.0277   0.0196   0.0126  -0.0121  -0.0075   0.00    1.9
2173 197535.000    232977.6946  -5339307.0503   3469621.3229   2   8   0.0271   0.0276   0.0195   0.0126  -0.0121  -0.0076   0.00    1.9
2173 197536.000    232977.6974  -5339307.0446   3469621.3191   2   8   0.0270   0.0275   0.0195   0.0125  -0.0120  -0.0077   0.00    1.9
2173 197537.000    232977.6954  -5339307.0377   3469621.3162   2   8   0.0270   0.0274   0.0192   0.0125  -0.0121  -0.0074   0.00    1.9
2173 197538.000    232977.6980  -5339307.0386   3469621.3156   2   8   0.0269   0.0273   0.0193   0.0126  -0.0119  -0.0075   0.00    1.9
2173 197539.000    232977.7004  -5339307.0316   3469621.3120   2   8   0.0269   0.0272   0.0193   0.0125  -0.0119  -0.0077   0.00    1.9
2173 197540.000    232977.7018  -5339307.0276   3469621.3062   2   8   0.0268   0.0271   0.0192   0.0125  -0.0118  -0.0076   0.00    1.9
2173 197541.000    232977.7010  -5339307.0293   3469621.3063   2   8   0.0268   0.0270   0.0192   0.0125  -0.0117  -0.0075   0.00    1.9
2173 197542.000    232977.7032  -5339307.0175   3469621.3007   2   8   0.0267   0.0269   0.0192   0.0125  -0.0117  -0.0075   0.00    1.9
2173 197543.000    232977.7038  -5339307.0142   3469621.2975   2   8   0.0266   0.0268   0.0188   0.0125  -0.0117  -0.0075   0.00    1.9
2173 197544.000    232977.7042  -5339307.0092   3469621.2920   2   8   0.0266   0.0267   0.0189   0.0125  -0.0116  -0.0075   0.00    1.9
2173 197545.000    232977.7068  -5339307.0065   3469621.2908   2   8   0.0265   0.0266   0.0187   0.0125  -0.0116  -0.0072   0.00    1.9
2173 197546.000    232977.7084  -5339307.0016   3469621.2860   2   8   0.0265   0.0265   0.0188   0.0124  -0.0115  -0.0073   0.00    1.9
2173 197547.000    232977.7088  -5339306.9929   3469621.2813   2   8   0.0265   0.0264   0.0187   0.0124  -0.0114  -0.0072   0.00    1.9
2173 197548.000    232977.7084  -5339306.9834   3469621.2783   2   8   0.0263   0.0263   0.0186   0.0124  -0.0113  -0.0073   0.00    1.9
2173 197549.000    232977.7123  -5339306.9907   3469621.2801   2   8   0.0264   0.0262   0.0185   0.0124  -0.0113  -0.0073   0.00    1.9
2173 197550.000    232977.7140  -5339306.9789   3469621.2739   2   8   0.0263   0.0261   0.0186   0.0124  -0.0112  -0.0073   0.00    1.9
2173 197551.000    232977.7130  -5339306.9778   3469621.2723   2   8   0.0263   0.0260   0.0184   0.0124  -0.0111  -0.0073   0.00    1.9
2173 197552.000    232977.7182  -5339306.9628   3469621.2652   2   8   0.0263   0.0259   0.0183   0.0123  -0.0112  -0.0073   0.00    1.9
2173 197553.000    232977.7176  -5339306.9613   3469621.2596   2   8   0.0263   0.0258   0.0183   0.0124  -0.0111  -0.0073   0.00    1.9
2173 197554.000    232977.7210  -5339306.9617   3469621.2597   2   8   0.0262   0.0257   0.0182   0.0124  -0.0111  -0.0072   0.00    1.9
2173 197555.000    232977.7225  -5339306.9572   3469621.2584   2   8   0.0261   0.0256   0.0182   0.0123  -0.0110  -0.0070   0.00    1.9
2173 197556.000    232977.7231  -5339306.9516   3469621.2557   2   8   0.0261   0.0255   0.0181   0.0123  -0.0110  -0.0073   0.00    1.9
2173 197557.000    232977.7242  -5339306.9505   3469621.2539   2   8   0.0260   0.0254   0.0182   0.0123  -0.0109  -0.0073   0.00    1.9
2173 197558.000    232977.7283  -5339306.9422   3469621.2501   2   8   0.0260   0.0254   0.0180   0.0123  -0.0109  -0.0070   0.00    1.9
2173 197559.000    232977.7302  -5339306.9357   3469621.2456   2   8   0.0260   0.0253   0.0179   0.0123  -0.0108  -0.0072   0.00    1.9
2173 197560.000    232977.7329  -5339306.9355   3469621.2442   2   8   0.0259   0.0252   0.0177   0.0123  -0.0108  -0.0071   0.00    1.9
2173 197561.000    232977.7367  -5339306.9268   3469621.2417   2   8   0.0258   0.0251   0.0179   0.0123  -0.0107  -0.0072   0.00    1.9
2173 197562.000    232977.7379  -5339306.9160   3469621.2378   2   8   0.0258   0.0250   0.0178   0.0122  -0.0106  -0.0072   0.00    1.9
2173 197563.000    232977.7403  -5339306.9191   3469621.2364   2   8   0.0258   0.0249   0.0178   0.0122  -0.0106  -0.0071   0.00    1.9
2173 197564.000    232977.7431  -5339306.9107   3469621.2310   2   8   0.0258   0.0248   0.0177   0.0122  -0.0106  -0.0071   0.00    1.9
2173 197565.000    232977.7442  -5339306.9038   3469621.2284   2   8   0.0256   0.0248   0.0174   0.0122  -0.0105  -0.0069   0.00    1.9
2173 197566.000    232977.7450  -5339306.9033   3469621.2278   2   8   0.0257   0.0247   0.0175   0.0122  -0.0105  -0.0070   0.00    1.9
2173 197567.000    232977.7515  -5339306.9021   3469621.2277   2   8   0.0257   0.0246   0.0174   0.0122  -0.0105  -0.0068   0.00    1.9
2173 197568.000    232977.7531  -5339306.8966   3469621.2266   2   8   0.0256   0.0245   0.0173   0.0122  -0.0104  -0.0070   0.00    1.9
2173 197569.000    232977.7540  -5339306.8851   3469621.2224   2   8   0.0255   0.0244   0.0174   0.0122  -0.0103  -0.0070   0.00    1.9
2173 197570.000    232977.7572  -5339306.8891   3469621.2188   2   8   0.0255   0.0243   0.0173   0.0121  -0.0104  -0.0069   0.00    1.9
2173 197571.000    232977.7596  -5339306.8801   3469621.2137   2   8   0.0254   0.0243   0.0171   0.0122  -0.0102  -0.0069   0.00    1.9
2173 197572.000    232977.7574  -5339306.8757   3469621.2108   2   8   0.0254   0.0242   0.0171   0.0121  -0.0102  -0.0069   0.00    1.9
2173 197573.000    232977.7641  -5339306.8769   3469621.2088   2   8   0.0253   0.0241   0.0170   0.0121  -0.0102  -0.0067   0.00    1.9
2173 197574.000    232977.7686  -5339306.8677   3469621.2026   2   8   0.0253   0.0240   0.0172   0.0121  -0.0101  -0.0067   0.00    1.9
2173 197575.000    232977.7687  -5339306.8688   3469621.2012   2   8   0.0253   0.0240   0.0172   0.0121  -0.0101  -0.0069   0.00    1.9
2173 197576.000    232977.7740  -5339306.8643   3469621.1974   2   8   0.0252   0.0239   0.0170   0.0121  -0.0101  -0.0068   0.00    1.9
2173 197577.000    232977.7777  -5339306.8670   3469621.1968   2   8   0.0251   0.0238   0.0168   0.0121  -0.0101  -0.0065   0.00    1.9
2173 197578.000    232977.7810  -5339306.8547   3469621.1939   2   8   0.0252   0.0237   0.0169   0.0121  -0.0100  -0.0068   0.00    1.9
2173 197579.000    232977.7840  -5339306.8602   3469621.1914   2   8   0.0251   0.0237   0.0169   0.0121  -0.0099  -0.0068   0.00    1.9
2173 197580.000    232977.7833  -5339306.8583   3469621.1894   2   8   0.0250   0.0236   0.0168   0.0120  -0.0099  -0.0069   0.00    1.9
2173 197581.000    232977.7886  -5339306.8555   3469621.1868   2   8   0.0250   0.0235   0.0167   0.0120  -0.0099  -0.0067   0.00    1.9
2173 197582.000    232977.7938  -5339306.8551   3469621.1877   2   8   0.0249   0.0234   0.0168   0.0120  -0.0098  -0.0070   0.00    1.9
2173 197583.000    232977.7948  -5339306.8537   3469621.1870   2   8   0.0249   0.0234   0.0167   0.0120  -0.0098  -0.0067   0.00    1.9
2173 197584.000    232977.7970  -5339306.8495   3469621.1832   2   8   0.0249   0.0233   0.0165   0.0120  -0.0097  -0.0066   0.00    1.9
2173 197585.000    232977.8015  -5339306.8480   3469621.1811   2   8   0.0249   0.0232   0.0164   0.0120  -0.0098  -0.0066   0.00    2.0
2173 197586.000    232977.8049  -5339306.8465   3469621.1806   2   8   0.0248   0.0231   0.0163   0.0119  -0.0098  -0.0065   0.00    2.0
2173 197587.000    232977.8043  -5339306.8475   3469621.1804   2   8   0.0248   0.0231   0.0164   0.0120  -0.0096  -0.0067   0.00    2.0
2173 197588.000    232977.8087  -5339306.8429   3469621.1789   2   8   0.0247   0.0230   0.0164   0.0119  -0.0097  -0.0065   0.00    2.0
2173 197589.000    232977.8125  -5339306.8410   3469621.1760   2   8   0.0247   0.0229   0.0164   0.0119  -0.0096  -0.0066   0.00    2.0
2173 197590.000    232977.8173  -5339306.8357   3469621.1740   2   8   0.0247   0.0229   0.0162   0.0119  -0.0096  -0.0066   0.00    2.0
2173 197591.000    232977.8180  -5339306.8327   3469621.1721   2   8   0.0247   0.0228   0.0162   0.0119  -0.0096  -0.0065   0.00    2.0
2173 197592.000    232977.8217  -5339306.8342   3469621.1722   2   8   0.0246   0.0227   0.0161   0.0119  -0.0095  -0.0066   0.00    2.0
2173 197593.000    232977.8239  -5339306.8283   3469621.1688   2   8   0.0247   0.0227   0.0161   0.0119  -0.0094  -0.0066   0.00    2.0
2173 197594.000    232977.8271  -5339306.8255   3469621.1685   2   8   0.0245   0.0226   0.0162   0.0119  -0.0094  -0.0065   0.00    2.0
2173 197595.000    232977.8278  -5339306.8258   3469621.1655   2   8   0.0244   0.0225   0.0162   0.0119  -0.0093  -0.0064   0.00    2.0
2173 197596.000    232977.8312  -5339306.8206   3469621.1641   2   8   0.0244   0.0225   0.0162   0.0118  -0.0092  -0.0064   0.00    2.0
2173 197597.000    232977.8369  -5339306.8235   3469621.1647   2   8   0.0244   0.0224   0.0160   0.0118  -0.0093  -0.0065   0.00    2.0
2173 197598.000    232977.8374  -5339306.8196   3469621.1616   2   8   0.0243   0.0223   0.0159   0.0118  -0.0093  -0.0062   0.00    2.0
2173 197599.000    232977.8418  -5339306.8190   3469621.1601   2   8   0.0243   0.0223   0.0159   0.0118  -0.0093  -0.0065   0.00    2.0
2173 197600.000    232977.8455  -5339306.8134   3469621.1574   2   8   0.0243   0.0222   0.0155   0.0118  -0.0093  -0.0064   0.00    2.0
2173 197601.000    232977.8467  -5339306.8107   3469621.1570   2   8   0.0242   0.0222   0.0159   0.0117  -0.0092  -0.0063   0.00    2.0
2173 197602.000    232977.8493  -5339306.8134   3469621.1576   2   8   0.0242   0.0221   0.0157   0.0118  -0.0092  -0.0062   0.00    2.0
2173 197603.000    232977.8552  -5339306.8087   3469621.1529   2   8   0.0241   0.0220   0.0155   0.0118  -0.0092  -0.0064   0.00    2.0
2173 197604.000    232977.8577  -5339306.8054   3469621.1512   2   8   0.0243   0.0220   0.0156   0.0118  -0.0091  -0.0063   0.00    2.0
2173 197605.000    232977.8627  -5339306.7992   3469621.1494   2   8   0.0242   0.0219   0.0156   0.0117  -0.0091  -0.0064   0.00    2.0
2173 197606.000    232977.8644  -5339306.8008   3469621.1502   2   8   0.0240   0.0219   0.0155   0.0117  -0.0090  -0.0062   0.00    2.0
2173 197607.000    232977.8685  -5339306.7975   3469621.1469   2   8   0.0241   0.0218   0.0156   0.0117  -0.0090  -0.0063   0.00    2.0
2173 197608.000    232977.8723  -5339306.7993   3469621.1462   2   8   0.0240   0.0217   0.0153   0.0117  -0.0090  -0.0060   0.00    2.0
2173 197609.000    232977.8723  -5339306.7992   3469621.1479   2   8   0.0239   0.0217   0.0153   0.0117  -0.0090  -0.0061   0.00    2.0
2173 197610.000    232977.8787  -5339306.8011   3469621.1452   2   8   0.0240   0.0216   0.0151   0.0117  -0.0091  -0.0064   0.00    2.0
2173 197611.000    232977.8826  -5339306.8008   3469621.1472   2   8   0.0239   0.0216   0.0152   0.0117  -0.0088  -0.0060   0.00    2.0
2173 197612.000    232977.8864  -5339306.7976   3469621.1453   2   8   0.0239   0.0215   0.0153   0.0116  -0.0089  -0.0061   0.00    2.0
2173 197613.000    232977.8890  -5339306.7956   3469621.1416   2   8   0.0238   0.0215   0.0152   0.0117  -0.0089  -0.0059   0.00    2.0
2173 197614.000    232977.8917  -5339306.7968   3469621.1421   2   8   0.0237   0.0214   0.0150   0.0116  -0.0089  -0.0060   0.00    2.0
2173 197615.000    232977.8926  -5339306.7930   3469621.1400   2   8   0.0237   0.0213   0.0152   0.0116  -0.0088  -0.0061   0.00    2.1
2173 197616.000    232977.8968  -5339306.7947   3469621.1407   2   8   0.0237   0.0213   0.0150   0.0115  -0.0088  -0.0061   0.00    2.1
2173 197617.000    232977.8985  -5339306.7980   3469621.1412   2   8   0.0237   0.0212   0.0153   0.0116  -0.0088  -0.0062   0.00    2.1
2173 197618.000    232977.8994  -5339306.7975   3469621.1406   2   8   0.0236   0.0212   0.0150   0.0116  -0.0087  -0.0059   0.00    2.1
2173 197619.000    232977.9062  -5339306.7958   3469621.1375   2   8   0.0237   0.0211   0.0149   0.0116  -0.0087  -0.0061   0.00    2.1
2173 197620.000    232977.9058  -5339306.7966   3469621.1380   2   8   0.0236   0.0210   0.0150   0.0115  -0.0087  -0.0060   0.00    2.1
2173 197621.000    232977.9078  -5339306.7998   3469621.1395   2   8   0.0236   0.0210   0.0148   0.0115  -0.0087  -0.0060   0.00    2.1
2173 197622.000    232977.9107  -5339306.7972   3469621.1422   2   8   0.0235   0.0209   0.0146   0.0116  -0.0087  -0.0061   0.00    2.1
2173 197623.000    232977.9099  -5339306.7971   3469621.1412   2   8   0.0236   0.0209   0.0148   0.0115  -0.0086  -0.0060   0.00    2.1
2173 197624.000    232977.9170  -5339306.7978   3469621.1416   2   8   0.0234   0.0208   0.0147   0.0115  -0.0087  -0.0060   0.00    2.1
2173 197625.000    232977.9213  -5339306.7963   3469621.1375   2   8   0.0234   0.0208   0.0148   0.0115  -0.0086  -0.0058   0.00    2.1
2173 197626.000    232977.9229  -5339306.7962   3469621.1375   2   8   0.0234   0.0207   0.0147   0.0115  -0.0086  -0.0060   0.00    2.1
2173 197627.000    232977.9294  -5339306.7930   3469621.1338   2   8   0.0233   0.0207   0.0144   0.0115  -0.0086  -0.0059   0.00    2.1
2173 197628.000    232977.9309  -5339306.7972   3469621.1317   2   8   0.0232   0.0206   0.0145   0.0114  -0.0085  -0.0058   0.00    2.1
2173 197629.000    232977.9357  -5339306.8022   3469621.1350   2   8   0.0233   0.0206   0.0146   0.0114  -0.0085  -0.0059   0.00    2.1
2173 197630.000    232977.9400  -5339306.7992   3469621.1315   2   8   0.0233   0.0205   0.0144   0.0115  -0.0085  -0.0061   0.00    2.1
2173 197631.000    232977.9408  -5339306.8005   3469621.1301   2   8   0.0232   0.0205   0.0145   0.0114  -0.0085  -0.0059   0.00    2.1
2173 197632.000    232977.9441  -5339306.8032   3469621.1326   2   8   0.0233   0.0204   0.0142   0.0114  -0.0086  -0.0059   0.00    2.1
2173 197633.000    232977.9457  -5339306.8083   3469621.1298   2   8   0.0232   0.0204   0.0145   0.0114  -0.0084  -0.0060   0.00    2.1
2173 197634.000    232977.9503  -5339306.8033   3469621.1264   2   8   0.0231   0.0203   0.0143   0.0114  -0.0084  -0.0061   0.00    2.2
2173 197635.000    232977.9540  -5339306.8059   3469621.1272   2   8   0.0231   0.0203   0.0141   0.0114  -0.0085  -0.0057   0.00    2.2
2173 197636.000    232977.9569  -5339306.8044   3469621.1239   2   8   0.0231   0.0202   0.0144   0.0114  -0.0083  -0.0058   0.00    2.2
2173 197637.000    232977.9612  -5339306.8089   3469621.1241   2   8   0.0231   0.0202   0.0141   0.0113  -0.0083  -0.0058   0.00    2.2
2173 197638.000    232977.9673  -5339306.8117   3469621.1248   2   8   0.0231   0.0201   0.0141   0.0113  -0.0084  -0.0058   0.00    2.2
2173 197639.000    232977.9703  -5339306.8096   3469621.1207   2   8   0.0229   0.0201   0.0141   0.0114  -0.0083  -0.0058   0.00    2.2
2173 197640.000    232977.9752  -5339306.8106   3469621.1196   2   8   0.0229   0.0200   0.0140   0.0113  -0.0084  -0.0056   0.00    2.2
2173 197641.000    232977.9751  -5339306.8155   3469621.1185   2   8   0.0230   0.0200   0.0140   0.0113  -0.0083  -0.0056   0.00    2.2
2173 197642.000    232977.9800  -5339306.8163   3469621.1152   2   8   0.0229   0.0200   0.0138   0.0113  -0.0082  -0.0054   0.00    2.2
2173 197643.000    232977.9842  -5339306.8140   3469621.1124   2   8   0.0229   0.0199   0.0140   0.0113  -0.0082  -0.0056   0.00    2.2
2173 197644.000    232977.9845  -5339306.8172   3469621.1143   2   8   0.0228   0.0198   0.0139   0.0112  -0.0082  -0.0057   0.00    2.2
2173 197645.000    232977.9891  -5339306.8180   3469621.1111   2   8   0.0228   0.0198   0.0140   0.0112  -0.0082  -0.0058   0.00    2.2
2173 197646.000    232977.9899  -5339306.8185   3469621.1088   2   8   0.0228   0.0198   0.0140   0.0112  -0.0081  -0.0058   0.00    2.2
2173 197647.000    232977.9936  -5339306.8192   3469621.1073   2   8   0.0227   0.0197   0.0139   0.0112  -0.0081  -0.0058   0.00    2.2
2173 197648.000    232977.9985  -5339306.8208   3469621.1091   2   8   0.0227   0.0197   0.0139   0.0113  -0.0081  -0.0057   0.00    2.2
2173 197649.000    232978.0037  -5339306.8261   3469621.1047   2   8   0.0227   0.0196   0.0140   0.0112  -0.0081  -0.0058   0.00    2.2
2173 197650.000    232978.0081  -5339306.8292   3469621.1044   2   8   0.0226   0.0196   0.0138   0.0112  -0.0080  -0.0057   0.00    2.2
2173 197651.000    232978.0096  -5339306.8286   3469621.1014   2   8   0.0226   0.0195   0.0137   0.0112  -0.0081  -0.0055   0.00    2.2
2173 197652.000    232978.0142  -5339306.8283   3469621.1000   2   8   0.0226   0.0195   0.0136   0.0112  -0.0081  -0.0056   0.00    2.2
2173 197653.000    232978.0149  -5339306.8273   3469621.0957   2   8   0.0226   0.0195   0.0138   0.0112  -0.0080  -0.0057   0.00    2.2
2173 197654.000    232978.0212  -5339306.8311   3469621.0953   2   8   0.0225   0.0194   0.0136   0.0112  -0.0080  -0.0054   0.00    2.2
2173 197655.000    232978.0220  -5339306.8374   3469621.0960   2   8   0.0224   0.0194   0.0136   0.0112  -0.0080  -0.0056   0.00    2.3
2173 197656.000    232978.0279  -5339306.8342   3469621.0934   2   8   0.0224   0.0193   0.0135   0.0112  -0.0079  -0.0055   0.00    2.3
2173 197657.000    232978.0309  -5339306.8385   3469621.0912   2   8   0.0224   0.0193   0.0134   0.0112  -0.0080  -0.0055   0.00    2.3
2173 197658.000    232978.0358  -5339306.8356   3469621.0890   2   8   0.0224   0.0192   0.0135   0.0111  -0.0079  -0.0053   0.00    2.3
2173 197659.000    232978.0383  -5339306.8435   3469621.0895   2   8   0.0224   0.0192   0.0133   0.0111  -0.0079  -0.0056   0.00    2.3
2173 197660.000    232978.0408  -5339306.8486   3469621.0914   2   8   0.0224   0.0191   0.0134   0.0111  -0.0080  -0.0055   0.00    2.3
2173 197661.000    232978.0444  -5339306.8496   3469621.0907   2   8   0.0223   0.0191   0.0132   0.0111  -0.0079  -0.0052   0.00    2.3
2173 197662.000    232978.0460  -5339306.8489   3469621.0895   2   8   0.0223   0.0191   0.0132   0.0111  -0.0079  -0.0053   0.00    2.3
2173 197663.000    232978.0506  -5339306.8463   3469621.0885   2   8   0.0222   0.0190   0.0135   0.0110  -0.0079  -0.0053   0.00    2.3
2173 197664.000    232978.0527  -5339306.8460   3469621.0859   2   8   0.0222   0.0190   0.0133   0.0110  -0.0079  -0.0054   0.00    2.3
2173 197665.000    232978.0530  -5339306.8491   3469621.0873   2   8   0.0221   0.0190   0.0133   0.0110  -0.0079  -0.0054   0.00    2.3
2173 197666.000    232978.0548  -5339306.8522   3469621.0876   2   8   0.0221   0.0189   0.0131   0.0111  -0.0079  -0.0053   0.00    2.3
2173 197667.000    232978.0597  -5339306.8560   3469621.0904   2   8   0.0221   0.0188   0.0132   0.0110  -0.0078  -0.0054   0.00    2.4
2173 197668.000    232978.0601  -5339306.8564   3469621.0899   2   8   0.0221   0.0188   0.0131   0.0110  -0.0079  -0.0053   0.00    2.4
2173 197669.000    232978.0650  -5339306.8562   3469621.0897   2   8   0.0220   0.0188   0.0132   0.0110  -0.0078  -0.0053   0.00    2.4
2173 197670.000    232978.0675  -5339306.8592   3469621.0925   2   8   0.0221   0.0187   0.0131   0.0109  -0.0078  -0.0051   0.00    2.4
2173 197671.000    232978.0703  -5339306.8582   3469621.0904   2   8   0.0221   0.0188   0.0131   0.0110  -0.0077  -0.0052   0.00    2.4
2173 197672.000    232978.0698  -5339306.8644   3469621.0923   2   8   0.0219   0.0187   0.0132   0.0109  -0.0077  -0.0053   0.00    2.4
2173 197673.000    232978.0727  -5339306.8609   3469621.0905   2   8   0.0220   0.0186   0.0127   0.0110  -0.0077  -0.0049   0.00    2.4
2173 197674.000    232978.0752  -5339306.8648   3469621.0935   2   8   0.0219   0.0186   0.0129   0.0109  -0.0077  -0.0054   0.00    2.4
2173 197675.000    232978.0770  -5339306.8651   3469621.0921   2   8   0.0218   0.0186   0.0129   0.0110  -0.0077  -0.0050   0.00    2.4
2173 197676.000    232978.0794  -5339306.8645   3469621.0913   2   8   0.0220   0.0185   0.0131   0.0109  -0.0077  -0.0052   0.00    2.4
2173 197677.000    232978.0859  -5339306.8651   3469621.0891   2   8   0.0220   0.0185   0.0130   0.0109  -0.0078  -0.0053   0.00    2.4
2173 197678.000    232978.0869  -5339306.8679   3469621.0913   2   8   0.0218   0.0184   0.0126   0.0109  -0.0076  -0.0051   0.00    2.4
2173 197679.000    232978.0880  -5339306.8685   3469621.0949   2   8   0.0218   0.0184   0.0129   0.0109  -0.0077  -0.0050   0.00    2.4
2173 197680.000    232978.0921  -5339306.8742   3469621.0957   2   8   0.0218   0.0184   0.0127   0.0109  -0.0076  -0.0054   0.00    2.4
2173 197681.000    232978.0941  -5339306.8811   3469621.0985   2   8   0.0218   0.0183   0.0129   0.0109  -0.0075  -0.0055   0.00    2.4
2173 197682.000    232978.0984  -5339306.8783   3469621.0965   2   8   0.0217   0.0183   0.0126   0.0108  -0.0076  -0.0050   0.00    2.4
2173 197683.000    232978.1003  -5339306.8774   3469621.0957   2   8   0.0218   0.0183   0.0126   0.0108  -0.0076  -0.0051   0.00    2.3
2173 197684.000    232978.1005  -5339306.8802   3469621.0966   2   8   0.0217   0.0182   0.0130   0.0108  -0.0075  -0.0051   0.00    2.3
2173 197685.000    232978.1043  -5339306.8816   3469621.0933   2   8   0.0218   0.0182   0.0126   0.0108  -0.0076  -0.0051   0.00    2.3
