% program   : rnx2rtkp ver.2.4.3 b31
% inp file  : ngs/21_09_01_10_42_41_msme.obs
% inp file  : ngs/21_09_01_10_42_41_msme_SNMS.obs
% inp file  : ngs/21_09_01_10_42_41_brdc.nav
% obs start : 2021/09/01 10:00:00.0 GPST (week2173 295200.0s)
% obs end   : 2021/09/01 10:59:59.0 GPST (week2173 298799.0s)
% ref pos   :   119285.9137  -5391032.3110   3394922.2425
%
% (x/y/z-ecef=WGS84,Q=1:fix,2:float,3:sbas,4:dgps,5:single,6:ppp,ns=# of satellites)
%  GPST              x-ecef(m)      y-ecef(m)      z-ecef(m)   Q  ns   sdx(m)   sdy(m)   sdz(m)  sdxy(m)  sdyz(m)  sdzx(m) age(s)  ratio
2173 297738.000    119287.8475  -5391119.4872   3394977.5118   1   8   0.0397   0.0643   0.0363  -0.0448  -0.0401   0.0252 -30.00    6.3
2173 297739.000    119287.8447  -5391119.4848   3394977.5113   1   8   0.0384   0.0622   0.0351  -0.0433  -0.0388   0.0244 -29.00    7.3
2173 297740.000    119287.8494  -5391119.4909   3394977.5131   1   8   0.0372   0.0602   0.0339  -0.0419  -0.0376   0.0236 -28.00    6.9
2173 297741.000    119287.8478  -5391119.4854   3394977.5093   1   8   0.0359   0.0581   0.0328  -0.0404  -0.0363   0.0228 -27.00    6.1
2173 297742.000    119287.8494  -5391119.4919   3394977.5150   1   8   0.0346   0.0560   0.0316  -0.0390  -0.0350   0.0219 -26.00    6.0
2173 297743.000    119287.8492  -5391119.4894   3394977.5131   1   8   0.0333   0.0540   0.0304  -0.0375  -0.0337   0.0211 -25.00    5.6
2173 297744.000    119287.8477  -5391119.4910   3394977.5143   1   8   0.0321   0.0519   0.0293  -0.0361  -0.0324   0.0203 -24.00    5.6
2173 297745.000    119287.8499  -5391119.4911   3394977.5141   1   8   0.0308   0.0499   0.0281  -0.0347  -0.0311   0.0195 -23.00    5.8
2173 297746.000    119287.8490  -5391119.4894   3394977.5139   1   8   0.0295   0.0479   0.0270  -0.0332  -0.0298   0.0186 -22.00    6.1
2173 297747.000    119287.8472  -5391119.4873   3394977.5119   1   8   0.0283   0.0458   0.0258  -0.0318  -0.0285   0.0178 -21.00    6.4
2173 297748.000    119287.8478  -5391119.4871   3394977.5137   1   8   0.0270   0.0438   0.0246  -0.0303  -0.0273   0.0170 -20.00    6.6
2173 297749.000    119287.8488  -5391119.4864   3394977.5129   1   8   0.0257   0.0418   0.0235  -0.0289  -0.0260   0.0162 -19.00    6.9
2173 297750.000    119287.8493  -5391119.4874   3394977.5120   1   8   0.0245   0.0398   0.0224  -0.0275  -0.0247   0.0154 -18.00    7.0
2173 297751.000    119287.8510  -5391119.4886   3394977.5137   1   8   0.0232   0.0378   0.0212  -0.0261  -0.0235   0.0146 -17.00    7.1
2173 297752.000    119287.8491  -5391119.4893   3394977.5125   1   8   0.0220   0.0358   0.0201  -0.0246  -0.0222   0.0138 -16.00    7.0
2173 297753.000    119287.8489  -5391119.4895   3394977.5146   1   8   0.0207   0.0338   0.0189  -0.0232  -0.0209   0.0129 -15.00    6.9
2173 297754.000    119287.8517  -5391119.4932   3394977.5144   1   8   0.0195   0.0318   0.0178  -0.0218  -0.0197   0.0121 -14.00    6.9
2173 297755.000    119287.8500  -5391119.4913   3394977.5136   1   8   0.0183   0.0299   0.0167  -0.0204  -0.0185   0.0113 -13.00    6.9
2173 297756.000    119287.8493  -5391119.4892   3394977.5119   1   8   0.0171   0.0280   0.0156  -0.0190  -0.0173   0.0106 -12.00    7.0
2173 297757.000    119287.8465  -5391119.4844   3394977.5100   1   8   0.0159   0.0261   0.0145  -0.0177  -0.0160   0.0097 -11.00    7.3
2173 297758.000    119287.8466  -5391119.4851   3394977.5107   1   8   0.0147   0.0242   0.0134  -0.0163  -0.0149   0.0089 -10.00    7.6
2173 297759.000    119287.8441  -5391119.4836   3394977.5110   1   8   0.0135   0.0224   0.0124  -0.0150  -0.0137   0.0082  -9.00    8.1
2173 297760.000    119287.8435  -5391119.4800   3394977.5096   1   8   0.0124   0.0206   0.0114  -0.0136  -0.0126   0.0074  -8.00    8.8
2173 297761.000    119287.8431  -5391119.4780   3394977.5085   1   8   0.0112   0.0189   0.0104  -0.0123  -0.0115   0.0068  -7.00    9.7
2173 297762.000    119287.8430  -5391119.4754   3394977.5075   1   8   0.0102   0.0172   0.0095  -0.0111  -0.0104   0.0060  -6.00   10.9
2173 297763.000    119287.8438  -5391119.4758   3394977.5065   1   8   0.0091   0.0157   0.0085  -0.0099  -0.0095   0.0053  -5.00   12.2
2173 297764.000    119287.8429  -5391119.4760   3394977.5057   1   8   0.0082   0.0143   0.0077  -0.0088  -0.0085   0.0046  -4.00   14.5
2173 297765.000    119287.8442  -5391119.4740   3394977.5032   1   8   0.0075   0.0131   0.0072  -0.0078  -0.0079   0.0044  -3.00   17.0
2173 297766.000    119287.8432  -5391119.4741   3394977.5045   1   8   0.0067   0.0121   0.0065  -0.0070  -0.0072   0.0036  -2.00   20.9
2173 297767.000    119287.8460  -5391119.4754   3394977.5036   1   8   0.0064   0.0115   0.0059  -0.0063  -0.0066   0.0033  -1.00   25.8
2173 297768.000    119287.8455  -5391119.4734   3394977.5019   1   8   0.0063   0.0113   0.0064  -0.0064  -0.0069   0.0039   0.00   32.5
2173 297769.000    119287.8457  -5391119.4716   3394977.5014   1   8   0.0059   0.0113   0.0062  -0.0062  -0.0067   0.0033   0.00   40.3
2173 297770.000    119287.8458  -5391119.4720   3394977.5015   1   8   0.0061   0.0113   0.0062  -0.0063  -0.0067   0.0034   0.00   48.7
2173 297771.000    119287.8455  -5391119.4719   3394977.5015   1   8   0.0060   0.0113   0.0062  -0.0063  -0.0068   0.0034   0.00   57.1
2173 297772.000    119287.8456  -5391119.4713   3394977.5013   1   8   0.0061   0.0112   0.0064  -0.0063  -0.0069   0.0035   0.00   65.7
2173 297773.000    119287.8456  -5391119.4716   3394977.5014   1   8   0.0063   0.0113   0.0058  -0.0061  -0.0065   0.0030   0.00   74.5
2173 297774.000    119287.8459  -5391119.4718   3394977.5012   1   8   0.0063   0.0113   0.0061  -0.0063  -0.0067   0.0035   0.00   83.5
2173 297775.000    119287.8455  -5391119.4723   3394977.5015   1   8   0.0063   0.0112   0.0061  -0.0063  -0.0067   0.0031   0.00   91.8
2173 297776.000    119287.8456  -5391119.4706   3394977.5011   1   8   0.0061   0.0112   0.0062  -0.0063  -0.0067   0.0034   0.00  101.2
2173 297777.000    119287.8455  -5391119.4718   3394977.5018   1   8   0.0064   0.0113   0.0061  -0.0063  -0.0066   0.0030   0.00  110.5
2173 297778.000    119287.8455  -5391119.4712   3394977.5015   1   8   0.0059   0.0113   0.0060  -0.0061  -0.0067   0.0033   0.00  120.1
2173 297779.000    119287.8456  -5391119.4708   3394977.5014   1   8   0.0061   0.0114   0.0057  -0.0062  -0.0065   0.0029   0.00  130.0
2173 297780.000    119287.8452  -5391119.4707   3394977.5012   1   8   0.0060   0.0113   0.0059  -0.0062  -0.0068   0.0033   0.00  137.9
2173 297781.000    119287.8455  -5391119.4720   3394977.5017   1   8   0.0061   0.0113   0.0061  -0.0061  -0.0068   0.0033   0.00  144.9
2173 297782.000    119287.8459  -5391119.4722   3394977.5016   1   8   0.0062   0.0113   0.0061  -0.0061  -0.0067   0.0030   0.00  150.3
2173 297783.000    119287.8455  -5391119.4702   3394977.5011   1   8   0.0060   0.0113   0.0059  -0.0062  -0.0067   0.0030   0.00  156.0
2173 297784.000    119287.8455  -5391119.4707   3394977.5011   1   8   0.0062   0.0113   0.0061  -0.0064  -0.0068   0.0034   0.00  159.7
2173 297785.000    119287.8457  -5391119.4720   3394977.5014   1   8   0.0060   0.0113   0.0056  -0.0061  -0.0066   0.0032   0.00  163.4
2173 297786.000    119287.8458  -5391119.4730   3394977.5017   1   8   0.0063   0.0113   0.0060  -0.0063  -0.0067   0.0035   0.00  166.5
2173 297787.000    119287.8463  -5391119.4719   3394977.5015   1   8   0.0060   0.0113   0.0061  -0.0062  -0.0068   0.0029   0.00  170.2
2173 297788.000    119287.8450  -5391119.4707   3394977.5011   1   8   0.0061   0.0113   0.0063  -0.0063  -0.0068   0.0035   0.00  172.7
2173 297789.000    119287.8457  -5391119.4729   3394977.5018   1   8   0.0063   0.0113   0.0059  -0.0062  -0.0067   0.0027   0.00  174.8
2173 297790.000    119287.8454  -5391119.4702   3394977.5011   1   8   0.0061   0.0112   0.0059  -0.0062  -0.0066   0.0033   0.00  178.1
2173 297791.000    119287.8455  -5391119.4704   3394977.5012   1   8   0.0059   0.0112   0.0059  -0.0062  -0.0066   0.0034   0.00  180.0
2173 297792.000    119287.8452  -5391119.4707   3394977.5013   1   8   0.0061   0.0113   0.0059  -0.0061  -0.0067   0.0029   0.00  182.6
2173 297793.000    119287.8459  -5391119.4722   3394977.5014   1   8   0.0062   0.0113   0.0059  -0.0064  -0.0067   0.0033   0.00  184.9
2173 297794.000    119287.8458  -5391119.4732   3394977.5019   1   8   0.0063   0.0112   0.0063  -0.0063  -0.0068   0.0034   0.00  186.6
2173 297795.000    119287.8460  -5391119.4733   3394977.5017   1   8   0.0063   0.0113   0.0061  -0.0062  -0.0066   0.0032   0.00  188.0
2173 297796.000    119287.8457  -5391119.4733   3394977.5018   1   8   0.0061   0.0112   0.0060  -0.0063  -0.0068   0.0034   0.00  189.8
2173 297797.000    119287.8459  -5391119.4734   3394977.5018   1   8   0.0062   0.0112   0.0062  -0.0062  -0.0066   0.0032   0.00  191.2
2173 297798.000    119287.8456  -5391119.4732   3394977.5017   1   8   0.0063   0.0112   0.0062  -0.0063  -0.0067   0.0037   0.00  192.9
2173 297799.000    119287.8452  -5391119.4717   3394977.5014   1   8   0.0061   0.0113   0.0059  -0.0062  -0.0067   0.0031   0.00  193.9
2173 297800.000    119287.8454  -5391119.4725   3394977.5020   1   8   0.0061   0.0112   0.0059  -0.0062  -0.0068   0.0028   0.00  194.9
2173 297801.000    119287.8458  -5391119.4734   3394977.5016   1   8   0.0063   0.0112   0.0063  -0.0062  -0.0067   0.0034   0.00  195.8
2173 297802.000    119287.8452  -5391119.4723   3394977.5014   1   8   0.0063   0.0113   0.0061  -0.0062  -0.0067   0.0030   0.00  196.8
2173 297803.000    119287.8456  -5391119.4722   3394977.5012   1   8   0.0062   0.0113   0.0062  -0.0062  -0.0067   0.0033   0.00  197.4
2173 297804.000    119287.8457  -5391119.4734   3394977.5019   1   8   0.0062   0.0113   0.0062  -0.0062  -0.0067   0.0036   0.00  197.7
2173 297805.000    119287.8460  -5391119.4744   3394977.5021   1   8   0.0064   0.0112   0.0062  -0.0063  -0.0067   0.0036   0.00  198.2
2173 297806.000    119287.8459  -5391119.4737   3394977.5019   1   8   0.0061   0.0112   0.0059  -0.0062  -0.0066   0.0029   0.00  198.3
2173 297807.000    119287.8457  -5391119.4745   3394977.5021   1   8   0.0064   0.0113   0.0062  -0.0062  -0.0066   0.0037   0.00  197.5
2173 297808.000    119287.8458  -5391119.4754   3394977.5023   1   8   0.0059   0.0113   0.0059  -0.0062  -0.0066   0.0031   0.00  197.6
2173 297809.000    119287.8456  -5391119.4744   3394977.5020   1   8   0.0062   0.0113   0.0063  -0.0062  -0.0066   0.0032   0.00  196.9
2173 297810.000    119287.8456  -5391119.4743   3394977.5020   1   8   0.0062   0.0113   0.0062  -0.0062  -0.0067   0.0032   0.00  196.7
2173 297811.000    119287.8455  -5391119.4751   3394977.5027   1   8   0.0063   0.0112   0.0060  -0.0063  -0.0068   0.0026   0.00  196.8
2173 297812.000    119287.8455  -5391119.4732   3394977.5021   1   8   0.0062   0.0112   0.0060  -0.0062  -0.0068   0.0029   0.00  196.8
2173 297813.000    119287.8453  -5391119.4722   3394977.5012   1   8   0.0062   0.0112   0.0060  -0.0063  -0.0067   0.0031   0.00  196.7
2173 297814.000    119287.8457  -5391119.4738   3394977.5023   1   8   0.0063   0.0112   0.0061  -0.0062  -0.0067   0.0034   0.00  196.0
2173 297815.000    119287.8455  -5391119.4723   3394977.5014   1   8   0.0061   0.0112   0.0062  -0.0062  -0.0067   0.0033   0.00  196.1
2173 297816.000    119287.8457  -5391119.4731   3394977.5017   1   8   0.0060   0.0112   0.0060  -0.0063  -0.0068   0.0033   0.00  196.2
2173 297817.000    119287.8459  -5391119.4753   3394977.5021   1   8   0.0060   0.0113   0.0057  -0.0061  -0.0065   0.0030   0.00  195.5
2173 297818.000    119287.8454  -5391119.4737   3394977.5019   1   8   0.0062   0.0113   0.0061  -0.0061  -0.0066   0.0031   0.00  194.9
2173 297819.000    119287.8455  -5391119.4729   3394977.5015   1   8   0.0061   0.0112   0.0063  -0.0062  -0.0066   0.0034   0.00  194.4
2173 297820.000    119287.8457  -5391119.4736   3394977.5018   1   8   0.0060   0.0112   0.0059  -0.0062  -0.0065   0.0030   0.00  193.8
2173 297821.000    119287.8458  -5391119.4757   3394977.5024   1   8   0.0062   0.0112   0.0058  -0.0060  -0.0065   0.0025   0.00  192.4
2173 297822.000    119287.8454  -5391119.4754   3394977.5024   1   8   0.0062   0.0112   0.0063  -0.0063  -0.0068   0.0034   0.00  191.3
2173 297823.000    119287.8458  -5391119.4742   3394977.5023   1   8   0.0063   0.0113   0.0061  -0.0062  -0.0067   0.0033   0.00  190.6
2173 297824.000    119287.8462  -5391119.4738   3394977.5023   1   8   0.0063   0.0112   0.0062  -0.0062  -0.0067   0.0032   0.00  190.6
2173 297825.000    119287.8457  -5391119.4733   3394977.5019   1   8   0.0060   0.0113   0.0060  -0.0061  -0.0066   0.0033   0.00  190.0
2173 297826.000    119287.8456  -5391119.4744   3394977.5021   1   8   0.0062   0.0113   0.0062  -0.0060  -0.0068   0.0025   0.00  189.2
2173 297827.000    119287.8454  -5391119.4719   3394977.5016   1   8   0.0059   0.0112   0.0059  -0.0062  -0.0066   0.0034   0.00  189.6
2173 297828.000    119287.8452  -5391119.4713   3394977.5013   1   8   0.0062   0.0113   0.0057  -0.0061  -0.0066   0.0029   0.00  190.0
2173 297829.000    119287.8457  -5391119.4723   3394977.5015   1   8   0.0058   0.0112   0.0060  -0.0061  -0.0066   0.0032   0.00  189.9
2173 297830.000    119287.8456  -5391119.4738   3394977.5021   1   8   0.0066   0.0112   0.0060  -0.0062  -0.0067   0.0027   0.00  189.4
2173 297831.000    119287.8455  -5391119.4722   3394977.5016   1   8   0.0062   0.0112   0.0062  -0.0062  -0.0066   0.0031   0.00  189.3
2173 297832.000    119287.8453  -5391119.4735   3394977.5019   1   8   0.0063   0.0111   0.0062  -0.0063  -0.0068   0.0029   0.00  189.3
2173 297833.000    119287.8457  -5391119.4734   3394977.5020   1   8   0.0062   0.0113   0.0062  -0.0061  -0.0067   0.0031   0.00  188.9
2173 297834.000    119287.8457  -5391119.4726   3394977.5015   1   8   0.0061   0.0113   0.0061  -0.0062  -0.0067   0.0029   0.00  189.2
2173 297835.000    119287.8455  -5391119.4718   3394977.5014   1   8   0.0062   0.0112   0.0058  -0.0063  -0.0066   0.0027   0.00  189.4
2173 297836.000    119287.8457  -5391119.4720   3394977.5015   1   8   0.0062   0.0113   0.0063  -0.0061  -0.0066   0.0033   0.00  189.3
2173 297837.000    119287.8453  -5391119.4720   3394977.5017   1   8   0.0062   0.0113   0.0061  -0.0062  -0.0067   0.0033   0.00  189.4
2173 297838.000    119287.8455  -5391119.4715   3394977.5013   1   8   0.0061   0.0113   0.0062  -0.0061  -0.0066   0.0035   0.00  189.6
2173 297839.000    119287.8462  -5391119.4724   3394977.5015   1   8   0.0061   0.0113   0.0060  -0.0062  -0.0067   0.0029   0.00  189.7
2173 297840.000    119287.8456  -5391119.4731   3394977.5021   1   8   0.0062   0.0113   0.0059  -0.0062  -0.0067   0.0030   0.00  189.6
2173 297841.000    119287.8454  -5391119.4706   3394977.5012   1   8   0.0062   0.0112   0.0060  -0.0063  -0.0067   0.0032   0.00  189.9
2173 297842.000    119287.8455  -5391119.4728   3394977.5015   1   8   0.0064   0.0112   0.0064  -0.0063  -0.0068   0.0031   0.00  189.7
2173 297843.000    119287.8456  -5391119.4719   3394977.5014   1   8   0.0060   0.0113   0.0061  -0.0063  -0.0066   0.0032   0.00  189.7
2173 297844.000    119287.8455  -5391119.4719   3394977.5014   1   8   0.0061   0.0112   0.0060  -0.0061  -0.0065   0.0029   0.00  189.4
2173 297845.000    119287.8456  -5391119.4704   3394977.5012   1   8   0.0065   0.0111   0.0062  -0.0063  -0.0067   0.0035   0.00  189.4
2173 297846.000    119287.8459  -5391119.4725   3394977.5018   1   8   0.0061   0.0112   0.0058  -0.0062  -0.0065   0.0030   0.00  189.3
2173 297847.000    119287.8456  -5391119.4704   3394977.5011   1   8   0.0062   0.0112   0.0060  -0.0062  -0.0066   0.0029   0.00  189.7
2173 297848.000    119287.8454  -5391119.4728   3394977.5019   1   8   0.0064   0.0112   0.0062  -0.0062  -0.0067   0.0027   0.00  189.4
2173 297849.000    119287.8457  -5391119.4743   3394977.5022   1   8   0.0063   0.0112   0.0065  -0.0062  -0.0069   0.0035   0.00  188.9
2173 297850.000    119287.8454  -5391119.4717   3394977.5014   1   8   0.0060   0.0112   0.0061  -0.0062  -0.0066   0.0029   0.00  189.0
2173 297851.000    119287.8453  -5391119.4730   3394977.5016   1   8   0.0064   0.0112   0.0065  -0.0063  -0.0068   0.0034   0.00  188.8
2173 297852.000    119287.8456  -5391119.4721   3394977.5013   1   8   0.0062   0.0112   0.0059  -0.0062  -0.0066   0.0031   0.00  188.3
2173 297853.000    119287.8458  -5391119.4741   3394977.5020   1   8   0.0058   0.0112   0.0064  -0.0061  -0.0067   0.0036   0.00  187.9
2173 297854.000    119287.8455  -5391119.4723   3394977.5017   1   8   0.0062   0.0112   0.0061  -0.0062  -0.0068   0.0034   0.00  187.9
2173 297855.000    119287.8455  -5391119.4725   3394977.5014   1   8   0.0062   0.0113   0.0058  -0.0061  -0.0065   0.0029   0.00  187.6
2173 297856.000    119287.8454  -5391119.4723   3394977.5018   1   8   0.0062   0.0113   0.0063  -0.0062  -0.0066   0.0034   0.00  187.4
2173 297857.000    119287.8459  -5391119.4734   3394977.5022   1   8   0.0062   0.0112   0.0061  -0.0062  -0.0067   0.0032   0.00  187.4
2173 297858.000    119287.8454  -5391119.4720   3394977.5016   1   8   0.0060   0.0112   0.0059  -0.0063  -0.0068   0.0033   0.00  187.5
2173 297859.000    119287.8460  -5391119.4729   3394977.5016   1   8   0.0060   0.0112   0.0060  -0.0062  -0.0068   0.0030   0.00  187.2
2173 297860.000    119287.8456  -5391119.4720   3394977.5018   1   8   0.0064   0.0112   0.0063  -0.0061  -0.0066   0.0027   0.00  187.4
2173 297861.000    119287.8457  -5391119.4739   3394977.5021   1   8   0.0060   0.0112   0.0060  -0.0061  -0.0067   0.0032   0.00  187.2
2173 297862.000    119287.8457  -5391119.4742   3394977.5020   1   8   0.0060   0.0112   0.0059  -0.0060  -0.0065   0.0024   0.00  187.3
2173 297863.000    119287.8458  -5391119.4737   3394977.5020   1   8   0.0062   0.0112   0.0062  -0.0063  -0.0068   0.0034   0.00  187.1
2173 297864.000    119287.8456  -5391119.4750   3394977.5021   1   8   0.0059   0.0112   0.0060  -0.0062  -0.0067   0.0031   0.00  186.5
2173 297865.000    119287.8452  -5391119.4742   3394977.5021   1   8   0.0061   0.0112   0.0063  -0.0062  -0.0066   0.0036   0.00  186.3
2173 297866.000    119287.8458  -5391119.4737   3394977.5017   1   8   0.0059   0.0112   0.0060  -0.0062  -0.0066   0.0030   0.00  186.1
2173 297867.000    119287.8457  -5391119.4730   3394977.5016   1   8   0.0064   0.0111   0.0062  -0.0062  -0.0067   0.0032   0.00  185.8
2173 297868.000    119287.8455  -5391119.4723   3394977.5017   1   8   0.0062   0.0112   0.0063  -0.0061  -0.0067   0.0032   0.00  185.4
2173 297869.000    119287.8455  -5391119.4735   3394977.5020   1   8   0.0062   0.0112   0.0062  -0.0062  -0.0066   0.0030   0.00  185.4
2173 297870.000    119287.8455  -5391119.4749   3394977.5023   1   8   0.0061   0.0112   0.0059  -0.0062  -0.0068   0.0027   0.00  185.0
2173 297871.000    119287.8453  -5391119.4730   3394977.5018   1   8   0.0061   0.0111   0.0065  -0.0063  -0.0068   0.0036   0.00  184.9
2173 297872.000    119287.8455  -5391119.4725   3394977.5017   1   8   0.0062   0.0112   0.0062  -0.0062  -0.0068   0.0034   0.00  184.9
2173 297873.000    119287.8456  -5391119.4751   3394977.5024   1   8   0.0062   0.0111   0.0063  -0.0062  -0.0068   0.0033   0.00  184.5
2173 297874.000    119287.8459  -5391119.4735   3394977.5018   1   8   0.0063   0.0112   0.0060  -0.0063  -0.0067   0.0035   0.00  184.6
2173 297875.000    119287.8450  -5391119.4724   3394977.5016   1   8   0.0061   0.0112   0.0059  -0.0062  -0.0067   0.0029   0.00  184.4
2173 297876.000    119287.8451  -5391119.4728   3394977.5014   1   8   0.0062   0.0111   0.0059  -0.0062  -0.0067   0.0031   0.00  184.0
2173 297877.000    119287.8455  -5391119.4727   3394977.5017   1   8   0.0064   0.0111   0.0064  -0.0062  -0.0068   0.0034   0.00  183.7
2173 297878.000    119287.8459  -5391119.4744   3394977.5023   1   8   0.0060   0.0112   0.0060  -0.0061  -0.0065   0.0033   0.00  183.2
2173 297879.000    119287.8455  -5391119.4724   3394977.5017   1   8   0.0064   0.0112   0.0065  -0.0062  -0.0066   0.0037   0.00  183.4
2173 297880.000    119287.8452  -5391119.4713   3394977.5015   1   8   0.0060   0.0112   0.0064  -0.0061  -0.0066   0.0034   0.00  183.7
2173 297881.000    119287.8456  -5391119.4740   3394977.5021   1   8   0.0062   0.0111   0.0061  -0.0063  -0.0068   0.0034   0.00  183.4
2173 297882.000    119287.8456  -5391119.4712   3394977.5011   1   8   0.0060   0.0112   0.0062  -0.0061  -0.0066   0.0032   0.00  183.5
2173 297883.000    119287.8453  -5391119.4710   3394977.5011   1   8   0.0060   0.0112   0.0061  -0.0062  -0.0067   0.0033   0.00  183.6
2173 297884.000    119287.8456  -5391119.4724   3394977.5019   1   8   0.0063   0.0111   0.0057  -0.0062  -0.0066   0.0023   0.00  183.8
2173 297885.000    119287.8454  -5391119.4715   3394977.5013   1   8   0.0062   0.0111   0.0063  -0.0063  -0.0068   0.0037   0.00  184.0
2173 297886.000    119287.8461  -5391119.4743   3394977.5020   1   8   0.0062   0.0112   0.0061  -0.0061  -0.0066   0.0030   0.00  183.6
2173 297887.000    119287.8456  -5391119.4713   3394977.5012   1   8   0.0059   0.0111   0.0058  -0.0061  -0.0066   0.0029   0.00  183.9
2173 297888.000    119287.8459  -5391119.4709   3394977.5011   1   8   0.0062   0.0111   0.0062  -0.0063  -0.0068   0.0035   0.00  184.3
2173 297889.000    119287.8455  -5391119.4718   3394977.5012   1   8   0.0059   0.0112   0.0059  -0.0061  -0.0066   0.0034   0.00  184.3
2173 297890.000    119287.8455  -5391119.4711   3394977.5010   1   8   0.0063   0.0111   0.0063  -0.0064  -0.0068   0.0034   0.00  184.3
2173 297891.000    119287.8456  -5391119.4702   3394977.5012   1   8   0.0062   0.0112   0.0064  -0.0062  -0.0068   0.0037   0.00  184.7
2173 297892.000    119287.8459  -5391119.4723   3394977.5014   1   8   0.0059   0.0112   0.0056  -0.0061  -0.0066   0.0030   0.00  184.6
2173 297893.000    119287.8456  -5391119.4722   3394977.5015   1   8   0.0063   0.0112   0.0060  -0.0062  -0.0067   0.0029   0.00  184.5
2173 297894.000    119287.8457  -5391119.4720   3394977.5014   1   8   0.0063   0.0112   0.0062  -0.0062  -0.0067   0.0031   0.00  184.4
2173 297895.000    119287.8453  -5391119.4727   3394977.5017   1   8   0.0060   0.0112   0.0060  -0.0063  -0.0067   0.0028   0.00  184.6
2173 297896.000    119287.8455  -5391119.4747   3394977.5021   1   8   0.0061   0.0111   0.0063  -0.0063  -0.0068   0.0036   0.00  184.3
2173 297897.000    119287.8456  -5391119.4724   3394977.5016   1   8   0.0062   0.0112   0.0058  -0.0061  -0.0066   0.0029   0.00  184.3
2173 297898.000    119287.8456  -5391119.4739   3394977.5020   1   8   0.0063   0.0111   0.0064  -0.0062  -0.0067   0.0034   0.00  184.2
2173 297899.000    119287.8456  -5391119.4716   3394977.5013   1   8   0.0062   0.0112   0.0064  -0.0062  -0.0067   0.0035   0.00  184.3
2173 297900.000    119287.8454  -5391119.4721   3394977.5016   1   8   0.0060   0.0112   0.0058  -0.0062  -0.0067   0.0028   0.00  184.3
2173 297901.000    119287.8460  -5391119.4735   3394977.5017   1   8   0.0061   0.0113   0.0063  -0.0062  -0.0068   0.0030   0.00  184.3
2173 297902.000    119287.8453  -5391119.4703   3394977.5009   1   8   0.0059   0.0112   0.0059  -0.0059  -0.0066   0.0031   0.00  184.3
2173 297903.000    119287.8453  -5391119.4715   3394977.5011   1   8   0.0064   0.0111   0.0062  -0.0062  -0.0068   0.0033   0.00  184.3
2173 297904.000    119287.8455  -5391119.4723   3394977.5013   1   8   0.0061   0.0111   0.0062  -0.0063  -0.0068   0.0035   0.00  184.2
2173 297905.000    119287.8459  -5391119.4720   3394977.5014   1   8   0.0058   0.0112   0.0061  -0.0062  -0.0066   0.0033   0.00  184.2
2173 297906.000    119287.8458  -5391119.4720   3394977.5015   1   8   0.0061   0.0111   0.0061  -0.0062  -0.0066   0.0033   0.00  184.3
2173 297907.000    119287.8457  -5391119.4734   3394977.5016   1   8   0.0060   0.0112   0.0061  -0.0062  -0.0067   0.0036   0.00  184.1
2173 297908.000    119287.8457  -5391119.4732   3394977.5017   1   8   0.0059   0.0112   0.0061  -0.0061  -0.0066   0.0034   0.00  184.2
2173 297909.000    119287.8455  -5391119.4725   3394977.5019   1   8   0.0062   0.0111   0.0063  -0.0062  -0.0068   0.0029   0.00  184.2
2173 297910.000    119287.8453  -5391119.4735   3394977.5016   1   8   0.0062   0.0111   0.0063  -0.0061  -0.0068   0.0033   0.00  183.9
2173 297911.000    119287.8454  -5391119.4724   3394977.5016   1   8   0.0062   0.0112   0.0062  -0.0060  -0.0067   0.0027   0.00  184.0
2173 297912.000    119287.8452  -5391119.4724   3394977.5014   1   8   0.0061   0.0112   0.0060  -0.0061  -0.0066   0.0035   0.00  183.8
2173 297913.000    119287.8453  -5391119.4722   3394977.5012   1   8   0.0060   0.0112   0.0060  -0.0062  -0.0067   0.0031   0.00  183.7
2173 297914.000    119287.8456  -5391119.4725   3394977.5015   1   8   0.0060   0.0112   0.0060  -0.0061  -0.0065   0.0030   0.00  183.8
2173 297915.000    119287.8459  -5391119.4728   3394977.5018   1   8   0.0061   0.0111   0.0062  -0.0062  -0.0067   0.0031   0.00  183.9
2173 297916.000    119287.8453  -5391119.4724   3394977.5014   1   8   0.0062   0.0111   0.0062  -0.0063  -0.0067   0.0035   0.00  183.9
2173 297917.000    119287.8455  -5391119.4721   3394977.5016   1   8   0.0061   0.0111   0.0063  -0.0061  -0.0066   0.0034   0.00  183.9
2173 297918.000    119287.8452  -5391119.4726   3394977.5017   1   8   0.0061   0.0111   0.0062  -0.0062  -0.0068   0.0034   0.00  184.2
2173 297919.000    119287.8457  -5391119.4718   3394977.5015   1   8   0.0061   0.0112   0.0061  -0.0060  -0.0066   0.0030   0.00  184.6
2173 297920.000    119287.8454  -5391119.4720   3394977.5011   1   8   0.0063   0.0111   0.0063  -0.0061  -0.0067   0.0029   0.00  184.7
2173 297921.000    119287.8455  -5391119.4711   3394977.5009   1   8   0.0061   0.0111   0.0063  -0.0061  -0.0067   0.0029   0.00  184.9
2173 297922.000    119287.8455  -5391119.4733   3394977.5015   1   8   0.0062   0.0111   0.0064  -0.0062  -0.0068   0.0032   0.00  184.7
2173 297923.000    119287.8453  -5391119.4717   3394977.5011   1   8   0.0063   0.0112   0.0061  -0.0061  -0.0067   0.0031   0.00  184.7
2173 297924.000    119287.8454  -5391119.4713   3394977.5010   1   8   0.0062   0.0112   0.0059  -0.0062  -0.0067   0.0031   0.00  184.9
2173 297925.000    119287.8453  -5391119.4724   3394977.5016   1   8   0.0061   0.0112   0.0062  -0.0060  -0.0065   0.0033   0.00  185.1
2173 297926.000    119287.8455  -5391119.4724   3394977.5015   1   8   0.0063   0.0112   0.0063  -0.0060  -0.0065   0.0030   0.00  185.4
2173 297927.000    119287.8455  -5391119.4722   3394977.5016   1   8   0.0060   0.0112   0.0058  -0.0060  -0.0065   0.0029   0.00  185.6
2173 297928.000    119287.8456  -5391119.4709   3394977.5013   1   8   0.0065   0.0111   0.0065  -0.0063  -0.0069   0.0032   0.00  185.9
2173 297929.000    119287.8456  -5391119.4719   3394977.5014   1   8   0.0061   0.0111   0.0061  -0.0062  -0.0067   0.0031   0.00  186.2
2173 297930.000    119287.8455  -5391119.4734   3394977.5015   1   8   0.0061   0.0111   0.0060  -0.0061  -0.0066   0.0033   0.00  186.1
2173 297931.000    119287.8456  -5391119.4715   3394977.5010   1   8   0.0061   0.0112   0.0060  -0.0060  -0.0065   0.0026   0.00  186.2
2173 297932.000    119287.8457  -5391119.4726   3394977.5014   1   8   0.0062   0.0111   0.0066  -0.0063  -0.0068   0.0038   0.00  186.4
2173 297933.000    119287.8462  -5391119.4726   3394977.5014   1   8   0.0060   0.0112   0.0059  -0.0061  -0.0066   0.0028   0.00  186.5
2173 297934.000    119287.8453  -5391119.4722   3394977.5016   1   8   0.0061   0.0112   0.0059  -0.0060  -0.0065   0.0027   0.00  186.8
2173 297935.000    119287.8457  -5391119.4734   3394977.5018   1   8   0.0063   0.0111   0.0060  -0.0061  -0.0066   0.0027   0.00  186.9
2173 297936.000    119287.8458  -5391119.4732   3394977.5019   1   8   0.0060   0.0111   0.0061  -0.0062  -0.0066   0.0033   0.00  186.9
2173 297937.000    119287.8455  -5391119.4716   3394977.5011   1   8   0.0061   0.0110   0.0063  -0.0062  -0.0068   0.0029   0.00  187.0
2173 297938.000    119287.8463  -5391119.4730   3394977.5012   1   8   0.0063   0.0112   0.0064  -0.0062  -0.0067   0.0028   0.00  187.2
2173 297939.000    119287.8458  -5391119.4729   3394977.5015   1   8   0.0061   0.0111   0.0062  -0.0061  -0.0066   0.0033   0.00  187.3
2173 297940.000    119287.8460  -5391119.4732   3394977.5019   1   8   0.0063   0.0111   0.0060  -0.0062  -0.0068   0.0032   0.00  187.6
2173 297941.000    119287.8455  -5391119.4717   3394977.5013   1   8   0.0063   0.0111   0.0059  -0.0062  -0.0067   0.0027   0.00  187.8
2173 297942.000    119287.8453  -5391119.4715   3394977.5013   1   8   0.0064   0.0111   0.0064  -0.0062  -0.0067   0.0034   0.00  188.0
2173 297943.000    119287.8457  -5391119.4711   3394977.5008   1   8   0.0061   0.0111   0.0061  -0.0061  -0.0066   0.0030   0.00  188.3
2173 297944.000    119287.8456  -5391119.4722   3394977.5012   1   8   0.0061   0.0111   0.0064  -0.0061  -0.0067   0.0029   0.00  188.6
2173 297945.000    119287.8459  -5391119.4719   3394977.5011   1   8   0.0061   0.0111   0.0063  -0.0062  -0.0067   0.0032   0.00  188.8
2173 297946.000    119287.8455  -5391119.4726   3394977.5015   1   8   0.0064   0.0111   0.0063  -0.0061  -0.0066   0.0032   0.00  188.9
2173 297947.000    119287.8456  -5391119.4715   3394977.5011   1   8   0.0061   0.0111   0.0060  -0.0062  -0.0066   0.0034   0.00  189.1
2173 297948.000    119287.8455  -5391119.4720   3394977.5017   1   8   0.0061   0.0112   0.0060  -0.0060  -0.0066   0.0033   0.00  189.5
2173 297949.000    119287.8458  -5391119.4724   3394977.5015   1   8   0.0061   0.0111   0.0063  -0.0061  -0.0068   0.0032   0.00  189.8
2173 297950.000    119287.8457  -5391119.4733   3394977.5016   1   8   0.0063   0.0111   0.0063  -0.0063  -0.0068   0.0033   0.00  189.9
2173 297951.000    119287.8457  -5391119.4712   3394977.5012   1   8   0.0064   0.0111   0.0064  -0.0061  -0.0066   0.0037   0.00  190.4
2173 297952.000    119287.8458  -5391119.4718   3394977.5013   1   8   0.0062   0.0111   0.0060  -0.0060  -0.0065   0.0030   0.00  190.9
2173 297953.000    119287.8455  -5391119.4710   3394977.5010   1   8   0.0063   0.0111   0.0063  -0.0063  -0.0067   0.0032   0.00  191.3
2173 297954.000    119287.8455  -5391119.4726   3394977.5012   1   8   0.0060   0.0111   0.0061  -0.0062  -0.0067   0.0031   0.00  191.6
2173 297955.000    119287.8454  -5391119.4698   3394977.5010   1   8   0.0060   0.0112   0.0061  -0.0062  -0.0067   0.0037   0.00  192.1
2173 297956.000    119287.8455  -5391119.4734   3394977.5018   1   8   0.0059   0.0112   0.0059  -0.0061  -0.0067   0.0030   0.00  192.4
2173 297957.000    119287.8458  -5391119.4741   3394977.5019   1   8   0.0059   0.0111   0.0056  -0.0060  -0.0064   0.0029   0.00  192.4
2173 297958.000    119287.8458  -5391119.4730   3394977.5017   1   8   0.0063   0.0110   0.0062  -0.0063  -0.0067   0.0035   0.00  192.6
2173 297959.000    119287.8451  -5391119.4710   3394977.5009   1   8   0.0061   0.0112   0.0060  -0.0061  -0.0066   0.0032   0.00  193.0
2173 297960.000    119287.8453  -5391119.4722   3394977.5016   1   8   0.0058   0.0111   0.0060  -0.0060  -0.0065   0.0024   0.00  193.2
2173 297961.000    119287.8459  -5391119.4732   3394977.5016   1   8   0.0062   0.0111   0.0062  -0.0061  -0.0067   0.0030   0.00  193.5
2173 297962.000    119287.8457  -5391119.4716   3394977.5014   1   8   0.0064   0.0111   0.0063  -0.0062  -0.0066   0.0031   0.00  194.1
2173 297963.000    119287.8453  -5391119.4724   3394977.5017   1   8   0.0062   0.0111   0.0063  -0.0061  -0.0067   0.0033   0.00  194.3
2173 297964.000    119287.8456  -5391119.4734   3394977.5019   1   8   0.0062   0.0112   0.0062  -0.0061  -0.0066   0.0032   0.00  194.7
2173 297965.000    119287.8453  -5391119.4714   3394977.5013   1   8   0.0062   0.0112   0.0059  -0.0060  -0.0067   0.0031   0.00  195.1
2173 297966.000    119287.8454  -5391119.4722   3394977.5012   1   8   0.0062   0.0111   0.0058  -0.0060  -0.0064   0.0030   0.00  195.4
2173 297967.000    119287.8454  -5391119.4721   3394977.5014   1   8   0.0061   0.0111   0.0061  -0.0063  -0.0067   0.0035   0.00  195.8
2173 297968.000    119287.8454  -5391119.4711   3394977.5010   1   8   0.0063   0.0111   0.0063  -0.0063  -0.0068   0.0036   0.00  196.1
2173 297969.000    119287.8456  -5391119.4692   3394977.5004   1   8   0.0064   0.0111   0.0061  -0.0061  -0.0066   0.0031   0.00  196.6
2173 297970.000    119287.8457  -5391119.4726   3394977.5013   1   8   0.0062   0.0111   0.0062  -0.0060  -0.0065   0.0031   0.00  196.9
2173 297971.000    119287.8455  -5391119.4712   3394977.5011   1   8   0.0061   0.0111   0.0060  -0.0061  -0.0066   0.0029   0.00  197.4
2173 297972.000    119287.8457  -5391119.4715   3394977.5015   1   8   0.0062   0.0110   0.0061  -0.0062  -0.0067   0.0026   0.00  197.8
2173 297973.000    119287.8456  -5391119.4711   3394977.5008   1   8   0.0061   0.0111   0.0064  -0.0063  -0.0067   0.0034   0.00  198.2
2173 297974.000    119287.8455  -5391119.4714   3394977.5011   1   8   0.0060   0.0110   0.0061  -0.0062  -0.0068   0.0031   0.00  198.7
2173 297975.000    119287.8458  -5391119.4724   3394977.5015   1   8   0.0063   0.0112   0.0057  -0.0060  -0.0065   0.0026   0.00  199.3
2173 297976.000    119287.8457  -5391119.4726   3394977.5012   1   8   0.0063   0.0111   0.0064  -0.0061  -0.0067   0.0036   0.00  199.7
2173 297977.000    119287.8456  -5391119.4719   3394977.5010   1   8   0.0062   0.0112   0.0064  -0.0061  -0.0066   0.0034   0.00  200.3
2173 297978.000    119287.8453  -5391119.4716   3394977.5014   1   8   0.0060   0.0111   0.0062  -0.0061  -0.0066   0.0029   0.00  200.7
2173 297979.000    119287.8454  -5391119.4732   3394977.5018   1   8   0.0060   0.0110   0.0063  -0.0062  -0.0067   0.0035   0.00  201.1
2173 297980.000    119287.8457  -5391119.4734   3394977.5019   1   8   0.0062   0.0112   0.0062  -0.0061  -0.0066   0.0031   0.00  201.5
2173 297981.000    119287.8456  -5391119.4724   3394977.5012   1   8   0.0060   0.0111   0.0063  -0.0061  -0.0067   0.0029   0.00  201.8
2173 297982.000    119287.8455  -5391119.4713   3394977.5011   1   8   0.0061   0.0111   0.0059  -0.0062  -0.0067   0.0033   0.00  202.4
2173 297983.000    119287.8456  -5391119.4724   3394977.5017   1   8   0.0062   0.0112   0.0060  -0.0061  -0.0065   0.0031   0.00  202.9
2173 297984.000    119287.8453  -5391119.4715   3394977.5009   1   8   0.0060   0.0111   0.0063  -0.0060  -0.0066   0.0035   0.00  203.3
2173 297985.000    119287.8455  -5391119.4715   3394977.5012   1   8   0.0061   0.0111   0.0060  -0.0062  -0.0068   0.0033   0.00  203.9
2173 297986.000    119287.8456  -5391119.4723   3394977.5013   1   8   0.0061   0.0111   0.0058  -0.0059  -0.0064   0.0031   0.00  204.4
2173 297987.000    119287.8459  -5391119.4727   3394977.5017   1   8   0.0062   0.0111   0.0063  -0.0063  -0.0067   0.0034   0.00  204.9
2173 297988.000    119287.8456  -5391119.4728   3394977.5012   1   8   0.0059   0.0110   0.0061  -0.0061  -0.0067   0.0029   0.00  205.3
2173 297989.000    119287.8455  -5391119.4717   3394977.5013   1   8   0.0061   0.0111   0.0063  -0.0060  -0.0067   0.0028   0.00  205.8
2173 297990.000    119287.8456  -5391119.4708   3394977.5012   1   8   0.0062   0.0111   0.0063  -0.0061  -0.0067   0.0031   0.00  206.5
2173 297991.000    119287.8451  -5391119.4709   3394977.5009   1   8   0.0061   0.0111   0.0063  -0.0062  -0.0067   0.0031   0.00  207.2
2173 297992.000    119287.8456  -5391119.4716   3394977.5011   1   8   0.0060   0.0110   0.0061  -0.0062  -0.0067   0.0029   0.00  207.9
2173 297993.000    119287.8456  -5391119.4723   3394977.5012   1   8   0.0062   0.0111   0.0066  -0.0061  -0.0067   0.0035   0.00  208.4
2173 297994.000    119287.8454  -5391119.4713   3394977.5011   1   8   0.0062   0.0112   0.0061  -0.0061  -0.0067   0.0037   0.00  208.9
2173 297995.000    119287.8454  -5391119.4739   3394977.5020   1   8   0.0063   0.0111   0.0064  -0.0062  -0.0068   0.0037   0.00  209.5
2173 297996.000    119287.8455  -5391119.4721   3394977.5014   1   8   0.0063   0.0111   0.0061  -0.0061  -0.0066   0.0031   0.00  210.1
2173 297997.000    119287.8456  -5391119.4722   3394977.5015   1   8   0.0062   0.0110   0.0064  -0.0062  -0.0068   0.0038   0.00  210.8
2173 297998.000    119287.8453  -5391119.4712   3394977.5008   1   8   0.0061   0.0110   0.0062  -0.0063  -0.0067   0.0037   0.00  211.5
2173 297999.000    119287.8455  -5391119.4723   3394977.5015   1   8   0.0060   0.0110   0.0060  -0.0062  -0.0067   0.0033   0.00  212.1
2173 298000.000    119287.8454  -5391119.4723   3394977.5015   1   8   0.0059   0.0110   0.0061  -0.0062  -0.0067   0.0030   0.00  212.7
2173 298001.000    119287.8458  -5391119.4706   3394977.5010   1   8   0.0063   0.0112   0.0059  -0.0061  -0.0065   0.0030   0.00  213.3
2173 298002.000    119287.8453  -5391119.4717   3394977.5012   1   8   0.0062   0.0111   0.0061  -0.0062  -0.0066   0.0034   0.00  214.1
2173 298003.000    119287.8452  -5391119.4716   3394977.5013   1   8   0.0063   0.0111   0.0060  -0.0061  -0.0067   0.0029   0.00  214.8
2173 298004.000    119287.8458  -5391119.4713   3394977.5011   1   8   0.0058   0.0111   0.0059  -0.0060  -0.0066   0.0030   0.00  215.6
2173 298005.000    119287.8456  -5391119.4721   3394977.5013   1   8   0.0061   0.0111   0.0060  -0.0060  -0.0066   0.0030   0.00  216.1
2173 298006.000    119287.8453  -5391119.4721   3394977.5017   1   8   0.0063   0.0111   0.0062  -0.0061  -0.0067   0.0033   0.00  216.9
2173 298007.000    119287.8449  -5391119.4698   3394977.5008   1   8   0.0061   0.0110   0.0061  -0.0063  -0.0067   0.0026   0.00  217.7
2173 298008.000    119287.8456  -5391119.4717   3394977.5014   1   8   0.0061   0.0111   0.0061  -0.0061  -0.0066   0.0031   0.00  218.3
2173 298009.000    119287.8459  -5391119.4723   3394977.5014   1   8   0.0061   0.0111   0.0064  -0.0061  -0.0066   0.0034   0.00  219.0
2173 298010.000    119287.8456  -5391119.4729   3394977.5016   1   8   0.0063   0.0112   0.0063  -0.0061  -0.0067   0.0037   0.00  219.6
2173 298011.000    119287.8453  -5391119.4723   3394977.5017   1   8   0.0061   0.0110   0.0061  -0.0061  -0.0068   0.0036   0.00  220.1
2173 298012.000    119287.8453  -5391119.4732   3394977.5020   1   8   0.0061   0.0111   0.0064  -0.0061  -0.0066   0.0033   0.00  220.8
2173 298013.000    119287.8458  -5391119.4722   3394977.5014   1   8   0.0060   0.0112   0.0059  -0.0059  -0.0065   0.0027   0.00  221.5
2173 298014.000    119287.8451  -5391119.4701   3394977.5007   1   8   0.0063   0.0110   0.0063  -0.0063  -0.0068   0.0033   0.00  222.2
2173 298015.000    119287.8460  -5391119.4717   3394977.5013   1   8   0.0064   0.0110   0.0063  -0.0064  -0.0069   0.0038   0.00  222.9
2173 298016.000    119287.8458  -5391119.4731   3394977.5013   1   8   0.0062   0.0111   0.0062  -0.0060  -0.0067   0.0032   0.00  223.5
2173 298017.000    119287.8456  -5391119.4727   3394977.5014   1   8   0.0062   0.0111   0.0063  -0.0060  -0.0066   0.0030   0.00  224.4
2173 298018.000    119287.8456  -5391119.4725   3394977.5017   1   8   0.0060   0.0111   0.0060  -0.0061  -0.0066   0.0034   0.00  225.0
2173 298019.000    119287.8454  -5391119.4715   3394977.5015   1   8   0.0063   0.0112   0.0064  -0.0061  -0.0067   0.0033   0.00  225.9
2173 298020.000    119287.8453  -5391119.4713   3394977.5011   1   8   0.0057   0.0111   0.0063  -0.0061  -0.0066   0.0035   0.00  226.8
2173 298021.000    119287.8457  -5391119.4717   3394977.5012   1   8   0.0060   0.0111   0.0062  -0.0061  -0.0067   0.0035   0.00  227.5
2173 298022.000    119287.8454  -5391119.4718   3394977.5013   1   8   0.0060   0.0111   0.0064  -0.0060  -0.0066   0.0031   0.00  228.2
2173 298023.000    119287.8460  -5391119.4733   3394977.5016   1   8   0.0063   0.0111   0.0062  -0.0060  -0.0067   0.0029   0.00  228.8
2173 298024.000    119287.8454  -5391119.4727   3394977.5013   1   8   0.0064   0.0110   0.0064  -0.0062  -0.0067   0.0036   0.00  229.5
2173 298025.000    119287.8456  -5391119.4744   3394977.5022   1   8   0.0061   0.0111   0.0064  -0.0061  -0.0066   0.0032   0.00  230.1
2173 298026.000    119287.8455  -5391119.4721   3394977.5013   1   8   0.0063   0.0110   0.0062  -0.0061  -0.0067   0.0031   0.00  230.8
2173 298027.000    119287.8455  -5391119.4732   3394977.5019   1   8   0.0063   0.0111   0.0065  -0.0062  -0.0067   0.0040   0.00  231.5
2173 298028.000    119287.8457  -5391119.4729   3394977.5019   1   8   0.0063   0.0111   0.0064  -0.0061  -0.0067   0.0035   0.00  232.3
2173 298029.000    119287.8457  -5391119.4737   3394977.5019   1   8   0.0063   0.0111   0.0063  -0.0061  -0.0065   0.0033   0.00  232.9
2173 298030.000    119287.8453  -5391119.4719   3394977.5013   1   8   0.0059   0.0110   0.0062  -0.0060  -0.0066   0.0033   0.00  233.7
2173 298031.000    119287.8457  -5391119.4735   3394977.5017   1   8   0.0062   0.0111   0.0062  -0.0063  -0.0066   0.0037   0.00  234.4
2173 298032.000    119287.8456  -5391119.4745   3394977.5021   1   8   0.0061   0.0111   0.0062  -0.0061  -0.0067   0.0031   0.00  235.1
2173 298033.000    119287.8453  -5391119.4732   3394977.5016   1   8   0.0062   0.0110   0.0063  -0.0063  -0.0068   0.0037   0.00  235.9
2173 298034.000    119287.8454  -5391119.4720   3394977.5013   1   8   0.0060   0.0110   0.0060  -0.0060  -0.0065   0.0028   0.00  236.7
2173 298035.000    119287.8458  -5391119.4725   3394977.5011   1   8   0.0059   0.0111   0.0061  -0.0060  -0.0066   0.0029   0.00  237.4
2173 298036.000    119287.8458  -5391119.4733   3394977.5016   1   8   0.0065   0.0110   0.0060  -0.0061  -0.0066   0.0029   0.00  238.1
2173 298037.000    119287.8455  -5391119.4729   3394977.5017   1   8   0.0062   0.0110   0.0062  -0.0061  -0.0067   0.0033   0.00  239.0
2173 298038.000    119287.8458  -5391119.4740   3394977.5020   1   8   0.0063   0.0110   0.0061  -0.0061  -0.0067   0.0033   0.00  239.9
2173 298039.000    119287.8454  -5391119.4714   3394977.5011   1   8   0.0061   0.0111   0.0060  -0.0062  -0.0066   0.0032   0.00  240.6
2173 298040.000    119287.8455  -5391119.4722   3394977.5013   1   8   0.0058   0.0110   0.0063  -0.0060  -0.0066   0.0034   0.00  241.5
2173 298041.000    119287.8455  -5391119.4716   3394977.5009   1   8   0.0060   0.0109   0.0059  -0.0061  -0.0069   0.0030   0.00  242.3
2173 298042.000    119287.8455  -5391119.4731   3394977.5017   1   8   0.0062   0.0111   0.0060  -0.0061  -0.0066   0.0030   0.00  243.1
2173 298043.000    119287.8454  -5391119.4727   3394977.5015   1   8   0.0059   0.0110   0.0062  -0.0062  -0.0068   0.0030   0.00  243.8
2173 298044.000    119287.8456  -5391119.4742   3394977.5018   1   8   0.0062   0.0110   0.0063  -0.0060  -0.0066   0.0029   0.00  244.4
2173 298045.000    119287.8453  -5391119.4717   3394977.5011   1   8   0.0060   0.0110   0.0062  -0.0060  -0.0066   0.0031   0.00  245.2
2173 298046.000    119287.8449  -5391119.4713   3394977.5012   1   8   0.0061   0.0111   0.0063  -0.0061  -0.0066   0.0035   0.00  246.0
2173 298047.000    119287.8456  -5391119.4696   3394977.5005   1   8   0.0062   0.0111   0.0062  -0.0059  -0.0066   0.0033   0.00  247.1
2173 298048.000    119287.8456  -5391119.4731   3394977.5016   1   8   0.0061   0.0111   0.0058  -0.0061  -0.0066   0.0028   0.00  247.9
2173 298049.000    119287.8456  -5391119.4727   3394977.5017   1   8   0.0062   0.0111   0.0060  -0.0060  -0.0066   0.0032   0.00  248.9
2173 298050.000    119287.8457  -5391119.4738   3394977.5017   1   8   0.0061   0.0111   0.0063  -0.0059  -0.0065   0.0032   0.00  249.5
2173 298051.000    119287.8456  -5391119.4757   3394977.5022   1   7   0.0061   0.0120   0.0066  -0.0059  -0.0072   0.0033   0.00  581.2
2173 298052.000    119287.8454  -5391119.4751   3394977.5023   1   7   0.0061   0.0120   0.0065  -0.0059  -0.0071   0.0029   0.00  582.6
2173 298053.000    119287.8451  -5391119.4720   3394977.5014   1   7   0.0063   0.0121   0.0065  -0.0059  -0.0071   0.0035   0.00  582.0
2173 298054.000    119287.8449  -5391119.4730   3394977.5017   1   7   0.0064   0.0120   0.0066  -0.0059  -0.0072   0.0032   0.00  583.2
2173 298055.000    119287.8454  -5391119.4749   3394977.5022   1   7   0.0065   0.0120   0.0066  -0.0060  -0.0074   0.0033   0.00  584.9
2173 298056.000    119287.8455  -5391119.4752   3394977.5020   1   7   0.0063   0.0120   0.0063  -0.0058  -0.0072   0.0029   0.00  587.4
2173 298057.000    119287.8453  -5391119.4710   3394977.5008   1   7   0.0062   0.0120   0.0065  -0.0059  -0.0072   0.0030   0.00  587.4
2173 298058.000    119287.8454  -5391119.4724   3394977.5014   1   7   0.0061   0.0121   0.0064  -0.0057  -0.0071   0.0033   0.00  587.5
2173 298059.000    119287.8453  -5391119.4716   3394977.5011   1   7   0.0064   0.0120   0.0065  -0.0058  -0.0072   0.0031   0.00  588.0
2173 298060.000    119287.8455  -5391119.4747   3394977.5022   1   7   0.0062   0.0120   0.0066  -0.0059  -0.0073   0.0028   0.00  589.5
2173 298061.000    119287.8455  -5391119.4712   3394977.5009   1   7   0.0064   0.0120   0.0065  -0.0059  -0.0072   0.0031   0.00  588.2
2173 298062.000    119287.8453  -5391119.4729   3394977.5015   1   7   0.0064   0.0120   0.0062  -0.0059  -0.0072   0.0029   0.00  588.5
2173 298063.000    119287.8453  -5391119.4738   3394977.5018   1   7   0.0064   0.0120   0.0062  -0.0058  -0.0072   0.0027   0.00  589.2
2173 298064.000    119287.8454  -5391119.4750   3394977.5020   1   7   0.0061   0.0121   0.0064  -0.0057  -0.0072   0.0025   0.00  591.0
2173 298065.000    119287.8450  -5391119.4730   3394977.5016   1   7   0.0062   0.0120   0.0062  -0.0058  -0.0071   0.0025   0.00  592.4
2173 298066.000    119287.8451  -5391119.4732   3394977.5016   1   7   0.0062   0.0120   0.0064  -0.0059  -0.0072   0.0027   0.00  593.5
2173 298067.000    119287.8454  -5391119.4732   3394977.5015   1   7   0.0064   0.0120   0.0064  -0.0059  -0.0073   0.0034   0.00  594.7
2173 298068.000    119287.8456  -5391119.4740   3394977.5018   1   7   0.0061   0.0120   0.0062  -0.0059  -0.0072   0.0027   0.00  595.3
2173 298069.000    119287.8453  -5391119.4743   3394977.5020   1   7   0.0063   0.0120   0.0067  -0.0059  -0.0072   0.0031   0.00  595.8
2173 298070.000    119287.8455  -5391119.4745   3394977.5023   1   7   0.0062   0.0120   0.0065  -0.0059  -0.0072   0.0028   0.00  597.0
2173 298071.000    119287.8454  -5391119.4756   3394977.5022   1   7   0.0061   0.0120   0.0064  -0.0059  -0.0071   0.0028   0.00  599.7
2173 298072.000    119287.8453  -5391119.4756   3394977.5024   1   7   0.0064   0.0120   0.0068  -0.0059  -0.0073   0.0034   0.00  602.3
2173 298073.000    119287.8453  -5391119.4730   3394977.5015   1   7   0.0062   0.0120   0.0063  -0.0059  -0.0072   0.0028   0.00  602.0
2173 298074.000    119287.8456  -5391119.4737   3394977.5017   1   7   0.0062   0.0120   0.0065  -0.0059  -0.0074   0.0032   0.00  603.8
2173 298075.000    119287.8453  -5391119.4731   3394977.5015   1   7   0.0062   0.0120   0.0064  -0.0058  -0.0072   0.0029   0.00  604.4
2173 298076.000    119287.8449  -5391119.4756   3394977.5023   1   7   0.0063   0.0120   0.0064  -0.0059  -0.0072   0.0028   0.00  606.8
2173 298077.000    119287.8451  -5391119.4727   3394977.5014   1   7   0.0062   0.0121   0.0064  -0.0058  -0.0071   0.0024   0.00  607.0
2173 298078.000    119287.8452  -5391119.4708   3394977.5010   1   7   0.0063   0.0120   0.0065  -0.0059  -0.0073   0.0031   0.00  605.4
2173 298079.000    119287.8455  -5391119.4745   3394977.5023   1   7   0.0062   0.0120   0.0063  -0.0059  -0.0072   0.0032   0.00  606.4
2173 298080.000    119287.8451  -5391119.4757   3394977.5027   1   7   0.0062   0.0119   0.0066  -0.0060  -0.0073   0.0032   0.00  607.7
2173 298081.000    119287.8447  -5391119.4731   3394977.5018   1   7   0.0063   0.0120   0.0064  -0.0059  -0.0072   0.0029   0.00  608.8
2173 298082.000    119287.8453  -5391119.4730   3394977.5016   1   7   0.0063   0.0120   0.0066  -0.0060  -0.0073   0.0033   0.00  608.4
2173 298083.000    119287.8456  -5391119.4755   3394977.5028   1   7   0.0062   0.0120   0.0064  -0.0058  -0.0072   0.0027   0.00  610.2
2173 298084.000    119287.8452  -5391119.4731   3394977.5017   1   7   0.0065   0.0119   0.0067  -0.0060  -0.0072   0.0030   0.00  611.6
2173 298085.000    119287.8452  -5391119.4727   3394977.5016   1   7   0.0063   0.0120   0.0061  -0.0058  -0.0071   0.0028   0.00  612.4
2173 298086.000    119287.8448  -5391119.4730   3394977.5015   1   7   0.0062   0.0119   0.0063  -0.0058  -0.0073   0.0028   0.00  613.6
2173 298087.000    119287.8450  -5391119.4746   3394977.5023   1   7   0.0062   0.0120   0.0063  -0.0060  -0.0073   0.0033   0.00  614.7
2173 298088.000    119287.8450  -5391119.4749   3394977.5025   1   7   0.0063   0.0120   0.0064  -0.0059  -0.0073   0.0033   0.00  616.2
2173 298089.000    119287.8454  -5391119.4738   3394977.5022   1   7   0.0061   0.0120   0.0064  -0.0058  -0.0071   0.0032   0.00  617.3
2173 298090.000    119287.8453  -5391119.4738   3394977.5020   1   7   0.0062   0.0120   0.0062  -0.0059  -0.0072   0.0027   0.00  617.8
2173 298091.000    119287.8453  -5391119.4743   3394977.5020   1   7   0.0062   0.0120   0.0065  -0.0059  -0.0072   0.0032   0.00  619.5
2173 298092.000    119287.8451  -5391119.4765   3394977.5027   1   7   0.0061   0.0120   0.0061  -0.0060  -0.0073   0.0027   0.00  622.1
2173 298093.000    119287.8450  -5391119.4717   3394977.5012   1   7   0.0061   0.0120   0.0065  -0.0061  -0.0072   0.0030   0.00  622.2
2173 298094.000    119287.8453  -5391119.4741   3394977.5019   1   7   0.0062   0.0120   0.0067  -0.0060  -0.0073   0.0034   0.00  622.3
2173 298095.000    119287.8449  -5391119.4728   3394977.5014   1   7   0.0063   0.0120   0.0066  -0.0059  -0.0071   0.0032   0.00  623.2
2173 298096.000    119287.8456  -5391119.4734   3394977.5016   1   7   0.0059   0.0120   0.0065  -0.0057  -0.0073   0.0028   0.00  624.8
2173 298097.000    119287.8452  -5391119.4742   3394977.5019   1   7   0.0059   0.0120   0.0062  -0.0057  -0.0070   0.0027   0.00  625.9
2173 298098.000    119287.8454  -5391119.4745   3394977.5023   1   7   0.0061   0.0120   0.0063  -0.0057  -0.0071   0.0030   0.00  627.4
2173 298099.000    119287.8452  -5391119.4742   3394977.5019   1   7   0.0061   0.0120   0.0063  -0.0058  -0.0072   0.0032   0.00  629.6
2173 298100.000    119287.8450  -5391119.4739   3394977.5020   1   7   0.0061   0.0120   0.0065  -0.0059  -0.0072   0.0033   0.00  630.5
2173 298101.000    119287.8455  -5391119.4739   3394977.5021   1   7   0.0062   0.0120   0.0065  -0.0060  -0.0072   0.0029   0.00  632.3
2173 298102.000    119287.8452  -5391119.4758   3394977.5026   1   7   0.0062   0.0120   0.0065  -0.0060  -0.0073   0.0031   0.00  634.6
2173 298103.000    119287.8456  -5391119.4742   3394977.5018   1   7   0.0064   0.0120   0.0064  -0.0059  -0.0072   0.0031   0.00  636.0
2173 298104.000    119287.8450  -5391119.4729   3394977.5016   1   7   0.0060   0.0120   0.0062  -0.0058  -0.0072   0.0031   0.00  637.0
2173 298105.000    119287.8453  -5391119.4763   3394977.5026   1   7   0.0064   0.0119   0.0068  -0.0059  -0.0073   0.0035   0.00  639.9
2173 298106.000    119287.8452  -5391119.4751   3394977.5022   1   7   0.0058   0.0120   0.0065  -0.0057  -0.0072   0.0025   0.00  642.7
2173 298107.000    119287.8455  -5391119.4780   3394977.5035   1   7   0.0063   0.0119   0.0064  -0.0060  -0.0074   0.0026   0.00  645.8
2173 298108.000    119287.8455  -5391119.4759   3394977.5025   1   7   0.0062   0.0120   0.0061  -0.0058  -0.0071   0.0030   0.00  648.9
2173 298109.000    119287.8448  -5391119.4765   3394977.5029   1   7   0.0061   0.0119   0.0065  -0.0059  -0.0072   0.0031   0.00  652.3
2173 298110.000    119287.8452  -5391119.4747   3394977.5024   1   7   0.0062   0.0120   0.0066  -0.0058  -0.0072   0.0030   0.00  653.8
2173 298111.000    119287.8454  -5391119.4746   3394977.5022   1   7   0.0060   0.0119   0.0066  -0.0058  -0.0073   0.0029   0.00  655.9
2173 298112.000    119287.8455  -5391119.4745   3394977.5023   1   7   0.0062   0.0120   0.0065  -0.0059  -0.0072   0.0031   0.00  657.0
2173 298113.000    119287.8454  -5391119.4726   3394977.5013   1   7   0.0063   0.0121   0.0065  -0.0058  -0.0071   0.0034   0.00  657.5
2173 298114.000    119287.8452  -5391119.4729   3394977.5015   1   7   0.0059   0.0120   0.0061  -0.0059  -0.0072   0.0028   0.00  659.7
2173 298115.000    119287.8452  -5391119.4743   3394977.5021   1   7   0.0061   0.0120   0.0063  -0.0059  -0.0072   0.0031   0.00  661.3
2173 298116.000    119287.8455  -5391119.4746   3394977.5019   1   7   0.0065   0.0119   0.0064  -0.0058  -0.0073   0.0029   0.00  663.3
2173 298117.000    119287.8457  -5391119.4741   3394977.5019   1   7   0.0063   0.0120   0.0063  -0.0058  -0.0071   0.0026   0.00  664.9
2173 298118.000    119287.8455  -5391119.4749   3394977.5024   1   7   0.0062   0.0120   0.0063  -0.0057  -0.0072   0.0026   0.00  666.7
2173 298119.000    119287.8455  -5391119.4753   3394977.5029   1   7   0.0061   0.0119   0.0060  -0.0058  -0.0072   0.0026   0.00  667.9
2173 298120.000    119287.8455  -5391119.4754   3394977.5026   1   7   0.0063   0.0120   0.0064  -0.0058  -0.0072   0.0030   0.00  670.3
2173 298121.000    119287.8454  -5391119.4740   3394977.5023   1   7   0.0062   0.0120   0.0066  -0.0059  -0.0071   0.0032   0.00  671.1
2173 298122.000    119287.8454  -5391119.4741   3394977.5018   1   7   0.0062   0.0120   0.0065  -0.0059  -0.0072   0.0030   0.00  672.5
2173 298123.000    119287.8452  -5391119.4741   3394977.5017   1   7   0.0063   0.0120   0.0063  -0.0060  -0.0072   0.0029   0.00  674.7
2173 298124.000    119287.8451  -5391119.4729   3394977.5014   1   7   0.0062   0.0119   0.0066  -0.0058  -0.0073   0.0033   0.00  676.1
2173 298125.000    119287.8453  -5391119.4735   3394977.5019   1   7   0.0061   0.0120   0.0061  -0.0059  -0.0071   0.0029   0.00  676.9
2173 298126.000    119287.8452  -5391119.4726   3394977.5014   1   7   0.0061   0.0120   0.0065  -0.0059  -0.0071   0.0036   0.00  678.1
2173 298127.000    119287.8451  -5391119.4719   3394977.5014   1   7   0.0063   0.0119   0.0063  -0.0059  -0.0072   0.0032   0.00  678.7
2173 298128.000    119287.8452  -5391119.4713   3394977.5008   1   7   0.0061   0.0120   0.0067  -0.0059  -0.0072   0.0034   0.00  678.9
2173 298129.000    119287.8452  -5391119.4721   3394977.5012   1   7   0.0061   0.0120   0.0063  -0.0059  -0.0072   0.0030   0.00  678.5
2173 298130.000    119287.8451  -5391119.4717   3394977.5011   1   7   0.0063   0.0120   0.0065  -0.0059  -0.0071   0.0031   0.00  679.2
2173 298131.000    119287.8455  -5391119.4747   3394977.5021   1   7   0.0062   0.0120   0.0065  -0.0060  -0.0072   0.0034   0.00  681.2
2173 298132.000    119287.8455  -5391119.4741   3394977.5019   1   7   0.0063   0.0119   0.0064  -0.0061  -0.0073   0.0033   0.00  683.2
2173 298133.000    119287.8456  -5391119.4740   3394977.5018   1   7   0.0064   0.0119   0.0065  -0.0060  -0.0073   0.0032   0.00  685.5
2173 298134.000    119287.8450  -5391119.4733   3394977.5016   1   7   0.0061   0.0119   0.0066  -0.0059  -0.0073   0.0032   0.00  687.0
2173 298135.000    119287.8453  -5391119.4736   3394977.5018   1   7   0.0063   0.0119   0.0064  -0.0060  -0.0073   0.0029   0.00  687.9
2173 298136.000    119287.8454  -5391119.4737   3394977.5018   1   7   0.0061   0.0119   0.0066  -0.0059  -0.0072   0.0030   0.00  688.6
2173 298137.000    119287.8458  -5391119.4719   3394977.5013   1   7   0.0061   0.0120   0.0063  -0.0059  -0.0072   0.0028   0.00  688.3
2173 298138.000    119287.8452  -5391119.4736   3394977.5015   1   7   0.0062   0.0120   0.0067  -0.0059  -0.0072   0.0034   0.00  690.1
2173 298139.000    119287.8454  -5391119.4715   3394977.5014   1   7   0.0062   0.0120   0.0064  -0.0058  -0.0073   0.0027   0.00  689.6
2173 298140.000    119287.8453  -5391119.4738   3394977.5018   1   7   0.0063   0.0120   0.0065  -0.0058  -0.0072   0.0035   0.00  690.7
2173 298141.000    119287.8452  -5391119.4720   3394977.5013   1   7   0.0060   0.0119   0.0063  -0.0059  -0.0072   0.0027   0.00  691.4
2173 298142.000    119287.8454  -5391119.4735   3394977.5017   1   7   0.0062   0.0120   0.0061  -0.0059  -0.0073   0.0023   0.00  693.2
2173 298143.000    119287.8454  -5391119.4740   3394977.5019   1   7   0.0063   0.0120   0.0066  -0.0059  -0.0073   0.0031   0.00  694.8
2173 298144.000    119287.8455  -5391119.4740   3394977.5018   1   7   0.0061   0.0120   0.0065  -0.0058  -0.0072   0.0031   0.00  695.7
2173 298145.000    119287.8453  -5391119.4748   3394977.5023   1   7   0.0064   0.0119   0.0067  -0.0058  -0.0073   0.0031   0.00  697.6
2173 298146.000    119287.8451  -5391119.4757   3394977.5021   1   7   0.0061   0.0119   0.0065  -0.0059  -0.0074   0.0031   0.00  700.7
2173 298147.000    119287.8457  -5391119.4756   3394977.5020   1   7   0.0062   0.0120   0.0065  -0.0058  -0.0072   0.0033   0.00  703.7
2173 298148.000    119287.8455  -5391119.4752   3394977.5023   1   7   0.0061   0.0119   0.0066  -0.0058  -0.0072   0.0033   0.00  706.8
2173 298149.000    119287.8454  -5391119.4748   3394977.5022   1   7   0.0062   0.0119   0.0064  -0.0059  -0.0072   0.0029   0.00  708.6
2173 298150.000    119287.8454  -5391119.4745   3394977.5020   1   7   0.0062   0.0119   0.0063  -0.0057  -0.0072   0.0028   0.00  710.6
2173 298151.000    119287.8455  -5391119.4743   3394977.5020   1   7   0.0062   0.0120   0.0065  -0.0056  -0.0070   0.0028   0.00  711.6
2173 298152.000    119287.8451  -5391119.4730   3394977.5016   1   7   0.0062   0.0119   0.0065  -0.0060  -0.0073   0.0030   0.00  714.0
2173 298153.000    119287.8453  -5391119.4738   3394977.5019   1   7   0.0064   0.0120   0.0064  -0.0058  -0.0072   0.0031   0.00  715.3
2173 298154.000    119287.8455  -5391119.4728   3394977.5014   1   7   0.0062   0.0120   0.0064  -0.0057  -0.0072   0.0032   0.00  716.8
2173 298155.000    119287.8454  -5391119.4745   3394977.5020   1   7   0.0061   0.0120   0.0064  -0.0057  -0.0073   0.0030   0.00  719.3
2173 298156.000    119287.8449  -5391119.4723   3394977.5013   1   7   0.0060   0.0120   0.0065  -0.0057  -0.0072   0.0034   0.00  720.5
2173 298157.000    119287.8455  -5391119.4753   3394977.5020   1   7   0.0061   0.0120   0.0064  -0.0058  -0.0073   0.0031   0.00  723.4
2173 298158.000    119287.8456  -5391119.4758   3394977.5024   1   7   0.0062   0.0119   0.0065  -0.0058  -0.0072   0.0032   0.00  726.3
2173 298159.000    119287.8453  -5391119.4757   3394977.5026   1   7   0.0061   0.0120   0.0064  -0.0059  -0.0072   0.0032   0.00  729.6
2173 298160.000    119287.8452  -5391119.4752   3394977.5025   1   7   0.0062   0.0120   0.0065  -0.0058  -0.0073   0.0028   0.00  731.6
2173 298161.000    119287.8451  -5391119.4739   3394977.5015   1   7   0.0064   0.0119   0.0067  -0.0058  -0.0071   0.0032   0.00  734.0
2173 298162.000    119287.8453  -5391119.4741   3394977.5017   1   7   0.0062   0.0120   0.0067  -0.0057  -0.0071   0.0034   0.00  735.9
2173 298163.000    119287.8458  -5391119.4771   3394977.5028   1   7   0.0061   0.0119   0.0064  -0.0059  -0.0072   0.0027   0.00  739.5
2173 298164.000    119287.8451  -5391119.4745   3394977.5020   1   7   0.0062   0.0120   0.0064  -0.0058  -0.0072   0.0033   0.00  741.7
2173 298165.000    119287.8451  -5391119.4739   3394977.5017   1   7   0.0063   0.0119   0.0066  -0.0059  -0.0073   0.0032   0.00  744.3
2173 298166.000    119287.8454  -5391119.4742   3394977.5015   1   7   0.0061   0.0119   0.0065  -0.0058  -0.0072   0.0030   0.00  747.4
2173 298167.000    119287.8456  -5391119.4755   3394977.5023   1   7   0.0063   0.0120   0.0065  -0.0059  -0.0073   0.0031   0.00  751.5
2173 298168.000    119287.8454  -5391119.4746   3394977.5022   1   7   0.0063   0.0119   0.0065  -0.0059  -0.0072   0.0032   0.00  755.0
2173 298169.000    119287.8457  -5391119.4752   3394977.5022   1   7   0.0062   0.0119   0.0065  -0.0059  -0.0072   0.0033   0.00  757.8
2173 298170.000    119287.8451  -5391119.4758   3394977.5026   1   7   0.0061   0.0119   0.0064  -0.0060  -0.0072   0.0035   0.00  760.8
