     2.11           OBSERVATION DATA    M (MIXED)           RINEX VERSION / TYPE
CONVBIN 2.4.3                           20210901 004920 UTC PGM / RUN BY / DATE 
log: logs/21_08_31_18_48_32_moip_SW.rtcm                    COMMENT             
format: RTCM 3, station ID: 2488                            COMMENT             
2488                                                        MARKER NAME         
                                                            MARKER NUMBER       
                                                            OBSERVER / AGENCY   
                    SWFT                                    REC # / TYPE / VERS 
                    NULL                                    ANT # / TYPE        
  -383815.1154 -5002440.0174  3924985.2500                  APPROX POSITION XYZ 
        0.0000        0.0000        0.0000                  ANTENNA: DELTA H/E/N
     1     1                                                WAVELENGTH FACT L1/2
     5    C1    L1    P2    L2    C2                        # / TYPES OF OBSERV 
  2021     8    31    18    48   37.0000000     GPS         TIME OF FIRST OBS   
  2021     8    31    19    18   35.0000000     GPS         TIME OF LAST OBS    
                                                            END OF HEADER       
 21  8 31 18 48 37.0000000  0 12G 5G10G13G15G18G23G24G29E 3E 5E 9E36
  23125399.563   121524786.499    23125400.707    94694636.527                  
  23833561.880   125246142.829    23833566.258    97594379.019                  
  22007722.536   115651357.069    22007723.019    90117938.973                  
  20292810.173   106639441.718    20292810.656    83095669.699                  
  20425751.040   107338048.148    20425751.916    83640040.004                  
  21270737.020   111778475.444    21270738.146    87100112.019                  
  24101441.496   126653848.444    24101446.946    98691290.004                  
  22073258.732   115995743.511    22073259.894    90386289.629                  
  27548343.040   144767454.236                                                  
  23800928.202   125074704.520                                                  
  22437371.721   117909167.609                                                  
  23703805.702   124564281.961                                                  
 21  8 31 18 48 38.0000000  0 12G 5G10G13G15G18G23G24G29E 3E 5E 9E36
  23125926.860   121527557.492    23125928.004    94696795.739                  
  23833092.908   125243678.374    23833097.304    97592458.664                  
  22008136.794   115653533.958    22008137.258    90119635.247                  
  20292959.773   106640227.909    20292960.273    83096282.313                  
  20425518.904   107336828.233    20425519.779    83639089.423                  
  21270459.800   111777018.626    21270460.926    87098976.835                  
  24100854.517   126650763.913    24100859.967    98688886.476                  
  22073850.304   115998852.177    22073851.466    90388711.965                  
  27547784.937   144764521.478                                                  
  23800659.077   125073290.210                                                  
  22437622.656   117910486.356                                                  
  23703964.647   124565117.187                                                  
 21  8 31 18 48 39.0000000  0 12G 5G10G13G15G18G23G24G29E 3E 5E 9E36
  23126454.175   121530328.554    23126455.319    94698955.007                  
  23832623.953   125241214.062    23832628.367    97590538.421                  
  22008551.141   115655711.386    22008551.623    90121331.945                  
  20293109.515   106641014.761    20293109.997    83096895.445                  
  20425286.821   107335608.683    20425287.696    83638139.121                  
  21270182.616   111775562.074    21270183.742    87097841.862                  
  24100267.555   126647679.429    24100273.005    98686482.980                  
  22074441.948   116001961.222    22074443.091    90391134.597                  
  27547226.887   144761588.816                                                  
  23800390.023   125071876.281                                                  
  22437873.680   117911805.440                                                  
  23704123.646   124565952.739                                                  
 21  8 31 18 48 40.0000000  0 12G 5G10G13G15G18G23G24G29E 3E 5E 9E36
  23126981.508   121533099.668    23126982.633    94701114.317                  
  23832155.034   125238749.894    23832159.448    97588618.293                  
  22008965.595   115657889.360    22008966.077    90123029.067                  
  20293259.382   106641802.282    20293259.865    83097509.097                  
  20425054.827   107334389.484    20425055.703    83637189.099                  
  21269905.503   111774105.816    21269906.629    87096707.113                  
  24099680.611   126644595.004    24099686.061    98684079.536                  
  22075033.645   116005070.649    22075034.806    90393557.523                  
  27546668.838   144758656.278                                                  
  23800121.022   125070462.734                                                  
  22438124.758   117913124.874                                                  
  23704282.698   124566788.614                                                  
 21  8 31 18 48 41.0000000  0 17G 5G10G13G15G18G23G24G29C19C20C22C29
                                C35E 3E 5E 9E36
  23127508.840   121535870.843    23127509.984    94703273.672                  
  23831686.151   125236285.882    23831690.547    97586698.285                  
  22009380.156   115660067.883    22009380.621    90124726.613                  
  20293409.357   106642590.484    20293409.857    83098123.280                  
  20424822.887   107333170.646    20424823.763    83636239.353                  
  21269628.444   111772649.836    21269629.552    87095572.586                  
  24099093.685   126641510.620    24099099.118    98681676.122                  
  22075625.413   116008180.472    22075626.575    90395980.761                  
                 113668912.807                   113668912.807    21828919.499  
                 135502120.315                   135502120.315    26021756.384  
                 117717464.598                   117717464.598    22606397.615  
                 128983879.784                   128983879.784    24770002.717  
                 114097380.530                   114097380.530    21911203.455  
  27546110.824   144755723.843                                                  
  23799852.094   125069049.559                                                  
  22438375.907   117914444.657                                                  
  23704441.821   124567624.805                                                  
 21  8 31 18 48 42.0000000  0 17G 5G10G13G15G18G23G24G29C19C20C22C29
                                C35E 3E 5E 9E36
  23128036.191   121538642.087    23128037.317    94705433.078                  
  23831217.304   125233822.016    23831221.682    97584778.390                  
  22009794.825   115662246.937    22009795.307    90126424.581                  
  20293559.475   106643379.352    20293559.975    83098737.985                  
  20424591.001   107331952.163    20424591.877    83635289.888                  
  21269351.420   111771194.136    21269352.564    87094438.274                  
  24098506.742   126638426.280    24098512.174    98679272.743                  
  22076217.289   116011290.667    22076218.432    90398404.290                  
                 113670354.905                   113670354.905    21829196.433  
                 135505002.653                   135505002.653    26022309.913  
                 117716091.496                   117716091.496    22606133.922  
                 128987131.403                   128987131.403    24770627.168  
                 114098606.074                   114098606.074    21911438.826  
  27545552.792   144752791.525                                                  
  23799583.254   125067636.769                                                  
  22438627.127   117915764.777                                                  
  23704600.999   124568461.317                                                  
 21  8 31 18 48 43.0000000  0 17G 5G10G13G15G18G23G24G29C19C20C22C29
                                C35E 3E 5E 9E36
  23128563.560   121541413.371    23128564.685    94707592.523                  
  23830748.456   125231358.289    23830752.852    97582858.605                  
  22010209.582   115664426.548    22010210.065    90128122.978                  
  20293709.718   106644168.885    20293710.218    83099353.204                  
  20424359.204   107330734.038    20424360.080    83634340.700                  
  21269074.468   111769738.714    21269075.594    87093304.179                  
  24097919.816   126635341.996    24097925.266    98676869.402                  
  22076809.200   116014401.247    22076810.362    90400828.116                  
                 113671797.276                   113671797.276    21829473.439  
                 135507884.981                   135507884.981    26022863.442  
                 117714718.743                   117714718.743    22605870.300  
                 128990383.187                   128990383.187    24771251.619  
                 114099832.116                   114099832.116    21911674.268  
  27544994.814   144749859.301                                                  
  23799314.486   125066224.361                                                  
  22438878.402   117917085.249                                                  
  23704760.247   124569298.151                                                  
 21  8 31 18 48 44.0000000  0 17G 5G10G13G15G18G23G24G29C19C20C22C29
                                C35E 3E 5E 9E36
  23129090.928   121544184.731    23129092.054    94709752.024                  
  23830279.663   125228894.714    23830284.058    97580938.943                  
  22010624.465   115666606.699    22010624.912    90129821.797                  
  20293860.103   106644959.097    20293860.604    83099968.953                  
  20424127.461   107329516.269    20424128.354    83633391.788                  
  21268797.552   111768283.577    21268798.678    87092170.304                  
  24097332.926   126632257.753    24097338.340    98674466.102                  
  22077401.201   116017512.214    22077402.362    90403252.247                  
                 113673239.926                   113673239.926    21829750.480  
                 135510767.292                   135510767.292    26023416.953  
                 117713346.339                   117713346.339    22605606.732  
                 128993635.140                   128993635.140    24771876.141  
                 114101058.663                   114101058.663    21911909.800  
  27544436.854   144746927.194                                                  
  23799045.772   125064812.327                                                  
  22439129.747   117918406.065                                                  
  23704919.568   124570135.314                                                  
 21  8 31 18 48 45.0000000  0 17G 5G10G13G15G18G23G24G29C19C20C22C29
                                C35E 3E 5E 9E36
  23129618.297   121546956.142    23129619.440    94711911.563                  
  23829810.887   125226431.297    23829815.282    97579019.395                  
  22011039.438   115668787.400    22011039.902    90131521.044                  
  20294010.596   106645749.981    20294011.096    83100585.226                  
  20423895.807   107328298.863    20423896.682    83632443.160                  
  21268520.725   111766828.721    21268521.833    87091036.652                  
  24096746.017   126629173.571    24096751.432    98672062.839                  
  22077993.255   116020623.554    22077994.417    90405676.665                  
                 113674682.844                   113674682.844    21830027.575  
                 135513649.598                   135513649.598    26023970.463  
                 117711974.287                   117711974.287    22605343.253  
                 128996887.264                   128996887.264    24772500.682  
                 114102285.711                   114102285.711    21912145.457  
  27543878.912   144743995.204                                                  
  23798777.165   125063400.676                                                  
  22439381.147   117919727.239                                                  
  23705078.924   124570972.794                                                  
 21  8 31 18 48 46.0000000  0 17G 5G10G13G15G18G23G24G29C19C20C22C29
                                C35E 3E 5E 9E36
  23130145.701   121549727.608    23130146.844    94714071.149                  
  23829342.146   125223968.015    23829346.524    97577099.957                  
  22011454.499   115670968.645    22011454.982    90133220.711                  
  20294161.214   106646541.534    20294161.714    83101202.021                  
  20423664.206   107327081.812    20423665.082    83631494.809                  
  21268243.916   111765374.147    21268245.042    87089903.223                  
  24096159.127   126626089.425    24096164.559    98669659.613                  
  22078585.399   116023735.279    22078586.578    90408101.383                  
                 113676126.038                   113676126.038    21830304.724  
                 135516531.886                   135516531.886    26024523.974  
                 117710602.583                   117710602.583    22605079.846  
                 129000139.557                   129000139.557    24773125.240  
                 114103513.262                   114103513.262    21912381.185  
  27543321.005   144741063.318                                                  
  23798508.593   125061989.412                                                  
  22439632.617   117921048.741                                                  
  23705238.333   124571810.596                                                  
 21  8 31 18 48 47.0000000  0 17G 5G10G13G15G18G23G24G29C19C20C22C29
                                C35E 3E 5E 9E36
  23130673.105   121552499.145    23130674.249    94716230.786                  
  23828873.424   125221504.880    23828877.802    97575180.633                  
  22011869.686   115673150.437    22011870.169    90134920.809                  
  20294311.975   106647333.758    20294312.475    83101819.336                  
  20423432.677   107325865.117    20423433.553    83630546.734                  
  21267967.179   111763919.852    21267968.304    87088770.004                  
  24095572.237   126623005.337    24095577.651    98667256.426                  
  22079177.614   116026847.387    22079178.776    90410526.403                  
                 113677569.508                   113677569.508    21830581.926  
                 135519414.168                   135519414.168    26025077.503  
                 117709231.226                   117709231.226    22604816.475  
                 129003392.019                   129003392.019    24773749.834  
                 114104741.312                   114104741.312    21912617.020  
  27542763.098   144738131.540                                                  
  23798240.111   125060578.511                                                  
  22439884.160   117922370.602                                                  
  23705397.832   124572648.722                                                  
 21  8 31 18 48 48.0000000  0 17G 5G10G13G15G18G23G24G29C19C20C22C29
                                C35E 3E 5E 9E36
  23131200.527   121555270.737    23131201.653    94718390.468                  
  23828404.737   125219041.898    23828409.115    97573261.431                  
  22012284.980   115675332.766    22012285.445    90136621.325                  
  20294462.861   106648126.652    20294463.361    83102437.180                  
  20423201.220   107324648.785    20423202.095    83629598.946                  
  21267690.477   111762465.839    21267691.603    87087637.004                  
  24094985.365   126619921.305    24094990.797    98664853.288                  
  22079769.919   116029959.883    22079771.080    90412951.722                  
                 113679013.254                   113679013.254    21830859.182  
                 135522296.432                   135522296.432    26025630.996  
                 117707860.220                   117707860.220    22604553.175  
                 129006644.653                   129006644.653    24774374.481  
                 114105969.866                   114105969.866    21912852.963  
  27542205.227   144735199.867                                                  
  23797971.701   125059168.004                                                  
  22440135.773   117923692.808                                                  
  23705557.402   124573487.167                                                  
 21  8 31 18 48 49.0000000  0 17G 5G10G13G15G18G23G24G29C19C20C22C29
                                C35E 3E 5E 9E36
  23131727.967   121558042.391    23131729.075    94720550.196                  
  23827936.069   125216579.074    23827940.465    97571342.343                  
  22012700.363   115677515.649    22012700.846    90138322.273                  
  20294613.872   106648920.218    20294614.355    83103055.543                  
  20422969.816   107323432.808    20422970.692    83628651.429                  
  21267413.847   111761012.110    21267414.972    87086504.231                  
  24094398.492   126616837.311    24094403.925    98662450.179                  
  22080362.277   116033072.749    22080363.438    90415377.332                  
                 113680457.268                   113680457.268    21831136.491  
                 135525178.688                   135525178.688    26026184.525  
                 117706489.563                   117706489.563    22604289.964  
                 129009897.449                   129009897.449    24774999.146  
                 114107198.923                   114107198.923    21913088.977  
  27541647.356   144732268.312                                                  
  23797703.362   125057757.872                                                  
  22440387.441   117925015.356                                                  
  23705717.009   124574325.932                                                  
 21  8 31 18 48 50.0000000  0 17G 5G10G13G15G18G23G24G29C19C20C22C29
                                C35E 3E 5E 9E36
  23132255.407   121560814.101    23132256.515    94722709.968                  
  23827467.436   125214116.385    23827471.814    97569423.371                  
  22013115.854   115679699.067    22013116.319    90140023.637                  
  20294765.026   106649714.456    20294765.509    83103674.425                  
  20422738.502   107322217.186    20422739.377    83627704.196                  
  21267137.252   111759558.658    21267138.378    87085371.668                  
  24093811.638   126613753.356    24093817.052    98660047.099                  
  22080954.706   116036186.011    22080955.886    90417803.250                  
                 113681901.561                   113681901.561    21831413.854  
                 135528060.933                   135528060.933    26026738.018  
                 117705119.253                   117705119.253    22604026.825  
                 129013150.419                   129013150.419    24775623.847  
                 114108428.480                   114108428.480    21913325.098  
  27541089.521   144729336.851                                                  
  23797435.094   125056348.113                                                  
  22440639.179   117926338.255                                                  
  23705876.686   124575165.020                                                  
 21  8 31 18 48 51.0000000  0 17G 5G10G13G15G18G23G24G29C19C20C22C29
                                C35E 3E 5E 9E36
  23132782.847   121563585.875    23132783.973    94724869.790                  
  23826998.821   125211653.843    23827003.216    97567504.507                  
  22013531.434   115681883.036    22013531.916    90141725.429                  
  20294916.288   106650509.366    20294916.788    83104293.835                  
  20422507.241   107321001.926    20422508.116    83626757.237                  
  21266860.747   111758105.481    21266861.855    87084239.324                  
  24093224.801   126610669.465    24093230.216    98657644.067                  
  22081547.225   116039299.652    22081548.387    90420229.466                  
                 113683346.137                   113683346.137    21831691.289  
                 135530943.142                   135530943.142    26027291.529  
                 117703749.306                   117703749.306    22603763.721  
                 129016403.556                   129016403.556    24776248.584  
                 114109658.517                   114109658.517    21913561.326  
  27540531.704   144726405.519                                                  
  23797166.898   125054938.745                                                  
  22440890.972   117927661.486                                                  
  23706036.417   124576004.434                                                  
 21  8 31 18 48 52.0000000  0 17G 5G10G13G15G18G23G24G29C19C20C22C29
                                C35E 3E 5E 9E36
  23133310.305   121566357.708    23133311.448    94727029.660                  
  23826530.241   125209191.445    23826534.637    97565585.757                  
  22013947.139   115684067.539    22013947.621    90143427.641                  
  20295067.674   106651304.945    20295068.156    83104913.769                  
  20422276.051   107319787.023    20422276.945    83625810.558                  
  21266584.259   111756652.591    21266585.385    87083107.203                  
  24092637.965   126607585.615    24092643.379    98655241.067                  
  22082139.798   116042413.680    22082140.959    90422655.977                  
                 113684790.976                   113684790.976    21831968.741  
                 135533825.360                   135533825.360    26027845.022  
                 117702379.696                   117702379.696    22603500.725  
                 129019656.861                   129019656.861    24776873.339  
                 114110889.077                   114110889.077    21913797.644  
  27539973.905   144723474.278                                                  
  23796898.773   125053529.755                                                  
  22441142.854   117928985.063                                                  
  23706196.202   124576844.164                                                  
 21  8 31 18 48 53.0000000  0 17G 5G10G13G15G18G23G24G29C19C20C22C29
                                C35E 3E 5E 9E36
  23133837.780   121569129.603    23133838.924    94729189.575                  
  23826061.698   125206729.208    23826066.075    97563667.129                  
  22014362.933   115686252.594    22014363.416    90145130.282                  
  20295219.203   106652101.198    20295219.686    83105534.222                  
  20422044.933   107318572.475    20422045.827    83624864.159                  
  21266307.843   111755199.978    21266308.951    87081975.296                  
  24092051.128   126604501.820    24092056.560    98652838.112                  
  22082732.442   116045528.089    22082733.621    90425082.789                  
                 113686236.089                   113686236.089    21832246.265  
                 135536707.570                   135536707.570    26028398.515  
                 117701010.435                   117701010.435    22603237.764  
                 129022910.331                   129022910.331    24777498.147  
                 114112120.141                   114112120.141    21914034.051  
  27539416.141   144720543.160                                                  
  23796630.738   125052121.140                                                  
  22441394.807   117930309.001                                                  
  23706356.058   124577684.218                                                  
 21  8 31 18 48 54.0000000  0 17G 5G10G13G15G18G23G24G29C19C20C22C29
                                C35E 3E 5E 9E36
  23134365.256   121571901.550    23134366.400    94731349.534                  
  23825593.172   125204267.115    23825597.568    97561748.617                  
  22014778.852   115688438.177    22014779.317    90146833.331                  
  20295370.840   106652898.124    20295371.340    83106155.208                  
  20421813.887   107317358.294    20421814.762    83623918.040                  
  21266031.463   111753747.649    21266032.589    87080843.613                  
  24091464.292   126601418.085    24091469.742    98650435.204                  
  22083325.175   116048642.880    22083326.337    90427509.894                  
                 113687681.476                   113687681.476    21832523.824  
                 135539589.761                   135539589.761    26028952.025  
                 117699641.523                   117699641.523    22602974.875  
                 129026163.974                   129026163.974    24778122.955  
                 114113351.707                   114113351.707    21914270.566  
  27538858.377   144717612.139                                                  
  23796362.756   125050712.907                                                  
  22441646.796   117931633.276                                                  
  23706515.986   124578524.591                                                  
 21  8 31 18 48 55.0000000  0 17G 5G10G13G15G18G23G24G29C19C20C22C29
                                C35E 3E 5E 9E36
  23134892.768   121574673.574    23134893.893    94733509.555                  
  23825124.682   125201805.165    23825129.060    97559830.220                  
  22015194.861   115690624.306    22015195.344    90148536.808                  
  20295522.619   106653695.707    20295523.120    83106776.699                  
  20421582.894   107316144.466    20421583.787    83622972.204                  
  21265755.154   111752295.593    21265756.280    87079712.146                  
  24090877.509   126598334.390    24090882.941    98648032.325                  
  22083917.980   116051758.052    22083919.141    90429937.301                  
                 113689127.136                   113689127.136    21832801.455  
                 135542471.945                   135542471.945    26029505.501  
                 117698272.966                   117698272.966    22602712.058  
                 129029417.782                   129029417.782    24778747.817  
                 114114583.773                   114114583.773    21914507.152  
  27538300.631   144714681.230                                                  
  23796094.846   125049305.050                                                  
  22441898.856   117932957.901                                                  
  23706675.968   124579365.284                                                  
 21  8 31 18 48 56.0000000  0 17G 5G10G13G15G18G23G24G29C19C20C22C29
                                C35E 3E 5E 9E36
  23135420.279   121577445.654    23135421.423    94735669.613                  
  23824656.227   125199343.362    23824660.605    97557911.929                  
  22015610.959   115692810.978    22015611.442    90150240.708                  
  20295674.524   106654493.968    20295675.024    83107398.723                  
  20421351.973   107314930.995    20421352.866    83622026.644                  
  21265478.882   111750843.821    21265480.007    87078580.891                  
  24090290.708   126595250.749    24090296.140    98645629.492                  
  22084510.838   116054873.603    22084512.000    90432365.001                  
                 113690573.071                   113690573.071    21833079.122  
                 135545354.116                   135545354.116    26030058.994  
                 117696904.749                   117696904.749    22602449.294  
                 129032671.759                   129032671.759    24779372.715  
                 114115816.340                   114115816.340    21914743.863  
  27537742.939   144711750.438                                                  
  23795827.025   125047897.565                                                  
  22442151.006   117934282.854                                                  
  23706836.003   124580206.300                                                  
 21  8 31 18 48 57.0000000  0 17G 5G10G13G15G18G23G24G29C19C20C22C29
                                C35E 3E 5E 9E36
  23135947.808   121580217.792    23135948.934    94737829.723                  
  23824187.773   125196881.704    23824192.169    97555993.758                  
  22016027.182   115694998.195    22016027.665    90151945.031                  
  20295826.553   106655292.907    20295827.054    83108021.270                  
  20421121.141   107313717.882    20421122.016    83621081.359                  
  21265202.680   111749392.340    21265203.806    87077449.866                  
  24089703.925   126592167.151    24089709.339    98643226.691                  
  22085103.786   116057989.547    22085104.965    90434793.007                  
                 113692019.281                   113692019.281    21833356.860  
                 135548236.276                   135548236.276    26030612.487  
                 117695536.886                   117695536.886    22602186.619  
                 129035925.907                   129035925.907    24779997.648  
                 114117049.410                   114117049.410    21914980.663  
  27537185.247   144708819.751                                                  
  23795559.240   125046490.477                                                  
  22442403.192   117935608.174                                                  
  23706996.091   124581047.641                                                  
 21  8 31 18 48 58.0000000  0 17G 5G10G13G15G18G23G24G29C19C20C22C29
                                C35E 3E 5E 9E36
  23136475.338   121582989.992    23136476.463    94739989.876                  
  23823719.355   125194420.200    23823723.732    97554075.704                  
  22016443.495   115697185.950    22016443.977    90153649.777                  
  20295978.726   106656092.512    20295979.226    83108644.339                  
  20420890.362   107312505.133    20420891.238    83620136.360                  
  21264926.514   111747941.132    21264927.640    87076319.060                  
  24089117.142   126589083.600    24089122.556    98640823.922                  
  22085696.805   116061105.864    22085697.985    90437221.306                  
                 113693465.760                   113693465.760    21833634.634  
                 135551118.422                   135551118.422    26031165.980  
                 117694169.376                   117694169.376    22601923.998  
                 129039180.218                   129039180.218    24780622.599  
                 114118282.985                   114118282.985    21915217.553  
  27536627.555   144705889.176                                                  
  23795291.562   125045083.761                                                  
  22442655.466   117936933.835                                                  
  23707156.251   124581889.309                                                  
 21  8 31 18 48 59.0000000  0 17G 5G10G13G15G18G23G24G29C19C20C22C29
                                C35E 3E 5E 9E36
  23137002.885   121585762.265    23137004.028    94742150.089                  
  23823250.972   125191958.841    23823255.368    97552157.766                  
  22016859.915   115699374.250    22016860.397    90155354.946                  
  20296131.006   106656892.798    20296131.506    83109267.938                  
  20420659.637   107311292.743    20420660.513    83619191.640                  
  21264650.420   111746490.203    21264651.546    87075188.465                  
  24088530.359   126586000.105    24088535.773    98638421.203                  
  22086289.896   116064222.556    22086291.058    90439649.899                  
                 113694912.516                   113694912.516    21833912.480  
                 135554000.556                   135554000.556    26031719.455  
                 117692802.211                   117692802.211    22601661.466  
                 129042434.704                   129042434.704    24781247.604  
                 114119517.058                   114119517.058    21915454.567  
  27536069.916   144702958.704                                                  
  23795023.937   125043677.429                                                  
  22442907.777   117938259.839                                                  
  23707316.483   124582731.284                                                  
 21  8 31 18 49  0.0000000  0 17G 5G10G13G15G18G23G24G29C19C20C22C29
                                C35E 3E 5E 9E36
  23137530.432   121588534.591    23137531.575    94744310.341                  
  23822782.643   125189497.639    23822787.020    97550239.944                  
  22017276.442   115701563.093    22017276.924    90157060.536                  
  20296283.429   106657693.744    20296283.911    83109892.052                  
  20420429.002   107310080.704    20420429.877    83618247.194                  
  21264374.379   111745039.556    21264375.505    87074058.091                  
  24087943.594   126582916.663    24087949.026    98636018.519                  
  22086883.058   116067339.644    22086884.220    90442078.797                  
                 113696359.546                   113696359.546    21834190.361  
                 135556882.675                   135556882.675    26032272.948  
                 117691435.396                   117691435.396    22601398.988  
                 129045689.352                   129045689.352    24781872.627  
                 114120751.634                   114120751.634    21915691.636  
  27535512.278   144700028.355                                                  
  23794756.402   125042271.476                                                  
  22443160.177   117939586.192                                                  
  23707476.786   124583573.594                                                  
 21  8 31 18 49  1.0000000  0 17G 5G10G13G15G18G23G24G29C19C20C22C29
                                C35E 3E 5E 9E36
  23138057.997   121591306.976    23138059.141    94746470.640                  
  23822314.295   125187036.582    23822318.673    97548322.242                  
  22017693.058   115703752.476    22017693.540    90158766.551                  
  20296435.959   106658495.344    20296436.459    83110516.676                  
  20420198.420   107308869.026    20420199.313    83617303.032                  
  21264098.374   111743589.193    21264099.500    87072927.933                  
  24087356.847   126579833.262    24087362.279    98633615.871                  
  22087476.274   116070457.097    22087477.454    90444507.976                  
                 113697806.848                   113697806.848    21834468.296  
                 135559764.785                   135559764.785    26032826.423  
                 117690068.929                   117690068.929    22601136.564  
                 129048944.169                   129048944.169    24782497.685  
                 114121986.710                   114121986.710    21915928.811  
  27534954.675   144697098.109                                                  
  23794488.921   125040865.902                                                  
  22443412.648   117940912.871                                                  
  23707637.124   124584416.215                                                  
 21  8 31 18 49  2.0000000  0 17G 5G10G13G15G18G23G24G29C19C20C22C29
                                C35E 3E 5E 9E36
  23138585.580   121594079.422    23138586.723    94748630.984                  
  23821846.002   125184575.663    23821850.380    97546404.645                  
  22018109.799   115705942.411    22018110.282    90160472.987                  
  20296588.632   106659297.634    20296589.114    83111141.837                  
  20419967.927   107307657.712    20419968.803    83616359.149                  
  21263822.441   111742139.106    21263823.567    87071798.000                  
  24086770.099   126576749.923    24086775.532    98631213.269                  
  22088069.597   116073574.942    22088070.759    90446937.464                  
                 113699254.421                   113699254.421    21834746.302  
                 135562646.884                   135562646.884    26033379.898  
                 117688702.812                   117688702.812    22600874.193  
                 129052199.152                   129052199.152    24783122.761  
                 114123222.289                   114123222.289    21916166.094  
  27534397.072   144694167.962                                                  
  23794221.529   125039460.706                                                  
  22443665.173   117942239.919                                                  
  23707797.517   124585259.165                                                  
 21  8 31 18 49  3.0000000  0 17G 5G10G13G15G18G23G24G29C19C20C22C29
                                C35E 3E 5E 9E36
  23139113.181   121596851.921    23139114.324    94750791.375                  
  23821377.744   125182114.902    23821382.122    97544487.169                  
  22018526.648   115708132.883    22018527.094    90162179.851                  
  20296741.447   106660100.593    20296741.912    83111767.519                  
  20419737.488   107306446.759    20419738.364    83615415.547                  
  21263546.543   111740689.309    21263547.651    87070668.288                  
  24086183.388   126573666.627    24086188.802    98628810.708                  
  22088662.974   116076693.167    22088664.135    90449367.254                  
                 113700702.271                   113700702.271    21835024.344  
                 135565528.966                   135565528.966    26033933.355  
                 117687337.046                   117687337.046    22600611.911  
                 129055454.309                   129055454.309    24783747.874  
                 114124458.371                   114124458.371    21916403.484  
  27533839.523   144691237.951                                                  
  23793954.208   125038055.898                                                  
  22443917.752   117943567.305                                                  
  23707957.998   124586102.437                                                  
 21  8 31 18 49  4.0000000  0 17G 5G10G13G15G18G23G24G29C19C20C22C29
                                C35E 3E 5E 9E36
  23139640.781   121599624.485    23139641.925    94752951.812                  
  23820909.504   125179654.296    23820913.882    97542569.816                  
  22018943.586   115710323.898    22018944.032    90163887.137                  
  20296894.353   106660904.224    20296894.835    83112393.723                  
  20419507.121   107305236.161    20419507.997    83614472.222                  
  21263270.717   111739239.788    21263271.843    87069538.794                  
  24085596.641   126570583.382    24085602.073    98626408.179                  
  22089256.422   116079811.772    22089257.601    90451797.331                  
                 113702150.393                   113702150.393    21835302.439  
                 135568411.038                   135568411.038    26034486.848  
                 117685971.629                   117685971.629    22600349.701  
                 129058709.629                   129058709.629    24784373.039  
                 114125694.953                   114125694.953    21916640.963  
  27533281.973   144688308.024                                                  
  23793686.941   125036651.465                                                  
  22444170.420   117944895.035                                                  
  23708118.516   124586946.032                                                  
 21  8 31 18 49  5.0000000  0 17G 5G10G13G15G18G23G24G29C19C20C22C29
                                C35E 3E 5E 9E36
  23140168.382   121602397.110    23140169.526    94755112.301                  
  23820441.282   125177193.820    23820445.660    97540652.562                  
  22019360.613   115712515.461    22019361.078    90165594.847                  
  20297047.419   106661708.521    20297047.901    83113020.445                  
  20419276.825   107304025.921    20419277.701    83613529.184                  
  21262994.926   111737790.544    21262996.034    87068409.512                  
  24085009.947   126567500.198    24085015.361    98624005.700                  
  22089849.942   116082930.759    22089851.121    90454227.711                  
                 113703598.789                   113703598.789    21835580.589  
                 135571293.097                   135571293.097    26035040.323  
                 117684606.558                   117684606.558    22600087.563  
                 129061965.118                   129061965.118    24784998.223  
                 114126932.038                   114126932.038    21916878.514  
  27532724.460   144685378.227                                                  
  23793419.764   125035247.410                                                  
  22444423.142   117946223.104                                                  
  23708279.123   124587789.944                                                  
 21  8 31 18 49  6.0000000  0 17G 5G10G13G15G18G23G24G29C19C20C22C29
                                C35E 3E 5E 9E36
  23140696.019   121605169.783    23140697.144    94757272.821                  
  23819973.096   125174733.499    23819977.474    97538735.429                  
  22019777.765   115714707.550    22019778.212    90167302.965                  
  20297200.574   106662513.475    20297201.074    83113647.687                  
  20419046.583   107302816.028    20419047.458    83612586.410                  
  21262719.207   111736341.586    21262720.315    87067280.452                  
  24084423.235   126564417.058    24084428.668    98621603.253                  
  22090443.533   116086050.137    22090444.712    90456658.395                  
                 113705047.458                   113705047.458    21835858.774  
                 135574175.143                   135574175.143    26035593.780  
                 117683241.839                   117683241.839    22599825.478  
                 129065220.773                   129065220.773    24785623.442  
                 114128169.621                   114128169.621    21917116.208  
  27532166.946   144682448.515                                                  
  23793152.657   125033843.758                                                  
  22444675.935   117947551.532                                                  
  23708439.783   124588634.188                                                  
 21  8 31 18 49  7.0000000  0 17G 5G10G13G15G18G23G24G29C19C20C22C29
                                C35E 3E 5E 9E36
  23141223.637   121607942.522    23141224.781    94759433.399                  
  23819504.945   125172273.319    23819509.323    97536818.410                  
  22020195.007   115716900.187    22020195.472    90169011.516                  
  20297353.908   106663319.093    20297354.373    83114275.436                  
  20418816.412   107301606.501    20418817.305    83611643.917                  
  21262443.524   111734892.911    21262444.632    87066151.617                  
  24083836.542   126561333.995    24083841.974    98619200.866                  
  22091037.213   116089169.898    22091038.392    90459089.375                  
                 113706496.398                   113706496.398    21836137.048  
                 135577057.175                   135577057.175    26036147.238  
                 117681877.469                   117681877.469    22599563.464  
                 129068476.599                   129068476.599    24786248.679  
                 114129407.712                   114129407.712    21917353.955  
  27531609.469   144679518.923                                                  
  23792885.623   125032440.522                                                  
  22444928.799   117948880.294                                                  
  23708600.497   124589478.766                                                  
 21  8 31 18 49  8.0000000  0 17G 5G10G13G15G18G23G24G29C19C20C22C29
                                C35E 3E 5E 9E36
  23141751.274   121610715.297    23141752.417    94761594.001                  
  23819036.813   125169813.310    23819041.209    97534901.519                  
  22020612.338   115719093.379    22020612.820    90170720.493                  
  20297507.332   106664125.438    20297507.814    83114903.762                  
  20418586.312   107300397.359    20418587.206    83610701.731                  
  21262167.894   111733444.505    21262169.020    87065022.989                  
  24083249.866   126558250.934    24083255.280    98616798.484                  
  22091630.965   116092290.001    22091632.126    90461520.622                  
                 113707945.614                   113707945.614    21836415.340  
                 135579939.198                   135579939.198    26036700.695  
                 117680513.445                   117680513.445    22599301.522  
                 129071732.585                   129071732.585    24786873.952  
                 114130646.298                   114130646.298    21917591.828  
  27531052.009   144676589.469                                                  
  23792618.642   125031037.513                                                  
  22445181.717   117950209.403                                                  
  23708761.265   124590323.615                                                  
 21  8 31 18 49  9.0000000  0 17G 5G10G13G15G18G23G24G29C19C20C22C29
                                C35E 3E 5E 9E36
  23142278.946   121613488.149    23142280.072    94763754.660                  
  23818568.716   125167353.435    23818573.094    97532984.734                  
  22021029.794   115721287.106    22021030.277    90172429.890                  
  20297660.898   106664932.412    20297661.381    83115532.570                  
  20418356.302   107299188.554    20418357.178    83609759.809                  
  21261892.336   111731996.396    21261893.462    87063894.590                  
  24082663.172   126555167.953    24082668.605    98614396.165                  
  22092224.788   116095410.516    22092225.932    90463952.192                  
                 113709395.098                   113709395.098    21836693.704  
                 135582821.207                   135582821.207    26037254.152  
                 117679149.773                   117679149.773    22599039.634  
                 129074988.745                   129074988.745    24787499.278  
                 114131885.387                   114131885.387    21917829.754  
  27530494.567   144673660.094                                                  
  23792351.768   125029634.996                                                  
  22445434.707   117951538.855                                                  
  23708922.104   124591168.824                                                  
 21  8 31 18 49 10.0000000  0 17G 5G10G13G15G18G23G24G29C19C20C22C29
                                C35E 3E 5E 9E36
  23142806.618   121616261.056    23142807.762    94765915.366                  
  23818100.637   125164893.698    23818105.015    97531068.062                  
  22021447.357   115723481.372    22021447.840    90174139.712                  
  20297814.572   106665740.054    20297815.072    83116161.902                  
  20418126.346   107297980.110    20418127.221    83608818.160                  
  21261616.814   111730548.554    21261617.940    87062766.403                  
  24082076.515   126552085.015    24082081.947    98611993.878                  
  22092818.665   116098531.414    22092819.845    90466384.058                  
                 113710844.860                   113710844.860    21836972.121  
                 135585703.204                   135585703.204    26037807.627  
                 117677786.453                   117677786.453    22598777.835  
                 129078245.071                   129078245.071    24788124.623  
                 114133124.981                   114133124.981    21918067.823  
  27529937.142   144670730.851                                                  
  23792084.948   125028232.840                                                  
  22445687.768   117952868.656                                                  
  23709082.996   124592014.353                                                  
 21  8 31 18 49 11.0000000  0 17G 5G10G13G15G18G23G24G29C19C20C22C29
                                C35E 3E 5E 9E36
  23143334.308   121619034.024    23143335.434    94768076.121                  
  23817632.594   125162434.128    23817636.971    97529151.512                  
  22021865.028   115725676.187    22021865.493    90175849.953                  
  20297968.406   106666548.374    20297968.906    83116791.762                  
  20417896.443   107296772.027    20417897.319    83607876.796                  
  21261341.363   111729100.999    21261342.489    87061638.441                  
  24081489.857   126549002.128    24081495.289    98609591.628                  
  22093412.614   116101652.687    22093413.793    90468816.219                  
                 113712294.893                   113712294.893    21837250.574  
                 135588585.187                   135588585.187    26038361.085  
                 117676423.481                   117676423.481    22598516.072  
                 129081501.563                   129081501.563    24788750.003  
                 114134365.070                   114134365.070    21918305.963  
  27529379.736   144667801.700                                                  
  23791818.181   125026831.066                                                  
  22445940.883   117954198.800                                                  
  23709243.961   124592860.196                                                  
 21  8 31 18 49 12.0000000  0 17G 5G10G13G15G18G23G24G29C19C20C22C29
                                C35E 3E 5E 9E36
  23143861.981   121621807.052    23143863.124    94770236.922                  
  23817164.586   125159974.691    23817168.964    97527235.070                  
  22022282.788   115727871.535    22022283.252    90177560.614                  
  20298122.366   106667357.366    20298122.848    83117422.148                  
  20417666.612   107295564.307    20417667.505    83606935.719                  
  21261065.965   111727653.726    21261067.073    87060510.696                  
  24080903.217   126545919.293    24080908.649    98607189.422                  
  22094006.652   116104774.347    22094007.813    90471248.679                  
                 113713745.199                   113713745.199    21837529.098  
                 135591467.155                   135591467.155    26038914.542  
                 117675060.856                   117675060.856    22598254.398  
                 129084758.224                   129084758.224    24789375.401  
                 114135605.668                   114135605.668    21918544.193  
  27528822.366   144664872.665                                                  
  23791551.504   125025429.673                                                  
  22446194.051   117955529.294                                                  
  23709404.978   124593706.371                                                  
 21  8 31 18 49 13.0000000  0 17G 5G10G13G15G18G23G24G29C19C20C22C29
                                C35E 3E 5E 9E36
  23144389.689   121624580.138    23144390.814    94772397.766                  
  23816696.596   125157515.403    23816700.974    97525318.746                  
  22022700.637   115730067.430    22022701.120    90179271.703                  
  20298276.414   106668167.016    20298276.915    83118053.039                  
  20417436.852   107294356.946    20417437.763    83605994.918                  
  21260790.604   111726206.729    21260791.712    87059383.168                  
  24080316.577   126542836.508    24080322.009    98604787.250                  
  22094600.761   116107896.383    22094601.922    90473681.435                  
                 113715195.776                   113715195.776    21837807.659  
                 135594349.114                   135594349.114    26039467.981  
                 117673698.579                   117673698.579    22597992.795  
                 129088015.050                   129088015.050    24790000.834  
                 114136846.760                   114136846.760    21918782.548  
  27528264.995   144661943.739                                                  
  23791284.898   125024028.659                                                  
  22446447.309   117956860.125                                                  
  23709566.068   124594552.856                                                  
 21  8 31 18 49 14.0000000  0 17G 5G10G13G15G18G23G24G29C19C20C22C29
                                C35E 3E 5E 9E36
  23144917.397   121627353.288    23144918.540    94774558.665                  
  23816228.642   125155056.265    23816233.020    97523402.535                  
  22023118.611   115732263.862    22023119.076    90180983.206                  
  20298430.624   106668977.334    20298431.124    83118684.460                  
  20417207.181   107293149.940    20417208.057    83605054.394                  
  21260515.296   111724760.020    21260516.422    87058255.860                  
  24079729.954   126539753.800    24079735.387    98602385.144                  
  22095194.942   116111018.798    22095196.103    90476114.485                  
                 113716646.629                   113716646.629    21838086.272  
                 135597231.059                   135597231.059    26040021.421  
                 117672336.652                   117672336.652    22597731.264  
                 129091272.048                   129091272.048    24790626.322  
                 114138088.358                   114138088.358    21919020.974  
  27527707.678   144659014.937                                                  
  23791018.381   125022628.026                                                  
  22446700.620   117958191.314                                                  
  23709727.193   124595399.671                                                  
 21  8 31 18 49 15.0000000  0 17G 5G10G13G15G18G23G24G29C19C20C22C29
                                C35E 3E 5E 9E36
  23145445.122   121630126.418    23145446.266    94776719.499                  
  23815760.706   125152597.320    23815765.084    97521486.492                  
  22023536.675   115734460.848    22023537.158    90182695.141                  
  20298584.941   106669788.384    20298585.441    83119316.470                  
  20416977.564   107291943.298    20416978.440    83604114.148                  
  21260240.059   111723313.598    21260241.185    87057128.784                  
  24079143.332   126536671.124    24079148.764    98599983.063                  
  22095789.176   116114141.570    22095790.355    90478547.794                  
                 113718097.753                   113718097.753    21838364.958  
                 135600112.989                   135600112.989    26040574.878  
                 117670975.079                   117670975.079    22597469.787  
                 129094529.206                   129094529.206    24791251.827  
                 114139330.457                   114139330.457    21919259.526  
  27527150.361   144656086.234                                                  
  23790751.919   125021227.784                                                  
  22446954.003   117959522.805                                                  
  23709888.425   124596246.737                                                  
 21  8 31 18 49 16.0000000  0 17G 5G10G13G15G18G23G24G29C19C20C22C29
                                C35E 3E 5E 9E36
  23145972.866   121632899.683    23145973.992    94778880.485                  
  23815292.806   125150138.487    23815297.184    97519570.523                  
  22023954.864   115736658.372    22023955.346    90184407.497                  
  20298739.401   106670600.058    20298739.901    83119948.941                  
  20416748.019   107290737.022    20416748.894    83603174.196                  
  21259964.858   111721867.452    21259965.984    87056001.915                  
  24078556.746   126533588.521    24078562.160    98597581.035                  
  22096383.500   116117264.754    22096384.679    90480981.441                  
                 113719549.149                   113719549.149    21838643.679  
                 135602994.905                   135602994.905    26041128.317  
                 117669613.846                   117669613.846    22597208.363  
                 129097786.535                   129097786.535    24791877.368  
                 114140573.058                   114140573.058    21919498.149  
  27526593.062   144653157.658                                                  
  23790485.527   125019827.926                                                  
  22447207.439   117960854.669                                                  
  23710049.675   124597094.177                                                  
 21  8 31 18 49 17.0000000  0 17G 5G10G13G15G18G23G24G29C19C20C22C29
                                C35E 3E 5E 9E36
  23146500.592   121635673.019    23146501.736    94781041.528                  
  23814824.923   125147679.798    23814829.301    97517654.664                  
  22024373.142   115738856.438    22024373.606    90186120.278                  
  20298893.986   106671412.387    20298894.486    83120581.929                  
  20416518.545   107289531.102    20416519.420    83602234.520                  
  21259689.711   111720421.576    21259690.837    87054875.261                  
  24077970.142   126530505.962    24077975.574    98595179.043                  
