% program   : rnx2rtkp ver.2.4.3 b31
% inp file  : ngs/21_08_28_19_51_21_txda.obs
% inp file  : ngs/21_08_28_19_51_21_txda_P1.obs
% inp file  : ngs/21_08_28_19_51_21_brdc.nav
% obs start : 2021/08/28 19:00:00.0 GPST (week2172 586800.0s)
% obs end   : 2021/08/28 19:59:59.0 GPST (week2172 590399.0s)
% ref pos   :  -662067.3159  -5328384.9902   3431180.7582
%
% (x/y/z-ecef=WGS84,Q=1:fix,2:float,3:sbas,4:dgps,5:single,6:ppp,ns=# of satellites)
%  GPST              x-ecef(m)      y-ecef(m)      z-ecef(m)   Q  ns   sdx(m)   sdy(m)   sdz(m)  sdxy(m)  sdyz(m)  sdzx(m) age(s)  ratio
2172 589856.000   -623612.4024  -5330303.4529   3435421.2113   2   8   0.4928   1.0804   0.5480   0.4834  -0.5290  -0.2073 -30.00    1.0
2172 589857.000   -623612.4837  -5330303.4058   3435421.2142   2   8   0.3505   0.7691   0.3901   0.3436  -0.3757  -0.1467 -29.00    1.0
2172 589858.000   -623612.5682  -5330303.4175   3435421.2895   2   8   0.2870   0.6297   0.3194   0.2812  -0.3075  -0.1200 -28.00    1.0
2172 589859.000   -623612.5486  -5330303.4084   3435421.2989   2   8   0.2489   0.5463   0.2772   0.2440  -0.2668  -0.1041 -27.00    1.1
2172 589860.000   -623612.5324  -5330303.3036   3435421.2957   2   8   0.2229   0.4893   0.2482   0.2185  -0.2389  -0.0932 -26.00    1.1
2172 589861.000   -623612.5257  -5330303.2712   3435421.3089   2   8   0.2037   0.4470   0.2268   0.1997  -0.2183  -0.0852 -25.00    1.2
2172 589862.000   -623612.5076  -5330303.2947   3435421.2881   2   8   0.1887   0.4142   0.2102   0.1850  -0.2023  -0.0790 -24.00    1.2
2172 589863.000   -623612.5007  -5330303.2659   3435421.2582   2   8   0.1766   0.3876   0.1967   0.1731  -0.1893  -0.0739 -23.00    1.2
2172 589864.000   -623612.4958  -5330303.2352   3435421.2576   2   8   0.1666   0.3655   0.1855   0.1633  -0.1786  -0.0697 -22.00    1.3
2172 589865.000   -623612.5101  -5330303.2782   3435421.2736   2   8   0.1581   0.3469   0.1761   0.1549  -0.1694  -0.0662 -21.00    1.2
2172 589866.000   -623612.5187  -5330303.2630   3435421.2637   2   8   0.1507   0.3307   0.1679   0.1477  -0.1616  -0.0631 -20.00    1.2
2172 589867.000   -623612.5216  -5330303.2522   3435421.2748   2   8   0.1443   0.3166   0.1608   0.1414  -0.1547  -0.0604 -19.00    1.1
2172 589868.000   -623612.5270  -5330303.2585   3435421.2806   2   8   0.1386   0.3042   0.1545   0.1358  -0.1486  -0.0580 -18.00    1.1
2172 589869.000   -623612.5410  -5330303.2836   3435421.2877   2   8   0.1336   0.2931   0.1488   0.1308  -0.1431  -0.0559 -17.00    1.0
2172 589870.000   -623612.5458  -5330303.3067   3435421.2958   2   8   0.1290   0.2830   0.1437   0.1263  -0.1382  -0.0539 -16.00    1.0
2172 589871.000   -623612.5494  -5330303.2903   3435421.2861   2   8   0.1249   0.2739   0.1392   0.1222  -0.1338  -0.0522 -15.00    1.0
2172 589872.000   -623612.5542  -5330303.2898   3435421.2869   2   8   0.1211   0.2656   0.1350   0.1185  -0.1297  -0.0506 -14.00    1.0
2172 589873.000   -623612.5539  -5330303.2634   3435421.2801   2   8   0.1176   0.2580   0.1311   0.1151  -0.1260  -0.0491 -13.00    1.0
2172 589874.000   -623612.5511  -5330303.2623   3435421.2831   2   8   0.1144   0.2510   0.1276   0.1119  -0.1225  -0.0477 -12.00    1.0
2172 589875.000   -623612.5489  -5330303.2637   3435421.2819   2   8   0.1115   0.2445   0.1243   0.1090  -0.1193  -0.0464 -11.00    1.0
2172 589876.000   -623612.5386  -5330303.2614   3435421.2739   2   8   0.1087   0.2384   0.1212   0.1063  -0.1163  -0.0453 -10.00    1.0
2172 589877.000   -623612.5369  -5330303.2633   3435421.2698   2   8   0.1062   0.2328   0.1184   0.1037  -0.1136  -0.0441  -9.00    1.0
2172 589878.000   -623612.5232  -5330303.2394   3435421.2688   2   8   0.1038   0.2275   0.1157   0.1013  -0.1110  -0.0431  -8.00    1.0
2172 589879.000   -623612.5091  -5330303.2292   3435421.2594   2   8   0.1016   0.2225   0.1132   0.0991  -0.1085  -0.0421  -7.00    1.0
2172 589880.000   -623612.4977  -5330303.2032   3435421.2491   2   8   0.0994   0.2179   0.1109   0.0970  -0.1062  -0.0412  -6.00    1.0
2172 589881.000   -623612.4903  -5330303.1817   3435421.2393   2   8   0.0975   0.2135   0.1087   0.0950  -0.1040  -0.0403  -5.00    1.0
2172 589882.000   -623612.4863  -5330303.1761   3435421.2376   2   8   0.0956   0.2093   0.1066   0.0931  -0.1020  -0.0395  -4.00    1.0
2172 589883.000   -623612.4763  -5330303.1724   3435421.2297   2   8   0.0938   0.2053   0.1046   0.0913  -0.1001  -0.0388  -3.00    1.0
2172 589884.000   -623612.4674  -5330303.1559   3435421.2203   2   8   0.0921   0.2016   0.1028   0.0896  -0.0982  -0.0380  -2.00    1.0
2172 589885.000   -623612.4596  -5330303.1437   3435421.2116   2   8   0.0906   0.1980   0.1010   0.0880  -0.0965  -0.0374  -1.00    1.0
2172 589886.000   -623612.4494  -5330303.1234   3435421.2000   2   8   0.0891   0.1947   0.0993   0.0865  -0.0948  -0.0367   0.00    1.1
2172 589887.000   -623612.2985  -5330303.0265   3435421.1123   2   8   0.4911   1.0738   0.5478   0.4806  -0.5265  -0.2065   0.00    1.1
2172 589888.000   -623612.4089  -5330302.8625   3435421.0935   2   8   0.4911   1.0737   0.5478   0.4805  -0.5265  -0.2064   0.00    1.2
2172 589889.000   -623612.5315  -5330302.7883   3435421.0783   2   8   0.4911   1.0735   0.5478   0.4804  -0.5264  -0.2064   0.00    1.3
2172 589890.000   -623612.6759  -5330302.7734   3435420.9223   2   8   0.4910   1.0734   0.5478   0.4804  -0.5264  -0.2064   0.00    1.2
2172 589891.000   -623612.5953  -5330302.8400   3435420.8779   2   8   0.4910   1.0732   0.5478   0.4803  -0.5263  -0.2064   0.00    1.2
2172 589892.000   -623612.7499  -5330302.9134   3435421.0119   2   8   0.4910   1.0731   0.5479   0.4803  -0.5263  -0.2064   0.00    1.1
2172 589893.000   -623612.7757  -5330303.0023   3435420.9590   2   8   0.4909   1.0729   0.5479   0.4802  -0.5262  -0.2064   0.00    1.1
2172 589894.000   -623612.5972  -5330303.1211   3435420.8286   2   8   0.4909   1.0728   0.5479   0.4801  -0.5262  -0.2064   0.00    1.1
2172 589895.000   -623612.7714  -5330303.0880   3435420.9674   2   8   0.4909   1.0726   0.5479   0.4801  -0.5262  -0.2064   0.00    1.1
2172 589896.000   -623612.4214  -5330302.7852   3435421.0867   2   8   0.4909   1.0725   0.5479   0.4800  -0.5261  -0.2064   0.00    1.1
2172 589897.000   -623612.6036  -5330302.8839   3435420.8986   2   8   0.4908   1.0723   0.5479   0.4800  -0.5261  -0.2064   0.00    1.1
2172 589898.000   -623612.5749  -5330302.9672   3435420.8981   2   8   0.4908   1.0721   0.5480   0.4799  -0.5260  -0.2064   0.00    1.1
2172 589899.000   -623612.5346  -5330303.1730   3435420.9301   2   8   0.4908   1.0720   0.5480   0.4798  -0.5260  -0.2064   0.00    1.0
2172 589900.000   -623612.5270  -5330303.2065   3435421.1579   2   8   0.4907   1.0718   0.5480   0.4798  -0.5259  -0.2064   0.00    1.0
2172 589901.000   -623612.4277  -5330303.2841   3435421.0267   2   8   0.4907   1.0717   0.5480   0.4797  -0.5259  -0.2064   0.00    1.1
2172 589902.000   -623612.6183  -5330303.6239   3435420.9994   2   8   0.4907   1.0715   0.5480   0.4797  -0.5259  -0.2063   0.00    1.1
2172 589903.000   -623612.4968  -5330303.4894   3435421.0477   2   8   0.4907   1.0714   0.5480   0.4796  -0.5258  -0.2063   0.00    1.0
2172 589904.000   -623612.6843  -5330303.4798   3435421.0038   2   8   0.4906   1.0712   0.5481   0.4795  -0.5258  -0.2063   0.00    1.0
2172 589905.000   -623612.3718  -5330303.6183   3435420.8312   2   8   0.4906   1.0711   0.5481   0.4795  -0.5257  -0.2063   0.00    1.0
2172 589906.000   -623612.4911  -5330303.2732   3435420.9167   2   8   0.4906   1.0709   0.5481   0.4794  -0.5257  -0.2063   0.00    1.0
2172 589907.000   -623612.3426  -5330303.0491   3435421.0610   2   8   0.4905   1.0708   0.5481   0.4794  -0.5257  -0.2063   0.00    1.1
2172 589908.000   -623612.4636  -5330303.0408   3435420.9095   2   8   0.4905   1.0706   0.5481   0.4793  -0.5256  -0.2063   0.00    1.0
2172 589909.000   -623612.3463  -5330302.9099   3435420.8520   2   8   0.4905   1.0705   0.5482   0.4792  -0.5256  -0.2063   0.00    1.0
2172 589910.000   -623612.4102  -5330302.8949   3435420.9848   2   8   0.4904   1.0703   0.5482   0.4792  -0.5255  -0.2063   0.00    1.2
2172 589911.000   -623612.3985  -5330302.6108   3435420.8317   2   8   0.4904   1.0702   0.5482   0.4791  -0.5255  -0.2063   0.00    1.2
2172 589912.000   -623612.4423  -5330302.8160   3435420.8196   2   8   0.4904   1.0700   0.5482   0.4791  -0.5254  -0.2063   0.00    1.2
2172 589913.000   -623612.5235  -5330302.7441   3435420.9625   2   8   0.4904   1.0699   0.5482   0.4790  -0.5254  -0.2063   0.00    1.2
2172 589914.000   -623612.5254  -5330303.0972   3435421.1198   2   8   0.4903   1.0697   0.5482   0.4789  -0.5254  -0.2063   0.00    1.1
2172 589915.000   -623612.4377  -5330303.1467   3435421.0763   2   8   0.4903   1.0696   0.5483   0.4789  -0.5253  -0.2063   0.00    1.1
2172 589916.000   -623612.5983  -5330302.8976   3435421.0366   2   8   0.4903   1.0694   0.5483   0.4788  -0.5253  -0.2062   0.00    1.1
2172 589917.000   -623612.5451  -5330302.8135   3435421.0975   2   8   0.4902   1.0693   0.5483   0.4788  -0.5252  -0.2062   0.00    1.3
2172 589918.000   -623612.5518  -5330303.1865   3435420.9899   2   8   0.4902   1.0691   0.5483   0.4787  -0.5252  -0.2062   0.00    1.2
2172 589919.000   -623612.6830  -5330302.7609   3435420.7988   2   8   0.4902   1.0690   0.5483   0.4786  -0.5252  -0.2062   0.00    1.2
2172 589920.000   -623612.7757  -5330302.9664   3435421.0341   2   8   0.4902   1.0688   0.5484   0.4786  -0.5251  -0.2062   0.00    1.4
2172 589921.000   -623612.6580  -5330302.8170   3435420.7553   2   8   0.4901   1.0687   0.5484   0.4785  -0.5251  -0.2062   0.00    1.1
2172 589922.000   -623612.6586  -5330302.9314   3435420.9657   2   8   0.4901   1.0685   0.5484   0.4785  -0.5250  -0.2062   0.00    1.3
2172 589923.000   -623612.7463  -5330302.5398   3435420.9780   2   8   0.4901   1.0684   0.5484   0.4784  -0.5250  -0.2062   0.00    1.6
2172 589924.000   -623612.8687  -5330303.4198   3435421.1551   2   8   0.4900   1.0682   0.5484   0.4783  -0.5250  -0.2062   0.00    1.4
2172 589925.000   -623612.9366  -5330302.8641   3435420.6678   2   8   0.4900   1.0681   0.5484   0.4783  -0.5249  -0.2062   0.00    1.4
2172 589926.000   -623612.8501  -5330303.3857   3435421.0485   2   8   0.4900   1.0679   0.5485   0.4782  -0.5249  -0.2062   0.00    1.2
2172 589927.000   -623612.7751  -5330303.2800   3435420.7933   2   8   0.4899   1.0678   0.5485   0.4782  -0.5248  -0.2062   0.00    1.6
2172 589928.000   -623612.8394  -5330303.1845   3435420.8953   2   8   0.4899   1.0676   0.5485   0.4781  -0.5248  -0.2062   0.00    1.4
2172 589929.000   -623612.6229  -5330303.0316   3435421.0373   2   8   0.4899   1.0675   0.5485   0.4780  -0.5248  -0.2062   0.00    1.2
2172 589930.000   -623612.8036  -5330303.0421   3435421.0907   2   8   0.4899   1.0673   0.5485   0.4780  -0.5247  -0.2062   0.00    1.2
2172 589931.000   -623612.7639  -5330302.9553   3435421.0448   2   8   0.4898   1.0672   0.5486   0.4779  -0.5247  -0.2061   0.00    1.3
2172 589932.000   -623612.8674  -5330303.1719   3435421.0579   2   8   0.4898   1.0670   0.5486   0.4779  -0.5246  -0.2061   0.00    1.4
2172 589933.000   -623612.8404  -5330303.1120   3435420.9594   2   8   0.4898   1.0669   0.5486   0.4778  -0.5246  -0.2061   0.00    1.2
2172 589934.000   -623612.7101  -5330302.9941   3435420.9951   2   8   0.4897   1.0667   0.5486   0.4777  -0.5246  -0.2061   0.00    1.2
2172 589935.000   -623612.7489  -5330303.2680   3435421.0778   2   8   0.4897   1.0666   0.5486   0.4777  -0.5245  -0.2061   0.00    1.3
2172 589936.000   -623612.7005  -5330302.7584   3435420.8045   2   8   0.4897   1.0664   0.5486   0.4776  -0.5245  -0.2061   0.00    1.2
2172 589937.000   -623612.5587  -5330303.3679   3435421.0720   2   8   0.4896   1.0663   0.5487   0.4776  -0.5244  -0.2061   0.00    1.2
2172 589938.000   -623612.6711  -5330303.3285   3435421.0488   2   8   0.4896   1.0661   0.5487   0.4775  -0.5244  -0.2061   0.00    1.2
2172 589939.000   -623612.7039  -5330303.1566   3435421.0196   2   8   0.4896   1.0660   0.5487   0.4774  -0.5244  -0.2061   0.00    1.5
2172 589940.000   -623612.7206  -5330303.0153   3435421.0164   2   8   0.4896   1.0658   0.5487   0.4774  -0.5243  -0.2061   0.00    1.6
2172 589941.000   -623612.5795  -5330303.1065   3435421.0296   2   8   0.4895   1.0657   0.5487   0.4773  -0.5243  -0.2061   0.00    1.5
2172 589942.000   -623612.5711  -5330303.0194   3435421.2762   2   8   0.4895   1.0655   0.5488   0.4773  -0.5243  -0.2061   0.00    1.7
2172 589943.000   -623612.7335  -5330303.0989   3435421.3764   2   8   0.4895   1.0654   0.5488   0.4772  -0.5242  -0.2061   0.00    1.6
2172 589944.000   -623612.7129  -5330303.1693   3435421.1846   2   8   0.4894   1.0652   0.5488   0.4771  -0.5242  -0.2061   0.00    1.6
2172 589945.000   -623612.7515  -5330303.5964   3435421.2713   2   8   0.4894   1.0651   0.5488   0.4771  -0.5241  -0.2061   0.00    1.3
2172 589946.000   -623612.5805  -5330302.7547   3435421.0737   2   8   0.4894   1.0649   0.5488   0.4770  -0.5241  -0.2061   0.00    1.7
2172 589947.000   -623612.6176  -5330303.2605   3435421.1261   2   8   0.4894   1.0648   0.5489   0.4770  -0.5241  -0.2061   0.00    1.8
2172 589948.000   -623612.7927  -5330303.0278   3435421.0907   2   8   0.4893   1.0646   0.5489   0.4769  -0.5240  -0.2061   0.00    1.6
2172 589949.000   -623612.8821  -5330303.2973   3435420.9869   2   8   0.4893   1.0645   0.5489   0.4768  -0.5240  -0.2060   0.00    1.5
2172 589950.000   -623612.7734  -5330302.6469   3435420.9271   2   8   0.4893   1.0644   0.5489   0.4768  -0.5239  -0.2060   0.00    1.6
2172 589951.000   -623612.8251  -5330303.4796   3435421.1346   2   8   0.4892   1.0642   0.5489   0.4767  -0.5239  -0.2060   0.00    1.8
2172 589952.000   -623612.6375  -5330303.3506   3435421.2104   2   8   0.4892   1.0641   0.5490   0.4767  -0.5239  -0.2060   0.00    1.6
2172 589953.000   -623612.7712  -5330303.2975   3435421.0805   2   8   0.4892   1.0639   0.5490   0.4766  -0.5238  -0.2060   0.00    1.7
2172 589954.000   -623612.5987  -5330302.7108   3435420.9427   2   8   0.4891   1.0638   0.5490   0.4765  -0.5238  -0.2060   0.00    1.7
2172 589955.000   -623612.8230  -5330303.4371   3435421.0494   2   8   0.4891   1.0636   0.5490   0.4765  -0.5238  -0.2060   0.00    2.0
2172 589956.000   -623612.6424  -5330303.2943   3435421.0426   2   8   0.4891   1.0635   0.5490   0.4764  -0.5237  -0.2060   0.00    1.9
2172 589957.000   -623612.6006  -5330303.1012   3435421.2146   2   8   0.4891   1.0633   0.5491   0.4764  -0.5237  -0.2060   0.00    1.5
2172 589958.000   -623612.7778  -5330303.2785   3435421.1119   2   8   0.4890   1.0632   0.5491   0.4763  -0.5236  -0.2060   0.00    1.6
2172 589959.000   -623612.6356  -5330303.2185   3435420.9268   2   8   0.4890   1.0630   0.5491   0.4762  -0.5236  -0.2060   0.00    1.8
2172 589960.000   -623612.5758  -5330303.4667   3435421.0419   2   8   0.4890   1.0629   0.5491   0.4762  -0.5236  -0.2060   0.00    1.4
2172 589961.000   -623612.7136  -5330303.6895   3435421.1008   2   8   0.4889   1.0627   0.5491   0.4761  -0.5235  -0.2060   0.00    1.6
2172 589962.000   -623612.8750  -5330303.2892   3435420.9449   2   8   0.4889   1.0626   0.5492   0.4761  -0.5235  -0.2060   0.00    1.7
2172 589963.000   -623612.6325  -5330303.1921   3435420.9492   2   8   0.4889   1.0624   0.5492   0.4760  -0.5235  -0.2060   0.00    1.5
2172 589964.000   -623612.7714  -5330303.4304   3435420.9577   2   8   0.4889   1.0623   0.5492   0.4760  -0.5234  -0.2060   0.00    1.6
2172 589965.000   -623612.6469  -5330303.6260   3435420.7801   2   8   0.4888   1.0621   0.5492   0.4759  -0.5234  -0.2060   0.00    1.7
2172 589966.000   -623612.7876  -5330303.7819   3435421.0449   2   8   0.4888   1.0620   0.5492   0.4758  -0.5234  -0.2060   0.00    1.5
2172 589967.000   -623613.0480  -5330303.9175   3435421.0596   2   8   0.4888   1.0618   0.5493   0.4758  -0.5233  -0.2060   0.00    1.8
2172 589968.000   -623612.9293  -5330303.6919   3435420.9393   2   8   0.4887   1.0617   0.5493   0.4757  -0.5233  -0.2060   0.00    1.4
2172 589969.000   -623612.7650  -5330303.2836   3435420.8496   2   8   0.4887   1.0616   0.5493   0.4757  -0.5232  -0.2060   0.00    1.4
2172 589970.000   -623612.9721  -5330303.1285   3435420.8673   2   8   0.4887   1.0614   0.5493   0.4756  -0.5232  -0.2059   0.00    1.6
2172 589971.000   -623612.9220  -5330303.1425   3435420.8115   2   8   0.4886   1.0613   0.5493   0.4755  -0.5232  -0.2059   0.00    1.1
2172 589972.000   -623612.8793  -5330303.1515   3435420.9543   2   8   0.4886   1.0611   0.5494   0.4755  -0.5231  -0.2059   0.00    1.5
2172 589973.000   -623612.8828  -5330303.6165   3435420.8829   2   8   0.4886   1.0610   0.5494   0.4754  -0.5231  -0.2059   0.00    1.4
2172 589974.000   -623612.7353  -5330303.4877   3435420.7812   2   8   0.4886   1.0608   0.5494   0.4754  -0.5231  -0.2059   0.00    1.2
2172 589975.000   -623612.6618  -5330303.4808   3435420.9717   2   8   0.4885   1.0607   0.5494   0.4753  -0.5230  -0.2059   0.00    1.4
2172 589976.000   -623612.7907  -5330303.4303   3435420.7133   2   8   0.4885   1.0605   0.5495   0.4752  -0.5230  -0.2059   0.00    1.6
2172 589977.000   -623612.8160  -5330303.3509   3435420.9700   2   8   0.4885   1.0604   0.5495   0.4752  -0.5230  -0.2059   0.00    1.2
2172 589978.000   -623612.9872  -5330303.4419   3435421.0612   2   8   0.4884   1.0602   0.5495   0.4751  -0.5229  -0.2059   0.00    1.1
2172 589979.000   -623612.7173  -5330303.3200   3435420.9393   2   8   0.4884   1.0601   0.5495   0.4751  -0.5229  -0.2059   0.00    1.3
2172 589980.000   -623612.7032  -5330303.2166   3435420.9928   2   8   0.4884   1.0600   0.5495   0.4750  -0.5228  -0.2059   0.00    1.3
2172 589981.000   -623612.6806  -5330303.2795   3435421.1001   2   8   0.4884   1.0598   0.5496   0.4749  -0.5228  -0.2059   0.00    1.3
2172 589982.000   -623612.7064  -5330303.1625   3435420.9530   2   8   0.4883   1.0597   0.5496   0.4749  -0.5228  -0.2059   0.00    1.3
2172 589983.000   -623612.6653  -5330303.6158   3435421.1143   2   8   0.4883   1.0595   0.5496   0.4748  -0.5227  -0.2059   0.00    1.2
2172 589984.000   -623612.5914  -5330303.0210   3435420.9278   2   8   0.4883   1.0594   0.5496   0.4748  -0.5227  -0.2059   0.00    1.1
2172 589985.000   -623612.8713  -5330303.2664   3435421.0955   2   8   0.4882   1.0592   0.5496   0.4747  -0.5227  -0.2059   0.00    1.2
2172 589986.000   -623612.7368  -5330303.2412   3435421.0803   2   8   0.4882   1.0591   0.5497   0.4747  -0.5226  -0.2059   0.00    1.1
2172 589987.000   -623612.7833  -5330303.3646   3435420.9555   2   8   0.4882   1.0589   0.5497   0.4746  -0.5226  -0.2059   0.00    1.4
2172 589988.000   -623612.8021  -5330303.1622   3435421.1169   2   8   0.4881   1.0588   0.5497   0.4745  -0.5226  -0.2059   0.00    1.1
2172 589989.000   -623612.8032  -5330303.5154   3435421.1905   2   8   0.4881   1.0586   0.5497   0.4745  -0.5225  -0.2059   0.00    1.2
2172 589990.000   -623612.7138  -5330303.1469   3435421.1497   2   8   0.4881   1.0585   0.5498   0.4744  -0.5225  -0.2059   0.00    1.3
2172 589991.000   -623612.6128  -5330303.4706   3435420.9811   2   8   0.4881   1.0584   0.5498   0.4744  -0.5225  -0.2059   0.00    1.2
2172 589992.000   -623612.6690  -5330303.2752   3435420.7366   2   8   0.4880   1.0582   0.5498   0.4743  -0.5224  -0.2059   0.00    1.1
2172 589993.000   -623612.6489  -5330303.3955   3435420.8551   2   8   0.4880   1.0581   0.5498   0.4742  -0.5224  -0.2059   0.00    1.2
2172 589994.000   -623612.8397  -5330303.2161   3435420.6727   2   8   0.4880   1.0579   0.5498   0.4742  -0.5224  -0.2059   0.00    1.1
2172 589995.000   -623612.9924  -5330303.6442   3435420.8712   2   8   0.4879   1.0578   0.5499   0.4741  -0.5223  -0.2059   0.00    1.0
2172 589996.000   -623612.9215  -5330303.6343   3435421.1102   2   8   0.4879   1.0576   0.5499   0.4741  -0.5223  -0.2058   0.00    1.2
2172 589997.000   -623612.8604  -5330303.4440   3435420.9045   2   8   0.4879   1.0575   0.5499   0.4740  -0.5223  -0.2058   0.00    1.1
2172 589998.000   -623612.8178  -5330303.1704   3435420.8037   2   8   0.4879   1.0573   0.5499   0.4740  -0.5222  -0.2058   0.00    1.0
2172 589999.000   -623612.7016  -5330303.3038   3435420.7267   2   8   0.4878   1.0572   0.5500   0.4739  -0.5222  -0.2058   0.00    1.1
2172 590000.000   -623612.8475  -5330303.1315   3435420.6690   2   8   0.4878   1.0571   0.5500   0.4738  -0.5222  -0.2058   0.00    1.0
2172 590001.000   -623612.8078  -5330303.2537   3435420.6858   2   8   0.4878   1.0569   0.5500   0.4738  -0.5221  -0.2058   0.00    1.0
2172 590002.000   -623612.7500  -5330303.2380   3435420.8835   2   8   0.4877   1.0568   0.5500   0.4737  -0.5221  -0.2058   0.00    1.0
2172 590003.000   -623612.5431  -5330302.7631   3435420.7982   2   8   0.4877   1.0566   0.5500   0.4737  -0.5221  -0.2058   0.00    1.3
2172 590004.000   -623612.6760  -5330303.6088   3435420.8846   2   8   0.4877   1.0565   0.5501   0.4736  -0.5220  -0.2058   0.00    1.0
2172 590005.000   -623612.4571  -5330303.6261   3435420.9671   2   8   0.4877   1.0563   0.5501   0.4735  -0.5220  -0.2058   0.00    1.1
2172 590006.000   -623612.5408  -5330303.2579   3435420.9587   2   8   0.4876   1.0562   0.5501   0.4735  -0.5220  -0.2058   0.00    1.2
2172 590007.000   -623612.6889  -5330303.3599   3435421.4270   2   8   0.4876   1.0561   0.5501   0.4734  -0.5219  -0.2058   0.00    1.1
2172 590008.000   -623612.7235  -5330303.5074   3435421.1002   2   8   0.4876   1.0559   0.5502   0.4734  -0.5219  -0.2058   0.00    1.3
2172 590009.000   -623612.9484  -5330303.6776   3435421.2949   2   8   0.4875   1.0558   0.5502   0.4733  -0.5219  -0.2058   0.00    1.1
2172 590010.000   -623612.5255  -5330303.3766   3435421.0780   2   8   0.4875   1.0556   0.5502   0.4733  -0.5218  -0.2058   0.00    1.1
2172 590011.000   -623612.7403  -5330303.2553   3435421.1541   2   8   0.4875   1.0555   0.5502   0.4732  -0.5218  -0.2058   0.00    1.3
2172 590012.000   -623612.6773  -5330303.4886   3435421.1386   2   8   0.4874   1.0553   0.5503   0.4731  -0.5218  -0.2058   0.00    1.2
2172 590013.000   -623612.5443  -5330302.9752   3435420.9464   2   8   0.4874   1.0552   0.5503   0.4731  -0.5217  -0.2058   0.00    1.2
2172 590014.000   -623612.5802  -5330302.9992   3435420.9302   2   8   0.4874   1.0551   0.5503   0.4730  -0.5217  -0.2058   0.00    1.2
2172 590015.000   -623612.6030  -5330303.0864   3435420.8205   2   8   0.4874   1.0549   0.5503   0.4730  -0.5217  -0.2058   0.00    1.2
2172 590016.000   -623612.5534  -5330303.1650   3435420.9348   2   8   0.4873   1.0548   0.5503   0.4729  -0.5216  -0.2058   0.00    1.1
2172 590017.000   -623612.7249  -5330303.5721   3435420.9302   2   8   0.4873   1.0546   0.5504   0.4728  -0.5216  -0.2058   0.00    1.2
2172 590018.000   -623612.6151  -5330303.7978   3435420.8037   2   8   0.4873   1.0545   0.5504   0.4728  -0.5216  -0.2058   0.00    1.4
2172 590019.000   -623612.8383  -5330303.8882   3435420.9815   2   8   0.4872   1.0543   0.5504   0.4727  -0.5215  -0.2058   0.00    1.1
2172 590020.000   -623612.8303  -5330303.8521   3435421.0558   2   8   0.4872   1.0542   0.5504   0.4727  -0.5215  -0.2058   0.00    1.1
2172 590021.000   -623612.6983  -5330303.8370   3435421.1581   2   8   0.4960   1.0545   0.5840   0.4700  -0.5265  -0.1555   0.00    1.0
2172 590022.000   -623612.8080  -5330303.3605   3435420.7994   2   8   0.4960   1.0543   0.5841   0.4699  -0.5265  -0.1554   0.00    1.0
2172 590023.000   -623612.7163  -5330303.7987   3435420.9141   2   8   0.4960   1.0542   0.5841   0.4699  -0.5264  -0.1554   0.00    1.0
2172 590024.000   -623612.8557  -5330303.7205   3435420.8700   2   8   0.4960   1.0540   0.5841   0.4698  -0.5264  -0.1553   0.00    1.2
2172 590025.000   -623612.7460  -5330303.7888   3435421.0481   2   8   0.4959   1.0539   0.5842   0.4698  -0.5263  -0.1553   0.00    1.5
2172 590026.000   -623612.7778  -5330303.7839   3435420.8053   2   8   0.4959   1.0537   0.5842   0.4697  -0.5263  -0.1552   0.00    1.0
2172 590027.000   -623612.7970  -5330303.8684   3435420.9907   2   8   0.4959   1.0536   0.5843   0.4697  -0.5263  -0.1552   0.00    1.0
2172 590028.000   -623612.6647  -5330303.3961   3435420.8643   2   8   0.4959   1.0535   0.5843   0.4696  -0.5262  -0.1551   0.00    1.1
2172 590029.000   -623612.6718  -5330303.3050   3435420.9682   2   8   0.4959   1.0533   0.5844   0.4696  -0.5262  -0.1551   0.00    1.0
2172 590030.000   -623612.6360  -5330303.1979   3435420.7992   2   8   0.4958   1.0532   0.5844   0.4695  -0.5261  -0.1550   0.00    1.1
2172 590031.000   -623612.7190  -5330304.0120   3435421.0338   2   8   0.4958   1.0530   0.5844   0.4694  -0.5261  -0.1550   0.00    1.1
2172 590032.000   -623612.7241  -5330303.5178   3435420.8896   2   8   0.4958   1.0529   0.5845   0.4694  -0.5261  -0.1550   0.00    1.1
2172 590033.000   -623612.6790  -5330303.4640   3435421.0621   2   8   0.4958   1.0527   0.5845   0.4693  -0.5260  -0.1549   0.00    1.2
2172 590034.000   -623612.5681  -5330303.9457   3435421.2272   2   8   0.4958   1.0526   0.5846   0.4693  -0.5260  -0.1549   0.00    1.0
2172 590035.000   -623612.6240  -5330303.7525   3435421.0715   2   8   0.4957   1.0525   0.5846   0.4692  -0.5259  -0.1548   0.00    1.3
2172 590036.000   -623612.5358  -5330303.4440   3435421.3015   2   8   0.4957   1.0523   0.5846   0.4692  -0.5259  -0.1548   0.00    1.3
2172 590037.000   -623612.5612  -5330303.6239   3435421.0030   2   8   0.4957   1.0522   0.5847   0.4691  -0.5259  -0.1547   0.00    1.1
2172 590038.000   -623612.6104  -5330304.0684   3435421.1265   2   8   0.4957   1.0520   0.5847   0.4691  -0.5258  -0.1547   0.00    1.1
2172 590039.000   -623612.5064  -5330303.2869   3435420.9980   2   8   0.4957   1.0519   0.5848   0.4690  -0.5258  -0.1546   0.00    1.2
2172 590040.000   -623612.4111  -5330303.7470   3435421.0292   2   8   0.4956   1.0517   0.5848   0.4690  -0.5257  -0.1546   0.00    1.2
2172 590041.000   -623612.5114  -5330303.5520   3435421.0677   2   8   0.4956   1.0516   0.5849   0.4689  -0.5257  -0.1545   0.00    1.2
2172 590042.000   -623612.5507  -5330303.7077   3435420.7712   2   8   0.4956   1.0515   0.5849   0.4689  -0.5257  -0.1545   0.00    1.1
2172 590043.000   -623612.6299  -5330303.6643   3435420.9848   2   8   0.4956   1.0513   0.5849   0.4688  -0.5256  -0.1544   0.00    1.1
2172 590044.000   -623612.6660  -5330303.6154   3435421.0545   2   8   0.4956   1.0512   0.5850   0.4687  -0.5256  -0.1544   0.00    1.3
2172 590045.000   -623612.4818  -5330303.6994   3435421.3323   2   8   0.4955   1.0510   0.5850   0.4687  -0.5256  -0.1544   0.00    1.1
2172 590046.000   -623612.5789  -5330303.6878   3435420.9544   2   8   0.4955   1.0509   0.5851   0.4686  -0.5255  -0.1543   0.00    1.3
2172 590047.000   -623612.3798  -5330303.3055   3435420.8952   2   8   0.4955   1.0508   0.5851   0.4686  -0.5255  -0.1543   0.00    1.3
2172 590048.000   -623612.6278  -5330303.7600   3435421.1367   2   8   0.4955   1.0506   0.5852   0.4685  -0.5254  -0.1542   0.00    1.1
2172 590049.000   -623612.5965  -5330303.3196   3435420.7390   2   8   0.4955   1.0505   0.5852   0.4685  -0.5254  -0.1542   0.00    1.1
2172 590050.000   -623612.3893  -5330303.2834   3435420.7169   2   8   0.4954   1.0503   0.5852   0.4684  -0.5254  -0.1541   0.00    1.2
2172 590051.000   -623612.4357  -5330303.7312   3435420.7103   2   8   0.4954   1.0502   0.5853   0.4684  -0.5253  -0.1541   0.00    1.0
2172 590052.000   -623612.7337  -5330303.7392   3435420.8892   2   8   0.4954   1.0501   0.5853   0.4683  -0.5253  -0.1540   0.00    1.0
2172 590053.000   -623612.4851  -5330304.2554   3435420.9567   2   8   0.4954   1.0499   0.5854   0.4683  -0.5252  -0.1540   0.00    1.0
2172 590054.000   -623612.5915  -5330304.1534   3435420.8567   2   8   0.4954   1.0498   0.5854   0.4682  -0.5252  -0.1539   0.00    1.3
2172 590055.000   -623612.5132  -5330304.3853   3435421.0230   2   8   0.4953   1.0496   0.5855   0.4682  -0.5252  -0.1539   0.00    1.1
2172 590056.000   -623612.4695  -5330303.7837   3435420.9115   2   8   0.4953   1.0495   0.5855   0.4681  -0.5251  -0.1539   0.00    1.0
2172 590057.000   -623612.5644  -5330304.3843   3435421.1746   2   8   0.4953   1.0493   0.5855   0.4681  -0.5251  -0.1538   0.00    1.1
2172 590058.000   -623612.5701  -5330303.9549   3435420.9538   2   8   0.4953   1.0492   0.5856   0.4680  -0.5251  -0.1538   0.00    1.1
2172 590059.000   -623612.4157  -5330303.8824   3435421.2003   2   8   0.4952   1.0491   0.5856   0.4679  -0.5250  -0.1537   0.00    1.2
2172 590060.000   -623612.4822  -5330303.9661   3435420.9900   2   8   0.4952   1.0489   0.5857   0.4679  -0.5250  -0.1537   0.00    1.1
2172 590061.000   -623612.3687  -5330303.7455   3435421.1205   2   8   0.4952   1.0488   0.5857   0.4678  -0.5249  -0.1536   0.00    1.5
2172 590062.000   -623612.4723  -5330303.8167   3435421.1936   2   8   0.4952   1.0486   0.5858   0.4678  -0.5249  -0.1536   0.00    1.3
2172 590063.000   -623612.2996  -5330303.9073   3435420.8328   2   8   0.4952   1.0485   0.5858   0.4677  -0.5249  -0.1535   0.00    1.4
2172 590064.000   -623612.4006  -5330303.6628   3435421.1786   2   8   0.4951   1.0484   0.5859   0.4677  -0.5248  -0.1535   0.00    1.4
2172 590065.000   -623612.5251  -5330303.9088   3435420.8970   2   8   0.4951   1.0482   0.5859   0.4676  -0.5248  -0.1534   0.00    1.2
2172 590066.000   -623612.6674  -5330303.8011   3435421.0766   2   8   0.4951   1.0481   0.5859   0.4676  -0.5248  -0.1534   0.00    1.3
2172 590067.000   -623612.4703  -5330303.8034   3435420.9641   2   8   0.4951   1.0479   0.5860   0.4675  -0.5247  -0.1534   0.00    1.0
2172 590068.000   -623612.5668  -5330303.6696   3435420.9939   2   8   0.4951   1.0478   0.5860   0.4675  -0.5247  -0.1533   0.00    1.1
2172 590069.000   -623612.2191  -5330303.5076   3435420.8933   2   8   0.4950   1.0477   0.5861   0.4674  -0.5246  -0.1533   0.00    1.5
2172 590070.000   -623612.3107  -5330303.9597   3435421.1817   2   8   0.4950   1.0475   0.5861   0.4674  -0.5246  -0.1532   0.00    1.2
2172 590071.000   -623612.4264  -5330303.7670   3435421.0700   2   8   0.4950   1.0474   0.5862   0.4673  -0.5246  -0.1532   0.00    1.4
2172 590072.000   -623612.5595  -5330303.9979   3435420.8698   2   8   0.4950   1.0473   0.5862   0.4673  -0.5245  -0.1531   0.00    1.3
2172 590073.000   -623612.5977  -5330304.2683   3435420.7188   2   8   0.4950   1.0471   0.5863   0.4672  -0.5245  -0.1531   0.00    1.2
2172 590074.000   -623612.8104  -5330303.9146   3435420.4958   2   8   0.4949   1.0470   0.5863   0.4671  -0.5245  -0.1530   0.00    1.2
2172 590075.000   -623612.8233  -5330304.2035   3435420.6005   2   8   0.4949   1.0468   0.5863   0.4671  -0.5244  -0.1530   0.00    1.0
2172 590076.000   -623612.5424  -5330303.9633   3435420.6434   2   8   0.4949   1.0467   0.5864   0.4670  -0.5244  -0.1529   0.00    1.1
2172 590077.000   -623612.6959  -5330304.0514   3435420.5916   2   8   0.4949   1.0466   0.5864   0.4670  -0.5244  -0.1529   0.00    1.2
2172 590078.000   -623612.9005  -5330304.1464   3435420.5064   2   8   0.4949   1.0464   0.5865   0.4669  -0.5243  -0.1529   0.00    1.2
2172 590079.000   -623612.6306  -5330303.7721   3435420.6388   2   8   0.4948   1.0463   0.5865   0.4669  -0.5243  -0.1528   0.00    1.1
2172 590080.000   -623612.7415  -5330303.9054   3435420.5908   2   8   0.4948   1.0461   0.5866   0.4668  -0.5242  -0.1528   0.00    1.1
2172 590081.000   -623612.5687  -5330303.7364   3435420.6970   2   8   0.4948   1.0460   0.5866   0.4668  -0.5242  -0.1527   0.00    1.3
2172 590082.000   -623612.5993  -5330303.9659   3435421.0297   2   8   0.4948   1.0459   0.5867   0.4667  -0.5242  -0.1527   0.00    1.1
2172 590083.000   -623612.6805  -5330304.1838   3435420.9043   2   8   0.4948   1.0457   0.5867   0.4667  -0.5241  -0.1526   0.00    1.1
2172 590084.000   -623612.4640  -5330303.9385   3435420.8128   2   8   0.4947   1.0456   0.5867   0.4666  -0.5241  -0.1526   0.00    1.3
2172 590085.000   -623612.5255  -5330304.1110   3435420.6432   2   8   0.4947   1.0454   0.5868   0.4666  -0.5241  -0.1525   0.00    1.0
2172 590086.000   -623612.6564  -5330303.5536   3435420.6379   2   8   0.4947   1.0453   0.5868   0.4665  -0.5240  -0.1525   0.00    1.5
2172 590087.000   -623612.4760  -5330303.7101   3435420.5889   2   8   0.4947   1.0452   0.5869   0.4665  -0.5240  -0.1525   0.00    1.4
2172 590088.000   -623612.6639  -5330304.2217   3435420.7475   2   8   0.4947   1.0450   0.5869   0.4664  -0.5240  -0.1524   0.00    1.4
2172 590089.000   -623612.5392  -5330303.8500   3435420.5770   2   8   0.4946   1.0449   0.5870   0.4664  -0.5239  -0.1524   0.00    1.2
2172 590090.000   -623612.3654  -5330303.5466   3435420.7783   2   8   0.4946   1.0448   0.5870   0.4663  -0.5239  -0.1523   0.00    1.5
2172 590091.000   -623612.7529  -5330304.3738   3435420.8512   2   8   0.4946   1.0446   0.5871   0.4663  -0.5239  -0.1523   0.00    1.2
2172 590092.000   -623612.5099  -5330303.7912   3435420.4244   2   8   0.4946   1.0445   0.5871   0.4662  -0.5238  -0.1522   0.00    1.6
2172 590093.000   -623612.3422  -5330303.9058   3435420.7637   2   8   0.4946   1.0443   0.5872   0.4661  -0.5238  -0.1522   0.00    1.9
2172 590094.000   -623612.3371  -5330303.7047   3435420.6385   2   8   0.4945   1.0442   0.5872   0.4661  -0.5238  -0.1521   0.00    1.5
2172 590095.000   -623612.7475  -5330304.0984   3435420.6767   2   8   0.4945   1.0441   0.5873   0.4660  -0.5237  -0.1521   0.00    1.4
2172 590096.000   -623612.5707  -5330303.8593   3435420.6123   2   8   0.4945   1.0439   0.5873   0.4660  -0.5237  -0.1521   0.00    1.6
2172 590097.000   -623612.7898  -5330303.9476   3435420.6589   2   8   0.4945   1.0438   0.5873   0.4659  -0.5237  -0.1520   0.00    1.7
2172 590098.000   -623612.6198  -5330303.8375   3435420.5804   2   8   0.4945   1.0437   0.5874   0.4659  -0.5236  -0.1520   0.00    1.6
2172 590099.000   -623612.7229  -5330303.8048   3435420.6350   2   8   0.4944   1.0435   0.5874   0.4658  -0.5236  -0.1519   0.00    1.6
2172 590100.000   -623612.7032  -5330303.8640   3435420.6369   2   8   0.4944   1.0434   0.5875   0.4658  -0.5235  -0.1519   0.00    1.5
2172 590101.000   -623612.5788  -5330303.9004   3435420.7162   2   8   0.4944   1.0433   0.5875   0.4657  -0.5235  -0.1518   0.00    1.5
2172 590102.000   -623612.4272  -5330303.8445   3435420.5816   2   8   0.4944   1.0431   0.5876   0.4657  -0.5235  -0.1518   0.00    1.5
2172 590103.000   -623612.6778  -5330303.8311   3435420.7622   2   8   0.4944   1.0430   0.5876   0.4656  -0.5234  -0.1517   0.00    1.3
2172 590104.000   -623612.6641  -5330304.1901   3435420.8986   2   8   0.4943   1.0428   0.5877   0.4656  -0.5234  -0.1517   0.00    1.4
2172 590105.000   -623612.7834  -5330303.7691   3435420.7217   2   8   0.4943   1.0427   0.5877   0.4655  -0.5234  -0.1517   0.00    1.5
2172 590106.000   -623612.5686  -5330303.5674   3435420.8401   2   8   0.4943   1.0426   0.5878   0.4655  -0.5233  -0.1516   0.00    1.8
2172 590107.000   -623612.4917  -5330303.5583   3435420.5542   2   8   0.4943   1.0424   0.5878   0.4654  -0.5233  -0.1516   0.00    1.7
2172 590108.000   -623612.6727  -5330304.1698   3435421.0627   2   8   0.4942   1.0423   0.5879   0.4654  -0.5233  -0.1515   0.00    1.5
2172 590109.000   -623612.6263  -5330304.0115   3435420.6635   2   8   0.4942   1.0422   0.5879   0.4653  -0.5232  -0.1515   0.00    1.9
2172 590110.000   -623612.6032  -5330303.9046   3435421.1141   2   8   0.4942   1.0420   0.5879   0.4653  -0.5232  -0.1514   0.00    1.5
2172 590111.000   -623612.5563  -5330303.7055   3435420.8216   2   8   0.4942   1.0419   0.5880   0.4652  -0.5232  -0.1514   0.00    1.8
2172 590112.000   -623612.5270  -5330303.8821   3435420.9472   2   8   0.4942   1.0418   0.5880   0.4652  -0.5231  -0.1514   0.00    1.8
2172 590113.000   -623612.4232  -5330303.5573   3435420.6034   2   8   0.4941   1.0416   0.5881   0.4651  -0.5231  -0.1513   0.00    2.2
2172 590114.000   -623612.5218  -5330303.5621   3435420.8430   2   8   0.4941   1.0415   0.5881   0.4650  -0.5231  -0.1513   0.00    2.3
2172 590115.000   -623612.5320  -5330303.7493   3435420.8143   2   8   0.4941   1.0413   0.5882   0.4650  -0.5230  -0.1512   0.00    2.0
2172 590116.000   -623612.6052  -5330303.4758   3435420.5504   2   8   0.4941   1.0412   0.5882   0.4649  -0.5230  -0.1512   0.00    2.4
2172 590117.000   -623612.5770  -5330303.1700   3435420.4446   2   8   0.4941   1.0411   0.5883   0.4649  -0.5230  -0.1511   0.00    2.0
2172 590118.000   -623612.5939  -5330303.4620   3435420.7497   2   8   0.4940   1.0409   0.5883   0.4648  -0.5230  -0.1511   0.00    2.1
2172 590119.000   -623612.6836  -5330303.5787   3435420.8929   2   8   0.4940   1.0408   0.5884   0.4648  -0.5229  -0.1511   0.00    2.1
2172 590120.000   -623612.5992  -5330303.5145   3435420.6796   2   8   0.4940   1.0407   0.5884   0.4647  -0.5229  -0.1510   0.00    2.4
2172 590121.000   -623612.4792  -5330303.3564   3435420.5198   2   8   0.4940   1.0405   0.5885   0.4647  -0.5229  -0.1510   0.00    2.2
2172 590122.000   -623612.5648  -5330303.6671   3435420.8084   2   8   0.4940   1.0404   0.5885   0.4646  -0.5228  -0.1509   0.00    2.0
2172 590123.000   -623612.7490  -5330303.5741   3435420.7001   2   8   0.4939   1.0403   0.5886   0.4646  -0.5228  -0.1509   0.00    1.9
2172 590124.000   -623612.5828  -5330303.7547   3435420.9365   2   8   0.4939   1.0401   0.5886   0.4645  -0.5228  -0.1508   0.00    2.2
2172 590125.000   -623612.7783  -5330303.5867   3435420.8119   2   8   0.4939   1.0400   0.5887   0.4645  -0.5227  -0.1508   0.00    2.1
2172 590126.000   -623612.5903  -5330303.4737   3435420.6635   2   8   0.4939   1.0399   0.5887   0.4644  -0.5227  -0.1507   0.00    2.2
2172 590127.000   -623612.6357  -5330303.4352   3435420.6573   2   8   0.4939   1.0397   0.5888   0.4644  -0.5227  -0.1507   0.00    1.8
2172 590128.000   -623612.5826  -5330303.4005   3435420.7753   2   8   0.4938   1.0396   0.5888   0.4643  -0.5226  -0.1507   0.00    1.8
2172 590129.000   -623612.5954  -5330303.3458   3435420.7719   2   8   0.4938   1.0395   0.5889   0.4643  -0.5226  -0.1506   0.00    1.8
2172 590130.000   -623612.7487  -5330303.4771   3435420.7692   2   8   0.4938   1.0393   0.5889   0.4642  -0.5226  -0.1506   0.00    2.0
2172 590131.000   -623612.4958  -5330303.3493   3435421.0553   2   8   0.4938   1.0392   0.5889   0.4642  -0.5225  -0.1505   0.00    1.6
2172 590132.000   -623612.6508  -5330303.4289   3435420.8365   2   8   0.4938   1.0391   0.5890   0.4641  -0.5225  -0.1505   0.00    2.2
2172 590133.000   -623612.5339  -5330303.4467   3435420.8252   2   8   0.4937   1.0389   0.5890   0.4641  -0.5225  -0.1504   0.00    1.6
2172 590134.000   -623612.4964  -5330303.4166   3435420.8355   2   8   0.4937   1.0388   0.5891   0.4640  -0.5224  -0.1504   0.00    1.7
2172 590135.000   -623612.5846  -5330303.3676   3435420.8635   2   8   0.4937   1.0387   0.5891   0.4640  -0.5224  -0.1504   0.00    1.7
2172 590136.000   -623612.6159  -5330303.4090   3435420.7380   2   8   0.4937   1.0385   0.5892   0.4639  -0.5224  -0.1503   0.00    2.1
2172 590137.000   -623612.7771  -5330303.7444   3435420.7443   2   8   0.4937   1.0384   0.5892   0.4639  -0.5223  -0.1503   0.00    1.9
2172 590138.000   -623612.5701  -5330303.3153   3435420.3979   2   8   0.4936   1.0383   0.5893   0.4638  -0.5223  -0.1502   0.00    1.7
2172 590139.000   -623612.4372  -5330303.4705   3435420.8509   2   8   0.4936   1.0381   0.5893   0.4638  -0.5223  -0.1502   0.00    1.7
2172 590140.000   -623612.5550  -5330303.4546   3435420.7953   2   8   0.4936   1.0380   0.5894   0.4637  -0.5223  -0.1501   0.00    2.0
2172 590141.000   -623612.4759  -5330303.3683   3435420.6740   2   8   0.4936   1.0379   0.5894   0.4636  -0.5222  -0.1501   0.00    2.1
2172 590142.000   -623612.6483  -5330303.2901   3435420.6108   2   8   0.4936   1.0377   0.5895   0.4636  -0.5222  -0.1501   0.00    2.2
2172 590143.000   -623612.6163  -5330303.7111   3435420.9074   2   8   0.4935   1.0376   0.5895   0.4635  -0.5222  -0.1500   0.00    2.3
2172 590144.000   -623612.4387  -5330303.5258   3435421.0039   2   8   0.4935   1.0375   0.5896   0.4635  -0.5221  -0.1500   0.00    2.2
2172 590145.000   -623612.5188  -5330303.9211   3435421.1759   2   8   0.4935   1.0373   0.5896   0.4634  -0.5221  -0.1499   0.00    2.4
2172 590146.000   -623612.7557  -5330303.9899   3435420.8890   2   8   0.4935   1.0372   0.5897   0.4634  -0.5221  -0.1499   0.00    2.4
2172 590147.000   -623612.5271  -5330303.8490   3435421.0237   2   8   0.4935   1.0371   0.5897   0.4633  -0.5220  -0.1498   0.00    2.5
2172 590148.000   -623612.6428  -5330303.7604   3435421.0360   2   8   0.4934   1.0369   0.5898   0.4633  -0.5220  -0.1498   0.00    2.5
2172 590149.000   -623612.7559  -5330303.7505   3435421.2376   2   8   0.4934   1.0368   0.5898   0.4632  -0.5220  -0.1498   0.00    2.8
2172 590150.000   -623612.5025  -5330303.4011   3435421.0631   2   8   0.4934   1.0367   0.5899   0.4632  -0.5220  -0.1497   0.00    2.3
2172 590151.000   -623612.4990  -5330303.7486   3435421.0377   2   8   0.4934   1.0365   0.5899   0.4631  -0.5219  -0.1497   0.00    2.4
2172 590152.000   -623612.7321  -5330303.6347   3435420.9556   2   8   0.4934   1.0364   0.5900   0.4631  -0.5219  -0.1496   0.00    2.6
2172 590153.000   -623612.6197  -5330303.7192   3435420.9797   2   8   0.4933   1.0363   0.5900   0.4630  -0.5219  -0.1496   0.00    2.7
2172 590154.000   -623612.3385  -5330303.2694   3435421.1269   1   8   0.0050   0.0105   0.0060   0.0047  -0.0052  -0.0015   0.00    3.4
2172 590155.000   -623612.3383  -5330303.2736   3435421.1250   1   8   0.0050   0.0105   0.0060   0.0047  -0.0052  -0.0015   0.00    3.1
2172 590156.000   -623612.4455  -5330303.6785   3435421.2538   2   8   0.4933   1.0359   0.5902   0.4629  -0.5218  -0.1495   0.00    2.5
2172 590157.000   -623612.7513  -5330303.9617   3435420.9141   2   8   0.4933   1.0357   0.5902   0.4628  -0.5218  -0.1494   0.00    2.7
2172 590158.000   -623612.4627  -5330303.3304   3435420.9673   2   8   0.4932   1.0356   0.5903   0.4628  -0.5217  -0.1494   0.00    3.0
2172 590159.000   -623612.3400  -5330303.2734   3435421.1251   1   8   0.0050   0.0105   0.0060   0.0047  -0.0052  -0.0015   0.00    3.6
2172 590160.000   -623612.3387  -5330303.2725   3435421.1257   1   8   0.0050   0.0105   0.0060   0.0047  -0.0052  -0.0015   0.00    3.3
2172 590161.000   -623612.3401  -5330303.2704   3435421.1269   1   8   0.0050   0.0105   0.0060   0.0047  -0.0052  -0.0015   0.00    4.1
2172 590162.000   -623612.3398  -5330303.2694   3435421.1259   1   8   0.0050   0.0105   0.0060   0.0047  -0.0052  -0.0015   0.00    3.4
2172 590163.000   -623612.3405  -5330303.2743   3435421.1284   1   8   0.0050   0.0105   0.0060   0.0047  -0.0052  -0.0015   0.00    3.3
2172 590164.000   -623612.5162  -5330303.3461   3435420.9266   2   8   0.4931   1.0348   0.5906   0.4625  -0.5215  -0.1491   0.00    3.0
2172 590165.000   -623612.5648  -5330303.2071   3435420.9679   2   8   0.4931   1.0347   0.5906   0.4624  -0.5215  -0.1491   0.00    3.0
2172 590166.000   -623612.3375  -5330303.2714   3435421.1267   1   8   0.0050   0.0105   0.0060   0.0047  -0.0052  -0.0015   0.00    3.4
2172 590167.000   -623612.3374  -5330303.2688   3435421.1277   1   8   0.0050   0.0105   0.0060   0.0047  -0.0052  -0.0015   0.00    3.1
2172 590168.000   -623612.3365  -5330303.2679   3435421.1253   1   8   0.0050   0.0104   0.0060   0.0047  -0.0052  -0.0015   0.00    4.4
2172 590169.000   -623612.3376  -5330303.2682   3435421.1272   1   8   0.0050   0.0104   0.0060   0.0047  -0.0052  -0.0015   0.00    5.1
2172 590170.000   -623612.3364  -5330303.2671   3435421.1238   1   8   0.0050   0.0104   0.0060   0.0047  -0.0052  -0.0015   0.00    3.7
2172 590171.000   -623612.3356  -5330303.2717   3435421.1278   1   8   0.0050   0.0104   0.0060   0.0047  -0.0052  -0.0015   0.00    3.3
2172 590172.000   -623612.3377  -5330303.2737   3435421.1265   1   8   0.0050   0.0104   0.0060   0.0047  -0.0052  -0.0015   0.00    5.3
2172 590173.000   -623612.3380  -5330303.2715   3435421.1273   1   8   0.0050   0.0104   0.0060   0.0047  -0.0052  -0.0015   0.00    4.6
2172 590174.000   -623612.3359  -5330303.2743   3435421.1290   1   8   0.0050   0.0104   0.0060   0.0047  -0.0052  -0.0015   0.00    4.2
2172 590175.000   -623612.3381  -5330303.2742   3435421.1293   1   8   0.0050   0.0104   0.0060   0.0047  -0.0052  -0.0015   0.00    4.8
2172 590176.000   -623612.3384  -5330303.2764   3435421.1287   1   8   0.0050   0.0104   0.0060   0.0047  -0.0052  -0.0015   0.00    4.4
2172 590177.000   -623612.3377  -5330303.2745   3435421.1308   1   8   0.0050   0.0104   0.0060   0.0047  -0.0052  -0.0015   0.00    5.0
2172 590178.000   -623612.3360  -5330303.2712   3435421.1273   1   8   0.0050   0.0104   0.0060   0.0047  -0.0052  -0.0015   0.00    4.6
2172 590179.000   -623612.3380  -5330303.2780   3435421.1272   1   8   0.0050   0.0104   0.0060   0.0047  -0.0052  -0.0015   0.00    4.8
2172 590180.000   -623612.3399  -5330303.2734   3435421.1275   1   8   0.0050   0.0104   0.0060   0.0047  -0.0052  -0.0015   0.00    5.5
2172 590181.000   -623612.3355  -5330303.2787   3435421.1283   1   8   0.0050   0.0104   0.0060   0.0047  -0.0052  -0.0015   0.00    5.0
2172 590182.000   -623612.3362  -5330303.2740   3435421.1274   1   8   0.0050   0.0104   0.0060   0.0047  -0.0052  -0.0015   0.00    5.1
2172 590183.000   -623612.3370  -5330303.2720   3435421.1237   1   8   0.0050   0.0104   0.0060   0.0046  -0.0052  -0.0015   0.00    4.8
2172 590184.000   -623612.3371  -5330303.2713   3435421.1273   1   8   0.0050   0.0104   0.0060   0.0046  -0.0052  -0.0015   0.00    3.8
2172 590185.000   -623612.3372  -5330303.2702   3435421.1254   1   8   0.0050   0.0104   0.0060   0.0046  -0.0052  -0.0015   0.00    4.2
2172 590186.000   -623612.3384  -5330303.2757   3435421.1257   1   8   0.0050   0.0104   0.0060   0.0046  -0.0052  -0.0015   0.00    3.9
2172 590187.000   -623612.3362  -5330303.2731   3435421.1247   1   8   0.0050   0.0104   0.0060   0.0046  -0.0052  -0.0015   0.00    4.5
2172 590188.000   -623612.3380  -5330303.2718   3435421.1243   1   8   0.0050   0.0104   0.0060   0.0046  -0.0052  -0.0014   0.00    4.2
2172 590189.000   -623612.3350  -5330303.2703   3435421.1246   1   8   0.0050   0.0104   0.0060   0.0046  -0.0052  -0.0014   0.00    3.8
2172 590190.000   -623612.3376  -5330303.2775   3435421.1264   1   8   0.0050   0.0104   0.0060   0.0046  -0.0052  -0.0014   0.00    3.9
2172 590191.000   -623612.3362  -5330303.2718   3435421.1260   1   8   0.0050   0.0104   0.0060   0.0046  -0.0052  -0.0014   0.00    4.6
2172 590192.000   -623612.3371  -5330303.2722   3435421.1272   1   8   0.0050   0.0104   0.0060   0.0046  -0.0052  -0.0014   0.00    4.4
2172 590193.000   -623612.3361  -5330303.2728   3435421.1272   1   8   0.0050   0.0104   0.0060   0.0046  -0.0052  -0.0014   0.00    4.9
2172 590194.000   -623612.3369  -5330303.2736   3435421.1254   1   8   0.0050   0.0104   0.0060   0.0046  -0.0052  -0.0014   0.00    4.4
2172 590195.000   -623612.3366  -5330303.2719   3435421.1268   1   8   0.0050   0.0104   0.0060   0.0046  -0.0052  -0.0014   0.00    4.7
2172 590196.000   -623612.3365  -5330303.2761   3435421.1264   1   8   0.0050   0.0104   0.0060   0.0046  -0.0052  -0.0014   0.00    4.9
2172 590197.000   -623612.3374  -5330303.2705   3435421.1280   1   8   0.0050   0.0104   0.0060   0.0046  -0.0052  -0.0014   0.00    5.9
2172 590198.000   -623612.3365  -5330303.2706   3435421.1259   1   8   0.0050   0.0104   0.0060   0.0046  -0.0052  -0.0014   0.00    5.6
2172 590199.000   -623612.3372  -5330303.2741   3435421.1272   1   8   0.0050   0.0104   0.0060   0.0046  -0.0052  -0.0014   0.00    4.8
2172 590200.000   -623612.3362  -5330303.2707   3435421.1276   1   8   0.0050   0.0104   0.0060   0.0046  -0.0052  -0.0014   0.00    4.5
2172 590201.000   -623612.3354  -5330303.2691   3435421.1267   1   8   0.0050   0.0104   0.0060   0.0046  -0.0052  -0.0014   0.00    5.0
2172 590202.000   -623612.3367  -5330303.2717   3435421.1237   1   8   0.0050   0.0104   0.0060   0.0046  -0.0052  -0.0014   0.00    5.3
2172 590203.000   -623612.3357  -5330303.2716   3435421.1222   1   8   0.0050   0.0104   0.0060   0.0046  -0.0052  -0.0014   0.00    4.8
2172 590204.000   -623612.3366  -5330303.2721   3435421.1239   1   8   0.0050   0.0104   0.0060   0.0046  -0.0052  -0.0014   0.00    5.1
2172 590205.000   -623612.3346  -5330303.2724   3435421.1240   1   8   0.0050   0.0104   0.0060   0.0046  -0.0052  -0.0014   0.00    3.9
2172 590206.000   -623612.3341  -5330303.2713   3435421.1234   1   8   0.0050   0.0104   0.0060   0.0046  -0.0052  -0.0014   0.00    5.2
2172 590207.000   -623612.3352  -5330303.2667   3435421.1232   1   8   0.0050   0.0104   0.0060   0.0046  -0.0052  -0.0014   0.00    4.7
2172 590208.000   -623612.3351  -5330303.2691   3435421.1236   1   8   0.0050   0.0104   0.0060   0.0046  -0.0052  -0.0014   0.00    4.4
2172 590209.000   -623612.3351  -5330303.2648   3435421.1203   1   8   0.0050   0.0104   0.0060   0.0046  -0.0052  -0.0014   0.00    5.8
2172 590210.000   -623612.3326  -5330303.2613   3435421.1227   1   8   0.0050   0.0104   0.0060   0.0046  -0.0052  -0.0014   0.00    6.0
2172 590211.000   -623612.3327  -5330303.2624   3435421.1214   1   8   0.0050   0.0104   0.0060   0.0046  -0.0052  -0.0014   0.00    5.9
2172 590212.000   -623612.3347  -5330303.2646   3435421.1218   1   8   0.0050   0.0104   0.0060   0.0046  -0.0052  -0.0014   0.00    5.8
2172 590213.000   -623612.3336  -5330303.2649   3435421.1200   1   8   0.0050   0.0104   0.0060   0.0046  -0.0052  -0.0014   0.00    5.6
2172 590214.000   -623612.3336  -5330303.2688   3435421.1218   1   8   0.0050   0.0104   0.0060   0.0046  -0.0052  -0.0014   0.00    6.7
2172 590215.000   -623612.3330  -5330303.2700   3435421.1234   1   8   0.0050   0.0104   0.0060   0.0046  -0.0052  -0.0014   0.00    4.5
2172 590216.000   -623612.3330  -5330303.2688   3435421.1246   1   8   0.0050   0.0104   0.0060   0.0046  -0.0052  -0.0014   0.00    5.0
2172 590217.000   -623612.3345  -5330303.2655   3435421.1218   1   8   0.0050   0.0104   0.0060   0.0046  -0.0052  -0.0014   0.00    7.3
2172 590218.000   -623612.3346  -5330303.2659   3435421.1189   1   8   0.0050   0.0104   0.0060   0.0046  -0.0052  -0.0014   0.00    6.8
2172 590219.000   -623612.3306  -5330303.2643   3435421.1203   1   8   0.0050   0.0104   0.0060   0.0046  -0.0052  -0.0014   0.00    5.6
2172 590220.000   -623612.3341  -5330303.2696   3435421.1224   1   8   0.0050   0.0104   0.0060   0.0046  -0.0052  -0.0014   0.00    5.6
2172 590221.000   -623612.3331  -5330303.2645   3435421.1195   1   8   0.0050   0.0104   0.0060   0.0046  -0.0052  -0.0014   0.00    5.4
2172 590222.000   -623612.3302  -5330303.2618   3435421.1215   1   8   0.0050   0.0104   0.0060   0.0046  -0.0052  -0.0014   0.00    5.8
2172 590223.000   -623612.3343  -5330303.2627   3435421.1208   1   8   0.0050   0.0104   0.0060   0.0046  -0.0052  -0.0014   0.00    5.3
2172 590224.000   -623612.3322  -5330303.2645   3435421.1219   1   8   0.0050   0.0104   0.0060   0.0046  -0.0052  -0.0014   0.00    5.9
2172 590225.000   -623612.3325  -5330303.2633   3435421.1195   1   8   0.0050   0.0104   0.0060   0.0046  -0.0052  -0.0014   0.00    5.1
2172 590226.000   -623612.3321  -5330303.2605   3435421.1198   1   8   0.0050   0.0104   0.0060   0.0046  -0.0052  -0.0014   0.00    4.8
2172 590227.000   -623612.3320  -5330303.2628   3435421.1197   1   8   0.0050   0.0104   0.0060   0.0046  -0.0052  -0.0014   0.00    5.7
2172 590228.000   -623612.3313  -5330303.2614   3435421.1186   1   8   0.0050   0.0104   0.0060   0.0046  -0.0052  -0.0014   0.00    5.2
2172 590229.000   -623612.3303  -5330303.2606   3435421.1223   1   8   0.0050   0.0104   0.0060   0.0046  -0.0052  -0.0014   0.00    5.6
2172 590230.000   -623612.3309  -5330303.2617   3435421.1189   1   8   0.0050   0.0104   0.0060   0.0046  -0.0052  -0.0014   0.00    4.5
2172 590231.000   -623612.3310  -5330303.2617   3435421.1192   1   8   0.0050   0.0104   0.0060   0.0046  -0.0052  -0.0014   0.00    4.8
2172 590232.000   -623612.3296  -5330303.2585   3435421.1179   1   8   0.0050   0.0104   0.0060   0.0046  -0.0052  -0.0014   0.00    5.6
2172 590233.000   -623612.3313  -5330303.2609   3435421.1190   1   8   0.0050   0.0104   0.0060   0.0046  -0.0052  -0.0014   0.00    6.4
2172 590234.000   -623612.3292  -5330303.2637   3435421.1196   1   8   0.0050   0.0104   0.0060   0.0046  -0.0052  -0.0014   0.00    5.0
2172 590235.000   -623612.3270  -5330303.2555   3435421.1151   1   8   0.0050   0.0104   0.0060   0.0046  -0.0052  -0.0014   0.00    5.6
2172 590236.000   -623612.3271  -5330303.2574   3435421.1161   1   8   0.0050   0.0104   0.0060   0.0046  -0.0052  -0.0014   0.00    7.0
2172 590237.000   -623612.3292  -5330303.2555   3435421.1180   1   8   0.0050   0.0104   0.0060   0.0046  -0.0052  -0.0014   0.00    4.9
2172 590238.000   -623612.3267  -5330303.2549   3435421.1174   1   8   0.0050   0.0104   0.0060   0.0046  -0.0052  -0.0014   0.00    5.3
2172 590239.000   -623612.3271  -5330303.2583   3435421.1165   1   8   0.0050   0.0104   0.0060   0.0046  -0.0052  -0.0014   0.00    5.3
2172 590240.000   -623612.3251  -5330303.2537   3435421.1141   1   8   0.0050   0.0104   0.0060   0.0046  -0.0052  -0.0014   0.00    4.9
2172 590241.000   -623612.3269  -5330303.2581   3435421.1124   1   8   0.0050   0.0104   0.0060   0.0046  -0.0052  -0.0014   0.00    6.7
2172 590242.000   -623612.3265  -5330303.2549   3435421.1128   1   8   0.0050   0.0104   0.0060   0.0046  -0.0052  -0.0014   0.00    6.3
2172 590243.000   -623612.3255  -5330303.2525   3435421.1109   1   8   0.0050   0.0104   0.0060   0.0046  -0.0052  -0.0014   0.00    5.2
2172 590244.000   -623612.3256  -5330303.2567   3435421.1135   1   8   0.0050   0.0103   0.0060   0.0046  -0.0052  -0.0014   0.00    4.9
2172 590245.000   -623612.3266  -5330303.2524   3435421.1121   1   8   0.0050   0.0103   0.0060   0.0046  -0.0052  -0.0014   0.00    5.7
2172 590246.000   -623612.3255  -5330303.2561   3435421.1143   1   8   0.0050   0.0103   0.0060   0.0046  -0.0052  -0.0014   0.00    7.2
2172 590247.000   -623612.3231  -5330303.2528   3435421.1120   1   8   0.0050   0.0103   0.0060   0.0046  -0.0052  -0.0014   0.00    7.2
2172 590248.000   -623612.3266  -5330303.2570   3435421.1144   1   8   0.0050   0.0103   0.0060   0.0046  -0.0052  -0.0014   0.00    7.0
2172 590249.000   -623612.3245  -5330303.2525   3435421.1136   1   8   0.0050   0.0103   0.0060   0.0046  -0.0052  -0.0014   0.00    5.5
2172 590250.000   -623612.3232  -5330303.2495   3435421.1111   1   8   0.0050   0.0103   0.0060   0.0046  -0.0052  -0.0014   0.00    6.0
2172 590251.000   -623612.3256  -5330303.2528   3435421.1118   1   8   0.0050   0.0103   0.0060   0.0046  -0.0052  -0.0014   0.00    4.7
2172 590252.000   -623612.3252  -5330303.2511   3435421.1140   1   8   0.0050   0.0103   0.0060   0.0046  -0.0052  -0.0014   0.00    6.5
2172 590253.000   -623612.3243  -5330303.2536   3435421.1117   1   8   0.0050   0.0103   0.0060   0.0046  -0.0052  -0.0014   0.00    4.7
2172 590254.000   -623612.3247  -5330303.2541   3435421.1120   1   8   0.0050   0.0103   0.0060   0.0046  -0.0052  -0.0014   0.00    5.6
2172 590255.000   -623612.3234  -5330303.2555   3435421.1110   1   8   0.0050   0.0103   0.0060   0.0046  -0.0052  -0.0014   0.00    5.4
2172 590256.000   -623612.3242  -5330303.2501   3435421.1107   1   8   0.0050   0.0103   0.0060   0.0046  -0.0052  -0.0014   0.00    4.7
2172 590257.000   -623612.3222  -5330303.2482   3435421.1110   1   8   0.0050   0.0103   0.0060   0.0046  -0.0052  -0.0014   0.00    6.2
2172 590258.000   -623612.3256  -5330303.2525   3435421.1113   1   8   0.0048   0.0103   0.0056   0.0046  -0.0052  -0.0021   0.00    3.8
2172 590259.000   -623612.3246  -5330303.2518   3435421.1094   1   8   0.0048   0.0103   0.0056   0.0046  -0.0052  -0.0021   0.00    3.1
2172 590260.000   -623612.3256  -5330303.2480   3435421.1088   1   8   0.0048   0.0103   0.0056   0.0046  -0.0052  -0.0021   0.00    5.1
2172 590261.000   -623612.3267  -5330303.2565   3435421.1110   1   8   0.0048   0.0103   0.0056   0.0046  -0.0052  -0.0021   0.00    4.5
2172 590262.000   -623612.3264  -5330303.2461   3435421.1058   1   8   0.0048   0.0103   0.0056   0.0046  -0.0052  -0.0021   0.00    4.7
2172 590263.000   -623612.3258  -5330303.2522   3435421.1083   1   8   0.0048   0.0103   0.0056   0.0046  -0.0052  -0.0021   0.00    3.8
2172 590264.000   -623612.3245  -5330303.2511   3435421.1112   1   8   0.0048   0.0103   0.0056   0.0046  -0.0052  -0.0021   0.00    4.1
2172 590265.000   -623612.3258  -5330303.2463   3435421.1089   1   8   0.0048   0.0103   0.0056   0.0046  -0.0052  -0.0021   0.00    5.5
2172 590266.000   -623612.3244  -5330303.2526   3435421.1103   1   8   0.0048   0.0103   0.0056   0.0046  -0.0052  -0.0021   0.00    3.6
2172 590267.000   -623612.3254  -5330303.2474   3435421.1066   1   8   0.0048   0.0103   0.0056   0.0046  -0.0052  -0.0021   0.00    3.9
2172 590268.000   -623612.3272  -5330303.2510   3435421.1048   1   8   0.0048   0.0103   0.0056   0.0046  -0.0052  -0.0021   0.00    4.1
2172 590269.000   -623612.3279  -5330303.2521   3435421.1067   1   8   0.0048   0.0103   0.0056   0.0046  -0.0052  -0.0021   0.00    4.3
2172 590270.000   -623612.3262  -5330303.2533   3435421.1085   1   8   0.0048   0.0103   0.0056   0.0046  -0.0052  -0.0021   0.00    3.1
2172 590271.000   -623612.3263  -5330303.2481   3435421.1041   1   8   0.0048   0.0103   0.0056   0.0046  -0.0052  -0.0021   0.00    4.0
2172 590272.000   -623612.3255  -5330303.2496   3435421.1045   1   8   0.0048   0.0103   0.0056   0.0046  -0.0052  -0.0021   0.00    3.6
2172 590273.000   -623612.3267  -5330303.2499   3435421.1037   1   8   0.0048   0.0103   0.0056   0.0046  -0.0052  -0.0021   0.00    3.6
2172 590274.000   -623612.3245  -5330303.2505   3435421.1084   1   8   0.0048   0.0103   0.0056   0.0046  -0.0052  -0.0021   0.00    3.8
2172 590275.000   -623612.3239  -5330303.2510   3435421.1060   1   8   0.0048   0.0103   0.0056   0.0046  -0.0052  -0.0021   0.00    4.1
2172 590276.000   -623612.3266  -5330303.2538   3435421.1054   1   8   0.0048   0.0103   0.0056   0.0046  -0.0052  -0.0021   0.00    4.6
2172 590277.000   -623612.3239  -5330303.2542   3435421.1060   1   8   0.0048   0.0103   0.0056   0.0046  -0.0052  -0.0021   0.00    4.1
2172 590278.000   -623612.3260  -5330303.2556   3435421.1065   1   8   0.0048   0.0103   0.0056   0.0046  -0.0052  -0.0021   0.00    4.6
2172 590279.000   -623612.3238  -5330303.2555   3435421.1071   1   8   0.0048   0.0103   0.0056   0.0046  -0.0052  -0.0021   0.00    4.2
2172 590280.000   -623612.3254  -5330303.2503   3435421.1029   1   8   0.0048   0.0103   0.0056   0.0046  -0.0052  -0.0021   0.00    4.1
2172 590281.000   -623612.3272  -5330303.2567   3435421.1041   1   8   0.0048   0.0103   0.0056   0.0046  -0.0052  -0.0021   0.00    4.6
2172 590282.000   -623612.3257  -5330303.2509   3435421.1016   1   8   0.0048   0.0103   0.0056   0.0046  -0.0052  -0.0021   0.00    3.8
2172 590283.000   -623612.3237  -5330303.2494   3435421.1026   1   8   0.0048   0.0103   0.0057   0.0046  -0.0052  -0.0021   0.00    4.6
2172 590284.000   -623612.3268  -5330303.2540   3435421.1024   1   8   0.0048   0.0103   0.0057   0.0046  -0.0052  -0.0021   0.00    4.1
2172 590285.000   -623612.3275  -5330303.2530   3435421.1021   1   8   0.0048   0.0103   0.0057   0.0046  -0.0052  -0.0021   0.00    3.5
2172 590286.000   -623612.3253  -5330303.2557   3435421.1036   1   8   0.0048   0.0103   0.0057   0.0046  -0.0052  -0.0021   0.00    3.1
2172 590287.000   -623612.3257  -5330303.2558   3435421.1039   1   8   0.0048   0.0103   0.0057   0.0046  -0.0052  -0.0021   0.00    4.5
2172 590288.000   -623612.3257  -5330303.2520   3435421.0996   1   8   0.0048   0.0103   0.0057   0.0046  -0.0052  -0.0021   0.00    4.1
