% program   : rnx2rtkp ver.2.4.3 b31
% inp file  : ngs/21_08_31_19_48_49_scwt.obs
% inp file  : ngs/21_08_31_19_48_49_scwt_P1.obs
% inp file  : ngs/21_08_31_19_48_49_brdc.nav
% obs start : 2021/08/31 19:00:00.0 GPST (week2173 241200.0s)
% obs end   : 2021/08/31 19:59:59.0 GPST (week2173 244799.0s)
% ref pos   :   922959.8392  -5271911.7236   3457578.0221
%
% (x/y/z-ecef=WGS84,Q=1:fix,2:float,3:sbas,4:dgps,5:single,6:ppp,ns=# of satellites)
%  GPST              x-ecef(m)      y-ecef(m)      z-ecef(m)   Q  ns   sdx(m)   sdy(m)   sdz(m)  sdxy(m)  sdyz(m)  sdzx(m) age(s)  ratio
2173 244104.000    869160.1955  -5289360.4722   3444969.8156   2   8   0.5091   0.9167   0.7947  -0.3465  -0.5945   0.4225 -30.00    1.3
2173 244105.000    869160.1221  -5289360.2771   3444969.6401   2   8   0.3628   0.6525   0.5668  -0.2463  -0.4235   0.3018 -29.00    1.1
2173 244106.000    869160.1048  -5289360.3339   3444969.6639   2   8   0.2972   0.5343   0.4644  -0.2016  -0.3468   0.2474 -28.00    1.0
2173 244107.000    869160.0997  -5289360.3938   3444969.6834   2   8   0.2579   0.4635   0.4030  -0.1749  -0.3009   0.2148 -27.00    1.1
2173 244108.000    869160.0829  -5289360.3953   3444969.6861   2   8   0.2310   0.4150   0.3610  -0.1567  -0.2694   0.1924 -26.00    1.1
2173 244109.000    869160.1048  -5289360.3633   3444969.6895   2   8   0.2111   0.3792   0.3299  -0.1432  -0.2462   0.1758 -25.00    1.1
2173 244110.000    869160.1153  -5289360.3005   3444969.6515   2   8   0.1956   0.3513   0.3057  -0.1326  -0.2281   0.1629 -24.00    1.0
2173 244111.000    869160.1081  -5289360.2973   3444969.6009   2   8   0.1831   0.3288   0.2861  -0.1242  -0.2134   0.1525 -23.00    1.1
2173 244112.000    869160.0883  -5289360.2968   3444969.6065   2   8   0.1727   0.3101   0.2699  -0.1171  -0.2013   0.1439 -22.00    1.1
2173 244113.000    869160.0901  -5289360.3154   3444969.6178   2   8   0.1639   0.2942   0.2561  -0.1111  -0.1910   0.1365 -21.00    1.0
2173 244114.000    869160.0977  -5289360.3439   3444969.6491   2   8   0.1563   0.2805   0.2443  -0.1060  -0.1822   0.1302 -20.00    1.0
2173 244115.000    869160.0936  -5289360.3733   3444969.6556   2   8   0.1497   0.2686   0.2339  -0.1015  -0.1744   0.1247 -19.00    1.0
2173 244116.000    869160.0774  -5289360.3957   3444969.6555   2   8   0.1438   0.2580   0.2248  -0.0975  -0.1676   0.1199 -18.00    1.0
2173 244117.000    869160.0779  -5289360.4072   3444969.6504   2   8   0.1386   0.2486   0.2166  -0.0939  -0.1615   0.1155 -17.00    1.0
2173 244118.000    869160.0775  -5289360.4042   3444969.6618   2   8   0.1339   0.2401   0.2092  -0.0907  -0.1559   0.1116 -16.00    1.0
2173 244119.000    869160.0863  -5289360.4067   3444969.6687   2   8   0.1296   0.2324   0.2026  -0.0878  -0.1510   0.1081 -15.00    1.0
2173 244120.000    869160.0933  -5289360.4149   3444969.6645   2   8   0.1257   0.2254   0.1965  -0.0852  -0.1464   0.1048 -14.00    1.0
2173 244121.000    869160.0918  -5289360.4145   3444969.6544   2   8   0.1222   0.2189   0.1909  -0.0827  -0.1422   0.1019 -13.00    1.0
2173 244122.000    869160.0895  -5289360.4089   3444969.6578   2   8   0.1189   0.2130   0.1858  -0.0805  -0.1384   0.0991 -12.00    1.0
2173 244123.000    869160.0937  -5289360.3991   3444969.6491   2   8   0.1159   0.2075   0.1810  -0.0784  -0.1348   0.0966 -11.00    1.0
2173 244124.000    869160.0922  -5289360.3890   3444969.6467   2   8   0.1131   0.2024   0.1766  -0.0765  -0.1315   0.0943 -10.00    1.0
2173 244125.000    869160.0913  -5289360.4084   3444969.6448   2   8   0.1104   0.1976   0.1725  -0.0747  -0.1285   0.0921  -9.00    1.0
2173 244126.000    869160.0935  -5289360.4070   3444969.6453   2   8   0.1080   0.1932   0.1686  -0.0730  -0.1256   0.0900  -8.00    1.0
2173 244127.000    869160.0919  -5289360.4126   3444969.6373   2   8   0.1057   0.1890   0.1650  -0.0714  -0.1229   0.0881  -7.00    1.1
2173 244128.000    869160.0871  -5289360.4089   3444969.6309   2   8   0.1035   0.1851   0.1616  -0.0699  -0.1203   0.0863  -6.00    1.1
2173 244129.000    869160.0887  -5289360.4086   3444969.6339   2   8   0.1015   0.1814   0.1584  -0.0686  -0.1180   0.0846  -5.00    1.1
2173 244130.000    869160.0860  -5289360.4092   3444969.6275   2   8   0.0996   0.1779   0.1554  -0.0672  -0.1157   0.0830  -4.00    1.1
2173 244131.000    869160.0834  -5289360.4048   3444969.6205   2   8   0.0978   0.1746   0.1525  -0.0660  -0.1136   0.0815  -3.00    1.1
2173 244132.000    869160.0776  -5289360.3910   3444969.6084   2   8   0.0960   0.1715   0.1498  -0.0648  -0.1115   0.0800  -2.00    1.1
2173 244133.000    869160.0722  -5289360.3822   3444969.5990   2   8   0.0944   0.1686   0.1472  -0.0637  -0.1096   0.0787  -1.00    1.1
2173 244134.000    869160.0726  -5289360.3924   3444969.5999   2   8   0.0929   0.1658   0.1448  -0.0627  -0.1078   0.0774   0.00    1.1
2173 244135.000    869160.0835  -5289360.7359   3444969.9506   2   8   0.5095   0.9134   0.7986  -0.3459  -0.5955   0.4248   0.00    1.1
2173 244136.000    869159.9633  -5289360.4591   3444969.6724   2   7   0.5255   1.0447   0.8430  -0.2347  -0.7009   0.3827   0.00    1.1
2173 244137.000    869159.8170  -5289360.2859   3444969.8672   2   7   0.5255   1.0446   0.8432  -0.2347  -0.7009   0.3828   0.00    1.3
2173 244138.000    869159.8018  -5289360.4527   3444970.0559   2   7   0.5255   1.0445   0.8434  -0.2348  -0.7010   0.3828   0.00    1.2
2173 244139.000    869160.0102  -5289360.5178   3444969.8506   2   7   0.5255   1.0444   0.8436  -0.2349  -0.7011   0.3829   0.00    1.1
2173 244140.000    869159.7424  -5289360.4874   3444969.5020   2   7   0.5256   1.0443   0.8438  -0.2350  -0.7011   0.3830   0.00    2.1
2173 244141.000    869159.7549  -5289360.3666   3444969.1413   2   7   0.5256   1.0442   0.8440  -0.2350  -0.7012   0.3831   0.00    1.5
2173 244142.000    869159.7910  -5289360.3635   3444969.2697   2   7   0.5256   1.0441   0.8441  -0.2351  -0.7013   0.3832   0.00    1.2
2173 244143.000    869159.9022  -5289359.6073   3444969.1455   2   7   0.5256   1.0440   0.8443  -0.2352  -0.7013   0.3833   0.00    1.4
2173 244144.000    869159.7987  -5289359.9293   3444969.3232   2   7   0.5256   1.0439   0.8445  -0.2353  -0.7014   0.3834   0.00    1.3
2173 244145.000    869159.8147  -5289359.6865   3444969.4289   2   7   0.5257   1.0438   0.8447  -0.2353  -0.7015   0.3835   0.00    1.2
2173 244146.000    869160.1235  -5289360.1035   3444970.2145   2   7   0.5106   1.0236   0.7269  -0.1729  -0.6359   0.3054   0.00    1.1
2173 244147.000    869160.4228  -5289360.2178   3444970.1266   2   7   0.5099   1.0227   0.7203  -0.1700  -0.6329   0.3013   0.00    1.2
2173 244148.000    869160.5026  -5289360.2207   3444970.3438   2   7   0.5097   1.0223   0.7179  -0.1689  -0.6317   0.2997   0.00    1.2
2173 244149.000    869160.5770  -5289360.5793   3444970.3737   2   7   0.5096   1.0221   0.7167  -0.1684  -0.6312   0.2990   0.00    1.0
2173 244150.000    869160.3180  -5289360.4459   3444970.0995   2   7   0.5095   1.0219   0.7160  -0.1680  -0.6308   0.2985   0.00    1.0
2173 244151.000    869160.0833  -5289360.1306   3444969.9164   2   7   0.5095   1.0217   0.7155  -0.1678  -0.6306   0.2983   0.00    1.0
2173 244152.000    869160.1543  -5289359.9405   3444969.9675   2   7   0.5094   1.0215   0.7152  -0.1677  -0.6304   0.2981   0.00    1.0
2173 244153.000    869160.1002  -5289359.9507   3444969.9268   2   7   0.5094   1.0214   0.7151  -0.1676  -0.6303   0.2980   0.00    1.2
2173 244154.000    869159.9668  -5289359.6699   3444969.7655   2   7   0.5094   1.0212   0.7150  -0.1676  -0.6302   0.2979   0.00    1.2
2173 244155.000    869159.8554  -5289359.7022   3444969.6963   2   7   0.5094   1.0211   0.7149  -0.1675  -0.6301   0.2978   0.00    1.0
2173 244156.000    869159.9065  -5289359.7796   3444969.5637   2   7   0.5107   1.0225   0.7284  -0.1735  -0.6362   0.3063   0.00    1.1
2173 244157.000    869159.9440  -5289359.9454   3444969.4065   2   7   0.5108   1.0224   0.7285  -0.1736  -0.6362   0.3064   0.00    1.1
2173 244158.000    869159.8142  -5289359.9461   3444969.4939   2   7   0.5108   1.0222   0.7287  -0.1736  -0.6362   0.3065   0.00    1.1
2173 244159.000    869159.8894  -5289360.6583   3444969.6736   2   7   0.5108   1.0221   0.7288  -0.1737  -0.6362   0.3066   0.00    1.2
2173 244160.000    869159.5875  -5289360.2446   3444969.5305   2   8   0.4987   0.9542   0.7092  -0.2656  -0.5858   0.3354   0.00    1.1
2173 244161.000    869159.6567  -5289360.5848   3444969.6578   2   8   0.4963   0.9485   0.7084  -0.2749  -0.5826   0.3382   0.00    1.0
2173 244162.000    869159.8534  -5289359.9496   3444969.6093   2   7   0.5003   1.0475   0.7112  -0.2150  -0.6050   0.3327   0.00    1.1
2173 244163.000    869159.9491  -5289359.9222   3444969.6378   2   7   0.4998   1.0457   0.7112  -0.2181  -0.6042   0.3334   0.00    1.0
2173 244164.000    869159.8479  -5289360.5802   3444970.0877   2   7   0.4937   0.9840   0.6971  -0.2763  -0.5607   0.3512   0.00    1.1
2173 244165.000    869159.8548  -5289360.5113   3444970.2332   2   8   0.4875   0.8944   0.6953  -0.3237  -0.5442   0.3566   0.00    1.0
2173 244166.000    869159.7983  -5289360.6385   3444970.3357   2   8   0.4863   0.8917   0.6951  -0.3273  -0.5429   0.3577   0.00    1.0
2173 244167.000    869159.9752  -5289360.1621   3444970.1628   2   8   0.4857   0.8903   0.6951  -0.3291  -0.5423   0.3583   0.00    1.1
2173 244168.000    869159.9761  -5289360.5630   3444970.3104   2   8   0.4853   0.8894   0.6951  -0.3301  -0.5419   0.3587   0.00    1.0
2173 244169.000    869159.8011  -5289360.7673   3444970.1154   2   8   0.4882   0.8950   0.6962  -0.3220  -0.5452   0.3562   0.00    1.3
2173 244170.000    869159.8351  -5289361.0527   3444970.2555   2   8   0.4882   0.8948   0.6963  -0.3222  -0.5451   0.3563   0.00    1.2
2173 244171.000    869159.8540  -5289360.7061   3444970.1751   2   8   0.4882   0.8946   0.6964  -0.3223  -0.5451   0.3565   0.00    1.1
2173 244172.000    869160.2016  -5289360.5479   3444970.2113   2   8   0.4882   0.8944   0.6965  -0.3224  -0.5451   0.3566   0.00    1.0
2173 244173.000    869160.4047  -5289360.3030   3444970.2645   2   8   0.4882   0.8943   0.6967  -0.3225  -0.5451   0.3567   0.00    1.1
2173 244174.000    869160.3562  -5289359.8130   3444970.0864   2   8   0.4905   0.8998   0.6973  -0.3150  -0.5476   0.3549   0.00    1.0
2173 244175.000    869160.1993  -5289359.1051   3444969.6355   2   8   0.4906   0.8997   0.6974  -0.3149  -0.5476   0.3550   0.00    1.1
2173 244176.000    869160.1406  -5289359.0627   3444969.3684   2   8   0.4906   0.8997   0.6976  -0.3149  -0.5476   0.3551   0.00    1.1
2173 244177.000    869160.1818  -5289359.1585   3444969.6790   2   8   0.4906   0.8996   0.6977  -0.3149  -0.5476   0.3552   0.00    1.1
2173 244178.000    869160.3065  -5289359.1384   3444969.6420   2   8   0.4907   0.8995   0.6979  -0.3149  -0.5477   0.3553   0.00    1.1
2173 244179.000    869160.3396  -5289359.0035   3444969.5809   2   8   0.4907   0.8995   0.6980  -0.3149  -0.5477   0.3553   0.00    1.1
2173 244180.000    869160.3845  -5289358.5811   3444969.3118   2   8   0.4907   0.8994   0.6981  -0.3148  -0.5477   0.3554   0.00    1.3
2173 244181.000    869160.2094  -5289358.7777   3444969.2527   2   8   0.4907   0.8993   0.6983  -0.3148  -0.5478   0.3555   0.00    1.3
2173 244182.000    869160.0760  -5289359.2856   3444969.5788   2   7   0.4942   0.9820   0.6996  -0.2761  -0.5612   0.3526   0.00    1.1
2173 244183.000    869160.0437  -5289359.4466   3444969.5213   2   7   0.4943   0.9819   0.6997  -0.2761  -0.5612   0.3527   0.00    1.0
2173 244184.000    869159.8974  -5289359.7450   3444969.5054   2   7   0.4943   0.9818   0.6998  -0.2761  -0.5612   0.3528   0.00    1.1
2173 244185.000    869159.9854  -5289359.8084   3444969.8563   2   7   0.4943   0.9817   0.7000  -0.2761  -0.5612   0.3529   0.00    1.2
2173 244186.000    869160.1006  -5289359.6827   3444969.6665   2   7   0.4944   0.9816   0.7001  -0.2761  -0.5613   0.3529   0.00    1.1
2173 244187.000    869160.1634  -5289359.8655   3444970.0100   2   7   0.4944   0.9815   0.7003  -0.2761  -0.5613   0.3530   0.00    1.0
2173 244188.000    869160.1755  -5289359.9517   3444970.2412   2   7   0.4944   0.9814   0.7004  -0.2761  -0.5613   0.3531   0.00    1.2
2173 244189.000    869160.1304  -5289360.0465   3444970.2336   2   7   0.4944   0.9813   0.7005  -0.2761  -0.5613   0.3532   0.00    1.0
2173 244190.000    869160.2750  -5289360.0063   3444970.2078   2   7   0.4945   0.9812   0.7007  -0.2761  -0.5614   0.3533   0.00    1.0
2173 244191.000    869160.3321  -5289359.7468   3444969.6985   2   7   0.4945   0.9811   0.7008  -0.2761  -0.5614   0.3533   0.00    1.0
2173 244192.000    869160.3813  -5289359.8392   3444969.6443   2   7   0.4945   0.9809   0.7010  -0.2761  -0.5614   0.3534   0.00    1.1
2173 244193.000    869160.2243  -5289359.5848   3444969.6507   2   7   0.4946   0.9808   0.7011  -0.2761  -0.5614   0.3535   0.00    1.0
2173 244194.000    869159.9484  -5289359.7017   3444969.5217   2   7   0.4946   0.9807   0.7012  -0.2760  -0.5615   0.3536   0.00    1.0
2173 244195.000    869160.0373  -5289359.8758   3444969.6112   2   7   0.4946   0.9806   0.7014  -0.2760  -0.5615   0.3537   0.00    1.0
2173 244196.000    869160.0740  -5289360.0197   3444969.6141   2   7   0.4947   0.9805   0.7015  -0.2760  -0.5615   0.3537   0.00    1.3
2173 244197.000    869160.0931  -5289360.4765   3444969.9046   2   7   0.4947   0.9804   0.7017  -0.2760  -0.5615   0.3538   0.00    1.0
2173 244198.000    869160.2458  -5289360.3699   3444970.0180   2   6   0.5244   1.1807   0.7449   0.1948  -0.6924   0.2867   0.00    1.0
2173 244199.000    869160.2496  -5289360.4407   3444969.9893   2   7   0.4948   0.9802   0.7019  -0.2760  -0.5616   0.3540   0.00    1.0
2173 244200.000    869160.4015  -5289360.0181   3444969.9229   2   7   0.4948   0.9801   0.7021  -0.2760  -0.5616   0.3541   0.00    1.1
2173 244201.000    869160.4107  -5289360.2494   3444969.6632   2   7   0.4948   0.9800   0.7022  -0.2760  -0.5616   0.3541   0.00    1.1
2173 244202.000    869160.1685  -5289359.8581   3444969.2356   2   7   0.4948   0.9799   0.7024  -0.2760  -0.5617   0.3542   0.00    1.0
2173 244203.000    869160.1537  -5289360.0015   3444969.3551   2   7   0.4949   0.9798   0.7025  -0.2760  -0.5617   0.3543   0.00    1.5
2173 244204.000    869160.2527  -5289359.7556   3444969.1836   2   7   0.4949   0.9797   0.7026  -0.2760  -0.5617   0.3544   0.00    1.6
2173 244205.000    869160.3583  -5289359.7127   3444969.0359   2   7   0.4949   0.9795   0.7028  -0.2760  -0.5617   0.3545   0.00    1.5
2173 244206.000    869160.2338  -5289360.0427   3444969.0256   2   7   0.4950   0.9794   0.7029  -0.2760  -0.5618   0.3545   0.00    1.4
2173 244207.000    869160.4818  -5289359.3513   3444968.9945   2   7   0.4950   0.9793   0.7031  -0.2760  -0.5618   0.3546   0.00    1.1
2173 244208.000    869160.3429  -5289359.5456   3444968.9739   2   7   0.4950   0.9792   0.7032  -0.2760  -0.5618   0.3547   0.00    1.1
2173 244209.000    869160.2182  -5289360.2284   3444969.1465   2   7   0.4951   0.9791   0.7033  -0.2760  -0.5619   0.3548   0.00    1.9
2173 244210.000    869160.1643  -5289361.0985   3444969.4855   2   6   0.5245   1.1778   0.7467   0.1921  -0.6923   0.2881   0.00    1.3
2173 244211.000    869160.1622  -5289360.3515   3444969.3238   2   7   0.4951   0.9789   0.7036  -0.2759  -0.5619   0.3549   0.00    2.4
2173 244212.000    869159.9990  -5289360.6385   3444969.4109   2   7   0.4952   0.9788   0.7038  -0.2759  -0.5619   0.3550   0.00    2.0
2173 244213.000    869160.6279  -5289357.4296   3444969.1342   2   8   0.4918   0.8972   0.7027  -0.3142  -0.5487   0.3580   0.00    1.4
2173 244214.000    869160.5569  -5289357.2079   3444969.1553   2   8   0.4910   0.8902   0.7027  -0.3192  -0.5502   0.3575   0.00    1.3
2173 244215.000    869160.2075  -5289357.3826   3444969.0159   2   8   0.4907   0.8875   0.7028  -0.3210  -0.5508   0.3574   0.00    1.0
2173 244216.000    869160.2808  -5289356.9676   3444968.5353   2   8   0.4906   0.8861   0.7029  -0.3219  -0.5511   0.3573   0.00    2.4
2173 244217.000    869160.3887  -5289357.1329   3444968.5332   2   8   0.4905   0.8852   0.7031  -0.3225  -0.5513   0.3574   0.00    1.6
2173 244218.000    869160.5578  -5289357.1008   3444968.5549   2   8   0.4905   0.8846   0.7032  -0.3228  -0.5515   0.3574   0.00    1.6
2173 244219.000    869160.4486  -5289357.4049   3444968.5465   2   8   0.4905   0.8841   0.7033  -0.3231  -0.5516   0.3574   0.00    1.1
2173 244220.000    869160.3458  -5289357.2209   3444968.6821   2   8   0.4905   0.8838   0.7035  -0.3233  -0.5517   0.3575   0.00    1.6
2173 244221.000    869160.4454  -5289357.8739   3444968.9144   2   8   0.4920   0.8967   0.7039  -0.3140  -0.5490   0.3586   0.00    1.9
2173 244222.000    869160.4657  -5289357.7339   3444968.8049   2   8   0.4921   0.8966   0.7040  -0.3140  -0.5490   0.3587   0.00    1.3
2173 244223.000    869159.9954  -5289360.3183   3444969.1276   2   7   0.4955   0.9776   0.7053  -0.2759  -0.5623   0.3559   0.00    1.9
2173 244224.000    869160.4753  -5289358.9812   3444969.2494   2   8   0.4921   0.8965   0.7043  -0.3140  -0.5491   0.3589   0.00    1.3
2173 244225.000    869160.4810  -5289359.3079   3444969.3929   2   8   0.4922   0.8964   0.7044  -0.3140  -0.5491   0.3590   0.00    1.1
2173 244226.000    869160.1129  -5289360.5599   3444969.2778   2   7   0.4956   0.9773   0.7058  -0.2759  -0.5624   0.3562   0.00    1.1
2173 244227.000    869160.0454  -5289360.5394   3444969.3633   2   7   0.4956   0.9772   0.7059  -0.2759  -0.5624   0.3562   0.00    1.4
2173 244228.000    869159.9723  -5289360.7569   3444969.4084   2   7   0.4957   0.9771   0.7060  -0.2759  -0.5624   0.3563   0.00    1.8
2173 244229.000    869159.9576  -5289360.5571   3444969.2361   2   7   0.4957   0.9770   0.7062  -0.2759  -0.5624   0.3564   0.00    1.1
2173 244230.000    869160.0664  -5289360.2563   3444969.0622   2   7   0.4957   0.9769   0.7063  -0.2759  -0.5625   0.3565   0.00    1.0
2173 244231.000    869160.1072  -5289360.2328   3444969.1422   2   7   0.4958   0.9768   0.7065  -0.2759  -0.5625   0.3566   0.00    1.1
2173 244232.000    869160.3073  -5289360.2562   3444969.1665   2   7   0.4958   0.9767   0.7066  -0.2759  -0.5625   0.3566   0.00    1.2
2173 244233.000    869160.2357  -5289359.9141   3444969.2725   2   7   0.4958   0.9766   0.7068  -0.2759  -0.5626   0.3567   0.00    1.1
2173 244234.000    869160.3537  -5289359.8449   3444969.3359   2   7   0.4959   0.9765   0.7069  -0.2759  -0.5626   0.3568   0.00    1.6
2173 244235.000    869160.3543  -5289359.4108   3444968.8500   2   7   0.4959   0.9764   0.7070  -0.2759  -0.5626   0.3569   0.00    1.5
2173 244236.000    869160.4603  -5289359.8526   3444968.9115   2   7   0.4959   0.9763   0.7072  -0.2758  -0.5627   0.3570   0.00    1.4
2173 244237.000    869160.2388  -5289359.9595   3444968.8270   2   7   0.4959   0.9762   0.7073  -0.2758  -0.5627   0.3571   0.00    1.4
2173 244238.000    869160.2134  -5289359.7620   3444968.6930   2   7   0.4960   0.9761   0.7075  -0.2758  -0.5627   0.3571   0.00    1.2
2173 244239.000    869160.2756  -5289359.9627   3444968.7819   2   7   0.4960   0.9760   0.7076  -0.2758  -0.5628   0.3572   0.00    1.4
2173 244240.000    869160.1144  -5289359.9414   3444968.5511   2   6   0.5617   1.0033   1.0161  -0.3704  -0.6971   0.5655   0.00    1.7
2173 244241.000    869160.1787  -5289360.3299   3444968.5626   2   6   0.5618   1.0032   1.0163  -0.3705  -0.6972   0.5656   0.00    2.0
2173 244242.000    869160.0201  -5289360.5098   3444969.0739   2   6   0.5618   1.0031   1.0165  -0.3706  -0.6974   0.5657   0.00    2.2
2173 244243.000    869160.1365  -5289360.2692   3444969.4311   2   6   0.5618   1.0031   1.0167  -0.3706  -0.6975   0.5659   0.00    1.0
2173 244244.000    869160.4170  -5289360.8483   3444969.6592   2   6   0.5619   1.0030   1.0170  -0.3707  -0.6977   0.5660   0.00    1.7
2173 244245.000    869160.3599  -5289360.7514   3444969.5622   2   6   0.5619   1.0030   1.0172  -0.3708  -0.6978   0.5661   0.00    1.4
2173 244246.000    869160.3051  -5289360.8135   3444969.7306   2   6   0.5620   1.0029   1.0174  -0.3708  -0.6980   0.5662   0.00    1.3
2173 244247.000    869160.3365  -5289361.0793   3444969.5279   2   6   0.5620   1.0028   1.0176  -0.3709  -0.6981   0.5663   0.00    1.1
2173 244248.000    869160.3958  -5289360.6747   3444969.3707   2   6   0.5621   1.0028   1.0178  -0.3710  -0.6982   0.5664   0.00    1.1
2173 244249.000    869160.4906  -5289360.3760   3444969.2593   2   6   0.5621   1.0027   1.0180  -0.3710  -0.6984   0.5665   0.00    1.5
2173 244250.000    869160.5806  -5289360.6040   3444969.5050   2   6   0.5621   1.0027   1.0183  -0.3711  -0.6985   0.5666   0.00    1.4
2173 244251.000    869160.3959  -5289360.8223   3444969.4008   2   6   0.5622   1.0026   1.0185  -0.3712  -0.6987   0.5667   0.00    1.2
2173 244252.000    869160.5620  -5289361.4155   3444970.2773   2   6   0.5622   1.0025   1.0187  -0.3713  -0.6988   0.5668   0.00    1.4
2173 244253.000    869160.4311  -5289361.8680   3444969.9058   2   6   0.5623   1.0025   1.0189  -0.3713  -0.6990   0.5669   0.00    1.0
2173 244254.000    869160.6378  -5289361.7056   3444970.0773   2   6   0.5623   1.0024   1.0191  -0.3714  -0.6991   0.5670   0.00    1.1
2173 244255.000    869160.5043  -5289361.4386   3444970.0289   2   6   0.5623   1.0024   1.0193  -0.3715  -0.6993   0.5671   0.00    1.5
2173 244256.000    869160.3784  -5289361.3762   3444970.5884   1   5   0.0058   0.0124   0.0112  -0.0025  -0.0090   0.0053   0.00    5.9
2173 244257.000    869160.5365  -5289361.9844   3444970.5046   2   5   0.5736   1.2308   1.1066  -0.2404  -0.8924   0.5231   0.00    2.9
2173 244258.000    869160.3771  -5289361.3784   3444970.5872   1   5   0.0058   0.0124   0.0112  -0.0025  -0.0090   0.0053   0.00    7.0
2173 244259.000    869160.3759  -5289361.3793   3444970.5903   1   5   0.0058   0.0124   0.0112  -0.0025  -0.0090   0.0053   0.00    4.5
2173 244260.000    869160.3786  -5289361.3755   3444970.5901   1   5   0.0058   0.0124   0.0112  -0.0025  -0.0090   0.0053   0.00    4.5
2173 244261.000    869160.3774  -5289361.3777   3444970.5917   1   5   0.0058   0.0124   0.0112  -0.0025  -0.0090   0.0053   0.00    4.2
2173 244262.000    869161.3689  -5289356.7629   3444967.7192   2   6   0.5666   1.0888   1.0528  -0.3318  -0.7746   0.5527   0.00    1.2
2173 244263.000    869161.4125  -5289355.7208   3444967.2362   2   6   0.5666   1.0887   1.0531  -0.3319  -0.7748   0.5528   0.00    1.6
2173 244264.000    869161.4769  -5289355.9187   3444967.4006   2   6   0.5666   1.0886   1.0533  -0.3320  -0.7750   0.5529   0.00    1.5
2173 244265.000    869161.5934  -5289356.3142   3444967.4199   2   6   0.5667   1.0886   1.0536  -0.3322  -0.7751   0.5530   0.00    1.6
2173 244266.000    869161.3154  -5289355.5308   3444967.1189   2   6   0.5667   1.0885   1.0538  -0.3323  -0.7753   0.5531   0.00    2.0
2173 244267.000    869161.3043  -5289356.1528   3444967.6948   2   6   0.5667   1.0884   1.0541  -0.3324  -0.7755   0.5533   0.00    2.3
2173 244268.000    869161.3243  -5289356.7482   3444967.9038   2   6   0.5668   1.0883   1.0543  -0.3326  -0.7756   0.5534   0.00    1.5
2173 244269.000    869161.2702  -5289357.5435   3444968.1470   2   6   0.5668   1.0882   1.0546  -0.3327  -0.7758   0.5535   0.00    1.4
2173 244270.000    869161.0539  -5289358.1562   3444968.7009   2   6   0.5668   1.0882   1.0548  -0.3328  -0.7760   0.5536   0.00    1.2
2173 244271.000    869160.3892  -5289361.7657   3444970.5292   2   5   0.5738   1.2290   1.1108  -0.2450  -0.8949   0.5251   0.00    2.4
2173 244272.000    869160.3761  -5289361.3803   3444970.5886   1   5   0.0058   0.0124   0.0112  -0.0025  -0.0090   0.0053   0.00    3.4
2173 244273.000    869159.8953  -5289360.0707   3444968.1148   2   6   0.5402   1.1836   0.8785   0.0605  -0.7595   0.3796   0.00    1.2
2173 244274.000    869159.8308  -5289360.6606   3444968.5496   2   6   0.5379   1.1808   0.8592   0.0862  -0.7501   0.3675   0.00    1.4
2173 244275.000    869159.7506  -5289360.6629   3444968.7882   2   7   0.5203   1.0604   0.8205  -0.2394  -0.6661   0.3968   0.00    1.6
2173 244276.000    869159.7471  -5289361.3453   3444969.2994   2   7   0.5194   1.0601   0.8158  -0.2381  -0.6647   0.3932   0.00    1.3
2173 244277.000    869159.8855  -5289361.9348   3444969.3323   2   7   0.5188   1.0598   0.8131  -0.2373  -0.6640   0.3912   0.00    1.1
2173 244278.000    869159.5811  -5289361.5433   3444968.8590   2   7   0.5259   1.0612   0.8471  -0.2473  -0.6739   0.4164   0.00    1.0
2173 244279.000    869159.4954  -5289362.2635   3444969.0025   2   7   0.5259   1.0610   0.8473  -0.2473  -0.6740   0.4165   0.00    1.0
2173 244280.000    869159.5087  -5289362.0379   3444969.0445   2   7   0.5259   1.0609   0.8475  -0.2474  -0.6741   0.4166   0.00    1.1
2173 244281.000    869159.3935  -5289361.1961   3444967.9997   2   7   0.5259   1.0608   0.8477  -0.2475  -0.6741   0.4167   0.00    1.4
2173 244282.000    869160.2195  -5289361.9264   3444970.3987   2   6   0.5672   1.0872   1.0578  -0.3344  -0.7780   0.5550   0.00    1.1
2173 244283.000    869160.3638  -5289362.3521   3444970.9039   2   6   0.5673   1.0872   1.0581  -0.3345  -0.7781   0.5551   0.00    2.4
2173 244284.000    869160.3466  -5289361.9507   3444970.6220   2   6   0.5673   1.0871   1.0583  -0.3347  -0.7783   0.5553   0.00    2.4
2173 244285.000    869160.1047  -5289362.5691   3444970.8907   2   6   0.5673   1.0870   1.0586  -0.3348  -0.7785   0.5554   0.00    1.3
2173 244286.000    869160.3777  -5289361.3679   3444970.5760   1   6   0.0057   0.0110   0.0107  -0.0034  -0.0079   0.0056   0.00    3.5
2173 244287.000    869160.2576  -5289361.8012   3444969.8986   2   6   0.5674   1.0869   1.0591  -0.3351  -0.7788   0.5556   0.00    1.9
2173 244288.000    869160.4668  -5289361.6885   3444969.9544   2   6   0.5674   1.0868   1.0594  -0.3352  -0.7790   0.5557   0.00    1.2
2173 244289.000    869160.4057  -5289361.1800   3444969.7755   2   6   0.5675   1.0867   1.0596  -0.3353  -0.7791   0.5559   0.00    1.9
2173 244290.000    869160.7073  -5289360.7991   3444969.6045   2   6   0.5675   1.0866   1.0599  -0.3355  -0.7793   0.5560   0.00    1.8
2173 244291.000    869160.3778  -5289361.3707   3444970.5745   1   6   0.0057   0.0110   0.0107  -0.0034  -0.0079   0.0056   0.00    3.8
2173 244292.000    869160.3765  -5289361.3820   3444970.5857   1   5   0.0058   0.0124   0.0113  -0.0026  -0.0091   0.0054   0.00    4.1
2173 244293.000    869160.3785  -5289361.3808   3444970.5846   1   5   0.0058   0.0124   0.0113  -0.0026  -0.0091   0.0054   0.00    3.8
2173 244294.000    869160.3783  -5289361.3817   3444970.5890   1   5   0.0058   0.0124   0.0113  -0.0026  -0.0091   0.0054   0.00    4.3
2173 244295.000    869160.3792  -5289361.3827   3444970.5881   1   5   0.0058   0.0124   0.0113  -0.0026  -0.0091   0.0054   0.00    4.2
2173 244296.000    869160.3769  -5289361.3836   3444970.5849   1   5   0.0058   0.0124   0.0113  -0.0026  -0.0091   0.0054   0.00    7.7
2173 244297.000    869160.3789  -5289361.3812   3444970.5873   1   5   0.0058   0.0124   0.0113  -0.0026  -0.0091   0.0054   0.00    6.3
2173 244298.000    869160.3783  -5289361.3829   3444970.5916   1   5   0.0058   0.0124   0.0113  -0.0026  -0.0091   0.0054   0.00    4.8
2173 244299.000    869160.3766  -5289361.3777   3444970.5857   1   5   0.0058   0.0124   0.0113  -0.0026  -0.0091   0.0054   0.00    6.3
2173 244300.000    869160.3788  -5289361.3827   3444970.5848   1   5   0.0058   0.0124   0.0113  -0.0026  -0.0091   0.0054   0.00    5.1
2173 244301.000    869160.3793  -5289361.3909   3444970.5897   1   5   0.0058   0.0124   0.0113  -0.0026  -0.0091   0.0054   0.00    5.3
2173 244302.000    869160.3795  -5289361.3863   3444970.5893   1   5   0.0058   0.0123   0.0113  -0.0026  -0.0091   0.0054   0.00    6.8
2173 244303.000    869160.3796  -5289361.3871   3444970.5865   1   5   0.0058   0.0123   0.0113  -0.0026  -0.0091   0.0054   0.00    7.8
2173 244304.000    869160.3798  -5289361.3861   3444970.5902   1   5   0.0058   0.0123   0.0113  -0.0026  -0.0091   0.0054   0.00    5.8
2173 244305.000    869160.3768  -5289361.3926   3444970.5890   1   5   0.0058   0.0123   0.0113  -0.0026  -0.0091   0.0054   0.00    5.6
2173 244306.000    869160.3780  -5289361.3913   3444970.5905   1   5   0.0058   0.0123   0.0113  -0.0027  -0.0091   0.0054   0.00    7.0
2173 244307.000    869160.3794  -5289361.3890   3444970.5858   1   5   0.0058   0.0123   0.0113  -0.0027  -0.0091   0.0054   0.00    4.8
2173 244308.000    869160.3796  -5289361.3912   3444970.5913   1   5   0.0058   0.0123   0.0113  -0.0027  -0.0091   0.0054   0.00    5.5
2173 244309.000    869160.3785  -5289361.3909   3444970.5878   1   5   0.0058   0.0123   0.0113  -0.0027  -0.0091   0.0054   0.00   10.5
2173 244310.000    869160.3736  -5289361.3911   3444970.5884   1   5   0.0058   0.0123   0.0113  -0.0027  -0.0091   0.0054   0.00    5.8
2173 244311.000    869160.3785  -5289361.3949   3444970.5944   1   5   0.0058   0.0123   0.0113  -0.0027  -0.0091   0.0054   0.00   11.8
2173 244312.000    869160.4490  -5289360.9328   3444970.3198   2   5   0.5746   1.2241   1.1233  -0.2578  -0.9026   0.5310   0.00    2.5
2173 244313.000    869160.3747  -5289361.3920   3444970.5929   1   5   0.0058   0.0123   0.0113  -0.0027  -0.0091   0.0054   0.00    4.3
2173 244314.000    869160.3762  -5289361.3939   3444970.5923   1   5   0.0058   0.0123   0.0113  -0.0027  -0.0091   0.0054   0.00    7.3
2173 244315.000    869160.1547  -5289360.8731   3444970.2802   2   5   0.5746   1.2237   1.1242  -0.2587  -0.9031   0.5314   0.00    2.1
2173 244316.000    869160.3075  -5289360.7489   3444970.0315   2   5   0.5746   1.2236   1.1245  -0.2590  -0.9033   0.5315   0.00    2.3
2173 244317.000    869160.0794  -5289360.9552   3444970.1575   2   5   0.5747   1.2235   1.1248  -0.2593  -0.9035   0.5317   0.00    2.7
2173 244318.000    869160.1235  -5289360.5853   3444969.9028   2   5   0.5747   1.2234   1.1251  -0.2596  -0.9037   0.5318   0.00    2.4
2173 244319.000    869160.1929  -5289360.0990   3444970.0758   2   5   0.5747   1.2233   1.1254  -0.2599  -0.9039   0.5320   0.00    2.4
2173 244320.000    869160.1832  -5289359.9722   3444969.6633   2   5   0.5747   1.2232   1.1257  -0.2602  -0.9041   0.5321   0.00    3.0
2173 244321.000    869160.1870  -5289360.7198   3444970.1300   2   5   0.5747   1.2230   1.1260  -0.2605  -0.9043   0.5323   0.00    2.6
2173 244322.000    869160.1742  -5289361.0450   3444970.4946   2   5   0.5748   1.2229   1.1263  -0.2608  -0.9045   0.5324   0.00    1.6
2173 244323.000    869160.3764  -5289361.3940   3444970.5947   1   5   0.0058   0.0123   0.0114  -0.0027  -0.0091   0.0054   0.00    3.6
2173 244324.000    869160.3788  -5289361.3989   3444970.6001   1   5   0.0058   0.0123   0.0114  -0.0027  -0.0091   0.0054   0.00    3.4
2173 244325.000    869160.2590  -5289359.8557   3444969.9549   2   5   0.5748   1.2226   1.1273  -0.2617  -0.9051   0.5328   0.00    2.7
2173 244326.000    869160.3836  -5289361.3959   3444970.5987   1   5   0.0058   0.0123   0.0114  -0.0027  -0.0091   0.0054   0.00    3.4
2173 244327.000    869160.3764  -5289361.3988   3444970.5947   1   5   0.0058   0.0123   0.0114  -0.0027  -0.0091   0.0054   0.00    3.8
2173 244328.000    869160.3788  -5289361.4006   3444970.5987   1   5   0.0058   0.0123   0.0114  -0.0027  -0.0091   0.0054   0.00    3.6
2173 244329.000    869160.3821  -5289361.4035   3444970.6042   1   5   0.0058   0.0123   0.0114  -0.0027  -0.0091   0.0054   0.00    5.2
2173 244330.000    869160.3804  -5289361.4009   3444970.6004   1   5   0.0058   0.0123   0.0114  -0.0027  -0.0092   0.0054   0.00    6.1
2173 244331.000    869160.3793  -5289361.4021   3444970.5999   1   5   0.0058   0.0123   0.0114  -0.0027  -0.0092   0.0054   0.00    4.8
2173 244332.000    869160.3785  -5289361.3967   3444970.5943   1   5   0.0058   0.0123   0.0114  -0.0027  -0.0092   0.0054   0.00    4.8
2173 244333.000    869160.6296  -5289358.9490   3444968.9921   2   6   0.5671   1.0738   1.1174  -0.3535  -0.8515   0.5485   0.00    1.0
2173 244334.000    869160.6439  -5289359.0970   3444969.2757   2   6   0.5660   1.0631   1.1173  -0.3609  -0.8488   0.5497   0.00    1.0
2173 244335.000    869160.8352  -5289359.2270   3444969.4955   2   6   0.5657   1.0590   1.1174  -0.3638  -0.8479   0.5502   0.00    1.0
2173 244336.000    869160.8086  -5289358.7482   3444969.5221   2   6   0.5655   1.0569   1.1176  -0.3653  -0.8475   0.5506   0.00    1.2
2173 244337.000    869160.4933  -5289359.9540   3444969.8734   2   6   0.5654   1.0556   1.1178  -0.3663  -0.8473   0.5508   0.00    1.4
2173 244338.000    869160.6317  -5289360.1971   3444970.3049   2   6   0.5653   1.0546   1.1181  -0.3670  -0.8472   0.5510   0.00    1.5
2173 244339.000    869160.5547  -5289360.1939   3444969.8200   2   6   0.5653   1.0540   1.1183  -0.3676  -0.8472   0.5513   0.00    1.4
2173 244340.000    869160.5592  -5289360.0890   3444969.8634   2   6   0.5653   1.0535   1.1186  -0.3680  -0.8473   0.5514   0.00    1.2
2173 244341.000    869160.4896  -5289359.5058   3444969.1944   2   6   0.5653   1.0531   1.1189  -0.3684  -0.8474   0.5516   0.00    1.1
2173 244342.000    869160.7680  -5289359.8137   3444969.8155   2   6   0.5674   1.0736   1.1202  -0.3547  -0.8532   0.5497   0.00    1.1
2173 244343.000    869160.5406  -5289360.3711   3444969.7419   2   6   0.5674   1.0736   1.1205  -0.3548  -0.8534   0.5499   0.00    1.1
2173 244344.000    869160.6317  -5289360.4379   3444969.8286   2   6   0.5674   1.0736   1.1208  -0.3549  -0.8536   0.5500   0.00    1.0
2173 244345.000    869160.4663  -5289360.6670   3444969.8347   2   6   0.5675   1.0736   1.1211  -0.3550  -0.8538   0.5502   0.00    1.0
2173 244346.000    869160.4910  -5289361.2205   3444970.4125   2   6   0.5675   1.0736   1.1214  -0.3552  -0.8540   0.5503   0.00    1.1
2173 244347.000    869160.3969  -5289360.8949   3444970.0043   2   6   0.5675   1.0736   1.1217  -0.3553  -0.8542   0.5504   0.00    1.1
2173 244348.000    869160.5313  -5289361.5491   3444970.4047   2   6   0.5676   1.0736   1.1220  -0.3554  -0.8544   0.5506   0.00    1.1
2173 244349.000    869160.4495  -5289361.3479   3444970.3172   2   6   0.5676   1.0735   1.1223  -0.3555  -0.8546   0.5507   0.00    1.2
2173 244350.000    869160.4788  -5289361.8388   3444970.6792   2   6   0.5676   1.0735   1.1226  -0.3557  -0.8548   0.5509   0.00    1.0
2173 244351.000    869160.3848  -5289361.3981   3444970.6016   1   5   0.0058   0.0123   0.0115  -0.0028  -0.0092   0.0054   0.00    3.6
2173 244352.000    869160.3863  -5289361.4017   3444970.6052   1   5   0.0058   0.0123   0.0115  -0.0028  -0.0092   0.0054   0.00    3.0
2173 244353.000    869160.3844  -5289361.4007   3444970.6019   1   5   0.0058   0.0123   0.0115  -0.0028  -0.0092   0.0054   0.00    4.6
2173 244354.000    869160.3844  -5289361.4000   3444970.6026   1   5   0.0058   0.0123   0.0115  -0.0028  -0.0092   0.0054   0.00    5.2
2173 244355.000    869160.3824  -5289361.3991   3444970.6001   1   5   0.0058   0.0123   0.0115  -0.0028  -0.0092   0.0054   0.00    5.6
2173 244356.000    869160.3851  -5289361.4039   3444970.6007   1   5   0.0058   0.0123   0.0115  -0.0028  -0.0092   0.0054   0.00    3.1
2173 244357.000    869160.3831  -5289361.4003   3444970.5972   1   5   0.0058   0.0123   0.0115  -0.0028  -0.0092   0.0055   0.00    5.4
2173 244358.000    869160.3842  -5289361.3955   3444970.5996   1   5   0.0058   0.0123   0.0115  -0.0028  -0.0092   0.0055   0.00    4.2
2173 244359.000    869160.3853  -5289361.3980   3444970.6011   1   5   0.0058   0.0123   0.0115  -0.0028  -0.0092   0.0055   0.00    7.8
2173 244360.000    869160.6450  -5289361.7972   3444970.9187   2   5   0.5755   1.2189   1.1382  -0.2720  -0.9119   0.5380   0.00    2.4
2173 244361.000    869160.3842  -5289361.3959   3444970.5996   1   5   0.0058   0.0123   0.0115  -0.0028  -0.0092   0.0055   0.00    3.7
2173 244362.000    869160.3849  -5289361.4020   3444970.6005   1   5   0.0058   0.0123   0.0115  -0.0028  -0.0092   0.0055   0.00    4.3
2173 244363.000    869160.3107  -5289361.4665   3444970.2905   2   5   0.5756   1.2185   1.1392  -0.2729  -0.9125   0.5384   0.00    2.6
2173 244364.000    869160.1469  -5289361.6600   3444970.8112   2   5   0.5756   1.2184   1.1395  -0.2732  -0.9127   0.5385   0.00    1.7
2173 244365.000    869160.1358  -5289361.6932   3444970.3235   2   5   0.5756   1.2183   1.1398  -0.2734  -0.9129   0.5387   0.00    1.6
2173 244366.000    869160.1201  -5289361.7451   3444970.7533   2   5   0.5756   1.2182   1.1401  -0.2737  -0.9131   0.5388   0.00    2.4
2173 244367.000    869160.3863  -5289361.4019   3444970.6055   1   5   0.0058   0.0123   0.0115  -0.0028  -0.0092   0.0055   0.00    4.3
2173 244368.000    869160.3847  -5289361.3981   3444970.6048   1   5   0.0058   0.0123   0.0115  -0.0028  -0.0092   0.0055   0.00    3.3
2173 244369.000    869160.3871  -5289361.3976   3444970.6016   1   5   0.0058   0.0123   0.0115  -0.0028  -0.0092   0.0055   0.00    4.8
2173 244370.000    869160.3838  -5289361.3974   3444970.5989   1   5   0.0058   0.0123   0.0115  -0.0028  -0.0092   0.0055   0.00    4.9
2173 244371.000    869160.3837  -5289361.3991   3444970.6030   1   5   0.0058   0.0123   0.0115  -0.0028  -0.0092   0.0055   0.00    5.7
2173 244372.000    869160.3842  -5289361.4025   3444970.6037   1   5   0.0058   0.0123   0.0115  -0.0028  -0.0092   0.0055   0.00    3.9
2173 244373.000    869160.3871  -5289361.4023   3444970.6086   1   5   0.0058   0.0123   0.0115  -0.0028  -0.0092   0.0055   0.00    3.7
2173 244374.000    869160.3848  -5289361.3901   3444970.6003   1   5   0.0058   0.0123   0.0115  -0.0028  -0.0092   0.0055   0.00    3.6
2173 244375.000    869160.3867  -5289361.3966   3444970.6029   1   5   0.0058   0.0123   0.0115  -0.0029  -0.0092   0.0055   0.00    3.8
2173 244376.000    869160.3857  -5289361.3967   3444970.6019   1   5   0.0058   0.0123   0.0115  -0.0029  -0.0092   0.0055   0.00    4.5
2173 244377.000    869160.3855  -5289361.4014   3444970.5995   1   5   0.0058   0.0123   0.0115  -0.0029  -0.0092   0.0055   0.00    3.5
2173 244378.000    869160.3867  -5289361.4026   3444970.6043   1   5   0.0058   0.0123   0.0115  -0.0029  -0.0092   0.0055   0.00    6.2
2173 244379.000    869160.3872  -5289361.4007   3444970.6064   1   5   0.0058   0.0123   0.0115  -0.0029  -0.0092   0.0055   0.00    5.2
2173 244380.000    869160.3878  -5289361.4043   3444970.6062   1   5   0.0058   0.0123   0.0116  -0.0029  -0.0093   0.0055   0.00    4.2
2173 244381.000    869160.1654  -5289361.1714   3444970.5112   2   6   0.5687   1.0733   1.1320  -0.3596  -0.8609   0.5552   0.00    1.0
2173 244382.000    869160.0052  -5289361.9928   3444970.7402   2   6   0.5677   1.0625   1.1318  -0.3668  -0.8580   0.5564   0.00    1.0
2173 244383.000    869160.0059  -5289361.7378   3444970.6001   2   6   0.5674   1.0585   1.1319  -0.3695  -0.8570   0.5570   0.00    1.0
2173 244384.000    869160.0675  -5289361.3571   3444970.5392   2   6   0.5672   1.0563   1.1321  -0.3710  -0.8565   0.5573   0.00    1.0
2173 244385.000    869159.9542  -5289361.5617   3444970.2751   2   6   0.5671   1.0550   1.1323  -0.3720  -0.8563   0.5576   0.00    1.2
2173 244386.000    869160.0689  -5289361.3407   3444970.4392   2   6   0.5671   1.0541   1.1326  -0.3727  -0.8563   0.5578   0.00    1.3
2173 244387.000    869160.2125  -5289361.6602   3444970.7316   2   6   0.5671   1.0534   1.1328  -0.3732  -0.8563   0.5580   0.00    1.0
2173 244388.000    869160.0617  -5289361.3103   3444970.4197   2   6   0.5689   1.0732   1.1342  -0.3605  -0.8623   0.5562   0.00    1.1
2173 244389.000    869159.8916  -5289361.1355   3444970.1279   2   6   0.5690   1.0732   1.1345  -0.3607  -0.8625   0.5563   0.00    1.0
2173 244390.000    869159.9130  -5289361.0599   3444969.7689   2   6   0.5690   1.0732   1.1348  -0.3608  -0.8627   0.5565   0.00    1.0
2173 244391.000    869159.7177  -5289361.0459   3444969.6684   2   6   0.5690   1.0732   1.1351  -0.3609  -0.8629   0.5566   0.00    1.1
2173 244392.000    869159.5509  -5289361.1086   3444969.3481   2   6   0.5691   1.0732   1.1354  -0.3610  -0.8631   0.5568   0.00    1.1
2173 244393.000    869159.4861  -5289361.2094   3444969.5066   2   6   0.5691   1.0732   1.1357  -0.3612  -0.8633   0.5569   0.00    1.1
2173 244394.000    869159.5958  -5289361.3327   3444969.7685   2   6   0.5692   1.0732   1.1360  -0.3613  -0.8635   0.5570   0.00    1.1
2173 244395.000    869159.6907  -5289360.8746   3444969.5836   2   6   0.5692   1.0732   1.1363  -0.3614  -0.8637   0.5572   0.00    1.0
2173 244396.000    869159.6337  -5289360.9922   3444969.5201   2   6   0.5692   1.0732   1.1366  -0.3616  -0.8639   0.5573   0.00    1.0
2173 244397.000    869159.7550  -5289361.2826   3444970.1448   2   6   0.5693   1.0732   1.1370  -0.3617  -0.8641   0.5575   0.00    1.0
2173 244398.000    869159.6860  -5289361.1135   3444970.1195   2   6   0.5693   1.0732   1.1373  -0.3618  -0.8643   0.5576   0.00    1.1
2173 244399.000    869159.9158  -5289361.5932   3444970.0873   2   6   0.5693   1.0732   1.1376  -0.3620  -0.8645   0.5578   0.00    1.1
2173 244400.000    869159.8566  -5289361.0083   3444969.7403   2   6   0.5694   1.0732   1.1379  -0.3621  -0.8647   0.5579   0.00    1.0
2173 244401.000    869159.7950  -5289361.1117   3444969.9342   2   6   0.5694   1.0732   1.1382  -0.3622  -0.8649   0.5580   0.00    1.1
2173 244402.000    869159.6531  -5289360.6652   3444969.4522   2   6   0.5694   1.0732   1.1385  -0.3623  -0.8651   0.5582   0.00    1.0
2173 244403.000    869159.7786  -5289360.7652   3444969.9001   2   6   0.5695   1.0732   1.1388  -0.3625  -0.8653   0.5583   0.00    1.0
2173 244404.000    869159.4236  -5289360.7960   3444969.5279   2   6   0.5695   1.0732   1.1391  -0.3626  -0.8655   0.5585   0.00    1.0
2173 244405.000    869159.3573  -5289360.5770   3444968.8481   2   6   0.5695   1.0732   1.1394  -0.3627  -0.8657   0.5586   0.00    1.0
2173 244406.000    869159.5520  -5289360.5726   3444969.5589   2   6   0.5696   1.0732   1.1398  -0.3629  -0.8659   0.5588   0.00    1.2
2173 244407.000    869159.6809  -5289360.6499   3444969.4214   2   6   0.5696   1.0732   1.1401  -0.3630  -0.8661   0.5589   0.00    1.1
2173 244408.000    869159.5973  -5289360.8569   3444969.3842   2   6   0.5696   1.0732   1.1404  -0.3631  -0.8663   0.5590   0.00    1.1
2173 244409.000    869159.4236  -5289361.0432   3444969.3304   2   6   0.5697   1.0732   1.1407  -0.3633  -0.8665   0.5592   0.00    1.4
2173 244410.000    869159.7210  -5289360.8035   3444969.4361   2   6   0.5697   1.0732   1.1410  -0.3634  -0.8667   0.5593   0.00    1.3
2173 244411.000    869159.8501  -5289361.1534   3444969.4218   2   6   0.5698   1.0732   1.1413  -0.3635  -0.8669   0.5595   0.00    1.3
2173 244412.000    869159.9338  -5289361.4407   3444969.8933   2   6   0.5698   1.0731   1.1416  -0.3636  -0.8671   0.5596   0.00    1.0
2173 244413.000    869159.7962  -5289360.4683   3444969.3271   2   6   0.5698   1.0731   1.1419  -0.3638  -0.8673   0.5598   0.00    1.0
2173 244414.000    869159.5425  -5289360.4591   3444968.5961   2   6   0.5699   1.0731   1.1422  -0.3639  -0.8675   0.5599   0.00    1.3
2173 244415.000    869159.6197  -5289360.2781   3444968.9598   2   6   0.5699   1.0731   1.1426  -0.3640  -0.8677   0.5600   0.00    1.3
2173 244416.000    869159.7371  -5289360.9655   3444969.3474   2   6   0.5699   1.0731   1.1429  -0.3642  -0.8679   0.5602   0.00    1.1
2173 244417.000    869159.8355  -5289360.6190   3444969.4674   2   6   0.5700   1.0731   1.1432  -0.3643  -0.8681   0.5603   0.00    1.1
2173 244418.000    869159.8308  -5289360.4822   3444969.3483   2   6   0.5700   1.0731   1.1435  -0.3644  -0.8683   0.5605   0.00    1.6
2173 244419.000    869159.7200  -5289360.8303   3444969.3624   2   6   0.5700   1.0731   1.1438  -0.3646  -0.8686   0.5606   0.00    1.2
2173 244420.000    869159.7932  -5289361.0498   3444969.2336   2   6   0.5701   1.0731   1.1441  -0.3647  -0.8688   0.5608   0.00    1.5
2173 244421.000    869159.5906  -5289360.7208   3444969.0071   2   6   0.5701   1.0731   1.1444  -0.3648  -0.8690   0.5609   0.00    1.2
2173 244422.000    869159.3946  -5289360.5672   3444968.8978   2   6   0.5701   1.0732   1.1448  -0.3649  -0.8692   0.5610   0.00    1.0
2173 244423.000    869159.4299  -5289360.6964   3444968.9522   2   6   0.5702   1.0732   1.1451  -0.3651  -0.8694   0.5612   0.00    1.1
2173 244424.000    869159.4760  -5289360.6381   3444969.0699   2   6   0.5702   1.0732   1.1454  -0.3652  -0.8696   0.5613   0.00    1.2
2173 244425.000    869159.6872  -5289360.7399   3444969.1012   2   6   0.5703   1.0732   1.1457  -0.3653  -0.8698   0.5615   0.00    1.3
2173 244426.000    869159.6164  -5289360.6298   3444968.7334   2   6   0.5703   1.0732   1.1460  -0.3655  -0.8700   0.5616   0.00    1.1
2173 244427.000    869159.7135  -5289360.9831   3444969.0879   2   6   0.5703   1.0732   1.1463  -0.3656  -0.8702   0.5618   0.00    1.1
2173 244428.000    869159.5695  -5289360.9186   3444968.8228   2   6   0.5704   1.0732   1.1466  -0.3657  -0.8704   0.5619   0.00    1.6
2173 244429.000    869159.5111  -5289360.9485   3444968.8074   2   6   0.5704   1.0732   1.1470  -0.3659  -0.8706   0.5621   0.00    1.2
2173 244430.000    869159.6993  -5289361.0039   3444969.2666   2   6   0.5704   1.0732   1.1473  -0.3660  -0.8708   0.5622   0.00    1.3
2173 244431.000    869159.7174  -5289360.7808   3444969.3344   2   6   0.5705   1.0732   1.1476  -0.3661  -0.8710   0.5623   0.00    1.2
2173 244432.000    869159.5808  -5289360.4970   3444969.1669   2   6   0.5705   1.0732   1.1479  -0.3663  -0.8712   0.5625   0.00    1.5
2173 244433.000    869159.9276  -5289360.2611   3444968.9931   2   6   0.5705   1.0732   1.1482  -0.3664  -0.8714   0.5626   0.00    1.7
2173 244434.000    869159.8637  -5289360.0239   3444968.8579   2   6   0.5706   1.0732   1.1485  -0.3665  -0.8716   0.5628   0.00    2.0
2173 244435.000    869159.9028  -5289360.4833   3444969.0488   2   6   0.5706   1.0732   1.1489  -0.3667  -0.8719   0.5629   0.00    1.6
2173 244436.000    869159.8287  -5289360.3553   3444968.5097   2   6   0.5707   1.0732   1.1492  -0.3668  -0.8721   0.5631   0.00    1.5
2173 244437.000    869160.0391  -5289361.0651   3444969.3520   2   6   0.5707   1.0732   1.1495  -0.3669  -0.8723   0.5632   0.00    1.3
2173 244438.000    869159.9899  -5289360.9852   3444969.2253   2   6   0.5707   1.0732   1.1498  -0.3670  -0.8725   0.5634   0.00    1.6
2173 244439.000    869160.1408  -5289360.7862   3444968.9525   2   6   0.5708   1.0732   1.1501  -0.3672  -0.8727   0.5635   0.00    1.4
2173 244440.000    869160.1521  -5289360.9290   3444969.3527   2   6   0.5708   1.0732   1.1504  -0.3673  -0.8729   0.5636   0.00    1.3
2173 244441.000    869160.2113  -5289360.2820   3444969.1309   2   6   0.5708   1.0732   1.1508  -0.3674  -0.8731   0.5638   0.00    1.4
2173 244442.000    869160.0582  -5289360.4622   3444969.0770   2   6   0.5709   1.0732   1.1511  -0.3676  -0.8733   0.5639   0.00    1.4
2173 244443.000    869160.0537  -5289360.0971   3444968.6980   2   6   0.5709   1.0732   1.1514  -0.3677  -0.8735   0.5641   0.00    1.0
2173 244444.000    869160.1365  -5289360.1952   3444968.7114   2   6   0.5709   1.0732   1.1517  -0.3678  -0.8737   0.5642   0.00    1.2
2173 244445.000    869160.0334  -5289359.4969   3444968.2894   2   6   0.5710   1.0732   1.1520  -0.3680  -0.8739   0.5644   0.00    1.2
2173 244446.000    869160.1118  -5289359.3849   3444968.7083   2   6   0.5710   1.0732   1.1523  -0.3681  -0.8742   0.5645   0.00    1.0
2173 244447.000    869160.0101  -5289359.2751   3444968.3994   2   6   0.5711   1.0732   1.1527  -0.3682  -0.8744   0.5647   0.00    1.0
2173 244448.000    869160.1146  -5289360.1725   3444968.8293   2   6   0.5711   1.0732   1.1530  -0.3684  -0.8746   0.5648   0.00    1.0
2173 244449.000    869160.3046  -5289360.2372   3444969.2965   2   5   0.5775   1.2109   1.1671  -0.2968  -0.9303   0.5514   0.00    1.2
2173 244450.000    869160.0940  -5289360.2478   3444968.9648   2   6   0.5712   1.0732   1.1536  -0.3686  -0.8750   0.5651   0.00    1.1
2173 244451.000    869160.2558  -5289359.9199   3444968.7795   2   6   0.5712   1.0733   1.1539  -0.3688  -0.8752   0.5652   0.00    1.1
2173 244452.000    869160.1034  -5289360.4250   3444969.4936   2   6   0.5712   1.0733   1.1543  -0.3689  -0.8754   0.5654   0.00    1.2
2173 244453.000    869159.9979  -5289359.8947   3444969.0122   2   6   0.5713   1.0733   1.1546  -0.3690  -0.8756   0.5655   0.00    1.2
2173 244454.000    869159.9739  -5289359.8145   3444968.9223   2   6   0.5713   1.0733   1.1549  -0.3692  -0.8758   0.5657   0.00    1.1
2173 244455.000    869160.1496  -5289360.1098   3444969.1145   2   6   0.5713   1.0733   1.1552  -0.3693  -0.8760   0.5658   0.00    1.4
2173 244456.000    869160.0912  -5289359.7762   3444968.5205   2   6   0.5714   1.0733   1.1555  -0.3694  -0.8763   0.5660   0.00    1.1
2173 244457.000    869159.8057  -5289360.5317   3444968.8158   2   6   0.5714   1.0733   1.1558  -0.3696  -0.8765   0.5661   0.00    1.4
2173 244458.000    869159.7803  -5289360.1087   3444968.8924   2   6   0.5715   1.0733   1.1562  -0.3697  -0.8767   0.5663   0.00    1.3
2173 244459.000    869160.0599  -5289360.3007   3444969.1772   2   6   0.5715   1.0733   1.1565  -0.3698  -0.8769   0.5664   0.00    1.3
2173 244460.000    869159.8453  -5289360.1407   3444969.2554   2   6   0.5715   1.0733   1.1568  -0.3700  -0.8771   0.5666   0.00    1.4
2173 244461.000    869159.8965  -5289360.4837   3444969.1211   2   6   0.5716   1.0733   1.1571  -0.3701  -0.8773   0.5667   0.00    1.3
2173 244462.000    869160.0533  -5289361.3395   3444969.7612   2   6   0.5716   1.0733   1.1575  -0.3702  -0.8775   0.5669   0.00    1.9
2173 244463.000    869159.9242  -5289360.9595   3444969.3660   2   6   0.5716   1.0733   1.1578  -0.3704  -0.8777   0.5670   0.00    1.7
2173 244464.000    869159.7486  -5289360.8851   3444969.5386   2   6   0.5717   1.0733   1.1581  -0.3705  -0.8779   0.5671   0.00    1.8
2173 244465.000    869159.8868  -5289360.4256   3444969.4807   2   6   0.5717   1.0734   1.1584  -0.3706  -0.8782   0.5673   0.00    1.6
2173 244466.000    869159.6691  -5289360.9971   3444969.6225   2   6   0.5718   1.0734   1.1587  -0.3708  -0.8784   0.5674   0.00    1.4
2173 244467.000    869159.6759  -5289360.9275   3444969.8448   2   6   0.5718   1.0734   1.1591  -0.3709  -0.8786   0.5676   0.00    1.4
2173 244468.000    869159.2782  -5289360.9313   3444969.4088   2   6   0.5718   1.0734   1.1594  -0.3710  -0.8788   0.5677   0.00    1.1
2173 244469.000    869159.3147  -5289360.9110   3444969.1543   2   6   0.5719   1.0734   1.1597  -0.3712  -0.8790   0.5679   0.00    1.6
2173 244470.000    869159.5675  -5289360.4243   3444969.4081   2   6   0.5719   1.0734   1.1600  -0.3713  -0.8792   0.5680   0.00    1.4
2173 244471.000    869159.6134  -5289360.0349   3444969.1932   2   6   0.5719   1.0734   1.1603  -0.3714  -0.8794   0.5682   0.00    1.6
2173 244472.000    869159.5413  -5289360.0061   3444969.2313   2   6   0.5720   1.0734   1.1607  -0.3716  -0.8797   0.5683   0.00    1.7
2173 244473.000    869159.4925  -5289360.7714   3444969.3780   2   5   0.5781   1.2091   1.1751  -0.3032  -0.9355   0.5551   0.00    1.5
2173 244474.000    869159.7310  -5289360.9642   3444969.9107   2   5   0.5781   1.2090   1.1754  -0.3034  -0.9357   0.5552   0.00    2.7
2173 244475.000    869159.7273  -5289360.8521   3444969.9798   2   5   0.5781   1.2089   1.1758  -0.3037  -0.9359   0.5554   0.00    2.6
2173 244476.000    869159.6873  -5289360.4273   3444969.5139   2   5   0.5781   1.2089   1.1761  -0.3040  -0.9361   0.5556   0.00    2.0
2173 244477.000    869159.6034  -5289360.6173   3444969.6961   2   5   0.5782   1.2088   1.1764  -0.3042  -0.9363   0.5557   0.00    1.4
2173 244478.000    869159.4349  -5289360.5665   3444969.2220   2   5   0.5782   1.2087   1.1768  -0.3045  -0.9366   0.5559   0.00    1.3
2173 244479.000    869159.5191  -5289360.6596   3444969.0958   2   5   0.5782   1.2087   1.1771  -0.3048  -0.9368   0.5560   0.00    1.6
2173 244480.000    869159.5438  -5289360.1513   3444969.0935   2   5   0.5782   1.2086   1.1775  -0.3050  -0.9370   0.5562   0.00    1.2
2173 244481.000    869159.7207  -5289360.6094   3444969.6450   2   5   0.5783   1.2085   1.1778  -0.3053  -0.9372   0.5563   0.00    1.9
2173 244482.000    869159.5685  -5289359.8865   3444969.1224   2   5   0.5783   1.2085   1.1781  -0.3055  -0.9374   0.5565   0.00    1.3
2173 244483.000    869159.7264  -5289359.3181   3444968.7053   2   5   0.5745   1.0775   1.1121  -0.3601  -0.8160   0.5793   0.00    1.3
2173 244484.000    869159.8063  -5289359.0857   3444968.5667   2   5   0.5741   1.0705   1.1091  -0.3640  -0.8098   0.5811   0.00    1.5
2173 244485.000    869159.6984  -5289358.8915   3444968.0648   2   5   0.5740   1.0678   1.1081  -0.3655  -0.8076   0.5818   0.00    1.4
2173 244486.000    869159.6458  -5289358.8778   3444968.2890   2   5   0.5739   1.0664   1.1077  -0.3664  -0.8065   0.5823   0.00    1.4
2173 244487.000    869159.9093  -5289359.4728   3444968.6700   2   5   0.5739   1.0655   1.1076  -0.3669  -0.8058   0.5826   0.00    1.6
2173 244488.000    869159.7125  -5289359.4016   3444967.9447   2   5   0.5739   1.0649   1.1076  -0.3674  -0.8055   0.5829   0.00    1.2
2173 244489.000    869159.6933  -5289359.7499   3444967.8932   2   5   0.5739   1.0644   1.1076  -0.3677  -0.8053   0.5831   0.00    1.1
2173 244490.000    869159.6278  -5289359.7129   3444967.9687   2   5   0.5740   1.0640   1.1078  -0.3680  -0.8052   0.5833   0.00    1.1
2173 244491.000    869159.8318  -5289359.9996   3444968.3567   2   5   0.5740   1.0637   1.1079  -0.3683  -0.8051   0.5835   0.00    1.4
2173 244492.000    869159.8873  -5289360.3083   3444968.5410   2   5   0.5740   1.0635   1.1081  -0.3685  -0.8051   0.5836   0.00    1.1
2173 244493.000    869159.8327  -5289359.7472   3444968.1397   2   5   0.5741   1.0633   1.1083  -0.3687  -0.8052   0.5838   0.00    1.1
2173 244494.000    869159.9377  -5289359.7637   3444968.3206   2   5   0.5741   1.0631   1.1085  -0.3689  -0.8052   0.5840   0.00    1.1
2173 244495.000    869159.6783  -5289359.8726   3444968.1702   2   5   0.5741   1.0629   1.1087  -0.3691  -0.8053   0.5841   0.00    1.5
2173 244496.000    869159.9284  -5289359.9708   3444968.4064   2   5   0.5741   1.0628   1.1089  -0.3693  -0.8054   0.5843   0.00    1.2
2173 244497.000    869159.7058  -5289359.8415   3444968.2410   2   5   0.5742   1.0627   1.1091  -0.3694  -0.8055   0.5844   0.00    1.0
2173 244498.000    869159.7180  -5289359.5935   3444968.1705   2   5   0.5742   1.0625   1.1094  -0.3696  -0.8056   0.5846   0.00    1.5
2173 244499.000    869159.8406  -5289359.9964   3444968.2754   2   5   0.5743   1.0624   1.1096  -0.3698  -0.8057   0.5847   0.00    1.5
2173 244500.000    869159.7323  -5289359.9672   3444968.0145   2   5   0.5743   1.0623   1.1098  -0.3699  -0.8058   0.5849   0.00    1.0
2173 244501.000    869159.6194  -5289359.5124   3444967.7778   2   5   0.5743   1.0622   1.1101  -0.3701  -0.8060   0.5850   0.00    1.1
2173 244502.000    869159.7118  -5289359.5909   3444967.8435   2   5   0.5744   1.0621   1.1103  -0.3702  -0.8061   0.5851   0.00    1.1
2173 244503.000    869160.0374  -5289359.7224   3444968.0565   2   5   0.5744   1.0621   1.1106  -0.3704  -0.8063   0.5853   0.00    1.8
2173 244504.000    869160.0875  -5289359.2573   3444967.8874   2   5   0.5744   1.0620   1.1108  -0.3705  -0.8064   0.5854   0.00    1.4
2173 244505.000    869160.0960  -5289359.9420   3444967.9963   2   5   0.5745   1.0619   1.1111  -0.3707  -0.8066   0.5855   0.00    1.4
2173 244506.000    869160.2022  -5289360.6531   3444968.4330   2   5   0.5745   1.0618   1.1113  -0.3708  -0.8067   0.5857   0.00    1.3
2173 244507.000    869160.2654  -5289360.3386   3444968.2327   2   5   0.5746   1.0617   1.1116  -0.3710  -0.8069   0.5858   0.00    1.8
2173 244508.000    869160.1740  -5289360.7417   3444968.2559   2   5   0.5746   1.0617   1.1118  -0.3711  -0.8070   0.5859   0.00    1.6
2173 244509.000    869160.2704  -5289360.5054   3444968.3478   2   5   0.5746   1.0616   1.1121  -0.3712  -0.8072   0.5861   0.00    1.6
2173 244510.000    869160.2793  -5289360.4865   3444968.7069   2   5   0.5747   1.0615   1.1124  -0.3714  -0.8074   0.5862   0.00    2.2
2173 244511.000    869160.3443  -5289360.6871   3444968.6927   2   5   0.5747   1.0615   1.1126  -0.3715  -0.8075   0.5863   0.00    1.5
2173 244512.000    869160.6226  -5289360.7886   3444968.7203   2   5   0.5747   1.0614   1.1129  -0.3717  -0.8077   0.5865   0.00    1.9
2173 244513.000    869160.5767  -5289360.6134   3444968.7659   2   5   0.5748   1.0614   1.1131  -0.3718  -0.8078   0.5866   0.00    1.1
2173 244514.000    869160.3710  -5289360.4602   3444968.8421   2   5   0.5748   1.0613   1.1134  -0.3719  -0.8080   0.5867   0.00    1.1
2173 244515.000    869160.4361  -5289360.9114   3444969.2341   2   5   0.5749   1.0612   1.1137  -0.3721  -0.8082   0.5869   0.00    1.3
2173 244516.000    869160.5738  -5289361.1165   3444969.1955   2   5   0.5749   1.0612   1.1139  -0.3722  -0.8084   0.5870   0.00    1.7
2173 244517.000    869160.5229  -5289361.4843   3444969.7260   2   5   0.5749   1.0611   1.1142  -0.3724  -0.8085   0.5871   0.00    1.8
2173 244518.000    869160.5353  -5289361.2750   3444969.2500   2   5   0.5750   1.0611   1.1144  -0.3725  -0.8087   0.5873   0.00    2.0
2173 244519.000    869160.5649  -5289362.0103   3444969.8977   2   5   0.5750   1.0610   1.1147  -0.3726  -0.8089   0.5874   0.00    1.8
2173 244520.000    869160.7507  -5289361.6352   3444969.5911   2   5   0.5751   1.0610   1.1150  -0.3728  -0.8090   0.5875   0.00    2.0
2173 244521.000    869160.5807  -5289360.7573   3444969.3095   2   5   0.5751   1.0609   1.1152  -0.3729  -0.8092   0.5877   0.00    1.9
2173 244522.000    869160.6681  -5289360.6609   3444969.0887   2   5   0.5751   1.0609   1.1155  -0.3730  -0.8094   0.5878   0.00    1.6
2173 244523.000    869160.4186  -5289360.4191   3444968.7555   2   5   0.5752   1.0608   1.1158  -0.3732  -0.8096   0.5879   0.00    2.3
2173 244524.000    869160.5851  -5289360.4983   3444968.9508   2   5   0.5752   1.0608   1.1160  -0.3733  -0.8098   0.5881   0.00    1.6
2173 244525.000    869160.4129  -5289358.3380   3444966.6076   2   6   0.5740   0.9910   1.0810  -0.3925  -0.7421   0.5973   0.00    1.1
2173 244526.000    869160.6453  -5289357.1423   3444965.8487   2   6   0.5741   0.9910   1.0813  -0.3925  -0.7423   0.5974   0.00    1.0
2173 244527.000    869160.6987  -5289356.6251   3444965.6892   2   6   0.5734   0.9793   1.0760  -0.3980  -0.7312   0.6001   0.00    1.1
2173 244528.000    869160.1590  -5289360.7703   3444968.5858   2   5   0.5757   1.0660   1.1198  -0.3712  -0.8157   0.5874   0.00    1.5
2173 244529.000    869160.0718  -5289361.1949   3444968.6525   2   5   0.5756   1.0646   1.1194  -0.3720  -0.8145   0.5878   0.00    1.1
2173 244530.000    869160.1082  -5289360.7941   3444969.3931   2   5   0.5756   1.0637   1.1193  -0.3725  -0.8139   0.5881   0.00    2.0
2173 244531.000    869160.2416  -5289361.1618   3444969.3694   2   5   0.5756   1.0631   1.1193  -0.3729  -0.8135   0.5884   0.00    1.7
2173 244532.000    869160.2665  -5289361.0858   3444969.4759   2   5   0.5757   1.0626   1.1193  -0.3733  -0.8133   0.5886   0.00    1.9
2173 244533.000    869160.0564  -5289360.8324   3444968.9638   2   5   0.5757   1.0623   1.1194  -0.3736  -0.8132   0.5888   0.00    1.6
2173 244534.000    869159.9607  -5289361.0036   3444969.3957   2   5   0.5757   1.0620   1.1196  -0.3738  -0.8132   0.5890   0.00    1.0
2173 244535.000    869160.0517  -5289360.7326   3444969.2553   2   5   0.5757   1.0618   1.1197  -0.3740  -0.8132   0.5892   0.00    1.8
2173 244536.000    869160.2911  -5289360.7114   3444969.1613   2   5   0.5758   1.0616   1.1199  -0.3742  -0.8132   0.5893   0.00    1.4
