% program   : rnx2rtkp ver.2.4.3 b31
% inp file  : ngs/21_08_29_03_22_48_ict5.obs
% inp file  : ngs/21_08_29_03_22_48_ict5_SW.obs
% inp file  : ngs/21_08_29_03_22_48_brdc.nav
% obs start : 2021/08/29 03:00:00.0 GPST (week2173  10800.0s)
% obs end   : 2021/08/29 03:59:59.0 GPST (week2173  14399.0s)
% ref pos   :  -677769.6125  -5062292.7477   3807508.4595
%
% (x/y/z-ecef=WGS84,Q=1:fix,2:float,3:sbas,4:dgps,5:single,6:ppp,ns=# of satellites)
%  GPST              x-ecef(m)      y-ecef(m)      z-ecef(m)   Q  ns   sdx(m)   sdy(m)   sdz(m)  sdxy(m)  sdyz(m)  sdzx(m) age(s)  ratio
2173  12143.000   -669786.2801  -5002658.1952   3887010.4569   2   7   0.5040   0.9654   0.9119   0.3794  -0.8108  -0.4413 -30.00    1.0
2173  12144.000   -669786.2799  -5002658.2133   3887010.4713   2   7   0.3586   0.6873   0.6483   0.2701  -0.5769  -0.3139 -29.00    1.0
2173  12145.000   -669786.2793  -5002658.2190   3887010.4761   2   7   0.2936   0.5628   0.5307   0.2211  -0.4722  -0.2570 -28.00    1.0
2173  12146.000   -669786.2778  -5002658.2217   3887010.4792   2   7   0.2547   0.4882   0.4603   0.1917  -0.4096  -0.2229 -27.00    1.0
2173  12147.000   -669786.2733  -5002658.2221   3887010.4768   2   7   0.2281   0.4372   0.4121   0.1717  -0.3668  -0.1996 -26.00    1.0
2173  12148.000   -669786.2762  -5002658.2225   3887010.4785   2   7   0.2084   0.3994   0.3765   0.1568  -0.3351  -0.1823 -25.00    1.0
2173  12149.000   -669786.2741  -5002658.2264   3887010.4776   2   7   0.1931   0.3700   0.3488   0.1452  -0.3104  -0.1689 -24.00    1.0
2173  12150.000   -669786.2763  -5002658.2254   3887010.4821   2   7   0.1807   0.3463   0.3264   0.1359  -0.2904  -0.1580 -23.00    1.0
2173  12151.000   -669786.2751  -5002658.2265   3887010.4795   2   7   0.1705   0.3266   0.3078   0.1281  -0.2739  -0.1490 -22.00    1.0
2173  12152.000   -669786.2763  -5002658.2288   3887010.4833   2   7   0.1617   0.3099   0.2920   0.1215  -0.2598  -0.1414 -21.00    1.0
2173  12153.000   -669786.2760  -5002658.2253   3887010.4813   2   7   0.1542   0.2955   0.2783   0.1159  -0.2477  -0.1348 -20.00    1.0
2173  12154.000   -669786.2781  -5002658.2264   3887010.4809   2   7   0.1477   0.2829   0.2664   0.1109  -0.2371  -0.1290 -19.00    1.0
2173  12155.000   -669786.2793  -5002658.2272   3887010.4817   2   7   0.1419   0.2718   0.2559   0.1065  -0.2278  -0.1239 -18.00    1.0
2173  12156.000   -669786.2785  -5002658.2204   3887010.4762   2   7   0.1367   0.2619   0.2465   0.1026  -0.2194  -0.1193 -17.00    1.0
2173  12157.000   -669786.2787  -5002658.2153   3887010.4746   2   7   0.1320   0.2529   0.2380   0.0991  -0.2119  -0.1152 -16.00    1.0
2173  12158.000   -669786.2792  -5002658.2139   3887010.4722   2   7   0.1278   0.2448   0.2303   0.0959  -0.2050  -0.1115 -15.00    1.0
2173  12159.000   -669786.2793  -5002658.2131   3887010.4702   2   7   0.1240   0.2374   0.2232   0.0929  -0.1988  -0.1081 -14.00    1.0
2173  12160.000   -669786.2785  -5002658.2117   3887010.4706   2   7   0.1204   0.2307   0.2168   0.0903  -0.1931  -0.1050 -13.00    1.0
2173  12161.000   -669786.2805  -5002658.2111   3887010.4712   2   7   0.1172   0.2244   0.2108   0.0878  -0.1878  -0.1022 -12.00    1.0
2173  12162.000   -669786.2780  -5002658.2072   3887010.4664   2   7   0.1142   0.2186   0.2053   0.0855  -0.1829  -0.0995 -11.00    1.0
2173  12163.000   -669786.2791  -5002658.2018   3887010.4631   2   7   0.1114   0.2133   0.2002   0.0834  -0.1783  -0.0970 -10.00    1.0
2173  12164.000   -669786.2811  -5002658.1995   3887010.4618   2   7   0.1088   0.2082   0.1954   0.0814  -0.1741  -0.0947  -9.00    1.0
2173  12165.000   -669786.2807  -5002658.1991   3887010.4588   2   7   0.1063   0.2036   0.1909   0.0795  -0.1701  -0.0926  -8.00    1.1
2173  12166.000   -669786.2821  -5002658.1959   3887010.4548   2   7   0.1041   0.1992   0.1867   0.0778  -0.1664  -0.0905  -7.00    1.1
2173  12167.000   -669786.2833  -5002658.1953   3887010.4545   2   7   0.1019   0.1950   0.1827   0.0762  -0.1629  -0.0886  -6.00    1.1
2173  12168.000   -669786.2846  -5002658.1940   3887010.4527   2   7   0.0999   0.1911   0.1790   0.0746  -0.1596  -0.0868  -5.00    1.1
2173  12169.000   -669786.2829  -5002658.1882   3887010.4452   2   7   0.0980   0.1875   0.1755   0.0731  -0.1564  -0.0851  -4.00    1.1
2173  12170.000   -669786.2847  -5002658.1852   3887010.4415   2   7   0.0962   0.1840   0.1721   0.0718  -0.1535  -0.0835  -3.00    1.1
2173  12171.000   -669786.2850  -5002658.1838   3887010.4378   2   7   0.0945   0.1807   0.1690   0.0704  -0.1507  -0.0820  -2.00    1.1
2173  12172.000   -669786.2852  -5002658.1821   3887010.4350   2   7   0.0929   0.1775   0.1660   0.0692  -0.1480  -0.0805  -1.00    1.1
2173  12173.000   -669786.2862  -5002658.1821   3887010.4372   2   7   0.0914   0.1746   0.1631   0.0680  -0.1455  -0.0792   0.00    1.0
2173  12174.000   -669786.2891  -5002658.1826   3887010.4345   2   7   0.0899   0.1718   0.1604   0.0669  -0.1431  -0.0779   0.00    1.0
2173  12175.000   -669786.2877  -5002658.1808   3887010.4322   2   7   0.0885   0.1691   0.1578   0.0658  -0.1408  -0.0766   0.00    1.0
2173  12176.000   -669786.2905  -5002658.1824   3887010.4353   2   7   0.0872   0.1665   0.1554   0.0648  -0.1386  -0.0754   0.00    1.0
2173  12177.000   -669786.2886  -5002658.1817   3887010.4375   2   7   0.0859   0.1640   0.1530   0.0638  -0.1365  -0.0742   0.00    1.0
2173  12178.000   -669786.2902  -5002658.1827   3887010.4315   2   7   0.0847   0.1617   0.1507   0.0628  -0.1344  -0.0732   0.00    1.1
2173  12179.000   -669786.2918  -5002658.1878   3887010.4374   2   7   0.0836   0.1594   0.1485   0.0619  -0.1325  -0.0721   0.00    1.0
2173  12180.000   -669786.2935  -5002658.1868   3887010.4356   2   7   0.0824   0.1572   0.1464   0.0610  -0.1306  -0.0711   0.00    1.0
2173  12181.000   -669786.2949  -5002658.1890   3887010.4405   2   7   0.0814   0.1551   0.1443   0.0601  -0.1288  -0.0701   0.00    1.0
2173  12182.000   -669786.2952  -5002658.1884   3887010.4433   2   7   0.0803   0.1530   0.1424   0.0593  -0.1270  -0.0691   0.00    1.0
2173  12183.000   -669786.2955  -5002658.1909   3887010.4467   2   7   0.0793   0.1511   0.1405   0.0585  -0.1253  -0.0682   0.00    1.0
2173  12184.000   -669786.2957  -5002658.1879   3887010.4441   2   7   0.0784   0.1492   0.1386   0.0577  -0.1236  -0.0673   0.00    1.0
2173  12185.000   -669786.2926  -5002658.1889   3887010.4427   2   7   0.0775   0.1473   0.1368   0.0570  -0.1221  -0.0664   0.00    1.0
2173  12186.000   -669786.2928  -5002658.1850   3887010.4372   2   7   0.0766   0.1455   0.1350   0.0563  -0.1205  -0.0655   0.00    1.0
2173  12187.000   -669786.2898  -5002658.1829   3887010.4296   2   7   0.0757   0.1438   0.1333   0.0555  -0.1190  -0.0648   0.00    1.0
2173  12188.000   -669786.2923  -5002658.1860   3887010.4387   2   7   0.0749   0.1421   0.1317   0.0549  -0.1175  -0.0639   0.00    1.0
2173  12189.000   -669786.2920  -5002658.1852   3887010.4390   2   7   0.0740   0.1404   0.1300   0.0541  -0.1160  -0.0632   0.00    1.0
2173  12190.000   -669786.2954  -5002658.1915   3887010.4379   2   7   0.0732   0.1388   0.1285   0.0535  -0.1146  -0.0624   0.00    1.0
2173  12191.000   -669786.2950  -5002658.1898   3887010.4399   2   7   0.0725   0.1373   0.1269   0.0528  -0.1133  -0.0617   0.00    1.0
2173  12192.000   -669786.2936  -5002658.1895   3887010.4368   2   7   0.0717   0.1358   0.1254   0.0522  -0.1119  -0.0609   0.00    1.0
2173  12193.000   -669786.2929  -5002658.1890   3887010.4334   2   7   0.0710   0.1343   0.1239   0.0516  -0.1106  -0.0602   0.00    1.0
2173  12194.000   -669786.2916  -5002658.1808   3887010.4261   2   7   0.0703   0.1329   0.1225   0.0510  -0.1093  -0.0595   0.00    1.0
2173  12195.000   -669786.2905  -5002658.1710   3887010.4193   2   7   0.0696   0.1314   0.1211   0.0504  -0.1081  -0.0588   0.00    1.0
2173  12196.000   -669786.2907  -5002658.1492   3887010.3906   2   7   0.0689   0.1301   0.1197   0.0498  -0.1069  -0.0582   0.00    1.0
2173  12197.000   -669786.2868  -5002658.1385   3887010.3791   2   7   0.0683   0.1287   0.1184   0.0493  -0.1056  -0.0575   0.00    1.0
2173  12198.000   -669786.2879  -5002658.1280   3887010.3712   2   7   0.0676   0.1274   0.1170   0.0487  -0.1045  -0.0569   0.00    1.0
2173  12199.000   -669786.2847  -5002658.1187   3887010.3642   2   7   0.0670   0.1261   0.1157   0.0482  -0.1033  -0.0562   0.00    1.0
2173  12200.000   -669786.2833  -5002658.1116   3887010.3563   2   7   0.0665   0.1249   0.1144   0.0476  -0.1022  -0.0556   0.00    1.0
2173  12201.000   -669786.2827  -5002658.1034   3887010.3487   2   7   0.0658   0.1236   0.1132   0.0471  -0.1010  -0.0550   0.00    1.0
2173  12202.000   -669786.2824  -5002658.0980   3887010.3429   2   7   0.0652   0.1224   0.1120   0.0466  -0.0999  -0.0545   0.00    1.0
2173  12203.000   -669786.2800  -5002658.0948   3887010.3443   2   7   0.0647   0.1213   0.1108   0.0461  -0.0989  -0.0539   0.00    1.0
2173  12204.000   -669786.2803  -5002658.0926   3887010.3463   2   7   0.0641   0.1201   0.1096   0.0455  -0.0978  -0.0533   0.00    1.0
2173  12205.000   -669786.2815  -5002658.0891   3887010.3418   2   7   0.0636   0.1190   0.1084   0.0451  -0.0968  -0.0527   0.00    1.0
2173  12206.000   -669786.2792  -5002658.0776   3887010.3324   2   7   0.0631   0.1178   0.1072   0.0446  -0.0957  -0.0522   0.00    1.0
2173  12207.000   -669786.2790  -5002658.0743   3887010.3315   2   7   0.0626   0.1167   0.1061   0.0441  -0.0947  -0.0516   0.00    1.0
2173  12208.000   -669786.2789  -5002658.0712   3887010.3279   2   7   0.0620   0.1157   0.1050   0.0436  -0.0937  -0.0511   0.00    1.0
2173  12209.000   -669786.2798  -5002658.0708   3887010.3276   2   7   0.0616   0.1146   0.1039   0.0432  -0.0927  -0.0506   0.00    1.1
2173  12210.000   -669786.2803  -5002658.0671   3887010.3295   2   7   0.0611   0.1136   0.1028   0.0427  -0.0918  -0.0500   0.00    1.1
2173  12211.000   -669786.2774  -5002658.0581   3887010.3233   2   7   0.0606   0.1126   0.1018   0.0423  -0.0908  -0.0495   0.00    1.1
2173  12212.000   -669786.2788  -5002658.0602   3887010.3266   2   7   0.0602   0.1116   0.1007   0.0418  -0.0899  -0.0490   0.00    1.1
2173  12213.000   -669786.2815  -5002658.0634   3887010.3308   2   7   0.0597   0.1106   0.0997   0.0414  -0.0890  -0.0485   0.00    1.1
2173  12214.000   -669786.2798  -5002658.0616   3887010.3307   2   7   0.0593   0.1096   0.0987   0.0410  -0.0881  -0.0480   0.00    1.1
2173  12215.000   -669786.2782  -5002658.0592   3887010.3296   2   7   0.0588   0.1086   0.0977   0.0405  -0.0872  -0.0475   0.00    1.1
2173  12216.000   -669786.2801  -5002658.0590   3887010.3308   2   7   0.0584   0.1077   0.0967   0.0401  -0.0863  -0.0471   0.00    1.1
2173  12217.000   -669786.2817  -5002658.0586   3887010.3321   2   7   0.0580   0.1068   0.0957   0.0397  -0.0854  -0.0466   0.00    1.1
2173  12218.000   -669786.2825  -5002658.0526   3887010.3276   2   7   0.0576   0.1059   0.0948   0.0393  -0.0846  -0.0461   0.00    1.1
2173  12219.000   -669786.2844  -5002658.0539   3887010.3284   2   7   0.0571   0.1050   0.0938   0.0389  -0.0837  -0.0457   0.00    1.1
2173  12220.000   -669786.2835  -5002658.0471   3887010.3250   2   7   0.0568   0.1041   0.0929   0.0385  -0.0829  -0.0452   0.00    1.1
2173  12221.000   -669786.2847  -5002658.0510   3887010.3293   2   7   0.0564   0.1033   0.0919   0.0381  -0.0820  -0.0448   0.00    1.1
2173  12222.000   -669786.2862  -5002658.0494   3887010.3302   2   7   0.0560   0.1024   0.0910   0.0377  -0.0812  -0.0443   0.00    1.1
2173  12223.000   -669786.2867  -5002658.0486   3887010.3331   2   7   0.0556   0.1016   0.0901   0.0373  -0.0804  -0.0439   0.00    1.1
2173  12224.000   -669786.2871  -5002658.0513   3887010.3318   2   7   0.0553   0.1007   0.0892   0.0370  -0.0796  -0.0434   0.00    1.1
2173  12225.000   -669786.2905  -5002658.0509   3887010.3382   2   7   0.0549   0.0999   0.0884   0.0366  -0.0789  -0.0430   0.00    1.1
2173  12226.000   -669786.2901  -5002658.0516   3887010.3391   2   7   0.0545   0.0991   0.0875   0.0362  -0.0781  -0.0426   0.00    1.1
2173  12227.000   -669786.2900  -5002658.0510   3887010.3417   2   7   0.0541   0.0983   0.0866   0.0359  -0.0773  -0.0422   0.00    1.1
2173  12228.000   -669786.2915  -5002658.0532   3887010.3454   2   7   0.0538   0.0975   0.0858   0.0355  -0.0766  -0.0418   0.00    1.1
2173  12229.000   -669786.3019  -5002658.0557   3887010.3693   2   7   0.0535   0.0968   0.0850   0.0351  -0.0758  -0.0414   0.00    1.1
2173  12230.000   -669786.3142  -5002658.0952   3887010.4233   2   7   0.0532   0.0960   0.0841   0.0348  -0.0751  -0.0410   0.00    1.1
2173  12231.000   -669786.3313  -5002658.1387   3887010.4809   2   7   0.0529   0.0952   0.0833   0.0345  -0.0744  -0.0406   0.00    1.1
2173  12232.000   -669786.3472  -5002658.1777   3887010.5354   2   7   0.0525   0.0945   0.0825   0.0342  -0.0737  -0.0402   0.00    1.1
2173  12233.000   -669786.3593  -5002658.2166   3887010.5879   2   7   0.0522   0.0938   0.0817   0.0338  -0.0729  -0.0399   0.00    1.1
2173  12234.000   -669786.3743  -5002658.2547   3887010.6436   2   7   0.0519   0.0931   0.0810   0.0335  -0.0722  -0.0395   0.00    1.1
2173  12235.000   -669786.3884  -5002658.2891   3887010.6942   2   7   0.0516   0.0924   0.0802   0.0332  -0.0716  -0.0391   0.00    1.1
2173  12236.000   -669786.4007  -5002658.3135   3887010.7330   2   7   0.0513   0.0917   0.0794   0.0328  -0.0709  -0.0387   0.00    1.1
2173  12237.000   -669786.4140  -5002658.3488   3887010.7811   2   7   0.0510   0.0910   0.0787   0.0325  -0.0702  -0.0384   0.00    1.0
2173  12238.000   -669786.4249  -5002658.3755   3887010.8243   2   7   0.0507   0.0903   0.0779   0.0322  -0.0695  -0.0380   0.00    1.0
2173  12239.000   -669786.4350  -5002658.4020   3887010.8594   2   7   0.0504   0.0896   0.0772   0.0319  -0.0689  -0.0377   0.00    1.0
2173  12240.000   -669786.4457  -5002658.4301   3887010.8969   2   7   0.0501   0.0890   0.0765   0.0316  -0.0682  -0.0373   0.00    1.0
2173  12241.000   -669786.4538  -5002658.4557   3887010.9296   2   7   0.0498   0.0883   0.0758   0.0313  -0.0676  -0.0369   0.00    1.0
2173  12242.000   -669786.4653  -5002658.4853   3887010.9685   2   7   0.0496   0.0876   0.0750   0.0310  -0.0670  -0.0366   0.00    1.0
2173  12243.000   -669786.4744  -5002658.5216   3887011.0101   2   7   0.0493   0.0870   0.0743   0.0308  -0.0664  -0.0362   0.00    1.0
2173  12244.000   -669786.4903  -5002658.5644   3887011.0632   2   7   0.0490   0.0864   0.0737   0.0305  -0.0657  -0.0360   0.00    1.0
2173  12245.000   -669786.5008  -5002658.6057   3887011.1146   2   7   0.0487   0.0858   0.0730   0.0301  -0.0651  -0.0356   0.00    1.0
2173  12246.000   -669786.5149  -5002658.6537   3887011.1729   2   7   0.0485   0.0852   0.0723   0.0299  -0.0645  -0.0353   0.00    1.0
2173  12247.000   -669786.5308  -5002658.7033   3887011.2282   2   7   0.0482   0.0846   0.0717   0.0296  -0.0639  -0.0349   0.00    1.0
2173  12248.000   -669786.5449  -5002658.7423   3887011.2867   2   7   0.0480   0.0840   0.0710   0.0293  -0.0633  -0.0346   0.00    1.1
2173  12249.000   -669786.5566  -5002658.7786   3887011.3351   2   7   0.0477   0.0834   0.0703   0.0291  -0.0628  -0.0343   0.00    1.1
2173  12250.000   -669786.5697  -5002658.8078   3887011.3773   2   7   0.0475   0.0828   0.0697   0.0288  -0.0622  -0.0340   0.00    1.1
2173  12251.000   -669786.5830  -5002658.8365   3887011.4185   2   7   0.0473   0.0822   0.0691   0.0285  -0.0616  -0.0337   0.00    1.1
2173  12252.000   -669786.5922  -5002658.8607   3887011.4585   2   7   0.0470   0.0816   0.0685   0.0283  -0.0611  -0.0334   0.00    1.1
2173  12253.000   -669786.6067  -5002658.8824   3887011.4914   2   7   0.0468   0.0811   0.0678   0.0280  -0.0605  -0.0331   0.00    1.1
2173  12254.000   -669786.6158  -5002658.8995   3887011.5190   2   7   0.0465   0.0805   0.0672   0.0277  -0.0599  -0.0328   0.00    1.1
2173  12255.000   -669786.6224  -5002658.9153   3887011.5436   2   7   0.0463   0.0800   0.0666   0.0275  -0.0594  -0.0326   0.00    1.1
2173  12256.000   -669786.6291  -5002658.9266   3887011.5662   2   7   0.0460   0.0795   0.0660   0.0272  -0.0589  -0.0323   0.00    1.1
2173  12257.000   -669786.6452  -5002658.9703   3887011.6135   2   7   0.0459   0.0789   0.0655   0.0270  -0.0584  -0.0320   0.00    1.1
2173  12258.000   -669786.6524  -5002659.0011   3887011.6483   2   7   0.0456   0.0784   0.0649   0.0267  -0.0579  -0.0317   0.00    1.1
2173  12259.000   -669786.6634  -5002659.0412   3887011.6922   2   7   0.0454   0.0779   0.0643   0.0266  -0.0573  -0.0314   0.00    1.1
2173  12260.000   -669786.6697  -5002659.0791   3887011.7330   2   7   0.0452   0.0774   0.0637   0.0263  -0.0568  -0.0311   0.00    1.1
2173  12261.000   -669786.6802  -5002659.1202   3887011.7779   2   7   0.0450   0.0769   0.0632   0.0260  -0.0563  -0.0309   0.00    1.1
2173  12262.000   -669786.6879  -5002659.1491   3887011.8141   2   7   0.0447   0.0764   0.0626   0.0258  -0.0558  -0.0306   0.00    1.1
2173  12263.000   -669786.6962  -5002659.1828   3887011.8521   2   7   0.0445   0.0759   0.0621   0.0256  -0.0553  -0.0304   0.00    1.1
2173  12264.000   -669786.7022  -5002659.2053   3887011.8802   2   7   0.0444   0.0754   0.0615   0.0254  -0.0549  -0.0301   0.00    1.2
2173  12265.000   -669786.7089  -5002659.2248   3887011.9067   2   7   0.0442   0.0749   0.0610   0.0252  -0.0544  -0.0298   0.00    1.2
2173  12266.000   -669786.7124  -5002659.2538   3887011.9362   2   7   0.0439   0.0744   0.0605   0.0250  -0.0539  -0.0296   0.00    1.2
2173  12267.000   -669786.7211  -5002659.2713   3887011.9575   2   7   0.0437   0.0739   0.0600   0.0247  -0.0534  -0.0293   0.00    1.2
2173  12268.000   -669786.7243  -5002659.2877   3887011.9765   2   7   0.0436   0.0735   0.0595   0.0245  -0.0530  -0.0291   0.00    1.2
2173  12269.000   -669786.7307  -5002659.3036   3887011.9952   2   7   0.0434   0.0730   0.0590   0.0243  -0.0525  -0.0288   0.00    1.2
2173  12270.000   -669786.7371  -5002659.3229   3887012.0184   2   7   0.0432   0.0725   0.0584   0.0241  -0.0521  -0.0286   0.00    1.2
2173  12271.000   -669786.7429  -5002659.3314   3887012.0310   2   7   0.0429   0.0721   0.0580   0.0239  -0.0516  -0.0284   0.00    1.2
2173  12272.000   -669786.7465  -5002659.3482   3887012.0496   2   7   0.0428   0.0717   0.0575   0.0237  -0.0512  -0.0281   0.00    1.2
2173  12273.000   -669786.7518  -5002659.3598   3887012.0652   2   7   0.0426   0.0712   0.0570   0.0235  -0.0508  -0.0279   0.00    1.2
2173  12274.000   -669786.7558  -5002659.3696   3887012.0799   2   7   0.0424   0.0708   0.0565   0.0233  -0.0503  -0.0277   0.00    1.2
2173  12275.000   -669786.7589  -5002659.3712   3887012.0823   2   7   0.0422   0.0703   0.0560   0.0231  -0.0499  -0.0274   0.00    1.2
2173  12276.000   -669786.7577  -5002659.3760   3887012.0895   2   7   0.0421   0.0699   0.0556   0.0229  -0.0495  -0.0272   0.00    1.2
2173  12277.000   -669786.7613  -5002659.3886   3887012.1018   2   7   0.0419   0.0695   0.0551   0.0227  -0.0491  -0.0270   0.00    1.2
2173  12278.000   -669786.7632  -5002659.4009   3887012.1138   2   7   0.0417   0.0691   0.0546   0.0226  -0.0487  -0.0267   0.00    1.2
2173  12279.000   -669786.7686  -5002659.4185   3887012.1330   2   7   0.0416   0.0687   0.0542   0.0224  -0.0483  -0.0265   0.00    1.2
2173  12280.000   -669786.7718  -5002659.4387   3887012.1550   2   7   0.0414   0.0683   0.0537   0.0222  -0.0479  -0.0263   0.00    1.2
2173  12281.000   -669786.7775  -5002659.4569   3887012.1724   2   7   0.0412   0.0679   0.0533   0.0220  -0.0475  -0.0261   0.00    1.2
2173  12282.000   -669786.7817  -5002659.4741   3887012.1919   2   7   0.0410   0.0675   0.0529   0.0219  -0.0471  -0.0259   0.00    1.1
2173  12283.000   -669786.7847  -5002659.4800   3887012.2016   2   7   0.0409   0.0671   0.0525   0.0217  -0.0467  -0.0257   0.00    1.1
2173  12284.000   -669786.7895  -5002659.4924   3887012.2181   2   7   0.0407   0.0667   0.0520   0.0215  -0.0463  -0.0255   0.00    1.1
2173  12285.000   -669786.7946  -5002659.4922   3887012.2159   2   7   0.0405   0.0663   0.0516   0.0213  -0.0460  -0.0253   0.00    1.1
2173  12286.000   -669786.7957  -5002659.4841   3887012.2127   2   7   0.0404   0.0659   0.0512   0.0212  -0.0456  -0.0251   0.00    1.1
2173  12287.000   -669786.7956  -5002659.4779   3887012.2121   2   7   0.0402   0.0656   0.0508   0.0210  -0.0452  -0.0249   0.00    1.1
2173  12288.000   -669786.7964  -5002659.4790   3887012.2167   2   7   0.0401   0.0652   0.0504   0.0208  -0.0449  -0.0247   0.00    1.1
2173  12289.000   -669786.7998  -5002659.4776   3887012.2189   2   7   0.0399   0.0648   0.0500   0.0207  -0.0445  -0.0245   0.00    1.1
2173  12290.000   -669786.7984  -5002659.4737   3887012.2195   2   7   0.0398   0.0645   0.0496   0.0205  -0.0441  -0.0244   0.00    1.1
2173  12291.000   -669786.8001  -5002659.4731   3887012.2262   2   7   0.0396   0.0641   0.0492   0.0205  -0.0438  -0.0240   0.00    1.1
2173  12292.000   -669786.7990  -5002659.4729   3887012.2255   2   7   0.0395   0.0637   0.0488   0.0202  -0.0435  -0.0239   0.00    1.1
2173  12293.000   -669786.8034  -5002659.4736   3887012.2295   2   7   0.0393   0.0634   0.0485   0.0201  -0.0431  -0.0237   0.00    1.1
2173  12294.000   -669786.8035  -5002659.4710   3887012.2305   2   7   0.0392   0.0630   0.0481   0.0199  -0.0428  -0.0235   0.00    1.1
2173  12295.000   -669786.8026  -5002659.4655   3887012.2257   2   7   0.0390   0.0627   0.0477   0.0198  -0.0425  -0.0234   0.00    1.1
2173  12296.000   -669786.8009  -5002659.4584   3887012.2223   2   7   0.0389   0.0624   0.0473   0.0196  -0.0421  -0.0232   0.00    1.1
2173  12297.000   -669786.8010  -5002659.4510   3887012.2163   2   7   0.0387   0.0620   0.0470   0.0195  -0.0418  -0.0230   0.00    1.1
2173  12298.000   -669786.8020  -5002659.4435   3887012.2120   2   7   0.0386   0.0617   0.0466   0.0194  -0.0415  -0.0229   0.00    1.1
2173  12299.000   -669786.8002  -5002659.4347   3887012.2055   2   7   0.0385   0.0614   0.0462   0.0192  -0.0412  -0.0228   0.00    1.1
2173  12300.000   -669786.7975  -5002659.4235   3887012.1950   2   7   0.0384   0.0610   0.0459   0.0191  -0.0408  -0.0225   0.00    1.1
2173  12301.000   -669786.7996  -5002659.4176   3887012.1936   2   7   0.0382   0.0607   0.0456   0.0189  -0.0405  -0.0224   0.00    1.1
2173  12302.000   -669786.7988  -5002659.4144   3887012.1917   2   7   0.0380   0.0604   0.0452   0.0188  -0.0402  -0.0222   0.00    1.1
2173  12303.000   -669786.7965  -5002659.4051   3887012.1884   2   7   0.0380   0.0601   0.0449   0.0186  -0.0399  -0.0220   0.00    1.1
2173  12304.000   -669786.7984  -5002659.3982   3887012.1852   2   7   0.0378   0.0598   0.0446   0.0185  -0.0396  -0.0219   0.00    1.1
2173  12305.000   -669786.7986  -5002659.3844   3887012.1760   2   7   0.0377   0.0595   0.0442   0.0184  -0.0393  -0.0217   0.00    1.1
2173  12306.000   -669786.7954  -5002659.3706   3887012.1665   2   7   0.0375   0.0591   0.0439   0.0183  -0.0391  -0.0216   0.00    1.1
2173  12307.000   -669786.7932  -5002659.3574   3887012.1559   2   7   0.0374   0.0588   0.0436   0.0182  -0.0388  -0.0214   0.00    1.1
2173  12308.000   -669786.7939  -5002659.3479   3887012.1542   2   7   0.0373   0.0585   0.0433   0.0180  -0.0385  -0.0212   0.00    1.1
2173  12309.000   -669786.7928  -5002659.3378   3887012.1469   2   7   0.0372   0.0582   0.0429   0.0179  -0.0382  -0.0211   0.00    1.1
2173  12310.000   -669786.7919  -5002659.3293   3887012.1415   2   7   0.0371   0.0580   0.0427   0.0178  -0.0379  -0.0209   0.00    1.1
2173  12311.000   -669786.7912  -5002659.3171   3887012.1325   2   7   0.0369   0.0576   0.0423   0.0177  -0.0376  -0.0208   0.00    1.1
2173  12312.000   -669786.7920  -5002659.3022   3887012.1214   2   7   0.0368   0.0574   0.0420   0.0176  -0.0373  -0.0207   0.00    1.1
2173  12313.000   -669786.7902  -5002659.2908   3887012.1118   2   7   0.0367   0.0571   0.0417   0.0175  -0.0371  -0.0206   0.00    1.1
2173  12314.000   -669786.7877  -5002659.2795   3887012.1024   2   7   0.0366   0.0568   0.0414   0.0173  -0.0368  -0.0204   0.00    1.1
2173  12315.000   -669786.7886  -5002659.2654   3887012.0956   2   7   0.0365   0.0565   0.0411   0.0172  -0.0366  -0.0202   0.00    1.1
2173  12316.000   -669786.7825  -5002659.2434   3887012.0746   2   7   0.0363   0.0562   0.0408   0.0172  -0.0363  -0.0201   0.00    1.1
2173  12317.000   -669786.7810  -5002659.2373   3887012.0700   2   7   0.0362   0.0560   0.0406   0.0170  -0.0360  -0.0200   0.00    1.1
2173  12318.000   -669786.7804  -5002659.2371   3887012.0677   2   7   0.0361   0.0557   0.0403   0.0169  -0.0358  -0.0198   0.00    1.1
2173  12319.000   -669786.7808  -5002659.2315   3887012.0648   2   7   0.0360   0.0554   0.0400   0.0168  -0.0355  -0.0197   0.00    1.1
2173  12320.000   -669786.7787  -5002659.2250   3887012.0588   2   7   0.0359   0.0551   0.0397   0.0167  -0.0353  -0.0196   0.00    1.1
2173  12321.000   -669786.7771  -5002659.2222   3887012.0538   2   7   0.0357   0.0549   0.0394   0.0166  -0.0351  -0.0194   0.00    1.1
2173  12322.000   -669786.7771  -5002659.2183   3887012.0522   2   7   0.0357   0.0546   0.0392   0.0165  -0.0348  -0.0193   0.00    1.1
2173  12323.000   -669786.7764  -5002659.2141   3887012.0486   2   7   0.0356   0.0544   0.0389   0.0164  -0.0346  -0.0192   0.00    1.1
2173  12324.000   -669786.7777  -5002659.2093   3887012.0469   2   7   0.0354   0.0541   0.0386   0.0163  -0.0343  -0.0190   0.00    1.1
2173  12325.000   -669786.7789  -5002659.2055   3887012.0451   2   7   0.0353   0.0538   0.0383   0.0163  -0.0342  -0.0187   0.00    1.1
2173  12326.000   -669786.7757  -5002659.1916   3887012.0352   2   7   0.0352   0.0536   0.0381   0.0161  -0.0339  -0.0188   0.00    1.1
2173  12327.000   -669786.7760  -5002659.1829   3887012.0295   2   7   0.0351   0.0533   0.0378   0.0160  -0.0336  -0.0186   0.00    1.1
2173  12328.000   -669786.7784  -5002659.1766   3887012.0247   2   7   0.0350   0.0530   0.0376   0.0160  -0.0335  -0.0184   0.00    1.1
2173  12329.000   -669786.7753  -5002659.1654   3887012.0177   2   7   0.0349   0.0528   0.0373   0.0158  -0.0332  -0.0184   0.00    1.1
2173  12330.000   -669786.7750  -5002659.1645   3887012.0158   2   7   0.0348   0.0526   0.0371   0.0157  -0.0330  -0.0184   0.00    1.1
2173  12331.000   -669786.7709  -5002659.1574   3887012.0077   2   7   0.0347   0.0524   0.0369   0.0157  -0.0327  -0.0181   0.00    1.1
2173  12332.000   -669786.7697  -5002659.1495   3887012.0034   2   7   0.0346   0.0521   0.0366   0.0156  -0.0325  -0.0180   0.00    1.1
2173  12333.000   -669786.7707  -5002659.1441   3887011.9993   2   7   0.0345   0.0519   0.0364   0.0155  -0.0323  -0.0180   0.00    1.0
2173  12334.000   -669786.7707  -5002659.1395   3887011.9968   2   7   0.0344   0.0517   0.0362   0.0154  -0.0321  -0.0178   0.00    1.0
2173  12335.000   -669786.7697  -5002659.1386   3887011.9977   2   7   0.0343   0.0514   0.0359   0.0154  -0.0319  -0.0177   0.00    1.0
2173  12336.000   -669786.7699  -5002659.1310   3887011.9944   2   7   0.0342   0.0512   0.0357   0.0153  -0.0317  -0.0176   0.00    1.0
2173  12337.000   -669786.7717  -5002659.1353   3887011.9998   2   7   0.0341   0.0509   0.0355   0.0152  -0.0315  -0.0174   0.00    1.0
2173  12338.000   -669786.7727  -5002659.1291   3887011.9991   2   7   0.0340   0.0507   0.0353   0.0151  -0.0313  -0.0174   0.00    1.0
2173  12339.000   -669786.7694  -5002659.1294   3887011.9997   2   7   0.0339   0.0505   0.0350   0.0150  -0.0311  -0.0173   0.00    1.0
2173  12340.000   -669786.7732  -5002659.1234   3887011.9974   2   7   0.0338   0.0503   0.0348   0.0149  -0.0309  -0.0172   0.00    1.0
2173  12341.000   -669786.7718  -5002659.1183   3887011.9946   2   7   0.0337   0.0500   0.0345   0.0149  -0.0307  -0.0170   0.00    1.0
2173  12342.000   -669786.7733  -5002659.1155   3887011.9969   2   7   0.0336   0.0498   0.0343   0.0148  -0.0305  -0.0169   0.00    1.0
2173  12343.000   -669786.7766  -5002659.1167   3887012.0009   2   7   0.0335   0.0496   0.0341   0.0147  -0.0303  -0.0168   0.00    1.0
2173  12344.000   -669786.7782  -5002659.1138   3887012.0016   2   7   0.0334   0.0494   0.0339   0.0147  -0.0301  -0.0167   0.00    1.0
2173  12345.000   -669786.7797  -5002659.1098   3887012.0013   2   7   0.0334   0.0492   0.0337   0.0146  -0.0299  -0.0165   0.00    1.0
2173  12346.000   -669786.7843  -5002659.1082   3887012.0038   2   7   0.0332   0.0490   0.0335   0.0145  -0.0297  -0.0166   0.00    1.0
2173  12347.000   -669786.7834  -5002659.0999   3887011.9981   2   7   0.0332   0.0488   0.0333   0.0144  -0.0296  -0.0164   0.00    1.0
2173  12348.000   -669786.7851  -5002659.0970   3887012.0008   2   7   0.0331   0.0485   0.0331   0.0144  -0.0294  -0.0163   0.00    1.1
2173  12349.000   -669786.7830  -5002659.0916   3887011.9978   2   7   0.0330   0.0483   0.0329   0.0143  -0.0292  -0.0162   0.00    1.1
2173  12350.000   -669786.7845  -5002659.0906   3887011.9986   2   7   0.0329   0.0481   0.0327   0.0142  -0.0290  -0.0161   0.00    1.1
2173  12351.000   -669786.7854  -5002659.0816   3887011.9924   2   7   0.0328   0.0479   0.0325   0.0142  -0.0288  -0.0160   0.00    1.1
2173  12352.000   -669786.7856  -5002659.0842   3887011.9965   2   7   0.0327   0.0477   0.0323   0.0141  -0.0287  -0.0159   0.00    1.1
2173  12353.000   -669786.7884  -5002659.0793   3887011.9951   2   7   0.0327   0.0475   0.0321   0.0141  -0.0285  -0.0159   0.00    1.1
2173  12354.000   -669786.7864  -5002659.0726   3887011.9908   2   7   0.0325   0.0473   0.0319   0.0140  -0.0283  -0.0158   0.00    1.1
2173  12355.000   -669786.7863  -5002659.0633   3887011.9862   2   7   0.0324   0.0471   0.0316   0.0141  -0.0282  -0.0156   0.00    1.1
2173  12356.000   -669786.7861  -5002659.0527   3887011.9805   2   7   0.0324   0.0469   0.0315   0.0138  -0.0280  -0.0156   0.00    1.1
2173  12357.000   -669786.7885  -5002659.0496   3887011.9773   2   7   0.0323   0.0467   0.0313   0.0138  -0.0278  -0.0155   0.00    1.1
2173  12358.000   -669786.7903  -5002659.0408   3887011.9724   2   7   0.0322   0.0465   0.0311   0.0138  -0.0277  -0.0154   0.00    1.1
2173  12359.000   -669786.7903  -5002659.0338   3887011.9662   2   7   0.0321   0.0464   0.0309   0.0137  -0.0275  -0.0153   0.00    1.1
2173  12360.000   -669786.7918  -5002659.0235   3887011.9628   2   7   0.0321   0.0462   0.0309   0.0135  -0.0273  -0.0152   0.00    1.1
2173  12361.000   -669786.7912  -5002659.0206   3887011.9652   2   7   0.0319   0.0460   0.0307   0.0135  -0.0272  -0.0151   0.00    1.1
2173  12362.000   -669786.7940  -5002659.0128   3887011.9576   2   7   0.0319   0.0458   0.0304   0.0135  -0.0270  -0.0150   0.00    1.1
2173  12363.000   -669786.7932  -5002659.0061   3887011.9547   2   7   0.0318   0.0456   0.0303   0.0135  -0.0269  -0.0150   0.00    1.1
2173  12364.000   -669786.7938  -5002658.9946   3887011.9477   2   7   0.0317   0.0454   0.0301   0.0134  -0.0267  -0.0149   0.00    1.1
2173  12365.000   -669786.7943  -5002658.9839   3887011.9408   2   7   0.0317   0.0452   0.0300   0.0133  -0.0266  -0.0148   0.00    1.1
2173  12366.000   -669786.7932  -5002658.9731   3887011.9338   2   7   0.0315   0.0451   0.0298   0.0133  -0.0264  -0.0147   0.00    1.1
2173  12367.000   -669786.7925  -5002658.9616   3887011.9230   2   7   0.0314   0.0449   0.0296   0.0133  -0.0262  -0.0146   0.00    1.1
2173  12368.000   -669786.7898  -5002658.9591   3887011.9240   2   7   0.0314   0.0447   0.0295   0.0132  -0.0261  -0.0145   0.00    1.1
2173  12369.000   -669786.7909  -5002658.9543   3887011.9180   2   7   0.0313   0.0445   0.0292   0.0131  -0.0260  -0.0145   0.00    1.1
2173  12370.000   -669786.7889  -5002658.9460   3887011.9134   2   7   0.0313   0.0443   0.0291   0.0131  -0.0259  -0.0144   0.00    1.1
2173  12371.000   -669786.7889  -5002658.9416   3887011.9114   2   7   0.0312   0.0441   0.0289   0.0131  -0.0257  -0.0142   0.00    1.1
2173  12372.000   -669786.7908  -5002658.9314   3887011.9073   2   7   0.0311   0.0440   0.0288   0.0131  -0.0256  -0.0142   0.00    1.1
2173  12373.000   -669786.7892  -5002658.9231   3887011.9010   2   7   0.0311   0.0438   0.0287   0.0130  -0.0254  -0.0142   0.00    1.1
2173  12374.000   -669786.7899  -5002658.9149   3887011.8943   2   7   0.0309   0.0437   0.0285   0.0129  -0.0253  -0.0141   0.00    1.1
2173  12375.000   -669786.7878  -5002658.9082   3887011.8888   2   7   0.0309   0.0435   0.0284   0.0128  -0.0251  -0.0141   0.00    1.1
2173  12376.000   -669786.7891  -5002658.9072   3887011.8842   2   7   0.0308   0.0433   0.0282   0.0128  -0.0250  -0.0139   0.00    1.1
2173  12377.000   -669786.7760  -5002658.8970   3887011.8695   2   7   0.0308   0.0432   0.0280   0.0127  -0.0248  -0.0140   0.00    1.1
2173  12378.000   -669786.7721  -5002658.8845   3887011.8598   2   7   0.0306   0.0430   0.0279   0.0128  -0.0247  -0.0137   0.00    1.1
2173  12379.000   -669786.7725  -5002658.8693   3887011.8486   2   7   0.0306   0.0428   0.0277   0.0126  -0.0246  -0.0137   0.00    1.1
2173  12380.000   -669786.7702  -5002658.8495   3887011.8360   2   7   0.0305   0.0427   0.0276   0.0126  -0.0245  -0.0137   0.00    1.1
2173  12381.000   -669786.7693  -5002658.8365   3887011.8238   2   7   0.0304   0.0425   0.0274   0.0125  -0.0243  -0.0135   0.00    1.1
2173  12382.000   -669786.7674  -5002658.8214   3887011.8125   2   7   0.0303   0.0424   0.0273   0.0126  -0.0242  -0.0136   0.00    1.1
2173  12383.000   -669786.7663  -5002658.8053   3887011.8059   2   7   0.0303   0.0422   0.0271   0.0124  -0.0241  -0.0134   0.00    1.1
2173  12384.000   -669786.7642  -5002658.7921   3887011.7970   2   7   0.0302   0.0420   0.0270   0.0125  -0.0240  -0.0134   0.00    1.1
2173  12385.000   -669786.7640  -5002658.7766   3887011.7881   2   7   0.0301   0.0418   0.0268   0.0125  -0.0239  -0.0132   0.00    1.1
2173  12386.000   -669786.7604  -5002658.7590   3887011.7766   2   7   0.0301   0.0418   0.0267   0.0124  -0.0237  -0.0132   0.00    1.1
2173  12387.000   -669786.7604  -5002658.7409   3887011.7643   2   7   0.0300   0.0416   0.0266   0.0123  -0.0236  -0.0132   0.00    1.1
2173  12388.000   -669786.7564  -5002658.7346   3887011.7562   2   7   0.0300   0.0414   0.0265   0.0123  -0.0235  -0.0130   0.00    1.1
2173  12389.000   -669786.7568  -5002658.7100   3887011.7440   2   7   0.0299   0.0412   0.0263   0.0123  -0.0234  -0.0131   0.00    1.1
2173  12390.000   -669786.7549  -5002658.7001   3887011.7328   2   7   0.0298   0.0411   0.0262   0.0122  -0.0232  -0.0130   0.00    1.1
2173  12391.000   -669786.7554  -5002658.6863   3887011.7254   2   7   0.0298   0.0410   0.0261   0.0122  -0.0231  -0.0129   0.00    1.1
2173  12392.000   -669786.7540  -5002658.6722   3887011.7170   2   7   0.0297   0.0408   0.0259   0.0122  -0.0230  -0.0128   0.00    1.1
2173  12393.000   -669786.7521  -5002658.6582   3887011.7056   2   7   0.0296   0.0407   0.0258   0.0121  -0.0229  -0.0127   0.00    1.1
2173  12394.000   -669786.7502  -5002658.6454   3887011.6992   2   7   0.0296   0.0405   0.0257   0.0121  -0.0228  -0.0128   0.00    1.1
2173  12395.000   -669786.7483  -5002658.6373   3887011.6932   2   7   0.0295   0.0404   0.0256   0.0119  -0.0226  -0.0128   0.00    1.1
2173  12396.000   -669786.7490  -5002658.6233   3887011.6843   2   7   0.0294   0.0403   0.0255   0.0119  -0.0225  -0.0126   0.00    1.1
2173  12397.000   -669786.7355  -5002658.6251   3887011.7088   2   7   0.0294   0.0401   0.0253   0.0120  -0.0224  -0.0126   0.00    1.1
2173  12398.000   -669786.7366  -5002658.6189   3887011.7182   2   7   0.0293   0.0400   0.0252   0.0120  -0.0223  -0.0125   0.00    1.1
2173  12399.000   -669786.7392  -5002658.6049   3887011.7147   2   7   0.0292   0.0398   0.0251   0.0120  -0.0222  -0.0125   0.00    1.1
2173  12400.000   -669786.7428  -5002658.6026   3887011.7226   2   7   0.0291   0.0397   0.0249   0.0119  -0.0221  -0.0123   0.00    1.1
2173  12401.000   -669786.7444  -5002658.5983   3887011.7263   2   7   0.0291   0.0396   0.0249   0.0118  -0.0220  -0.0124   0.00    1.1
2173  12402.000   -669786.7429  -5002658.6044   3887011.7378   2   7   0.0291   0.0394   0.0247   0.0118  -0.0219  -0.0123   0.00    1.1
2173  12403.000   -669786.7477  -5002658.5984   3887011.7391   2   7   0.0290   0.0392   0.0245   0.0118  -0.0218  -0.0121   0.00    1.1
2173  12404.000   -669786.7501  -5002658.5987   3887011.7462   2   7   0.0289   0.0392   0.0245   0.0118  -0.0217  -0.0122   0.00    1.1
2173  12405.000   -669786.7525  -5002658.5866   3887011.7455   2   7   0.0289   0.0390   0.0244   0.0118  -0.0216  -0.0121   0.00    1.1
2173  12406.000   -669786.7530  -5002658.5871   3887011.7544   2   7   0.0288   0.0388   0.0242   0.0117  -0.0215  -0.0121   0.00    1.1
2173  12407.000   -669786.7583  -5002658.5736   3887011.7549   2   7   0.0287   0.0387   0.0242   0.0117  -0.0214  -0.0120   0.00    1.1
2173  12408.000   -669786.7598  -5002658.5704   3887011.7628   2   7   0.0287   0.0386   0.0240   0.0117  -0.0213  -0.0118   0.00    1.1
2173  12409.000   -669786.7606  -5002658.5631   3887011.7647   2   7   0.0286   0.0385   0.0239   0.0116  -0.0212  -0.0118   0.00    1.1
2173  12410.000   -669786.7602  -5002658.5633   3887011.7743   2   7   0.0286   0.0383   0.0238   0.0116  -0.0211  -0.0119   0.00    1.1
2173  12411.000   -669786.7636  -5002658.5507   3887011.7738   2   7   0.0286   0.0382   0.0237   0.0116  -0.0210  -0.0118   0.00    1.1
2173  12412.000   -669786.7655  -5002658.5478   3887011.7782   2   7   0.0285   0.0380   0.0236   0.0115  -0.0209  -0.0117   0.00    1.1
2173  12413.000   -669786.7706  -5002658.5425   3887011.7822   2   7   0.0284   0.0380   0.0235   0.0114  -0.0208  -0.0117   0.00    1.1
2173  12414.000   -669786.7750  -5002658.5351   3887011.7845   2   7   0.0284   0.0378   0.0234   0.0115  -0.0207  -0.0115   0.00    1.0
2173  12415.000   -669786.7742  -5002658.5317   3887011.7868   2   7   0.0283   0.0377   0.0233   0.0115  -0.0206  -0.0116   0.00    1.0
2173  12416.000   -669786.7784  -5002658.5251   3887011.7889   2   7   0.0282   0.0376   0.0232   0.0115  -0.0205  -0.0115   0.00    1.0
2173  12417.000   -669786.7804  -5002658.5190   3887011.7915   2   7   0.0282   0.0375   0.0231   0.0112  -0.0204  -0.0115   0.00    1.0
2173  12418.000   -669786.7820  -5002658.5111   3887011.7932   2   7   0.0281   0.0373   0.0229   0.0114  -0.0204  -0.0113   0.00    1.0
2173  12419.000   -669786.7835  -5002658.5113   3887011.7964   2   7   0.0281   0.0371   0.0228   0.0114  -0.0203  -0.0113   0.00    1.0
2173  12420.000   -669786.7869  -5002658.5028   3887011.7997   2   7   0.0280   0.0370   0.0228   0.0113  -0.0202  -0.0113   0.00    1.0
2173  12421.000   -669786.7910  -5002658.5036   3887011.8066   2   7   0.0280   0.0370   0.0227   0.0112  -0.0201  -0.0113   0.00    1.0
2173  12422.000   -669786.7896  -5002658.4948   3887011.8073   2   7   0.0279   0.0368   0.0226   0.0113  -0.0201  -0.0111   0.00    1.0
2173  12423.000   -669786.7926  -5002658.4922   3887011.8112   2   7   0.0278   0.0367   0.0225   0.0113  -0.0199  -0.0112   0.00    1.0
2173  12424.000   -669786.7957  -5002658.4879   3887011.8166   2   7   0.0277   0.0366   0.0224   0.0113  -0.0198  -0.0111   0.00    1.0
2173  12425.000   -669786.7995  -5002658.4815   3887011.8202   2   7   0.0277   0.0365   0.0223   0.0111  -0.0197  -0.0111   0.00    1.0
2173  12426.000   -669786.8010  -5002658.4793   3887011.8235   2   7   0.0277   0.0363   0.0222   0.0112  -0.0197  -0.0111   0.00    1.0
2173  12427.000   -669786.8023  -5002658.4745   3887011.8273   2   7   0.0276   0.0362   0.0221   0.0112  -0.0195  -0.0110   0.00    1.0
2173  12428.000   -669786.8072  -5002658.4686   3887011.8346   2   7   0.0275   0.0361   0.0220   0.0111  -0.0195  -0.0110   0.00    1.0
2173  12429.000   -669786.8083  -5002658.4632   3887011.8353   2   7   0.0275   0.0360   0.0219   0.0111  -0.0195  -0.0108   0.00    1.0
2173  12430.000   -669786.8101  -5002658.4580   3887011.8407   2   7   0.0274   0.0359   0.0218   0.0111  -0.0194  -0.0109   0.00    1.0
2173  12431.000   -669786.8113  -5002658.4630   3887011.8489   2   7   0.0274   0.0358   0.0217   0.0110  -0.0193  -0.0108   0.00    1.0
2173  12432.000   -669786.8146  -5002658.4670   3887011.8565   2   7   0.0273   0.0356   0.0216   0.0110  -0.0192  -0.0108   0.00    1.0
2173  12433.000   -669786.8167  -5002658.4680   3887011.8637   2   7   0.0273   0.0356   0.0216   0.0110  -0.0191  -0.0107   0.00    1.0
2173  12434.000   -669786.8212  -5002658.4771   3887011.8772   2   7   0.0273   0.0354   0.0214   0.0110  -0.0191  -0.0107   0.00    1.0
2173  12435.000   -669786.8219  -5002658.4740   3887011.8823   2   7   0.0273   0.0353   0.0213   0.0108  -0.0190  -0.0107   0.00    1.0
2173  12436.000   -669786.8218  -5002658.4860   3887011.9040   2   7   0.0272   0.0352   0.0213   0.0110  -0.0189  -0.0106   0.00    1.0
2173  12437.000   -669786.8208  -5002658.4853   3887011.9127   2   7   0.0271   0.0351   0.0212   0.0109  -0.0188  -0.0106   0.00    1.0
2173  12438.000   -669786.8241  -5002658.4825   3887011.9197   2   7   0.0270   0.0350   0.0211   0.0109  -0.0187  -0.0107   0.00    1.0
2173  12439.000   -669786.8265  -5002658.4793   3887011.9228   2   7   0.0270   0.0349   0.0210   0.0110  -0.0186  -0.0105   0.00    1.0
2173  12440.000   -669786.8287  -5002658.4749   3887011.9239   2   7   0.0269   0.0348   0.0210   0.0109  -0.0185  -0.0105   0.00    1.0
2173  12441.000   -669786.8284  -5002658.4693   3887011.9272   2   7   0.0269   0.0346   0.0208   0.0108  -0.0185  -0.0104   0.00    1.0
2173  12442.000   -669786.8302  -5002658.4621   3887011.9280   2   7   0.0269   0.0346   0.0208   0.0107  -0.0184  -0.0103   0.00    1.0
2173  12443.000   -669786.8330  -5002658.4626   3887011.9311   2   7   0.0268   0.0344   0.0207   0.0108  -0.0184  -0.0102   0.00    1.0
2173  12444.000   -669786.8337  -5002658.4578   3887011.9328   2   7   0.0268   0.0343   0.0206   0.0109  -0.0183  -0.0102   0.00    1.0
2173  12445.000   -669786.8329  -5002658.4571   3887011.9400   2   7   0.0267   0.0342   0.0206   0.0108  -0.0182  -0.0102   0.00    1.0
2173  12446.000   -669786.8390  -5002658.4508   3887011.9426   2   7   0.0267   0.0342   0.0205   0.0106  -0.0181  -0.0103   0.00    1.0
2173  12447.000   -669786.8390  -5002658.4521   3887011.9501   2   7   0.0266   0.0340   0.0203   0.0108  -0.0181  -0.0100   0.00    1.0
2173  12448.000   -669786.8354  -5002658.4434   3887011.9465   2   7   0.0266   0.0339   0.0203   0.0107  -0.0180  -0.0101   0.00    1.0
2173  12449.000   -669786.8372  -5002658.4408   3887011.9454   2   7   0.0265   0.0338   0.0202   0.0107  -0.0179  -0.0100   0.00    1.0
2173  12450.000   -669786.8365  -5002658.4294   3887011.9458   2   7   0.0264   0.0337   0.0202   0.0107  -0.0179  -0.0101   0.00    1.0
2173  12451.000   -669786.8366  -5002658.4246   3887011.9453   2   7   0.0265   0.0336   0.0200   0.0107  -0.0178  -0.0098   0.00    1.0
2173  12452.000   -669786.8330  -5002658.4183   3887011.9441   2   7   0.0263   0.0335   0.0199   0.0108  -0.0178  -0.0099   0.00    1.0
2173  12453.000   -669786.8370  -5002658.4161   3887011.9460   2   7   0.0263   0.0334   0.0199   0.0108  -0.0177  -0.0099   0.00    1.1
2173  12454.000   -669786.8352  -5002658.4131   3887011.9485   2   7   0.0263   0.0333   0.0199   0.0106  -0.0176  -0.0100   0.00    1.1
2173  12455.000   -669786.8401  -5002658.4083   3887011.9486   2   7   0.0262   0.0333   0.0198   0.0106  -0.0175  -0.0100   0.00    1.1
2173  12456.000   -669786.8394  -5002658.3996   3887011.9493   2   7   0.0262   0.0331   0.0197   0.0107  -0.0175  -0.0098   0.00    1.1
2173  12457.000   -669786.8418  -5002658.3975   3887011.9489   2   7   0.0261   0.0330   0.0196   0.0106  -0.0174  -0.0099   0.00    1.1
2173  12458.000   -669786.8415  -5002658.3905   3887011.9491   2   7   0.0261   0.0329   0.0196   0.0105  -0.0173  -0.0097   0.00    1.1
2173  12459.000   -669786.8420  -5002658.3818   3887011.9478   2   7   0.0260   0.0328   0.0194   0.0106  -0.0174  -0.0097   0.00    1.1
2173  12460.000   -669786.8421  -5002658.3749   3887011.9491   2   7   0.0260   0.0327   0.0194   0.0106  -0.0173  -0.0096   0.00    1.1
2173  12461.000   -669786.8420  -5002658.3687   3887011.9458   2   7   0.0260   0.0327   0.0194   0.0105  -0.0172  -0.0097   0.00    1.1
2173  12462.000   -669786.8428  -5002658.3617   3887011.9473   2   7   0.0259   0.0325   0.0192   0.0106  -0.0171  -0.0095   0.00    1.1
2173  12463.000   -669786.8417  -5002658.3573   3887011.9456   2   7   0.0258   0.0325   0.0192   0.0105  -0.0170  -0.0096   0.00    1.1
2173  12464.000   -669786.8434  -5002658.3516   3887011.9437   2   7   0.0258   0.0324   0.0192   0.0105  -0.0170  -0.0097   0.00    1.1
2173  12465.000   -669786.8415  -5002658.3413   3887011.9393   2   7   0.0258   0.0323   0.0191   0.0103  -0.0169  -0.0097   0.00    1.1
2173  12466.000   -669786.8409  -5002658.3400   3887011.9402   2   7   0.0257   0.0321   0.0191   0.0106  -0.0169  -0.0094   0.00    1.1
2173  12467.000   -669786.8409  -5002658.3306   3887011.9396   2   7   0.0257   0.0321   0.0190   0.0105  -0.0168  -0.0093   0.00    1.1
2173  12468.000   -669786.8419  -5002658.3225   3887011.9376   2   7   0.0256   0.0319   0.0189   0.0105  -0.0168  -0.0093   0.00    1.1
2173  12469.000   -669786.8424  -5002658.3135   3887011.9340   2   7   0.0256   0.0319   0.0188   0.0104  -0.0167  -0.0094   0.00    1.1
2173  12470.000   -669786.8409  -5002658.3098   3887011.9345   2   7   0.0255   0.0317   0.0187   0.0106  -0.0167  -0.0093   0.00    1.1
2173  12471.000   -669786.8432  -5002658.3052   3887011.9324   2   7   0.0255   0.0317   0.0187   0.0104  -0.0166  -0.0093   0.00    1.1
2173  12472.000   -669786.8433  -5002658.3025   3887011.9351   2   7   0.0256   0.0316   0.0186   0.0103  -0.0165  -0.0093   0.00    1.1
2173  12473.000   -669786.8422  -5002658.2977   3887011.9330   2   7   0.0255   0.0316   0.0186   0.0103  -0.0164  -0.0092   0.00    1.1
2173  12474.000   -669786.8439  -5002658.2948   3887011.9337   2   7   0.0254   0.0314   0.0185   0.0103  -0.0164  -0.0092   0.00    1.1
2173  12475.000   -669786.8434  -5002658.2909   3887011.9341   2   7   0.0253   0.0313   0.0184   0.0104  -0.0164  -0.0091   0.00    1.1
2173  12476.000   -669786.8451  -5002658.2845   3887011.9345   2   7   0.0253   0.0313   0.0184   0.0103  -0.0163  -0.0091   0.00    1.1
2173  12477.000   -669786.8468  -5002658.2863   3887011.9387   2   7   0.0252   0.0312   0.0182   0.0103  -0.0163  -0.0093   0.00    1.1
2173  12478.000   -669786.8471  -5002658.2823   3887011.9390   2   7   0.0252   0.0311   0.0183   0.0102  -0.0162  -0.0092   0.00    1.1
2173  12479.000   -669786.8458  -5002658.2782   3887011.9390   2   7   0.0252   0.0310   0.0182   0.0102  -0.0161  -0.0092   0.00    1.1
2173  12480.000   -669786.8441  -5002658.2710   3887011.9393   2   7   0.0251   0.0309   0.0181   0.0102  -0.0162  -0.0091   0.00    1.1
2173  12481.000   -669786.8476  -5002658.2671   3887011.9385   2   7   0.0251   0.0309   0.0181   0.0102  -0.0160  -0.0091   0.00    1.1
2173  12482.000   -669786.8471  -5002658.2593   3887011.9373   2   7   0.0250   0.0307   0.0180   0.0102  -0.0160  -0.0089   0.00    1.1
2173  12483.000   -669786.8483  -5002658.2488   3887011.9382   2   7   0.0250   0.0307   0.0180   0.0102  -0.0159  -0.0091   0.00    1.1
2173  12484.000   -669786.8490  -5002658.2423   3887011.9369   2   7   0.0250   0.0306   0.0179   0.0102  -0.0159  -0.0090   0.00    1.1
2173  12485.000   -669786.8494  -5002658.2340   3887011.9362   2   7   0.0249   0.0305   0.0178   0.0102  -0.0159  -0.0090   0.00    1.1
2173  12486.000   -669786.8488  -5002658.2296   3887011.9375   2   7   0.0249   0.0304   0.0178   0.0102  -0.0158  -0.0089   0.00    1.1
2173  12487.000   -669786.8486  -5002658.2269   3887011.9396   2   7   0.0248   0.0303   0.0177   0.0103  -0.0158  -0.0087   0.00    1.1
2173  12488.000   -669786.8531  -5002658.2202   3887011.9401   2   7   0.0248   0.0303   0.0176   0.0101  -0.0157  -0.0090   0.00    1.1
2173  12489.000   -669786.8507  -5002658.2064   3887011.9334   2   7   0.0248   0.0302   0.0176   0.0102  -0.0156  -0.0088   0.00    1.1
2173  12490.000   -669786.8564  -5002658.2048   3887011.9377   2   7   0.0247   0.0301   0.0176   0.0102  -0.0156  -0.0088   0.00    1.1
2173  12491.000   -669786.8541  -5002658.1920   3887011.9326   2   7   0.0247   0.0300   0.0175   0.0101  -0.0156  -0.0087   0.00    1.1
2173  12492.000   -669786.8521  -5002658.1862   3887011.9318   2   7   0.0247   0.0299   0.0175   0.0101  -0.0155  -0.0088   0.00    1.1
2173  12493.000   -669786.8534  -5002658.1796   3887011.9303   2   7   0.0247   0.0299   0.0175   0.0101  -0.0154  -0.0085   0.00    1.1
2173  12494.000   -669786.8522  -5002658.1713   3887011.9267   2   7   0.0246   0.0298   0.0173   0.0101  -0.0154  -0.0088   0.00    1.1
2173  12495.000   -669786.8527  -5002658.1659   3887011.9252   2   7   0.0245   0.0297   0.0172   0.0101  -0.0154  -0.0087   0.00    1.1
2173  12496.000   -669786.8504  -5002658.1543   3887011.9204   2   7   0.0246   0.0296   0.0172   0.0102  -0.0153  -0.0085   0.00    1.1
2173  12497.000   -669786.8705  -5002658.1529   3887011.9260   2   7   0.0245   0.0296   0.0172   0.0100  -0.0152  -0.0087   0.00    1.1
2173  12498.000   -669786.8713  -5002658.1446   3887011.9285   2   7   0.0244   0.0295   0.0172   0.0099  -0.0152  -0.0088   0.00    1.1
2173  12499.000   -669786.8723  -5002658.1295   3887011.9233   2   7   0.0244   0.0294   0.0171   0.0100  -0.0152  -0.0085   0.00    1.1
2173  12500.000   -669786.8708  -5002658.1156   3887011.9185   2   7   0.0244   0.0293   0.0170   0.0100  -0.0151  -0.0084   0.00    1.1
2173  12501.000   -669786.8735  -5002658.1046   3887011.9169   2   7   0.0242   0.0292   0.0170   0.0100  -0.0151  -0.0086   0.00    1.1
2173  12502.000   -669786.8725  -5002658.0938   3887011.9133   2   7   0.0243   0.0291   0.0169   0.0101  -0.0150  -0.0085   0.00    1.1
2173  12503.000   -669786.8727  -5002658.0829   3887011.9116   2   7   0.0242   0.0291   0.0169   0.0100  -0.0150  -0.0086   0.00    1.1
2173  12504.000   -669786.8755  -5002658.0745   3887011.9079   2   7   0.0242   0.0290   0.0168   0.0100  -0.0150  -0.0084   0.00    1.1
2173  12505.000   -669786.8741  -5002658.0586   3887011.9030   2   7   0.0241   0.0289   0.0168   0.0100  -0.0149  -0.0085   0.00    1.1
2173  12506.000   -669786.8751  -5002658.0500   3887011.9016   2   7   0.0241   0.0289   0.0167   0.0099  -0.0148  -0.0084   0.00    1.1
2173  12507.000   -669786.8745  -5002658.0376   3887011.8988   2   7   0.0240   0.0288   0.0166   0.0100  -0.0149  -0.0083   0.00    1.1
2173  12508.000   -669786.8737  -5002658.0266   3887011.8928   2   7   0.0241   0.0287   0.0167   0.0099  -0.0147  -0.0085   0.00    1.1
2173  12509.000   -669786.8765  -5002658.0123   3887011.8877   2   7   0.0241   0.0286   0.0165   0.0100  -0.0148  -0.0084   0.00    1.1
2173  12510.000   -669786.8771  -5002658.0026   3887011.8865   2   7   0.0241   0.0286   0.0166   0.0099  -0.0147  -0.0082   0.00    1.1
2173  12511.000   -669786.8776  -5002657.9888   3887011.8789   2   7   0.0239   0.0285   0.0164   0.0099  -0.0147  -0.0083   0.00    1.1
2173  12512.000   -669786.8803  -5002657.9768   3887011.8737   2   7   0.0239   0.0284   0.0164   0.0098  -0.0146  -0.0082   0.00    1.1
2173  12513.000   -669786.8774  -5002657.9599   3887011.8673   2   7   0.0239   0.0284   0.0164   0.0099  -0.0146  -0.0083   0.00    1.1
2173  12514.000   -669786.8783  -5002657.9476   3887011.8634   2   7   0.0239   0.0283   0.0163   0.0099  -0.0146  -0.0082   0.00    1.1
2173  12515.000   -669786.8779  -5002657.9364   3887011.8588   2   7   0.0238   0.0282   0.0163   0.0098  -0.0145  -0.0082   0.00    1.1
2173  12516.000   -669786.8788  -5002657.9207   3887011.8542   2   7   0.0238   0.0281   0.0163   0.0099  -0.0144  -0.0082   0.00    1.1
2173  12517.000   -669786.8766  -5002657.9091   3887011.8481   2   7   0.0237   0.0281   0.0163   0.0099  -0.0144  -0.0083   0.00    1.1
2173  12518.000   -669786.8771  -5002657.9030   3887011.8457   2   7   0.0237   0.0280   0.0162   0.0099  -0.0144  -0.0080   0.00    1.1
2173  12519.000   -669786.8764  -5002657.8991   3887011.8433   2   7   0.0236   0.0279   0.0161   0.0099  -0.0143  -0.0083   0.00    1.1
2173  12520.000   -669786.8739  -5002657.8931   3887011.8432   2   7   0.0237   0.0278   0.0160   0.0099  -0.0143  -0.0079   0.00    1.1
2173  12521.000   -669786.8741  -5002657.8900   3887011.8447   2   7   0.0236   0.0278   0.0160   0.0098  -0.0142  -0.0080   0.00    1.1
2173  12522.000   -669786.8777  -5002657.8908   3887011.8506   2   7   0.0236   0.0277   0.0160   0.0098  -0.0142  -0.0080   0.00    1.1
2173  12523.000   -669786.8737  -5002657.8802   3887011.8456   2   7   0.0235   0.0276   0.0159   0.0098  -0.0142  -0.0080   0.00    1.1
2173  12524.000   -669786.8768  -5002657.8738   3887011.8487   2   7   0.0235   0.0276   0.0159   0.0099  -0.0141  -0.0080   0.00    1.1
2173  12525.000   -669786.8780  -5002657.8692   3887011.8503   2   7   0.0234   0.0275   0.0158   0.0099  -0.0142  -0.0078   0.00    1.1
2173  12526.000   -669786.8793  -5002657.8586   3887011.8465   2   7   0.0234   0.0274   0.0158   0.0099  -0.0141  -0.0078   0.00    1.1
2173  12527.000   -669786.8821  -5002657.8516   3887011.8487   2   7   0.0234   0.0274   0.0158   0.0097  -0.0140  -0.0077   0.00    1.1
2173  12528.000   -669786.8870  -5002657.8430   3887011.8483   2   7   0.0234   0.0273   0.0157   0.0097  -0.0140  -0.0080   0.00    1.1
2173  12529.000   -669786.8867  -5002657.8368   3887011.8442   2   7   0.0234   0.0273   0.0157   0.0098  -0.0140  -0.0078   0.00    1.1
2173  12530.000   -669786.8879  -5002657.8332   3887011.8453   2   7   0.0233   0.0272   0.0156   0.0097  -0.0140  -0.0078   0.00    1.1
2173  12531.000   -669786.8876  -5002657.8154   3887011.8374   2   7   0.0233   0.0271   0.0156   0.0097  -0.0139  -0.0078   0.00    1.1
2173  12532.000   -669786.8885  -5002657.8076   3887011.8372   2   7   0.0232   0.0271   0.0155   0.0097  -0.0138  -0.0080   0.00    1.1
2173  12533.000   -669786.8907  -5002657.7907   3887011.8336   2   7   0.0232   0.0270   0.0156   0.0097  -0.0138  -0.0079   0.00    1.1
2173  12534.000   -669786.8908  -5002657.7815   3887011.8312   2   7   0.0232   0.0269   0.0155   0.0098  -0.0138  -0.0079   0.00    1.1
2173  12535.000   -669786.8935  -5002657.7727   3887011.8287   2   7   0.0231   0.0268   0.0154   0.0097  -0.0138  -0.0077   0.00    1.1
2173  12536.000   -669786.8909  -5002657.7622   3887011.8248   2   7   0.0231   0.0268   0.0154   0.0098  -0.0137  -0.0077   0.00    1.1
2173  12537.000   -669786.8920  -5002657.7524   3887011.8201   2   7   0.0231   0.0267   0.0153   0.0096  -0.0137  -0.0078   0.00    1.1
2173  12538.000   -669786.8940  -5002657.7377   3887011.8142   2   7   0.0230   0.0267   0.0153   0.0097  -0.0136  -0.0076   0.00    1.1
2173  12539.000   -669786.8960  -5002657.7264   3887011.8113   2   7   0.0230   0.0267   0.0153   0.0096  -0.0136  -0.0076   0.00    1.1
2173  12540.000   -669786.8945  -5002657.7110   3887011.8069   2   7   0.0229   0.0265   0.0152   0.0096  -0.0136  -0.0078   0.00    1.1
2173  12541.000   -669786.8952  -5002657.6985   3887011.8007   2   7   0.0229   0.0265   0.0152   0.0097  -0.0136  -0.0076   0.00    1.1
2173  12542.000   -669786.8961  -5002657.6905   3887011.7991   2   7   0.0229   0.0264   0.0152   0.0096  -0.0135  -0.0077   0.00    1.1
2173  12543.000   -669786.8925  -5002657.6804   3887011.7923   2   7   0.0229   0.0264   0.0152   0.0096  -0.0135  -0.0077   0.00    1.1
2173  12544.000   -669786.8916  -5002657.6639   3887011.7827   2   7   0.0228   0.0263   0.0151   0.0097  -0.0134  -0.0077   0.00    1.1
2173  12545.000   -669786.8915  -5002657.6592   3887011.7838   2   7   0.0228   0.0262   0.0150   0.0096  -0.0135  -0.0076   0.00    1.1
2173  12546.000   -669786.8910  -5002657.6497   3887011.7777   2   7   0.0228   0.0263   0.0151   0.0095  -0.0133  -0.0077   0.00    1.1
2173  12547.000   -669786.8894  -5002657.6402   3887011.7718   2   7   0.0228   0.0262   0.0150   0.0096  -0.0133  -0.0075   0.00    1.1
2173  12548.000   -669786.8927  -5002657.6311   3887011.7733   2   7   0.0228   0.0261   0.0150   0.0095  -0.0133  -0.0075   0.00    1.1
2173  12549.000   -669786.8920  -5002657.6202   3887011.7702   2   7   0.0227   0.0260   0.0149   0.0095  -0.0134  -0.0076   0.00    1.1
2173  12550.000   -669786.8896  -5002657.6007   3887011.7590   2   7   0.0227   0.0260   0.0149   0.0095  -0.0133  -0.0075   0.00    1.1
2173  12551.000   -669786.8917  -5002657.5861   3887011.7562   2   7   0.0226   0.0259   0.0149   0.0096  -0.0132  -0.0074   0.00    1.1
2173  12552.000   -669786.8898  -5002657.5832   3887011.7587   2   7   0.0226   0.0258   0.0149   0.0096  -0.0132  -0.0074   0.00    1.1
2173  12553.000   -669786.8892  -5002657.5686   3887011.7511   2   7   0.0227   0.0258   0.0148   0.0094  -0.0132  -0.0073   0.00    1.1
2173  12554.000   -669786.8881  -5002657.5576   3887011.7471   2   7   0.0225   0.0257   0.0148   0.0096  -0.0132  -0.0073   0.00    1.1
2173  12555.000   -669786.8863  -5002657.5470   3887011.7426   2   7   0.0225   0.0257   0.0148   0.0096  -0.0131  -0.0074   0.00    1.1
2173  12556.000   -669786.8891  -5002657.5358   3887011.7387   2   7   0.0225   0.0256   0.0146   0.0095  -0.0131  -0.0075   0.00    1.1
2173  12557.000   -669786.8897  -5002657.5300   3887011.7431   2   7   0.0225   0.0256   0.0146   0.0095  -0.0131  -0.0074   0.00    1.1
2173  12558.000   -669786.8877  -5002657.5231   3887011.7397   2   7   0.0224   0.0255   0.0146   0.0095  -0.0130  -0.0075   0.00    1.1
2173  12559.000   -669786.8895  -5002657.5114   3887011.7354   2   7   0.0224   0.0255   0.0146   0.0095  -0.0130  -0.0074   0.00    1.1
2173  12560.000   -669786.8869  -5002657.5049   3887011.7291   2   7   0.0224   0.0253   0.0145   0.0096  -0.0131  -0.0074   0.00    1.1
2173  12561.000   -669786.8867  -5002657.4909   3887011.7229   2   7   0.0223   0.0253   0.0145   0.0095  -0.0130  -0.0073   0.00    1.1
2173  12562.000   -669786.8841  -5002657.4888   3887011.7177   2   7   0.0223   0.0253   0.0145   0.0095  -0.0129  -0.0073   0.00    1.1
2173  12563.000   -669786.8841  -5002657.4765   3887011.7136   2   7   0.0223   0.0252   0.0144   0.0095  -0.0129  -0.0073   0.00    1.1
2173  12564.000   -669786.8820  -5002657.4694   3887011.7131   2   7   0.0223   0.0251   0.0144   0.0095  -0.0129  -0.0072   0.00    1.1
2173  12565.000   -669786.8885  -5002657.4553   3887011.7089   2   7   0.0222   0.0251   0.0143   0.0095  -0.0129  -0.0072   0.00    1.1
2173  12566.000   -669786.8891  -5002657.4533   3887011.7108   2   7   0.0222   0.0251   0.0144   0.0095  -0.0128  -0.0071   0.00    1.1
2173  12567.000   -669786.8897  -5002657.4413   3887011.7105   2   7   0.0222   0.0250   0.0144   0.0095  -0.0128  -0.0071   0.00    1.1
2173  12568.000   -669786.8938  -5002657.4412   3887011.7139   2   7   0.0221   0.0249   0.0142   0.0094  -0.0127  -0.0073   0.00    1.1
2173  12569.000   -669786.8946  -5002657.4384   3887011.7151   2   7   0.0221   0.0249   0.0143   0.0096  -0.0127  -0.0070   0.00    1.1
2173  12570.000   -669786.8955  -5002657.4328   3887011.7139   2   7   0.0221   0.0248   0.0142   0.0094  -0.0127  -0.0073   0.00    1.1
2173  12571.000   -669786.8997  -5002657.4286   3887011.7166   2   7   0.0220   0.0247   0.0141   0.0095  -0.0128  -0.0071   0.00    1.1
2173  12572.000   -669786.9017  -5002657.4229   3887011.7167   2   7   0.0221   0.0247   0.0142   0.0094  -0.0126  -0.0070   0.00    1.1
2173  12573.000   -669786.9055  -5002657.4191   3887011.7194   2   7   0.0220   0.0247   0.0141   0.0094  -0.0127  -0.0072   0.00    1.1
2173  12574.000   -669786.9076  -5002657.4129   3887011.7161   2   7   0.0220   0.0246   0.0141   0.0094  -0.0126  -0.0071   0.00    1.1
2173  12575.000   -669786.9089  -5002657.4074   3887011.7174   2   7   0.0219   0.0246   0.0140   0.0094  -0.0126  -0.0072   0.00    1.1
