     2.11           OBSERVATION DATA    M (MIXED)           RINEX VERSION / TYPE
CONVBIN 2.4.3                           20210901 191247 UTC PGM / RUN BY / DATE 
log: logs/21_09_01_10_42_41_msme_SNMS.rtcm                  COMMENT             
format: RTCM 3, station ID: 3054                            COMMENT             
3054                                                        MARKER NAME         
                                                            MARKER NUMBER       
                                                            OBSERVER / AGENCY   
                    TRIMBLE ALLOY                           REC # / TYPE / VERS 
                    GPPNULLANTENNA                          ANT # / TYPE        
   119285.9137 -5391032.3110  3394922.2425                  APPROX POSITION XYZ 
        0.0000        0.0000        0.0000                  ANTENNA: DELTA H/E/N
     1     1                                                WAVELENGTH FACT L1/2
     4    C1    L1    P2    L2                              # / TYPES OF OBSERV 
  2021     9     1    10    42   48.0000000     GPS         TIME OF FIRST OBS   
  2021     9     1    11    12   45.0000000     GPS         TIME OF LAST OBS    
                                                            END OF HEADER       
 21  9  1 10 42 48.0000000  0 15G 1G 3G 6G14G17G19G22G24G30R13R14R15
                                R17R18R24
  23101948.365   121401558.354    23101949.687    94598622.342  
  23639505.167   124226435.583    23639504.791    96799820.751  
  21775079.293   114428812.905    21775080.169    89165312.674  
  20493543.647   107694298.705    20493541.682    83917626.844  
  21002954.004   110371263.876    21002950.984    86003572.944  
  20876318.758   109705795.124    20876314.988    85485019.535  
  24358198.289   128003193.690    24358194.518    99742732.875  
  24200262.894   127173240.758    24200262.089    99096027.569  
  22676310.257   119164811.072    22676310.900    92855701.674  
  21900233.305   116946026.519    21900229.945    90958003.972  
  19124900.481   101946484.257    19124897.104    79291694.284  
  21201250.608   113293056.700    21201247.070    88116805.803  
  19872193.207   106340117.929    19872188.829    82708963.871  
  23414088.443   124985988.981    23414085.387    97211314.493  
  20099937.425   107483396.871    20099933.637    83598182.359  
 21  9  1 10 42 49.0000000  0 15G 1G 3G 6G14G17G19G22G24G30R13R14R15
                                R17R18R24
  23102602.067   121404994.271    23102603.354    94601299.684  
  23639346.329   124225602.221    23639346.150    96799171.380  
  21774538.309   114425972.773    21774539.774    89163099.577  
  20493618.536   107694692.761    20493616.607    83917933.898  
  21003087.361   110371967.372    21003084.841    86004121.134  
  20876165.960   109704991.699    20876162.172    85484393.496  
  24358340.616   128003942.394    24358337.113    99743316.269  
  24199817.490   127170899.834    24199816.650    99094203.474  
  22676939.747   119168121.957    22676940.855    92858281.581  
  21900922.835   116949706.000    21900919.028    90960865.795  
  19124930.877   101946645.802    19124927.446    79291819.934  
  21200615.436   113289664.910    21200612.470    88114167.745  
  19871979.708   106338977.371    19871975.848    82708076.768  
  23413467.155   124982670.900    23413463.938    97208733.756  
  20100371.606   107485716.455    20100367.282    83599986.480  
 21  9  1 10 42 50.0000000  0 15G 1G 3G 6G14G17G19G22G24G30R13R14R15
                                R17R18R24
  23103256.270   121408430.081    23103257.181    94603976.925  
  23639187.473   124224769.052    23639187.652    96798522.153  
  21773997.646   114423132.679    21773999.397    89160886.517  
  20493693.604   107695086.851    20493691.692    83918240.991  
  21003221.110   110372670.648    21003218.644    86004669.150  
  20876012.965   109704188.191    20876009.266    85483767.382  
  24358483.085   128004691.256    24358479.815    99743899.791  
  24199372.838   127168558.960    24199371.158    99092379.407  
  22677569.969   119171432.710    22677570.970    92860861.377  
  21901610.506   116953385.513    21901608.040    90963727.643  
  19124961.236   101946807.754    19124957.841    79291945.899  
  21199981.139   113286273.081    21199977.798    88111529.663  
  19871766.924   106337837.069    19871762.760    82707189.871  
  23412845.724   124979352.735    23412842.418    97206152.956  
  20100805.055   107488035.988    20100801.160    83601790.561  
 21  9  1 10 42 51.0000000  0 15G 1G 3G 6G14G17G19G22G24G30R13R14R15
                                R17R18R24
  23103909.794   121411866.203    23103911.098    94606654.429  
  23639029.475   124223936.469    23639029.297    96797873.381  
  21773457.626   114420293.069    21773458.823    89158673.838  
  20493768.350   107695481.423    20493766.831    83918548.458  
  21003354.896   110373374.155    21003352.608    86005217.322  
  20875860.132   109703385.041    20875856.308    85483141.548  
  24358625.752   128005440.738    24358622.589    99744483.810  
  24198927.202   127166218.588    24198925.951    99090555.789  
  22678200.067   119174743.754    22678200.996    92863441.425  
  21902300.715   116957065.474    21902297.141    90966589.832  
  19124992.114   101946970.572    19124988.236    79292072.531  
  21199346.557   113282881.685    21199343.054    88108891.903  
  19871553.728   106336697.452    19871549.761    82706303.500  
  23412224.024   124976034.990    23412220.987    97203572.481  
  20101238.987   107490355.990    20101235.002    83603595.012  
 21  9  1 10 42 52.0000000  0 15G 1G 3G 6G14G17G19G22G24G30R13R14R15
                                R17R18R24
  23104562.853   121415302.601    23104564.890    94609332.144  
  23638871.406   124223104.415    23638870.816    96797225.041  
  21772917.606   114417453.896    21772918.660    89156461.494  
  20493843.561   107695876.441    20493841.935    83918856.253  
  21003489.110   110374077.813    21003486.501    86005765.640  
  20875707.298   109702582.197    20875703.635    85482515.955  
  24358768.400   128006190.762    24358765.327    99745068.247  
  24198481.602   127163878.712    24198480.709    99088732.483  
  22678829.950   119178055.068    22678831.004    92866021.665  
  21902989.494   116960745.900    21902986.439    90969452.386  
  19125022.223   101947134.203    19125019.060    79292199.799  
  21198711.831   113279490.662    21198708.436    88106254.445  
  19871341.230   106335558.433    19871336.906    82705417.596  
  23411602.844   124972717.585    23411599.413    97200992.266  
  20101673.258   107492676.422    20101668.915    83605399.785  
 21  9  1 10 42 53.0000000  0 15G 1G 3G 6G14G17G19G22G24G30R13R14R15
                                R17R18R24
  23105216.984   121418739.110    23105218.682    94612009.948  
  23638713.283   124222272.710    23638712.640    96796576.961  
  21772377.104   114414614.940    21772378.408    89154249.318  
  20493918.736   107696271.664    20493917.164    83919164.217  
  21003622.895   110374781.441    21003620.412    86006313.901  
  20875554.500   109701779.443    20875550.819    85481890.435  
  24358911.209   128006941.139    24358908.011    99745652.963  
  24198036.878   127161539.102    24198035.556    99086909.404  
  22679460.387   119181366.449    22679461.048    92868601.948  
  21903678.524   116964426.513    21903675.647    90972315.083  
  19125053.619   101947298.471    19125049.920    79292327.561  
  21198077.320   113276099.806    21198073.978    88103617.111  
  19871127.713   106334419.817    19871124.121    82704532.006  
  23410980.626   124969400.317    23410977.839    97198412.175  
  20102106.564   107494997.060    20102102.847    83607204.733  
 21  9  1 10 42 54.0000000  0 15G 1G 3G 6G14G17G19G22G24G30R13R14R15
                                R17R18R24
  23105872.045   121422175.748    23105872.545    94614687.836  
  23638554.570   124221441.434    23638554.427    96795929.209  
  21771836.941   114411776.296    21771838.246    89152037.385  
  20493994.268   107696667.204    20493992.428    83919472.428  
  21003757.127   110375485.086    21003754.429    86006862.203  
  20875401.630   109700976.883    20875398.253    85481265.064  
  24359053.804   128007691.953    24359050.838    99746238.015  
  24197591.707   127159199.804    24197590.492    99085086.574  
  22680089.895   119184677.918    22680091.271    92871182.325  
  21904367.982   116968107.443    21904364.944    90975178.026  
  19125083.478   101947463.421    19125080.833    79292455.860  
  21197443.005   113272709.201    21197439.396    88100979.973  
  19870914.947   106333281.706    19870911.516    82703646.811  
  23410359.267   124966083.232    23410356.193    97195832.222  
  20102541.067   107497317.976    20102536.832    83609009.891  
 21  9  1 10 42 55.0000000  0 15G 1G 3G 6G14G17G19G22G24G30R13R14R15
                                R17R18R24
  23106525.729   121425612.876    23106526.587    94617366.109  
  23638395.750   124220610.915    23638396.340    96795282.046  
  21771296.975   114408938.282    21771298.315    89149825.953  
  20494069.551   107697063.355    20494067.853    83919781.128  
  21003891.020   110376189.110    21003888.304    86007410.786  
  20875249.154   109700174.805    20875245.455    85480640.068  
  24359196.774   128008443.509    24359193.897    99746823.659  
  24197146.750   127156861.175    24197145.571    99083264.282  
  22680720.653   119187989.863    22680721.475    92873763.043  
  21905058.548   116971789.014    21905054.331    90978041.470  
  19125115.589   101947629.385    19125111.961    79292584.939  
  21196808.405   113269319.189    21196805.117    88098343.300  
  19870702.966   106332144.383    19870698.785    82702762.224  
  23409738.497   124962766.697    23409734.816    97193252.704  
  20102974.605   107499639.474    20102970.978    83610815.501  
 21  9  1 10 42 56.0000000  0 15G 1G 3G 6G14G17G19G22G24G30R13R14R15
                                R17R18R24
  23107180.432   121429050.245    23107180.647    94620044.571  
  23638238.181   124219780.859    23638238.271    96794635.261  
  21770757.348   114406100.644    21770758.242    89147614.801  
  20494145.065   107697459.896    20494143.207    83920090.105  
  21004025.038   110376893.237    21004022.339    86007959.468  
  20875096.356   109699372.978    20875093.050    85480015.259  
  24359339.994   128009195.594    24359336.974    99747409.690  
  24196701.222   127154522.965    24196700.704    99081442.294  
  22681350.572   119191301.981    22681351.483    92876343.939  
  21905747.435   116975470.943    21905743.790    90980905.195  
  19125146.824   101947796.118    19125143.321    79292714.622  
  21196174.215   113265929.548    21196170.749    88095706.914  
  19870489.842   106331007.620    19870486.429    82701878.073  
  23409116.869   124959450.443    23409113.421    97190673.389  
  20103409.054   107501961.285    20103405.195    83612621.354  
 21  9  1 10 42 57.0000000  0 15G 1G 3G 6G14G17G19G22G24G30R13R14R15
                                R17R18R24
  23107834.939   121432487.825    23107834.635    94622723.200  
  23638080.630   124218951.352    23638080.452    96793988.890  
  21770217.579   114403263.411    21770218.204    89145403.973  
  20494220.758   107697856.818    20494218.739    83920399.406  
  21004158.841   110377597.490    21004156.268    86008508.241  
  20874943.987   109698571.425    20874940.484    85479390.685  
  24359483.197   128009948.194    24359480.105    99747996.132  
  24196255.980   127152185.187    24196255.944    99079620.650  
  22681981.545   119194614.351    22681981.724    92878924.995  
  21906436.911   116979153.280    21906433.463    90983769.232  
  19125177.576   101947963.633    19125174.753    79292844.912  
  21195539.418   113262540.238    21195536.452    88093070.787  
  19870277.987   106329871.433    19870274.163    82700994.374  
  23408496.528   124956134.475    23408491.990    97188094.295  
  20103843.647   107504283.440    20103839.466    83614427.482  
 21  9  1 10 42 58.0000000  0 15G 1G 3G 6G14G17G19G22G24G30R13R14R15
                                R17R18R24
  23108488.695   121435926.013    23108488.892    94625402.296  
  23637923.133   124218122.667    23637922.704    96793343.149  
  21769677.434   114400426.900    21769678.542    89143193.693  
  20494295.862   107698254.468    20494294.396    83920709.254  
  21004292.948   110378302.198    21004290.428    86009057.353  
  20874791.528   109697770.455    20874787.955    85478766.553  
  24359626.810   128010701.626    24359623.433    99748583.221  
  24195811.452   127149848.169    24195811.363    99077799.577  
  22682611.750   119197927.232    22682612.107    92881506.465  
  21907125.887   116982836.312    21907123.171    90986633.815  
  19125209.901   101948132.295    19125206.310    79292976.088  
  21194905.729   113259151.590    21194902.370    88090435.172  
  19870066.132   106328736.176    19870061.951    82700111.401  
  23407874.436   124952819.120    23407871.059    97185515.677  
  20104278.007   107506606.291    20104273.879    83616234.141  
 21  9  1 10 42 59.0000000  0 15G 1G 3G 6G14G17G19G22G24G30R13R14R15
                                R17R18R24
  23109143.077   121439363.968    23109142.880    94628081.227  
  23637765.367   124217294.034    23637764.956    96792697.469  
  21769137.879   114397590.333    21769138.701    89140983.388  
  20494371.966   107698652.074    20494370.054    83921019.073  
  21004427.162   110379006.606    21004424.500    86009606.238  
  20874639.195   109696969.307    20874635.550    85478142.280  
  24359770.209   128011455.160    24359766.939    99749170.382  
  24195366.817   127147511.130    24195366.692    99075978.517  
  22683242.330   119201239.892    22683242.669    92884087.764  
  21907815.810   116986519.317    21907813.112    90989498.379  
  19125241.494   101948301.292    19125238.081    79293107.538  
  21194271.540   113255762.844    21194268.109    88087799.487  
  19869853.616   106327601.047    19869849.863    82699228.514  
  23407252.648   124949503.617    23407249.842    97182936.955  
  20104711.796   107508929.031    20104708.311    83618040.714  
 21  9  1 10 43  0.0000000  0 15G 1G 3G 6G14G17G19G22G24G30R13R14R15
                                R17R18R24
  23109796.636   121442802.411    23109797.065    94630760.545  
  23637607.637   124216466.212    23637607.530    96792052.414  
  21768598.199   114394754.438    21768599.092    89138773.611  
  20494447.588   107699050.326    20494445.872    83921329.401  
  21004560.912   110379711.387    21004558.642    86010155.432  
  20874487.058   109696168.704    20874483.216    85477518.438  
  24359913.644   128012209.483    24359910.427    99749758.182  
  24194921.718   127145174.793    24194922.218    99074158.001  
  22683872.481   119204553.058    22683872.981    92886669.465  
  21908506.466   116990202.972    21908502.892    90992363.445  
  19125273.694   101948471.359    19125269.941    79293239.805  
  21193637.100   113252374.724    21193634.116    88085164.287  
  19869641.957   106326466.770    19869637.955    82698346.305  
  23406632.343   124946188.684    23406628.876    97180358.675  
  20105146.656   107511252.449    20105142.743    83619847.822  
 21  9  1 10 43  1.0000000  0 15G 1G 3G 6G14G17G19G22G24G30R13R14R15
                                R17R18R24
  23110451.411   121446241.247    23110451.339    94633440.157  
  23637450.175   124215638.994    23637450.140    96791407.833  
  21768058.644   114391919.065    21768059.573    89136564.227  
  20494523.477   107699449.097    20494521.816    83921640.138  
  21004695.144   110380416.412    21004692.696    86010704.799  
  20874334.903   109695368.466    20874330.936    85476894.866  
  24360057.632   128012964.435    24360053.987    99750346.442  
  24194478.030   127142839.001    24194477.690    99072337.904  
  22684502.382   119207866.549    22684503.525    92889251.397  
  21909195.745   116993887.149    21909192.690    90995228.911  
  19125305.644   101948642.306    19125301.980    79293372.768  
  21193003.697   113248987.061    21193000.194    88082529.441  
  19869429.655   106325333.192    19869426.064    82697464.631  
  23406012.448   124942874.188    23406007.820    97177780.739  
  20105581.356   107513576.347    20105577.425    83621655.292  
 21  9  1 10 43  2.0000000  0 15G 1G 3G 6G14G17G19G22G24G30R13R14R15
                                R17R18R24
  23111106.114   121449680.113    23111105.524    94636119.802  
  23637293.482   124214812.069    23637292.714    96790763.486  
  21767519.106   114389083.863    21767520.018    89134354.979  
  20494599.474   107699848.055    20494597.777    83921951.013  
  21004829.322   110381121.369    21004826.839    86011254.103  
  20874182.230   109694568.274    20874178.621    85476271.342  
  24360201.192   128013719.686    24360197.654    99750934.936  
  24194033.967   127140503.395    24194033.252    99070517.950  
  22685133.694   119211180.034    22685134.123    92891833.336  
  21909885.436   116997571.476    21909882.738    90998094.493  
  19125337.075   101948813.802    19125334.037    79293506.151  
  21192369.061   113245599.508    21192366.184    88079894.677  
  19869218.301   106324199.954    19869214.280    82696583.224  
  23405391.678   124939559.794    23405386.872    97175202.884  
  20106015.859   107515900.336    20106011.981    83623462.838  
 21  9  1 10 43  3.0000000  0 15G 1G 3G 6G14G17G19G22G24G30R13R14R15
                                R17R18R24
  23111759.959   121453119.606    23111759.906    94638799.934  
  23637135.841   124213986.051    23637135.520    96790119.822  
  21766979.587   114386249.467    21766980.605    89132146.357  
  20494675.382   107700247.801    20494673.792    83922262.489  
  21004963.572   110381826.831    21004961.035    86011803.823  
  20874030.076   109693768.748    20874026.412    85475648.342  
  24360345.109   128014475.875    24360341.607    99751524.167  
  24193588.849   127138168.659    24193589.189    99068698.667  
  22685764.525   119214494.136    22685764.810    92894415.755  
  21910577.146   117001256.616    21910572.840    91000960.716  
  19125369.990   101948986.458    19125366.559    79293640.439  
  21191735.693   113242212.725    21191732.387    88077260.511  
  19869006.696   106323067.688    19869002.693    82695702.575  
  23404770.104   124936246.127    23404766.173    97172625.590  
  20106450.684   107518225.044    20106446.824    83625270.947  
 21  9  1 10 43  4.0000000  0 15G 1G 3G 6G14G17G19G22G24G30R13R14R15
                                R17R18R24
  23112414.680   121456559.108    23112414.287    94641480.077  
  23636978.808   124213160.324    23636978.523    96789476.405  
  21766440.121   114383415.221    21766441.247    89129937.853  
  20494751.736   107700647.681    20494749.842    83922574.100  
  21005097.536   110382532.196    21005095.356    86012353.462  
  20873877.849   109692969.266    20873874.311    85475025.369  
  24360488.937   128015232.323    24360485.524    99752113.626  
  24193144.858   127135834.088    24193144.911    99066879.532  
  22686395.122   119217808.217    22686395.408    92896998.142  
  21911266.837   117004941.932    21911262.834    91003827.070  
  19125402.654   101949159.679    19125399.009    79293775.165  
  21191102.326   113238826.068    21191098.645    88074626.444  
  19868795.537   106321935.778    19868791.142    82694822.202  
  23404149.352   124932932.522    23404145.171    97170048.349  
  20106885.330   107520549.883    20106881.506    83627079.157  
 21  9  1 10 43  5.0000000  0 15G 1G 3G 6G14G17G19G22G24G30R13R14R15
                                R17R18R24
  23113068.454   121459998.813    23113068.794    94644160.361  
  23636821.632   124212335.034    23636821.543    96788833.317  
  21765900.852   114380581.298    21765901.942    89127729.611  
  20494827.554   107701047.907    20494826.018    83922885.967  
  21005232.322   110383237.620    21005229.714    86012903.145  
  20873726.427   109692169.976    20873722.175    85474402.539  
  24360633.086   128015989.235    24360629.423    99752703.427  
  24192700.223   127133499.890    24192700.616    99065060.667  
  22687025.452   119221122.441    22687026.113    92899580.652  
  21911956.081   117008627.540    21911952.989    91006693.655  
  19125435.391   101949333.642    19125431.710    79293910.469  
  21190468.815   113235439.715    21190464.884    88071992.618  
  19868583.307   106320804.384    19868579.608    82693942.225  
  23403528.886   124929619.162    23403524.366    97167471.286  
  20107320.101   107522875.066    20107316.384    83628887.626  
 21  9  1 10 43  6.0000000  0 15G 1G 3G 6G14G17G19G22G24G30R13R14R15
                                R17R18R24
  23113723.122   121463438.579    23113723.193    94646840.692  
  23636664.278   124211510.116    23636664.528    96788190.519  
  21765362.101   114377747.642    21765362.798    89125521.565  
  20494903.962   107701448.371    20494902.211    83923198.017  
  21005366.572   110383943.017    21005363.999    86013452.815  
  20873573.951   109691370.793    20873570.127    85473779.799  
  24360777.182   128016746.513    24360773.412    99753293.528  
  24192256.374   127131165.974    24192256.338    99063242.036  
  22687656.086   119224436.748    22687656.765    92902163.241  
  21912646.540   117012313.384    21912643.252    91009560.413  
  19125468.019   101949508.230    19125464.535    79294046.260  
  21189834.215   113232053.549    21189831.177    88069358.923  
  19868372.202   106319673.414    19868368.307    82693062.589  
  23402908.206   124926305.949    23402903.757    97164894.324  
  20107755.158   107525200.461    20107751.173    83630696.259  
 21  9  1 10 43  7.0000000  0 15G 1G 3G 6G14G17G19G22G24G30R13R14R15
                                R17R18R24
  23114378.575   121466878.859    23114377.682    94649521.445  
  23636507.745   124210685.956    23636507.656    96787548.305  
  21764822.724   114374914.632    21764823.725    89123314.015  
  20494980.513   107701849.493    20494978.655    83923510.566  
  21005500.894   110384648.811    21005498.249    86014002.777  
  20873421.975   109690572.124    20873418.097    85473157.464  
  24360921.153   128017504.563    24360917.793    99753884.193  
  24191812.561   127128832.726    24191812.347    99061423.925  
  22688287.077   119227751.531    22688287.666    92904746.167  
  21913336.766   117015999.932    21913333.675    91012427.744  
  19125500.630   101949683.860    19125497.432    79294182.863  
  21189200.919   113228667.975    21189197.577    88066725.700  
  19868160.830   106318543.276    19868157.167    82692183.592  
  23402286.900   124922993.253    23402283.112    97162317.783  
  20108189.858   107527526.456    20108186.141    83632505.367  
 21  9  1 10 43  8.0000000  0 15G 1G 3G 6G14G17G19G22G24G30R13R14R15
                                R17R18R24
  23115032.724   121470319.767    23115032.760    94652202.670  
  23636351.213   124209862.682    23636351.034    96786906.822  
  21764283.384   114372082.408    21764284.795    89121107.092  
  20495056.689   107702251.380    20495055.170    83923823.736  
  21005635.019   110385355.118    21005632.660    86014553.137  
  20873269.695   109689774.130    20873266.246    85472535.649  
  24361065.856   128018263.550    24361062.389    99754475.611  
  24191368.087   127126500.339    24191368.534    99059606.465  
  22688917.692   119231066.891    22688918.532    92907329.572  
  21914027.637   117019687.237    21914024.224    91015295.643  
  19125533.938   101949860.644    19125530.472    79294320.358  
  21188567.837   113225283.126    21188564.192    88064093.040  
  19867950.279   106317414.117    19867946.259    82691305.355  
  23401666.827   124919681.259    23401662.574    97159741.782  
  20108625.237   107529853.182    20108621.198    83634315.038  
 21  9  1 10 43  9.0000000  0 15G 1G 3G 6G14G17G19G22G24G30R13R14R15
                                R17R18R24
  23115687.999   121473760.543    23115687.392    94654883.789  
  23636194.912   124209039.536    23636194.555    96786265.399  
  21763744.972   114369250.196    21763745.758    89118900.176  
  20495133.133   107702653.285    20495131.614    83924136.906  
  21005769.251   110386061.164    21005766.910    86015103.305  
  20873117.791   109688976.013    20873114.431    85471913.739  
  24361210.131   128019022.645    24361207.057    99755067.118  
  24190924.292   127124167.966    24190924.596    99057789.022  
  22689548.683   119234382.099    22689549.309    92909912.846  
  21914718.453   117023374.566    21914714.665    91018163.568  
  19125567.157   101950037.819    19125563.744    79294458.169  
  21187934.612   113221898.247    21187930.753    88061460.356  
  19867739.442   106316285.120    19867735.243    82690427.251  
  23401046.897   124916369.163    23401042.072    97157165.698  
  20109059.954   107532179.855    20109056.309    83636124.679  
 21  9  1 10 43 10.0000000  0 15G 1G 3G 6G14G17G19G22G24G30R13R14R15
                                R17R18R24
  23116343.042   121477201.718    23116342.131    94657565.224  
  23636037.772   124208217.072    23636038.004    96785624.509  
  21763206.042   114366418.503    21763207.025    89116693.664  
  20495209.791   107703055.713    20495208.129    83924450.486  
  21005903.626   110386767.456    21005901.303    86015653.674  
  20872965.832   109688178.281    20872962.634    85471292.127  
  24361354.834   128019782.379    24361351.635    99755659.124  
  24190480.962   127121836.165    24190480.783    99055972.050  
  22690179.764   119237697.659    22690180.228    92912496.402  
  21915409.537   117027062.381    21915405.320    91021031.862  
  19125600.768   101950215.937    19125597.248    79294596.706  
  21187300.584   113218513.860    21187297.349    88058828.055  
  19867528.481   106315156.837    19867524.299    82689549.695  
  23400425.859   124913057.484    23400421.499    97154589.946  
  20109495.744   107534507.029    20109491.473    83637934.695  
 21  9  1 10 43 11.0000000  0 15G 1G 3G 6G14G17G19G22G24G30R13R14R15
                                R17R18R24
  23116997.298   121480642.966    23116997.263    94660246.712  
  23635881.615   124207394.928    23635881.454    96784983.884  
  21762666.737   114363587.083    21762668.095    89114487.365  
  20495286.520   107703458.407    20495284.608    83924764.269  
  21006037.858   110387473.766    21006035.821    86016204.041  
  20872814.786   109687380.692    20872810.926    85470670.636  
  24361499.216   128020542.525    24361496.428    99756251.438  
  24190037.470   127119504.655    24190037.024    99054155.294  
  22690810.504   119241013.295    22690811.380    92915080.026  
  21916099.460   117030750.485    21916096.030    91023900.394  
  19125634.201   101950394.728    19125630.735    79294735.758  
  21186667.985   113215129.670    21186664.143    88056195.903  
  19867317.144   106314029.020    19867313.642    82688672.509  
  23399805.179   124909746.023    23399801.051    97152014.367  
  20109931.123   107536834.404    20109926.602    83639744.875  
 21  9  1 10 43 12.0000000  0 15G 1G 3G 6G14G17G19G22G24G30R13R14R15
                                R17R18R24
  23117652.734   121484084.358    23117652.216    94662928.321  
  23635724.796   124206573.238    23635725.189    96784343.599  
  21762128.290   114360755.971    21762129.273    89112281.290  
  20495363.000   107703861.389    20495361.284    83925078.295  
  21006172.841   110388180.094    21006170.178    86016754.424  
  20872662.792   109686583.270    20872659.111    85470049.266  
  24361643.883   128021303.063    24361641.203    99756844.068  
  24189593.157   127117173.476    24189593.354    99052338.786  
  22691441.674   119244329.031    22691442.210    92917663.709  
  21916789.812   117034438.851    21916786.774    91026769.114  
  19125667.956   101950574.206    19125664.382    79294875.350  
  21186033.920   113211745.710    21186030.793    88053563.939  
  19867106.111   106312901.687    19867102.876    82687795.694  
  23399185.123   124906434.755    23399180.674    97149438.937  
  20110366.234   107539162.005    20110361.891    83641555.229  
 21  9  1 10 43 13.0000000  0 15G 1G 3G 6G14G17G19G22G24G30R13R14R15
                                R17R18R24
  23118307.366   121487526.222    23118307.312    94665610.291  
  23635569.014   124205752.265    23635568.996    96783703.887  
  21761589.843   114357925.470    21761590.772    89110075.716  
  20495439.729   107704264.993    20495438.193    83925392.785  
  21006307.269   110388886.780    21006304.625    86017305.090  
  20872511.119   109685786.329    20872507.403    85469428.276  
  24361788.998   128022064.365    24361786.192    99757437.278  
  24189150.041   127114842.946    24189149.916    99050522.812  
  22692072.468   119247645.230    22692073.237    92920247.756  
  21917480.539   117038127.874    21917477.537    91029638.368  
  19125701.853   101950754.700    19125698.315    79295015.739  
  21185401.625   113208362.341    21185397.604    88050932.434  
  19866896.096   106311775.128    19866892.344    82686919.482  
  23398565.712   124903124.007    23398560.351    97146863.908  
  20110801.148   107541490.198    20110797.234    83643366.048  
 21  9  1 10 43 14.0000000  0 15G 1G 3G 6G14G17G19G22G24G30R13R14R15
                                R17R18R24
  23118962.730   121490968.239    23118962.194    94668292.380  
  23635412.821   124204931.731    23635412.874    96783064.510  
  21761050.913   114355095.300    21761052.217    89107870.382  
  20495516.977   107704668.905    20495515.137    83925707.522  
  21006441.805   110389593.509    21006439.071    86017855.779  
  20872359.447   109684989.580    20872355.838    85468807.434  
  24361933.897   128022826.098    24361931.146    99758030.850  
  24188706.657   127112512.794    24188706.514    99048707.086  
  22692703.745   119250961.553    22692704.281    92922831.904  
  21918171.999   117041817.192    21918168.318    91032507.830  
  19125735.769   101950935.869    19125732.284    79295156.644  
  21184768.239   113204979.237    21184764.576    88048301.124  
  19866685.527   106310649.048    19866681.918    82686043.644  
  23397945.782   124899813.470    23397940.224    97144289.039  
  20111237.045   107543818.719    20111232.613    83645177.120  
 21  9  1 10 43 15.0000000  0 15G 1G 3G 6G14G17G19G22G24G30R13R14R15
                                R17R18R24
  23119617.201   121494410.676    23119617.255    94670974.809  
  23635256.949   124204111.884    23635256.878    96782425.666  
  21760512.770   114352265.688    21760513.663    89105665.499  
  20495593.850   107705073.401    20495592.099    83926022.716  
  21006576.109   110390300.547    21006573.696    86018406.720  
  20872208.311   109684193.267    20872204.290    85468186.933  
  24362079.137   128023588.555    24362076.296    99758624.962  
  24188263.416   127110183.206    24188263.237    99046891.836  
  22693334.915   119254278.284    22693335.433    92925416.365  
  21918862.404   117045507.079    21918859.295    91035377.745  
  19125769.684   101951117.982    19125766.486    79295298.289  
  21184134.800   113201596.677    21184131.584    88045670.242  
  19866475.566   106309523.747    19866471.725    82685168.405  
  23397324.690   124896503.377    23397320.277    97141714.513  
  20111672.245   107546147.822    20111668.135    83646988.645  
 21  9  1 10 43 16.0000000  0 15G 1G 3G 6G14G17G19G22G24G30R13R14R15
                                R17R18R24
  23120272.923   121497853.488    23120272.440    94673657.515  
  23635100.381   124203292.663    23635100.953    96781787.341  
  21759974.304   114349436.598    21759975.287    89103461.015  
  20495670.847   107705478.390    20495669.078    83926338.296  
  21006710.805   110391007.822    21006708.322    86018957.851  
  20872056.245   109683397.351    20872052.940    85467566.739  
  24362224.519   128024351.626    24362221.571    99759219.560  
  24187820.193   127107854.181    24187820.032    99045077.000  
  22693966.049   119257595.311    22693966.585    92928001.091  
  21919553.900   117049197.491    21919550.469    91038248.061  
  19125804.046   101951301.011    19125800.723    79295440.643  
  21183502.541   113198214.609    21183498.645    88043039.737  
  19866265.194   106308399.172    19866261.549    82684293.741  
  23396704.278   124893193.704    23396700.489    97139140.314  
  20112107.820   107548477.389    20112103.817    83648800.535  
 21  9  1 10 43 17.0000000  0 15G 1G 3G 6G14G17G19G22G24G30R13R14R15
                                R17R18R24
  23120927.447   121501296.494    23120927.536    94676340.382  
  23634945.171   124202473.943    23634945.189    96781149.346  
  21759435.804   114346607.877    21759437.054    89101256.815  
  20495748.077   107705883.761    20495746.094    83926654.156  
  21006845.180   110391715.198    21006842.840    86019509.043  
  20871905.163   109682601.661    20871901.500    85466946.720  
  24362369.616   128025115.196    24362366.774    99759814.552  
  24187377.041   127105525.579    24187377.005    99043262.505  
  22694597.129   119260912.547    22694597.879    92930585.936  
  21920244.841   117052888.279    21920241.732    91041118.681  
  19125838.587   101951484.803    19125835.174    79295583.595  
  21182869.441   113194832.887    21182865.742    88040409.511  
  19866055.251   106307275.141    19866051.445    82683419.494  
  23396084.955   124889884.362    23396080.720    97136566.372  
  20112543.967   107550807.197    20112539.482    83650612.605  
 21  9  1 10 43 18.0000000  0 15G 1G 3G 6G14G17G19G22G24G30R13R14R15
                                R17R18R24
  23121583.615   121504739.544    23121582.740    94679023.287  
  23634789.192   124201655.522    23634789.514    96780511.608  
  21758897.428   114343779.348    21758898.786    89099052.766  
  20495825.271   107706289.299    20495823.431    83926970.168  
  21006979.752   110392422.491    21006977.501    86020060.185  
  20871753.991   109681806.029    20871750.113    85466326.750  
  24362515.034   128025879.071    24362512.032    99760409.793  
  24186934.032   127103197.174    24186933.943    99041448.186  
  22695228.281   119264229.800    22695229.049    92933170.802  
  21920936.730   117056579.231    21920932.835    91043989.421  
  19125873.235   101951669.196    19125869.858    79295727.011  
  21182236.771   113191451.272    21182232.911    88037779.369  
  19865845.380   106306151.454    19865841.484    82682545.513  
  23395464.525   124886575.083    23395460.737    97133992.488  
  20112979.525   107553137.086    20112975.164    83652424.739  
 21  9  1 10 43 19.0000000  0 15G 1G 3G 6G14G17G19G22G24G30R13R14R15
                                R17R18R24
  23122238.229   121508182.899    23122238.051    94681706.412  
  23634633.892   124200837.662    23634633.678    96779874.317  
  21758359.570   114340951.273    21758360.678    89096849.069  
  20495902.090   107706695.291    20495900.732    83927286.524  
  21007114.806   110393129.971    21007112.090    86020611.469  
  20871602.408   109681010.700    20871598.745    85465707.010  
  24362660.505   128026643.533    24362657.611    99761005.471  
  24186491.166   127100869.273    24186491.095    99039634.224  
  22695859.701   119267547.311    22695860.451    92935755.880  
  21921627.618   117060270.651    21921624.223    91046860.521  
  19125908.223   101951854.458    19125904.577    79295871.099  
  21181603.385   113188070.057    21181600.151    88035149.530  
  19865635.919   106305028.379    19865631.595    82681672.008  
  23394844.952   124883266.179    23394841.003    97131418.904  
  20113415.064   107555467.395    20113410.990    83654237.209  
 21  9  1 10 43 20.0000000  0 15G 1G 3G 6G14G17G19G22G24G30R13R14R15
                                R17R18R24
  23122893.879   121511626.786    23122893.379    94684389.964  
  23634478.485   124200020.588    23634478.164    96779237.661  
  21757821.212   114338123.885    21757822.695    89094645.905  
  20495979.427   107707101.977    20495977.998    83927603.424  
  21007249.342   110393837.857    21007246.948    86021163.073  
  20871451.325   109680215.936    20871447.591    85465087.710  
  24362806.084   128027408.796    24362803.047    99761601.782  
  24186048.533   127098542.123    24186048.247    99037820.842  
  22696491.031   119270865.324    22696491.817    92938341.340  
  21922318.148   117063962.742    21922315.647    91049732.145  
  19125943.318   101952040.789    19125939.619    79296016.025  
  21180970.750   113184689.457    21180967.552    88032520.170  
  19865425.690   106303906.195    19865421.848    82680799.200  
  23394224.433   124879957.836    23394221.359    97128845.750  
  20113850.747   107557798.416    20113846.851    83656050.225  
 21  9  1 10 43 21.0000000  0 15G 1G 3G 6G14G17G19G22G24G30R13R14R15
                                R17R18R24
  23123549.333   121515070.666    23123548.851    94687073.505  
  23634322.989   124199203.843    23634322.757    96778601.214  
  21757283.533   114335296.673    21757284.641    89092442.888  
  20496057.122   107707508.829    20496055.496    83927920.454  
  21007384.253   110394545.664    21007381.430    86021714.608  
  20871299.850   109679421.220    20871296.383    85464468.457  
  24362951.556   128028174.376    24362948.786    99762198.317  
  24185605.702   127096215.138    24185605.417    99036007.614  
  22697122.522   119274183.340    22697123.148    92940926.810  
  21923010.752   117067655.017    21923007.142    91052603.919  
  19125978.108   101952227.670    19125974.606    79296161.375  
  21180338.580   113181308.997    21180334.881    88029890.921  
  19865215.890   106302784.390    19865212.244    82679926.683  
  23393605.271   124876649.541    23393601.769    97126272.636  
  20114287.233   107560129.645    20114282.784    83657863.401  
 21  9  1 10 43 22.0000000  0 15G 1G 3G 6G14G17G19G22G24G30R13R14R15
                                R17R18R24
  23124204.286   121518514.969    23124204.358    94689757.384  
  23634168.065   124198387.729    23634167.296    96777965.288  
  21756745.819   114332470.016    21756746.569    89090240.304  
  20496134.548   107707916.233    20496133.101    83928237.909  
  21007518.807   110395253.752    21007516.216    86022266.363  
  20871148.606   109678626.927    20871145.086    85463849.530  
  24363097.886   128028940.596    24363094.669    99762795.369  
  24185163.355   127093888.731    24185162.694    99034194.849  
  22697754.460   119277501.705    22697754.693    92943512.547  
  21923701.961   117071347.854    21923698.584    91055476.118  
  19126013.221   101952415.474    19126009.862    79296307.443  
  21179705.677   113177929.051    21179702.443    88027262.079  
  19865006.590   106301663.279    19865002.748    82679054.705  
  23392985.412   124873341.740    23392982.107    97123699.911  
  20114722.809   107562461.359    20114718.895    83659676.956  
 21  9  1 10 43 23.0000000  0 15G 1G 3G 6G14G17G19G22G24G30R13R14R15
                                R17R18R24
  23124859.222   121521959.160    23124859.883    94692441.179  
  23634012.318   124197571.809    23634012.211    96777329.515  
  21756207.818   114329643.414    21756208.747    89088037.767  
  20496212.422   107708323.702    20496210.581    83928555.406  
  21007653.521   110395961.617    21007651.002    86022817.951  
  20870997.559   109677832.566    20870993.986    85463230.547  
  24363243.750   128029707.024    24363240.641    99763392.602  
  24184720.828   127091562.408    24184720.024    99032382.138  
  22698385.719   119280819.968    22698386.220    92946098.210  
  21924393.707   117075040.696    21924389.901    91058348.331  
  19126048.816   101952603.737    19126045.189    79296453.869  
  21179073.775   113174549.143    21179069.808    88024633.261  
  19864797.254   106300542.400    19864793.305    82678182.911  
  23392366.161   124870033.915    23392362.623    97121127.154  
  20115159.116   107564793.027    20115154.864    83661490.478  
 21  9  1 10 43 24.0000000  0 15G 1G 3G 6G14G17G19G22G24G30R13R14R15
                                R17R18R24
  23125515.515   121525404.088    23125515.569    94695125.527  
  23633856.965   124196756.866    23633857.054    96776694.489  
  21755669.925   114326817.705    21755671.051    89085835.897  
  20496290.188   107708732.022    20496288.151    83928873.584  
  21007788.111   110396670.099    21007785.770    86023370.010  
  20870846.513   109677038.935    20870842.957    85462612.131  
  24363390.062   128030474.409    24363386.738    99763990.573  
  24184277.891   127089237.058    24184277.462    99030570.158  
  22699017.139   119284138.900    22699017.711    92948684.391  
  21925085.113   117078734.418    21925081.539    91061221.226  
  19126084.447   101952793.261    19126080.730    79296601.270  
  21178441.229   113171170.065    21178437.423    88022005.087  
  19864587.811   106299422.592    19864584.041    82677311.956  
  23391746.821   124866726.857    23391743.229    97118554.988  
  20115595.478   107567125.502    20115591.118    83663304.625  
 21  9  1 10 43 25.0000000  0 15G 1G 3G 6G14G17G19G22G24G30R13R14R15
                                R17R18R24
  23126170.326   121528849.204    23126171.326    94697810.028  
  23633701.933   124195942.362    23633701.916    96776059.825  
  21755132.568   114323992.327    21755133.390    89083634.313  
  20496368.043   107709140.682    20496365.899    83929192.021  
  21007922.718   110397378.642    21007920.556    86023922.133  
  20870695.555   109676245.513    20870691.892    85461993.880  
  24363535.820   128031242.281    24363532.818    99764588.903  
  24183834.936   127086912.021    24183835.007    99028758.452  
  22699648.630   119287458.010    22699649.256    92951270.701  
  21925776.358   117082428.465    21925773.321    91064094.379  
  19126119.613   101952983.509    19126116.308    79296749.250  
  21177808.970   113167791.258    21177805.146    88019377.117  
  19864379.119   106298303.351    19864374.991    82676441.433  
  23391127.838   124863420.067    23391123.692    97115983.043  
  20116031.589   107569458.305    20116027.390    83665119.025  
 21  9  1 10 43 26.0000000  0 15G 1G 3G 6G14G17G19G22G24G30R13R14R15
                                R17R18R24
  23126826.172   121532294.253    23126826.976    94700494.472  
  23633547.509   124195128.106    23633546.848    96775425.340  
  21754594.853   114321167.043    21754595.800    89081432.784  
  20496445.809   107709549.445    20496443.736    83929510.535  
  21008058.040   110398087.006    21008055.503    86024474.102  
  20870544.294   109675452.062    20870541.060    85461375.611  
  24363681.684   128032010.358    24363679.058    99765187.410  
  24183392.856   127084587.134    24183392.606    99026946.836  
  22700280.050   119290777.015    22700281.015    92953856.937  
  21926468.962   117086122.599    21926465.084    91066967.594  
  19126155.369   101953174.242    19126152.242    79296897.596  
  21177176.728   113164412.475    21177172.797    88016749.182  
  19864169.926   106297184.343    19864165.781    82675571.096  
  23390508.784   124860113.259    23390504.513    97113411.058  
  20116467.862   107571791.180    20116463.716    83666933.488  
 21  9  1 10 43 27.0000000  0 15G 1G 3G 6G14G17G19G22G24G30R13R14R15
                                R17R18R24
  23127481.537   121535739.976    23127482.609    94703179.445  
  23633392.299   124194314.806    23633392.085    96774791.604  
  21754056.781   114318342.610    21754058.264    89079231.936  
  20496523.468   107709959.049    20496521.663    83929829.712  
  21008193.005   110398795.972    21008190.414    86025026.539  
  20870393.587   109674659.341    20870390.209    85460757.902  
  24363827.960   128032779.439    24363825.405    99765786.693  
  24182950.616   127082263.130    24182950.544    99025135.937  
  22700911.881   119294096.692    22700912.739    92956443.709  
  21927160.403   117089817.597    21927157.116    91069841.479  
  19126191.876   101953366.228    19126188.141    79297046.916  
  21176543.754   113161034.522    21176540.716    88014121.885  
  19863960.895   106296066.369    19863956.803    82674701.556  
  23389889.408   124856807.217    23389885.155    97110839.676  
  20116904.420   107574124.858    20116900.024    83668748.571  
 21  9  1 10 43 28.0000000  0 15G 1G 3G 6G14G17G19G22G24G30R13R14R15
                                R17R18R24
  23128138.152   121539185.749    23128138.491    94705864.449  
  23633237.696   124193501.799    23633237.392    96774158.085  
  21753519.978   114315518.350    21753520.782    89077031.221  
  20496601.448   107710368.822    20496599.751    83930149.010  
  21008327.773   110399504.829    21008325.254    86025578.892  
  20870243.004   109673866.641    20870239.270    85460140.209  
  24363974.182   128033548.813    24363971.699    99766386.206  
  24182508.626   127079939.314    24182508.465    99023325.169  
  22701543.765   119297416.343    22701544.337    92959030.455  
  21927852.453   117093512.759    21927849.040    91072715.487  
  19126227.971   101953558.753    19126224.361    79297196.660  
  21175911.798   113157656.670    21175908.528    88011494.667  
  19863751.773   106294948.730    19863747.949    82673832.283  
  23389269.406   124853501.267    23389265.850    97108268.374  
  20117340.745   107576458.605    20117336.582    83670563.712  
 21  9  1 10 43 29.0000000  0 15G 1G 3G 6G14G17G19G22G24G30R13R14R15
                                R17R18R24
  23128793.856   121542631.678    23128794.267    94708549.593  
  23633083.004   124192689.212    23633082.790    96773524.912  
  21752982.745   114312694.442    21752983.460    89074830.766  
  20496679.411   107710778.929    20496677.767    83930468.583  
  21008462.649   110400213.736    21008460.147    86026131.288  
  20870092.082   109673074.158    20870088.419    85459522.699  
  24364120.565   128034318.624    24364118.278    99766986.057  
  24182066.099   127077615.882    24182066.367    99021514.728  
  22702175.131   119300736.178    22702176.168    92961617.323  
  21928544.985   117097208.243    21928541.000    91075589.752  
  19126264.013   101953752.011    19126260.564    79297346.969  
  21175280.253   113154279.137    21175276.465    88008867.704  
  19863543.063   106293831.631    19863539.257    82672963.429  
  23388649.619   124850195.559    23388646.563    97105697.268  
  20117776.714   107578792.641    20117773.069    83672379.073  
 21  9  1 10 43 30.0000000  0 15G 1G 3G 6G14G17G19G22G24G30R13R14R15
                                R17R18R24
  23129449.166   121546077.935    23129450.095    94711234.988  
  23632928.097   124191877.245    23632928.330    96772892.219  
  21752445.442   114309871.001    21752446.139    89072630.680  
  20496757.463   107711189.511    20496755.747    83930788.515  
  21008597.631   110400922.854    21008595.076    86026683.852  
  20869941.447   109672282.024    20869937.712    85458905.447  
  24364267.717   128035089.043    24364264.894    99767586.381  
  24181623.734   127075292.987    24181624.377    99019704.678  
  22702807.498   119304056.301    22702807.999    92964204.430  
  21929236.605   117100904.190    21929233.139    91078464.384  
  19126300.358   101953946.131    19126296.945    79297497.949  
  21174648.315   113150902.049    21174644.455    88006241.075  
  19863334.496   106292715.187    19863330.583    82672095.079  
  23388030.440   124846890.229    23388027.509    97103126.456  
  20118213.719   107581127.089    20118209.484    83674194.753  
 21  9  1 10 43 31.0000000  0 15G 1G 3G 6G14G17G19G22G24G30R13R14R15
                                R17R18R24
  23130105.835   121549524.480    23130106.031    94713920.614  
  23632774.674   124191065.870    23632773.727    96772259.954  
  21751908.067   114307048.035    21751908.960    89070430.962  
  20496835.622   107711600.565    20496833.960    83931108.817  
  21008732.346   110401632.184    21008729.969    86027236.572  
  20869791.025   109671490.213    20869787.023    85458288.454  
  24364414.922   128035860.084    24364411.616    99768187.199  
  24181182.583   127072970.618    24181182.404    99017894.989  
  22703439.240   119307376.697    22703439.955    92966791.767  
  21929929.226   117104600.616    21929925.260    91081339.383  
  19126336.954   101954141.121    19126333.505    79297649.606  
  21174016.663   113147525.400    21174012.678    88003614.802  
  19863125.768   106291599.395    19863122.033    82671227.245  
  23387411.582   124843585.263    23387408.526    97100555.941  
  20118649.884   107583461.968    20118646.256    83676010.774  
 21  9  1 10 43 32.0000000  0 15G 1G 3G 6G14G17G19G22G24G30R13R14R15
                                R17R18R24
  23130761.485   121552971.380    23130762.128    94716606.503  
  23632619.785   124190255.090    23632619.553    96771628.182  
  21751370.799   114304225.554    21751371.853    89068231.628  
  20496914.424   107712012.086    20496912.405    83931429.479  
  21008867.471   110402341.701    21008865.041    86027789.435  
  20869640.246   109670698.763    20869636.530    85457671.740  
  24364561.752   128036631.700    24364558.303    99768788.440  
  24180740.807   127070648.688    24180740.450    99016085.751  
  22704070.713   119310697.404    22704071.678    92969379.315  
  21930621.079   117108297.490    21930617.577    91084214.722  
  19126373.764   101954336.992    19126370.351    79297801.957  
  21173384.421   113144149.159    21173380.776    88000988.834  
  19862917.558   106290484.251    19862913.573    82670359.911  
  23386792.688   124840280.667    23386789.454    97097985.688  
  20119087.300   107585797.336    20119082.939    83677827.174  
 21  9  1 10 43 33.0000000  0 15G 1G 3G 6G14G17G19G22G24G30R13R14R15
                                R17R18R24
  23131416.528   121556418.732    23131418.118    94719292.761  
  23632465.576   124189445.045    23632465.433    96770996.978  
  21750833.799   114301403.706    21750834.835    89066032.783  
  20496992.476   107712424.241    20496990.850    83931750.641  
  21009002.490   110403051.585    21009000.024    86028342.596  
  20869489.503   109669907.815    20869486.055    85457055.414  
  24364708.617   128037404.053    24364705.222    99769390.280  
  24180298.674   127068327.478    24180298.835    99014277.004  
  22704702.812   119314018.545    22704703.831    92971967.229  
  21931313.254   117111995.014    21931310.037    91087090.581  
  19126410.789   101954533.874    19126407.269    79297955.088  
  21172753.376   113140773.519    21172749.052    87998363.331  
  19862709.849   106289369.946    19862705.471    82669493.225  
  23386173.330   124836976.592    23386170.417    97095415.859  
  20119523.911   107588133.331    20119519.819    83679644.059  
 21  9  1 10 43 34.0000000  0 15G 1G 3G 6G14G17G19G22G24G30R13R14R15
                                R17R18R24
  23132072.553   121559865.978    23132074.072    94721978.936  
  23632311.295   124188635.187    23632311.420    96770365.902  
  21750296.745   114298581.914    21750297.889    89063833.989  
  20497071.082   107712836.452    20497069.241    83932071.844  
  21009137.723   110403761.255    21009135.167    86028895.591  
  20869339.100   109669116.787    20869335.490    85456439.029  
  24364855.769   128038176.614    24364852.284    99769992.294  
  24179856.791   127066006.376    24179857.113    99012468.335  
  22705334.947   119317339.566    22705335.751    92974555.035  
  21932005.929   117115692.582    21932002.605    91089966.470  
  19126447.921   101954731.201    19126444.347    79298108.566  
  21172120.599   113137397.884    21172117.364    87995737.838  
  19862501.603   106288255.869    19862497.118    82668626.715  
  23385554.186   124833672.521    23385551.256    97092846.039  
  20119960.612   107590469.341    20119956.681    83681460.963  
 21  9  1 10 43 35.0000000  0 15G 1G 3G 6G14G17G19G22G24G30R13R14R15
                                R17R18R24
  23132728.382   121563313.403    23132729.972    94724665.239  
  23632157.925   124187825.743    23632157.442    96769735.166  
  21749759.906   114295760.448    21749760.925    89061635.437  
  20497149.634   107713248.965    20497147.758    83932393.280  
  21009272.920   110404470.975    21009270.364    86029448.617  
  20869188.660   109668325.921    20869184.944    85455822.777  
  24365002.134   128038949.586    24364999.293    99770594.607  
  24179414.801   127063685.577    24179415.390    99010659.915  
  22705967.546   119320660.719    22705967.689    92977142.935  
  21932698.854   117119390.452    21932695.101    91092842.589  
  19126484.981   101954929.203    19126481.443    79298262.570  
  21171489.089   113134022.482    21171485.623    87993112.527  
  19862292.643   106287142.267    19862289.158    82667760.587  
  23384935.060   124830368.643    23384932.416    97090276.354  
  20120397.278   107592805.596    20120393.471    83683278.046  
 21  9  1 10 43 36.0000000  0 15G 1G 3G 6G14G17G19G22G24G30R13R14R15
                                R17R18R24
  23133384.408   121566761.468    23133386.087    94727352.034  
  23632003.483   124187017.226    23632003.733    96769105.153  
  21749223.103   114292939.771    21749224.139    89059437.514  
  20497228.151   107713662.282    20497226.560    83932715.346  
  21009408.027   110405181.217    21009405.383    86030002.041  
  20869037.899   109667535.748    20869034.576    85455207.052  
  24365150.018   128039723.500    24365146.623    99771197.643  
  24178973.400   127061365.602    24178973.918    99008852.159  
  22706599.144   119323982.479    22706599.752    92979731.315  
  21933390.957   117123089.124    21933387.722    91095719.338  
  19126521.988   101955128.395    19126518.718    79298417.495  
  21170857.455   113130647.838    21170854.132    87990487.811  
  19862084.969   106286029.633    19862081.198    82666895.200  
  23384316.363   124827065.498    23384313.736    97087707.249  
  20120833.925   107595142.589    20120830.619    83685095.713  
 21  9  1 10 43 37.0000000  0 15G 1G 3G 6G14G17G19G22G24G30R13R14R15
                                R17R18R24
  23134040.826   121570209.688    23134042.291    94730038.954  
  23631849.898   124186209.126    23631849.845    96768475.462  
  21748686.228   114290119.417    21748687.372    89057239.831  
  20497306.899   107714075.902    20497305.202    83933037.640  
  21009542.867   110405891.491    21009540.526    86030555.515  
  20868887.764   109666745.738    20868884.297    85454591.458  
  24365297.294   128040497.848    24365293.971    99771801.029  
  24178531.606   127059045.988    24178532.393    99007044.692  
  22707230.814   119327304.363    22707232.065    92982319.796  
  21934083.453   117126788.097    21934080.433    91098596.310  
  19126559.960   101955328.297    19126556.314    79298572.969  
  21170225.982   113127273.486    21170222.730    87987863.315  
  19861877.224   106284917.474    19861873.382    82666030.195  
  23383698.488   124823762.535    23383694.896    97085138.277  
  20121271.913   107597479.812    20121267.713    83686913.549  
 21  9  1 10 43 38.0000000  0 15G 1G 3G 6G14G17G19G22G24G30R13R14R15
                                R17R18R24
  23134697.548   121573657.727    23134698.388    94732725.728  
  23631696.261   124185401.099    23631696.225    96767845.842  
  21748150.265   114287299.024    21748150.783    89055042.129  
  20497385.523   107714489.486    20497383.951    83933359.924  
  21009678.350   110406601.467    21009675.795    86031108.742  
  20868737.182   109665955.579    20868733.912    85453975.748  
  24365444.517   128041272.290    24365441.426    99772404.486  
  24178090.921   127056726.397    24178090.903    99005237.189  
  22707863.503   119330626.044    22707864.092    92984908.105  
  21934776.771   117130487.002    21934773.000    91101473.243  
  19126597.306   101955528.570    19126593.821    79298728.739  
  21169594.955   113123899.054    21169591.292    87985238.757  
  19861669.836   106283805.521    19861665.565    82665165.336  
  23383080.506   124820459.420    23383076.181    97082569.183  
  20121708.614   107599816.968    20121704.736    83688731.337  
 21  9  1 10 43 39.0000000  0 15G 1G 3G 6G14G17G19G22G24G30R13R14R15
                                R17R18R24
  23135354.164   121577106.616    23135354.735    94735413.165  
  23631542.301   124184594.211    23631542.730    96767217.107  
  21747613.497   114284479.653    21747614.248    89052845.207  
  20497464.736   107714904.082    20497462.753    83933682.991  
  21009813.440   110407312.196    21009810.831    86031662.557  
  20868587.082   109665166.289    20868583.615    85453360.723  
  24365591.794   128042047.835    24365589.078    99773008.816  
  24177649.913   127054407.858    24177649.627    99003430.523  
  22708495.298   119333948.535    22708496.298    92987497.080  
  21935470.625   117134186.941    21935465.943    91104350.969  
  19126634.759   101955730.281    19126631.793    79298885.628  
  21168963.768   113120525.615    21168959.979    87982614.969  
  19861461.787   106282694.775    19861457.945    82664301.427  
  23382461.934   124817157.277    23382457.431    97080000.841  
  20122145.904   107602155.134    20122142.045    83690549.911  
 21  9  1 10 43 40.0000000  0 15G 1G 3G 6G14G17G19G22G24G30R13R14R15
                                R17R18R24
  23136010.493   121580555.576    23136011.100    94738100.660  
  23631389.056   124183787.725    23631389.307    96766588.640  
  21747076.908   114281660.520    21747077.927    89050648.489  
  20497543.378   107715318.925    20497541.645    83934006.225  
  21009948.619   110408022.890    21009946.260    86032216.345  
  20868436.839   109664377.110    20868433.480    85452745.781  
  24365739.249   128042823.753    24365736.676    99773613.421  
  24177208.781   127052089.552    24177208.584    99001624.077  
  22709127.611   119337271.064    22709128.558    92990086.073  
  21936162.460   117137887.092    21936158.707    91107228.852  
  19126673.410   101955932.631    19126669.711    79299043.010  
  21168332.759   113117152.380    21168328.631    87979991.337  
  19861254.577   106281584.403    19861250.468    82663437.802  
  23381842.165   124813855.244    23381838.841    97077432.579  
  20122583.070   107604493.507    20122579.389    83692368.640  
 21  9  1 10 43 41.0000000  0 15G 1G 3G 6G14G17G19G22G24G30R13R14R15
                                R17R18R24
  23136666.554   121584004.633    23136667.447    94740788.234  
  23631236.062   124182981.585    23631235.865    96765960.477  
  21746540.319   114278841.668    21746541.534    89048451.975  
  20497622.413   107715734.023    20497620.626    83934329.689  
  21010084.209   110408733.578    21010081.350    86032770.135  
  20868287.079   109663588.069    20868283.434    85452130.937  
  24365887.490   128043600.082    24365884.274    99774218.366  
  24176767.112   127049771.576    24176767.398    98999817.855  
  22709760.228   119340593.720    22709760.853    92992675.144  
  21936855.778   117141587.508    21936851.740    91110106.954  
  19126711.042   101956135.607    19126707.683    79299200.882  
  21167700.821   113113779.377    21167697.372    87977367.890  
  19861047.279   106280474.473    19861043.008    82662574.526  
  23381223.217   124810553.417    23381220.323    97074864.487  
  20123020.790   107606832.070    20123016.680    83694187.518  
