% program   : rnx2rtkp ver.2.4.3 b31
% inp file  : ngs/21_08_31_07_17_52_txlm.obs
% inp file  : ngs/21_08_31_07_17_52_txlm_SNTX.obs
% inp file  : ngs/21_08_31_07_17_52_brdc.nav
% obs start : 2021/08/31 07:00:00.0 GPST (week2173 198000.0s)
% obs end   : 2021/08/31 07:59:59.0 GPST (week2173 201599.0s)
% ref pos   :  -487017.6916  -5540267.5675   3111851.2058
%
% (x/y/z-ecef=WGS84,Q=1:fix,2:float,3:sbas,4:dgps,5:single,6:ppp,ns=# of satellites)
%  GPST              x-ecef(m)      y-ecef(m)      z-ecef(m)   Q  ns   sdx(m)   sdy(m)   sdz(m)  sdxy(m)  sdyz(m)  sdzx(m) age(s)  ratio
2173 199049.000   -487016.3821  -5540253.2431   3111843.1276   2   9   0.4332   1.2805   0.5113   0.3837  -0.6534  -0.1891 -30.00    1.5
2173 199050.000   -487016.3472  -5540253.4260   3111843.1640   2   9   0.3083   0.9102   0.3639   0.2728  -0.4647  -0.1347 -29.00    1.4
2173 199051.000   -487016.3421  -5540253.5682   3111843.2155   2   9   0.2524   0.7452   0.2979   0.2233  -0.3804  -0.1103 -28.00    1.3
2173 199052.000   -487016.3402  -5540253.5486   3111843.2010   2   9   0.2190   0.6466   0.2585   0.1937  -0.3301  -0.0957 -27.00    1.3
2173 199053.000   -487016.3346  -5540253.5681   3111843.2243   2   9   0.1961   0.5791   0.2315   0.1735  -0.2956  -0.0857 -26.00    1.3
2173 199054.000   -487016.3441  -5540253.6275   3111843.2248   2   9   0.1792   0.5292   0.2115   0.1585  -0.2702  -0.0783 -25.00    1.3
2173 199055.000   -487016.3439  -5540253.6531   3111843.2358   2   9   0.1660   0.4904   0.1960   0.1468  -0.2503  -0.0726 -24.00    1.2
2173 199056.000   -487016.3450  -5540253.6419   3111843.2346   2   9   0.1554   0.4590   0.1834   0.1374  -0.2343  -0.0679 -23.00    1.2
2173 199057.000   -487016.3382  -5540253.6493   3111843.2222   2   9   0.1465   0.4329   0.1730   0.1296  -0.2210  -0.0640 -22.00    1.2
2173 199058.000   -487016.3115  -5540253.6101   3111843.2023   2   9   0.1390   0.4108   0.1642   0.1230  -0.2097  -0.0608 -21.00    1.2
2173 199059.000   -487016.3064  -5540253.6121   3111843.1963   2   9   0.1326   0.3917   0.1566   0.1172  -0.2000  -0.0579 -20.00    1.2
2173 199060.000   -487016.2969  -5540253.6233   3111843.2125   2   9   0.1269   0.3750   0.1499   0.1122  -0.1915  -0.0555 -19.00    1.2
2173 199061.000   -487016.2849  -5540253.6153   3111843.2147   2   9   0.1220   0.3603   0.1440   0.1078  -0.1839  -0.0533 -18.00    1.1
2173 199062.000   -487016.2831  -5540253.6100   3111843.2074   2   9   0.1175   0.3470   0.1388   0.1038  -0.1772  -0.0513 -17.00    1.1
2173 199063.000   -487016.2849  -5540253.6351   3111843.2123   2   9   0.1135   0.3351   0.1340   0.1002  -0.1711  -0.0496 -16.00    1.1
2173 199064.000   -487016.2903  -5540253.6735   3111843.2312   2   9   0.1099   0.3243   0.1297   0.0970  -0.1656  -0.0480 -15.00    1.0
2173 199065.000   -487016.2933  -5540253.7245   3111843.2470   2   9   0.1066   0.3144   0.1258   0.0940  -0.1605  -0.0465 -14.00    1.1
2173 199066.000   -487016.2920  -5540253.7327   3111843.2418   2   9   0.1035   0.3053   0.1222   0.0913  -0.1559  -0.0452 -13.00    1.1
2173 199067.000   -487016.2889  -5540253.7449   3111843.2460   2   9   0.1007   0.2970   0.1189   0.0887  -0.1516  -0.0439 -12.00    1.2
2173 199068.000   -487016.2807  -5540253.7612   3111843.2509   2   9   0.0981   0.2892   0.1158   0.0864  -0.1477  -0.0428 -11.00    1.3
2173 199069.000   -487016.2769  -5540253.7661   3111843.2504   2   9   0.0957   0.2819   0.1130   0.0842  -0.1440  -0.0417 -10.00    1.4
2173 199070.000   -487016.2779  -5540253.7875   3111843.2539   2   9   0.0935   0.2752   0.1103   0.0822  -0.1405  -0.0407  -9.00    1.5
2173 199071.000   -487016.2826  -5540253.8017   3111843.2565   2   9   0.0914   0.2688   0.1078   0.0803  -0.1373  -0.0398  -8.00    1.6
2173 199072.000   -487016.2878  -5540253.8393   3111843.2648   2   9   0.0894   0.2628   0.1054   0.0785  -0.1342  -0.0389  -7.00    1.7
2173 199073.000   -487016.2885  -5540253.8577   3111843.2675   2   9   0.0876   0.2572   0.1032   0.0768  -0.1313  -0.0380  -6.00    1.9
2173 199074.000   -487016.2898  -5540253.8690   3111843.2670   2   9   0.0859   0.2519   0.1011   0.0752  -0.1286  -0.0373  -5.00    2.1
2173 199075.000   -487016.2871  -5540253.8687   3111843.2643   2   9   0.0842   0.2468   0.0992   0.0737  -0.1260  -0.0365  -4.00    2.4
2173 199076.000   -487016.2880  -5540253.8997   3111843.2763   2   9   0.0827   0.2421   0.0973   0.0722  -0.1235  -0.0358  -3.00    2.8
2173 199077.000   -487016.4595  -5540253.5728   3111843.2818   1   9   0.0045   0.0140   0.0057   0.0043  -0.0071  -0.0024  -2.00    3.4
2173 199078.000   -487016.4596  -5540253.5721   3111843.2824   1   9   0.0047   0.0132   0.0055   0.0039  -0.0067  -0.0024  -1.00    4.0
2173 199079.000   -487016.4592  -5540253.5731   3111843.2842   1   9   0.0042   0.0129   0.0051   0.0039  -0.0065  -0.0017   0.00    4.8
2173 199080.000   -487016.4573  -5540253.5671   3111843.2821   1   9   0.0044   0.0129   0.0052   0.0037  -0.0067  -0.0024   0.00    5.6
2173 199081.000   -487016.4565  -5540253.5728   3111843.2842   1   9   0.0043   0.0129   0.0053   0.0040  -0.0065  -0.0018   0.00    6.4
2173 199082.000   -487016.4570  -5540253.5715   3111843.2832   1   9   0.0043   0.0129   0.0057   0.0039  -0.0065  -0.0021   0.00    7.2
2173 199083.000   -487016.4559  -5540253.5708   3111843.2813   1   9   0.0044   0.0129   0.0052   0.0038  -0.0067  -0.0014   0.00    8.1
2173 199084.000   -487016.4591  -5540253.5783   3111843.2841   1   9   0.0043   0.0129   0.0051   0.0037  -0.0066  -0.0025   0.00    8.8
2173 199085.000   -487016.4560  -5540253.5748   3111843.2829   1   9   0.0043   0.0129   0.0049   0.0039  -0.0065  -0.0022   0.00    9.4
2173 199086.000   -487016.4587  -5540253.5729   3111843.2831   1   9   0.0044   0.0129   0.0047   0.0038  -0.0065  -0.0018   0.00   10.3
2173 199087.000   -487016.4560  -5540253.5754   3111843.2826   1   9   0.0042   0.0129   0.0055   0.0037  -0.0066  -0.0015   0.00   11.2
2173 199088.000   -487016.4594  -5540253.5740   3111843.2826   1   9   0.0047   0.0129   0.0051   0.0039  -0.0065  -0.0020   0.00   12.1
2173 199089.000   -487016.4580  -5540253.5798   3111843.2851   1   9   0.0042   0.0129   0.0048   0.0038  -0.0067  -0.0009   0.00   12.9
2173 199090.000   -487016.4591  -5540253.5731   3111843.2828   1   9   0.0043   0.0129   0.0053   0.0040  -0.0066  -0.0024   0.00   13.6
2173 199091.000   -487016.4580  -5540253.5714   3111843.2821   1   9   0.0046   0.0129   0.0049   0.0038  -0.0066  -0.0022   0.00   14.1
2173 199092.000   -487016.4581  -5540253.5707   3111843.2816   1   9   0.0044   0.0129   0.0055   0.0039  -0.0066  -0.0020   0.00   14.7
2173 199093.000   -487016.4590  -5540253.5716   3111843.2840   1   9   0.0045   0.0129   0.0052   0.0037  -0.0065  -0.0019   0.00   15.5
2173 199094.000   -487016.4578  -5540253.5733   3111843.2817   1   9   0.0040   0.0129   0.0046   0.0038  -0.0065  -0.0018   0.00   16.1
2173 199095.000   -487016.4589  -5540253.5703   3111843.2815   1   9   0.0045   0.0129   0.0055   0.0038  -0.0065  -0.0018   0.00   16.5
2173 199096.000   -487016.4584  -5540253.5738   3111843.2832   1   9   0.0042   0.0129   0.0043   0.0040  -0.0065  -0.0017   0.00   17.0
2173 199097.000   -487016.4597  -5540253.5730   3111843.2846   1   9   0.0044   0.0129   0.0052   0.0037  -0.0066  -0.0025   0.00   17.2
2173 199098.000   -487016.4600  -5540253.5712   3111843.2834   1   9   0.0045   0.0129   0.0053   0.0039  -0.0066  -0.0017   0.00   17.6
2173 199099.000   -487016.4577  -5540253.5663   3111843.2815   1   9   0.0040   0.0129   0.0047   0.0039  -0.0067  -0.0012   0.00   18.0
2173 199100.000   -487016.4597  -5540253.5797   3111843.2832   1   9   0.0043   0.0129   0.0057   0.0038  -0.0065  -0.0020   0.00   18.3
2173 199101.000   -487016.4573  -5540253.5715   3111843.2817   1   9   0.0040   0.0129   0.0050   0.0040  -0.0065  -0.0017   0.00   18.6
2173 199102.000   -487016.4574  -5540253.5723   3111843.2841   1   9   0.0041   0.0129   0.0050   0.0039  -0.0066  -0.0017   0.00   19.0
2173 199103.000   -487016.4576  -5540253.5720   3111843.2828   1   9   0.0045   0.0129   0.0055   0.0040  -0.0066  -0.0022   0.00   19.4
2173 199104.000   -487016.4598  -5540253.5744   3111843.2839   1   9   0.0042   0.0129   0.0050   0.0038  -0.0066  -0.0020   0.00   19.5
2173 199105.000   -487016.4556  -5540253.5721   3111843.2827   1   9   0.0041   0.0129   0.0054   0.0039  -0.0066  -0.0021   0.00   19.8
2173 199106.000   -487016.4576  -5540253.5687   3111843.2828   1   9   0.0042   0.0129   0.0054   0.0037  -0.0066  -0.0020   0.00   20.2
2173 199107.000   -487016.4586  -5540253.5717   3111843.2836   1   9   0.0041   0.0129   0.0053   0.0039  -0.0067  -0.0019   0.00   20.4
2173 199108.000   -487016.4560  -5540253.5713   3111843.2825   1   9   0.0046   0.0129   0.0056   0.0039  -0.0067  -0.0014   0.00   20.6
2173 199109.000   -487016.4581  -5540253.5732   3111843.2827   1   9   0.0041   0.0129   0.0047   0.0038  -0.0066  -0.0019   0.00   20.8
2173 199110.000   -487016.4578  -5540253.5709   3111843.2828   1   9   0.0045   0.0129   0.0051   0.0037  -0.0065  -0.0025   0.00   20.8
2173 199111.000   -487016.4578  -5540253.5704   3111843.2834   1   9   0.0043   0.0129   0.0051   0.0039  -0.0066  -0.0027   0.00   20.9
2173 199112.000   -487016.4569  -5540253.5688   3111843.2829   1   9   0.0044   0.0129   0.0057   0.0038  -0.0066  -0.0019   0.00   20.9
2173 199113.000   -487016.4573  -5540253.5684   3111843.2821   1   9   0.0043   0.0129   0.0053   0.0040  -0.0066  -0.0017   0.00   21.1
2173 199114.000   -487016.4561  -5540253.5711   3111843.2832   1   9   0.0042   0.0129   0.0047   0.0040  -0.0065  -0.0016   0.00   21.5
2173 199115.000   -487016.4594  -5540253.5756   3111843.2831   1   9   0.0041   0.0129   0.0046   0.0038  -0.0066  -0.0022   0.00   21.5
2173 199116.000   -487016.4557  -5540253.5696   3111843.2829   1   9   0.0047   0.0129   0.0054   0.0039  -0.0067  -0.0021   0.00   21.8
2173 199117.000   -487016.4592  -5540253.5692   3111843.2852   1   9   0.0045   0.0129   0.0050   0.0039  -0.0065  -0.0019   0.00   22.0
2173 199118.000   -487016.4572  -5540253.5687   3111843.2832   1   9   0.0045   0.0129   0.0058   0.0040  -0.0065  -0.0019   0.00   22.2
2173 199119.000   -487016.4579  -5540253.5724   3111843.2863   1   9   0.0044   0.0129   0.0053   0.0038  -0.0066  -0.0010   0.00   22.2
2173 199120.000   -487016.4568  -5540253.5697   3111843.2828   1   9   0.0047   0.0129   0.0052   0.0038  -0.0066  -0.0019   0.00   22.0
2173 199121.000   -487016.4558  -5540253.5664   3111843.2826   1   9   0.0042   0.0129   0.0051   0.0038  -0.0066  -0.0006   0.00   21.8
2173 199122.000   -487016.4581  -5540253.5681   3111843.2836   1   9   0.0042   0.0129   0.0049   0.0039  -0.0066  -0.0020   0.00   21.8
2173 199123.000   -487016.4561  -5540253.5724   3111843.2846   1   9   0.0046   0.0129   0.0050   0.0036  -0.0066  -0.0021   0.00   21.7
2173 199124.000   -487016.4570  -5540253.5647   3111843.2817   1   9   0.0046   0.0129   0.0046   0.0039  -0.0066  -0.0010   0.00   21.8
2173 199125.000   -487016.4554  -5540253.5638   3111843.2812   1   9   0.0045   0.0129   0.0051   0.0037  -0.0066  -0.0021   0.00   21.7
2173 199126.000   -487016.4564  -5540253.5697   3111843.2845   1   9   0.0042   0.0129   0.0051   0.0040  -0.0066  -0.0022   0.00   21.8
2173 199127.000   -487016.4553  -5540253.5716   3111843.2850   1   9   0.0046   0.0129   0.0054   0.0038  -0.0066  -0.0010   0.00   21.8
2173 199128.000   -487016.4568  -5540253.5681   3111843.2837   1   9   0.0042   0.0129   0.0044   0.0039  -0.0066  -0.0021   0.00   21.8
2173 199129.000   -487016.4572  -5540253.5663   3111843.2827   1   9   0.0046   0.0129   0.0053   0.0037  -0.0066  -0.0019   0.00   21.7
2173 199130.000   -487016.4560  -5540253.5697   3111843.2834   1   9   0.0043   0.0129   0.0049   0.0040  -0.0066  -0.0018   0.00   21.7
2173 199131.000   -487016.4571  -5540253.5713   3111843.2836   1   9   0.0044   0.0129   0.0053   0.0039  -0.0066  -0.0014   0.00   21.7
2173 199132.000   -487016.4553  -5540253.5651   3111843.2829   1   9   0.0043   0.0129   0.0052   0.0040  -0.0066  -0.0020   0.00   21.7
2173 199133.000   -487016.4577  -5540253.5682   3111843.2831   1   9   0.0045   0.0129   0.0054   0.0039  -0.0066  -0.0012   0.00   21.7
2173 199134.000   -487016.4560  -5540253.5692   3111843.2850   1   9   0.0047   0.0129   0.0053   0.0037  -0.0065  -0.0016   0.00   21.6
2173 199135.000   -487016.4576  -5540253.5690   3111843.2851   1   9   0.0042   0.0129   0.0051   0.0039  -0.0066  -0.0019   0.00   21.3
2173 199136.000   -487016.4565  -5540253.5651   3111843.2820   1   9   0.0043   0.0129   0.0047   0.0039  -0.0067  -0.0017   0.00   21.3
2173 199137.000   -487016.4539  -5540253.5670   3111843.2813   1   9   0.0043   0.0129   0.0050   0.0038  -0.0066  -0.0015   0.00   21.2
2173 199138.000   -487016.4584  -5540253.5640   3111843.2833   1   9   0.0047   0.0129   0.0049   0.0037  -0.0065  -0.0016   0.00   21.3
2173 199139.000   -487016.4565  -5540253.5748   3111843.2865   1   9   0.0045   0.0129   0.0051   0.0037  -0.0067  -0.0016   0.00   21.1
2173 199140.000   -487016.4553  -5540253.5685   3111843.2842   1   9   0.0046   0.0129   0.0055   0.0038  -0.0066  -0.0014   0.00   21.1
2173 199141.000   -487016.4558  -5540253.5771   3111843.2863   1   9   0.0044   0.0129   0.0055   0.0037  -0.0065  -0.0018   0.00   20.9
2173 199142.000   -487016.4543  -5540253.5691   3111843.2841   1   9   0.0042   0.0129   0.0051   0.0039  -0.0066  -0.0024   0.00   20.9
2173 199143.000   -487016.4580  -5540253.5750   3111843.2848   1   9   0.0043   0.0129   0.0044   0.0038  -0.0066   0.0003   0.00   20.8
2173 199144.000   -487016.4572  -5540253.5665   3111843.2805   1   9   0.0044   0.0129   0.0055   0.0038  -0.0067  -0.0016   0.00   20.8
2173 199145.000   -487016.4565  -5540253.5682   3111843.2842   1   9   0.0043   0.0129   0.0047   0.0038  -0.0066  -0.0015   0.00   20.8
2173 199146.000   -487016.4556  -5540253.5682   3111843.2834   1   9   0.0041   0.0129   0.0051   0.0039  -0.0066  -0.0016   0.00   21.0
2173 199147.000   -487016.4563  -5540253.5645   3111843.2804   1   9   0.0044   0.0129   0.0054   0.0036  -0.0066  -0.0025   0.00   20.9
2173 199148.000   -487016.4549  -5540253.5703   3111843.2835   1   9   0.0043   0.0129   0.0055   0.0038  -0.0066  -0.0025   0.00   21.0
2173 199149.000   -487016.4563  -5540253.5605   3111843.2816   1   9   0.0041   0.0129   0.0052   0.0037  -0.0066  -0.0012   0.00   20.9
2173 199150.000   -487016.4569  -5540253.5618   3111843.2805   1   9   0.0043   0.0129   0.0055   0.0039  -0.0066  -0.0020   0.00   21.0
2173 199151.000   -487016.4569  -5540253.5680   3111843.2849   1   9   0.0040   0.0129   0.0053   0.0040  -0.0066  -0.0025   0.00   20.9
2173 199152.000   -487016.4579  -5540253.5682   3111843.2852   1   9   0.0042   0.0129   0.0050   0.0038  -0.0065  -0.0020   0.00   20.8
2173 199153.000   -487016.4570  -5540253.5729   3111843.2857   1   9   0.0045   0.0129   0.0055   0.0039  -0.0066  -0.0023   0.00   20.8
2173 199154.000   -487016.4564  -5540253.5685   3111843.2835   1   9   0.0044   0.0129   0.0050   0.0037  -0.0067  -0.0018   0.00   20.7
2173 199155.000   -487016.4567  -5540253.5686   3111843.2837   1   9   0.0045   0.0129   0.0049   0.0038  -0.0066  -0.0015   0.00   20.6
2173 199156.000   -487016.4558  -5540253.5711   3111843.2848   1   9   0.0042   0.0129   0.0051   0.0038  -0.0066  -0.0021   0.00   20.5
2173 199157.000   -487016.4549  -5540253.5678   3111843.2832   1   9   0.0042   0.0129   0.0055   0.0037  -0.0066  -0.0022   0.00   20.4
2173 199158.000   -487016.4549  -5540253.5647   3111843.2833   1   9   0.0043   0.0129   0.0050   0.0039  -0.0066  -0.0012   0.00   20.4
2173 199159.000   -487016.4549  -5540253.5646   3111843.2836   1   9   0.0042   0.0129   0.0048   0.0039  -0.0066  -0.0016   0.00   20.2
2173 199160.000   -487016.4560  -5540253.5738   3111843.2863   1   9   0.0042   0.0129   0.0052   0.0037  -0.0067  -0.0025   0.00   20.2
2173 199161.000   -487016.4583  -5540253.5662   3111843.2824   1   9   0.0043   0.0129   0.0056   0.0040  -0.0065  -0.0026   0.00   20.2
2173 199162.000   -487016.4559  -5540253.5707   3111843.2860   1   8   0.0042   0.0131   0.0060   0.0037  -0.0070  -0.0019   0.00   24.6
2173 199163.000   -487016.4565  -5540253.5680   3111843.2851   1   8   0.0043   0.0131   0.0056   0.0038  -0.0069  -0.0020   0.00   24.6
2173 199164.000   -487016.4573  -5540253.5695   3111843.2842   1   8   0.0044   0.0131   0.0057   0.0040  -0.0069  -0.0030   0.00   24.4
2173 199165.000   -487016.4553  -5540253.5646   3111843.2836   1   8   0.0043   0.0131   0.0058   0.0039  -0.0070  -0.0022   0.00   24.2
2173 199166.000   -487016.4567  -5540253.5658   3111843.2851   1   8   0.0045   0.0131   0.0060   0.0040  -0.0069  -0.0027   0.00   24.1
2173 199167.000   -487016.4556  -5540253.5644   3111843.2832   1   8   0.0045   0.0131   0.0055   0.0039  -0.0070  -0.0024   0.00   24.1
2173 199168.000   -487016.4563  -5540253.5676   3111843.2851   1   8   0.0045   0.0131   0.0053   0.0041  -0.0069  -0.0019   0.00   24.0
2173 199169.000   -487016.4543  -5540253.5712   3111843.2853   1   8   0.0045   0.0131   0.0056   0.0039  -0.0069  -0.0026   0.00   24.1
2173 199170.000   -487016.4573  -5540253.5717   3111843.2859   1   8   0.0044   0.0131   0.0057   0.0040  -0.0069  -0.0020   0.00   24.1
2173 199171.000   -487016.4581  -5540253.5713   3111843.2864   1   8   0.0044   0.0131   0.0054   0.0040  -0.0068  -0.0022   0.00   24.1
2173 199172.000   -487016.4561  -5540253.5699   3111843.2841   1   8   0.0045   0.0131   0.0053   0.0038  -0.0069  -0.0010   0.00   24.0
2173 199173.000   -487016.4560  -5540253.5652   3111843.2822   1   8   0.0043   0.0131   0.0057   0.0038  -0.0070  -0.0024   0.00   24.1
2173 199174.000   -487016.4540  -5540253.5711   3111843.2858   1   8   0.0043   0.0131   0.0056   0.0040  -0.0070  -0.0027   0.00   24.0
2173 199175.000   -487016.4583  -5540253.5728   3111843.2840   1   8   0.0043   0.0131   0.0050   0.0039  -0.0070  -0.0022   0.00   24.0
2173 199176.000   -487016.4570  -5540253.5685   3111843.2842   1   8   0.0043   0.0131   0.0055   0.0039  -0.0070  -0.0018   0.00   24.1
2173 199177.000   -487016.4571  -5540253.5693   3111843.2838   1   8   0.0042   0.0131   0.0057   0.0038  -0.0069  -0.0024   0.00   24.0
2173 199178.000   -487016.4575  -5540253.5718   3111843.2848   1   8   0.0046   0.0131   0.0057   0.0039  -0.0069  -0.0026   0.00   23.9
2173 199179.000   -487016.4572  -5540253.5721   3111843.2854   1   8   0.0044   0.0131   0.0056   0.0039  -0.0070   0.0006   0.00   23.9
2173 199180.000   -487016.4573  -5540253.5713   3111843.2847   1   8   0.0047   0.0131   0.0058   0.0038  -0.0068  -0.0027   0.00   23.8
2173 199181.000   -487016.4541  -5540253.5701   3111843.2857   1   8   0.0042   0.0131   0.0051   0.0039  -0.0069  -0.0020   0.00   23.7
2173 199182.000   -487016.4579  -5540253.5728   3111843.2878   1   8   0.0041   0.0131   0.0054   0.0039  -0.0070  -0.0025   0.00   23.6
2173 199183.000   -487016.4557  -5540253.5714   3111843.2867   1   8   0.0044   0.0131   0.0060   0.0038  -0.0069  -0.0024   0.00   23.4
2173 199184.000   -487016.4567  -5540253.5753   3111843.2862   1   8   0.0044   0.0131   0.0053   0.0039  -0.0070  -0.0016   0.00   23.4
2173 199185.000   -487016.4578  -5540253.5769   3111843.2842   1   8   0.0042   0.0131   0.0052   0.0040  -0.0070  -0.0024   0.00   23.4
2173 199186.000   -487016.4559  -5540253.5695   3111843.2825   1   8   0.0044   0.0131   0.0055   0.0039  -0.0071  -0.0019   0.00   23.4
2173 199187.000   -487016.4573  -5540253.5707   3111843.2850   1   8   0.0046   0.0131   0.0058   0.0039  -0.0070  -0.0018   0.00   23.4
2173 199188.000   -487016.4567  -5540253.5706   3111843.2871   1   8   0.0042   0.0131   0.0054   0.0039  -0.0070  -0.0022   0.00   23.4
2173 199189.000   -487016.4549  -5540253.5672   3111843.2839   1   8   0.0041   0.0131   0.0054   0.0039  -0.0069  -0.0021   0.00   23.4
2173 199190.000   -487016.4559  -5540253.5714   3111843.2832   1   8   0.0043   0.0131   0.0053   0.0041  -0.0068  -0.0019   0.00   23.4
2173 199191.000   -487016.4546  -5540253.5671   3111843.2840   1   8   0.0041   0.0131   0.0053   0.0039  -0.0070  -0.0015   0.00   23.4
2173 199192.000   -487016.4563  -5540253.5658   3111843.2836   1   8   0.0044   0.0131   0.0059   0.0041  -0.0069  -0.0025   0.00   23.4
2173 199193.000   -487016.4574  -5540253.5719   3111843.2857   1   8   0.0043   0.0131   0.0057   0.0041  -0.0068  -0.0017   0.00   23.2
2173 199194.000   -487016.4573  -5540253.5663   3111843.2854   1   8   0.0047   0.0131   0.0056   0.0040  -0.0069  -0.0024   0.00   23.2
2173 199195.000   -487016.4582  -5540253.5730   3111843.2868   1   8   0.0040   0.0131   0.0054   0.0039  -0.0070  -0.0019   0.00   23.2
2173 199196.000   -487016.4577  -5540253.5696   3111843.2839   1   8   0.0042   0.0131   0.0052   0.0039  -0.0070  -0.0024   0.00   23.2
2173 199197.000   -487016.4557  -5540253.5659   3111843.2843   1   8   0.0044   0.0131   0.0057   0.0040  -0.0070  -0.0023   0.00   23.1
2173 199198.000   -487016.4585  -5540253.5736   3111843.2865   1   8   0.0045   0.0131   0.0054   0.0038  -0.0070  -0.0021   0.00   23.1
2173 199199.000   -487016.4572  -5540253.5695   3111843.2844   1   8   0.0045   0.0131   0.0056   0.0040  -0.0069  -0.0023   0.00   23.1
2173 199200.000   -487016.4563  -5540253.5737   3111843.2862   1   8   0.0044   0.0131   0.0055   0.0041  -0.0068  -0.0016   0.00   23.1
2173 199201.000   -487016.4540  -5540253.5586   3111843.2811   1   8   0.0042   0.0131   0.0053   0.0040  -0.0069  -0.0022   0.00   23.1
2173 199202.000   -487016.4593  -5540253.5736   3111843.2842   1   8   0.0046   0.0131   0.0052   0.0040  -0.0069  -0.0019   0.00   23.1
2173 199203.000   -487016.4598  -5540253.5689   3111843.2857   1   8   0.0041   0.0131   0.0055   0.0040  -0.0069  -0.0022   0.00   23.2
2173 199204.000   -487016.4574  -5540253.5696   3111843.2835   1   8   0.0045   0.0131   0.0057   0.0039  -0.0070  -0.0020   0.00   23.2
2173 199205.000   -487016.4590  -5540253.5699   3111843.2840   1   8   0.0042   0.0131   0.0059   0.0041  -0.0069  -0.0017   0.00   23.1
2173 199206.000   -487016.4581  -5540253.5687   3111843.2827   1   8   0.0041   0.0131   0.0049   0.0040  -0.0069  -0.0017   0.00   23.1
2173 199207.000   -487016.4558  -5540253.5674   3111843.2840   1   8   0.0045   0.0131   0.0051   0.0039  -0.0069  -0.0014   0.00   23.1
2173 199208.000   -487016.4569  -5540253.5673   3111843.2837   1   8   0.0045   0.0131   0.0058   0.0040  -0.0070  -0.0019   0.00   23.1
2173 199209.000   -487016.4593  -5540253.5669   3111843.2824   1   8   0.0042   0.0131   0.0054   0.0040  -0.0070  -0.0020   0.00   23.0
2173 199210.000   -487016.4598  -5540253.5683   3111843.2842   1   8   0.0045   0.0131   0.0055   0.0040  -0.0069  -0.0016   0.00   23.0
2173 199211.000   -487016.4615  -5540253.5676   3111843.2824   1   8   0.0041   0.0131   0.0060   0.0039  -0.0069  -0.0023   0.00   23.0
2173 199212.000   -487016.4568  -5540253.5658   3111843.2834   1   8   0.0044   0.0131   0.0060   0.0039  -0.0069  -0.0022   0.00   23.1
2173 199213.000   -487016.4600  -5540253.5780   3111843.2865   1   8   0.0044   0.0131   0.0060   0.0039  -0.0070  -0.0019   0.00   23.1
2173 199214.000   -487016.4599  -5540253.5723   3111843.2845   1   8   0.0044   0.0131   0.0057   0.0040  -0.0070  -0.0015   0.00   23.1
2173 199215.000   -487016.4580  -5540253.5725   3111843.2834   1   8   0.0040   0.0131   0.0056   0.0039  -0.0068  -0.0026   0.00   23.1
2173 199216.000   -487016.4608  -5540253.5716   3111843.2846   1   8   0.0042   0.0131   0.0057   0.0040  -0.0070  -0.0027   0.00   23.1
2173 199217.000   -487016.4594  -5540253.5670   3111843.2826   1   8   0.0044   0.0131   0.0054   0.0041  -0.0070  -0.0024   0.00   23.2
2173 199218.000   -487016.4578  -5540253.5643   3111843.2821   1   8   0.0044   0.0131   0.0055   0.0040  -0.0070  -0.0012   0.00   23.3
2173 199219.000   -487016.4608  -5540253.5687   3111843.2821   1   8   0.0043   0.0131   0.0054   0.0037  -0.0071  -0.0021   0.00   23.4
2173 199220.000   -487016.4591  -5540253.5680   3111843.2822   1   8   0.0044   0.0131   0.0054   0.0038  -0.0069  -0.0023   0.00   23.4
2173 199221.000   -487016.4600  -5540253.5662   3111843.2839   1   8   0.0045   0.0131   0.0057   0.0041  -0.0070  -0.0021   0.00   23.5
2173 199222.000   -487016.4593  -5540253.5678   3111843.2829   1   8   0.0044   0.0131   0.0051   0.0038  -0.0069  -0.0020   0.00   23.5
2173 199223.000   -487016.4591  -5540253.5703   3111843.2834   1   8   0.0044   0.0130   0.0057   0.0041  -0.0070  -0.0024   0.00   23.5
2173 199224.000   -487016.4600  -5540253.5684   3111843.2830   1   8   0.0044   0.0131   0.0056   0.0040  -0.0068  -0.0020   0.00   23.6
2173 199225.000   -487016.4585  -5540253.5657   3111843.2845   1   8   0.0046   0.0131   0.0060   0.0041  -0.0069  -0.0022   0.00   23.5
2173 199226.000   -487016.4580  -5540253.5687   3111843.2840   1   8   0.0039   0.0131   0.0055   0.0040  -0.0069  -0.0020   0.00   23.6
2173 199227.000   -487016.4603  -5540253.5641   3111843.2835   1   8   0.0045   0.0131   0.0057   0.0040  -0.0069  -0.0020   0.00   23.7
2173 199228.000   -487016.4609  -5540253.5651   3111843.2833   1   8   0.0042   0.0131   0.0057   0.0041  -0.0068  -0.0023   0.00   23.7
2173 199229.000   -487016.4602  -5540253.5723   3111843.2870   1   8   0.0043   0.0131   0.0058   0.0041  -0.0070  -0.0017   0.00   23.7
2173 199230.000   -487016.4607  -5540253.5686   3111843.2832   1   8   0.0041   0.0131   0.0050   0.0041  -0.0069  -0.0020   0.00   23.8
2173 199231.000   -487016.4593  -5540253.5695   3111843.2844   1   8   0.0045   0.0131   0.0053   0.0039  -0.0070  -0.0014   0.00   23.9
2173 199232.000   -487016.4596  -5540253.5629   3111843.2805   1   8   0.0045   0.0131   0.0057   0.0041  -0.0069  -0.0025   0.00   24.0
2173 199233.000   -487016.4606  -5540253.5696   3111843.2819   1   8   0.0045   0.0131   0.0060   0.0040  -0.0070  -0.0022   0.00   24.1
2173 199234.000   -487016.4624  -5540253.5732   3111843.2843   1   8   0.0045   0.0131   0.0058   0.0041  -0.0070  -0.0022   0.00   24.1
2173 199235.000   -487016.4618  -5540253.5711   3111843.2820   1   8   0.0045   0.0131   0.0057   0.0039  -0.0070  -0.0025   0.00   24.3
2173 199236.000   -487016.4612  -5540253.5664   3111843.2820   1   8   0.0045   0.0131   0.0062   0.0040  -0.0068  -0.0016   0.00   24.4
2173 199237.000   -487016.4631  -5540253.5663   3111843.2835   1   8   0.0044   0.0131   0.0049   0.0039  -0.0069  -0.0017   0.00   24.4
2173 199238.000   -487016.4622  -5540253.5769   3111843.2862   1   8   0.0043   0.0131   0.0059   0.0039  -0.0069  -0.0020   0.00   24.5
2173 199239.000   -487016.4610  -5540253.5680   3111843.2824   1   8   0.0040   0.0131   0.0055   0.0039  -0.0070  -0.0015   0.00   24.5
2173 199240.000   -487016.4592  -5540253.5702   3111843.2815   1   8   0.0044   0.0131   0.0056   0.0038  -0.0071  -0.0027   0.00   24.6
2173 199241.000   -487016.4611  -5540253.5627   3111843.2807   1   8   0.0044   0.0131   0.0052   0.0039  -0.0070  -0.0014   0.00   24.7
2173 199242.000   -487016.4598  -5540253.5641   3111843.2809   1   8   0.0042   0.0131   0.0056   0.0038  -0.0070  -0.0014   0.00   24.7
2173 199243.000   -487016.4593  -5540253.5707   3111843.2853   1   8   0.0042   0.0131   0.0055   0.0039  -0.0070  -0.0022   0.00   24.8
2173 199244.000   -487016.4625  -5540253.5741   3111843.2847   1   8   0.0046   0.0131   0.0058   0.0039  -0.0069  -0.0018   0.00   24.9
2173 199245.000   -487016.4610  -5540253.5686   3111843.2828   1   8   0.0041   0.0131   0.0056   0.0039  -0.0070  -0.0020   0.00   24.9
2173 199246.000   -487016.4612  -5540253.5651   3111843.2807   1   8   0.0043   0.0131   0.0057   0.0040  -0.0070  -0.0020   0.00   25.0
2173 199247.000   -487016.4597  -5540253.5694   3111843.2834   1   8   0.0041   0.0131   0.0054   0.0040  -0.0069  -0.0018   0.00   25.0
2173 199248.000   -487016.4603  -5540253.5658   3111843.2815   1   8   0.0042   0.0131   0.0058   0.0040  -0.0070  -0.0023   0.00   25.1
2173 199249.000   -487016.4600  -5540253.5701   3111843.2829   1   8   0.0045   0.0131   0.0058   0.0038  -0.0071  -0.0025   0.00   25.2
2173 199250.000   -487016.4607  -5540253.5710   3111843.2815   1   8   0.0041   0.0131   0.0057   0.0040  -0.0069  -0.0015   0.00   25.3
2173 199251.000   -487016.4612  -5540253.5675   3111843.2813   1   8   0.0043   0.0131   0.0053   0.0036  -0.0071   0.0001   0.00   25.4
2173 199252.000   -487016.4597  -5540253.5659   3111843.2799   1   8   0.0041   0.0131   0.0055   0.0040  -0.0070  -0.0014   0.00   25.5
2173 199253.000   -487016.4622  -5540253.5699   3111843.2821   1   8   0.0044   0.0131   0.0053   0.0039  -0.0071  -0.0023   0.00   25.5
2173 199254.000   -487016.4588  -5540253.5721   3111843.2826   1   8   0.0045   0.0131   0.0056   0.0039  -0.0069  -0.0016   0.00   25.6
2173 199255.000   -487016.4590  -5540253.5661   3111843.2808   1   8   0.0044   0.0131   0.0057   0.0040  -0.0070  -0.0008   0.00   25.7
2173 199256.000   -487016.4577  -5540253.5681   3111843.2816   1   8   0.0043   0.0131   0.0053   0.0041  -0.0070  -0.0018   0.00   25.8
2173 199257.000   -487016.4602  -5540253.5679   3111843.2799   1   8   0.0043   0.0131   0.0055   0.0040  -0.0070  -0.0016   0.00   25.9
2173 199258.000   -487016.4584  -5540253.5667   3111843.2827   1   8   0.0043   0.0131   0.0055   0.0039  -0.0070  -0.0026   0.00   26.0
2173 199259.000   -487016.4592  -5540253.5702   3111843.2839   1   8   0.0045   0.0131   0.0057   0.0038  -0.0070  -0.0024   0.00   26.1
2173 199260.000   -487016.4607  -5540253.5713   3111843.2851   1   8   0.0042   0.0131   0.0055   0.0040  -0.0069  -0.0022   0.00   26.1
2173 199261.000   -487016.4607  -5540253.5682   3111843.2847   1   8   0.0045   0.0131   0.0057   0.0040  -0.0069  -0.0023   0.00   26.2
2173 199262.000   -487016.4590  -5540253.5649   3111843.2821   1   8   0.0043   0.0131   0.0058   0.0039  -0.0069  -0.0012   0.00   26.2
2173 199263.000   -487016.4590  -5540253.5640   3111843.2815   1   8   0.0042   0.0131   0.0058   0.0040  -0.0067  -0.0025   0.00   26.3
2173 199264.000   -487016.4596  -5540253.5660   3111843.2813   1   8   0.0042   0.0131   0.0056   0.0040  -0.0070  -0.0020   0.00   26.2
2173 199265.000   -487016.4584  -5540253.5674   3111843.2830   1   8   0.0044   0.0131   0.0060   0.0037  -0.0069  -0.0022   0.00   26.2
2173 199266.000   -487016.4593  -5540253.5733   3111843.2844   1   8   0.0044   0.0131   0.0054   0.0039  -0.0069  -0.0016   0.00   26.2
2173 199267.000   -487016.4576  -5540253.5647   3111843.2822   1   8   0.0043   0.0131   0.0058   0.0036  -0.0071  -0.0015   0.00   26.1
2173 199268.000   -487016.4574  -5540253.5631   3111843.2804   1   8   0.0043   0.0131   0.0055   0.0042  -0.0070  -0.0014   0.00   26.1
2173 199269.000   -487016.4609  -5540253.5727   3111843.2862   1   8   0.0041   0.0131   0.0052   0.0040  -0.0069  -0.0021   0.00   26.2
2173 199270.000   -487016.4622  -5540253.5709   3111843.2844   1   8   0.0044   0.0131   0.0055   0.0039  -0.0070  -0.0021   0.00   26.1
2173 199271.000   -487016.4579  -5540253.5716   3111843.2834   1   8   0.0041   0.0131   0.0056   0.0038  -0.0069  -0.0023   0.00   26.1
2173 199272.000   -487016.4596  -5540253.5749   3111843.2851   1   8   0.0046   0.0131   0.0056   0.0036  -0.0070  -0.0014   0.00   26.0
2173 199273.000   -487016.4588  -5540253.5698   3111843.2839   1   8   0.0044   0.0131   0.0054   0.0041  -0.0070  -0.0014   0.00   25.9
2173 199274.000   -487016.4581  -5540253.5698   3111843.2820   1   8   0.0044   0.0131   0.0057   0.0038  -0.0069  -0.0023   0.00   25.9
2173 199275.000   -487016.4597  -5540253.5704   3111843.2832   1   8   0.0042   0.0131   0.0058   0.0037  -0.0070  -0.0023   0.00   25.8
2173 199276.000   -487016.4568  -5540253.5657   3111843.2821   1   8   0.0044   0.0131   0.0058   0.0039  -0.0070  -0.0021   0.00   25.9
2173 199277.000   -487016.4591  -5540253.5680   3111843.2828   1   8   0.0038   0.0131   0.0047   0.0040  -0.0069  -0.0021   0.00   25.8
2173 199278.000   -487016.4576  -5540253.5667   3111843.2820   1   8   0.0044   0.0131   0.0055   0.0040  -0.0069  -0.0018   0.00   25.8
2173 199279.000   -487016.4587  -5540253.5649   3111843.2819   1   8   0.0041   0.0131   0.0054   0.0038  -0.0069  -0.0015   0.00   25.8
2173 199280.000   -487016.4586  -5540253.5709   3111843.2845   1   8   0.0042   0.0131   0.0055   0.0040  -0.0070  -0.0018   0.00   25.8
2173 199281.000   -487016.4573  -5540253.5593   3111843.2838   1   8   0.0043   0.0131   0.0055   0.0040  -0.0070  -0.0023   0.00   25.8
2173 199282.000   -487016.4596  -5540253.5685   3111843.2852   1   8   0.0042   0.0132   0.0054   0.0041  -0.0068  -0.0013   0.00   25.7
2173 199283.000   -487016.4602  -5540253.5742   3111843.2862   1   8   0.0046   0.0131   0.0057   0.0039  -0.0070  -0.0025   0.00   25.7
2173 199284.000   -487016.4591  -5540253.5719   3111843.2847   1   8   0.0041   0.0131   0.0057   0.0039  -0.0069  -0.0018   0.00   25.7
2173 199285.000   -487016.4587  -5540253.5677   3111843.2841   1   8   0.0040   0.0131   0.0054   0.0042  -0.0070  -0.0019   0.00   25.7
2173 199286.000   -487016.4583  -5540253.5726   3111843.2839   1   8   0.0045   0.0131   0.0056   0.0041  -0.0069  -0.0025   0.00   25.7
2173 199287.000   -487016.4580  -5540253.5621   3111843.2793   1   8   0.0043   0.0131   0.0057   0.0040  -0.0068  -0.0014   0.00   25.8
2173 199288.000   -487016.4592  -5540253.5701   3111843.2847   1   8   0.0043   0.0131   0.0055   0.0040  -0.0069  -0.0009   0.00   25.9
2173 199289.000   -487016.4583  -5540253.5693   3111843.2829   1   8   0.0043   0.0131   0.0057   0.0040  -0.0069  -0.0018   0.00   25.8
2173 199290.000   -487016.4590  -5540253.5706   3111843.2848   1   8   0.0042   0.0131   0.0052   0.0038  -0.0071  -0.0016   0.00   25.8
2173 199291.000   -487016.4590  -5540253.5668   3111843.2824   1   8   0.0042   0.0131   0.0057   0.0039  -0.0069  -0.0025   0.00   25.9
2173 199292.000   -487016.4581  -5540253.5711   3111843.2833   1   8   0.0045   0.0131   0.0059   0.0037  -0.0069  -0.0027   0.00   25.9
2173 199293.000   -487016.4579  -5540253.5610   3111843.2804   1   8   0.0045   0.0131   0.0059   0.0039  -0.0071  -0.0012   0.00   25.9
2173 199294.000   -487016.4577  -5540253.5628   3111843.2810   1   8   0.0042   0.0131   0.0053   0.0039  -0.0070  -0.0025   0.00   26.0
2173 199295.000   -487016.4567  -5540253.5631   3111843.2825   1   8   0.0043   0.0131   0.0056   0.0037  -0.0071  -0.0021   0.00   25.9
2173 199296.000   -487016.4584  -5540253.5639   3111843.2829   1   8   0.0045   0.0131   0.0054   0.0038  -0.0070  -0.0022   0.00   26.0
2173 199297.000   -487016.4554  -5540253.5626   3111843.2808   1   8   0.0043   0.0132   0.0057   0.0038  -0.0068  -0.0022   0.00   26.0
2173 199298.000   -487016.4588  -5540253.5666   3111843.2849   1   8   0.0040   0.0131   0.0056   0.0038  -0.0072  -0.0022   0.00   26.1
2173 199299.000   -487016.4580  -5540253.5619   3111843.2814   1   8   0.0043   0.0131   0.0055   0.0036  -0.0071  -0.0017   0.00   26.1
2173 199300.000   -487016.4603  -5540253.5638   3111843.2830   1   8   0.0043   0.0131   0.0057   0.0038  -0.0068  -0.0024   0.00   26.1
2173 199301.000   -487016.4581  -5540253.5650   3111843.2828   1   8   0.0041   0.0131   0.0054   0.0037  -0.0069  -0.0014   0.00   26.1
2173 199302.000   -487016.4598  -5540253.5663   3111843.2830   1   8   0.0043   0.0131   0.0055   0.0038  -0.0068  -0.0020   0.00   26.2
2173 199303.000   -487016.4591  -5540253.5668   3111843.2823   1   8   0.0043   0.0131   0.0054   0.0037  -0.0070  -0.0026   0.00   26.1
2173 199304.000   -487016.4587  -5540253.5695   3111843.2855   1   8   0.0041   0.0131   0.0051   0.0038  -0.0068  -0.0020   0.00   26.1
2173 199305.000   -487016.4590  -5540253.5646   3111843.2805   1   8   0.0044   0.0131   0.0054   0.0040  -0.0071  -0.0023   0.00   26.2
2173 199306.000   -487016.4581  -5540253.5635   3111843.2831   1   8   0.0044   0.0131   0.0057   0.0036  -0.0070  -0.0024   0.00   26.1
2173 199307.000   -487016.4600  -5540253.5612   3111843.2814   1   8   0.0045   0.0131   0.0056   0.0040  -0.0068  -0.0011   0.00   26.1
2173 199308.000   -487016.4585  -5540253.5744   3111843.2846   1   8   0.0042   0.0131   0.0058   0.0038  -0.0069  -0.0020   0.00   26.2
2173 199309.000   -487016.4573  -5540253.5632   3111843.2811   1   8   0.0043   0.0131   0.0058   0.0041  -0.0069  -0.0018   0.00   26.2
2173 199310.000   -487016.4588  -5540253.5629   3111843.2834   1   8   0.0046   0.0131   0.0055   0.0040  -0.0071  -0.0018   0.00   26.2
2173 199311.000   -487016.4594  -5540253.5704   3111843.2854   1   8   0.0040   0.0131   0.0058   0.0039  -0.0070  -0.0026   0.00   26.2
2173 199312.000   -487016.4597  -5540253.5672   3111843.2825   1   8   0.0041   0.0131   0.0056   0.0039  -0.0069  -0.0018   0.00   26.3
2173 199313.000   -487016.4613  -5540253.5681   3111843.2847   1   8   0.0041   0.0131   0.0056   0.0038  -0.0069  -0.0024   0.00   26.3
2173 199314.000   -487016.4575  -5540253.5624   3111843.2794   1   8   0.0045   0.0131   0.0055   0.0039  -0.0070  -0.0026   0.00   26.3
2173 199315.000   -487016.4582  -5540253.5649   3111843.2815   1   8   0.0042   0.0131   0.0056   0.0038  -0.0070  -0.0019   0.00   26.3
2173 199316.000   -487016.4603  -5540253.5669   3111843.2812   1   8   0.0043   0.0131   0.0054   0.0039  -0.0069  -0.0028   0.00   26.4
2173 199317.000   -487016.4608  -5540253.5687   3111843.2821   1   8   0.0043   0.0131   0.0058   0.0039  -0.0069  -0.0018   0.00   26.4
2173 199318.000   -487016.4597  -5540253.5682   3111843.2829   1   8   0.0043   0.0131   0.0054   0.0039  -0.0068  -0.0024   0.00   26.4
2173 199319.000   -487016.4588  -5540253.5672   3111843.2800   1   8   0.0042   0.0131   0.0053   0.0039  -0.0070  -0.0023   0.00   26.5
2173 199320.000   -487016.4596  -5540253.5688   3111843.2825   1   8   0.0046   0.0131   0.0055   0.0038  -0.0071  -0.0015   0.00   26.5
2173 199321.000   -487016.4588  -5540253.5595   3111843.2791   1   8   0.0044   0.0131   0.0052   0.0040  -0.0069  -0.0022   0.00   26.6
2173 199322.000   -487016.4602  -5540253.5695   3111843.2829   1   8   0.0043   0.0131   0.0055   0.0041  -0.0068  -0.0023   0.00   26.6
2173 199323.000   -487016.4595  -5540253.5716   3111843.2831   1   8   0.0040   0.0131   0.0054   0.0038  -0.0069  -0.0025   0.00   26.6
2173 199324.000   -487016.4607  -5540253.5666   3111843.2810   1   8   0.0042   0.0131   0.0057   0.0039  -0.0069  -0.0016   0.00   26.7
2173 199325.000   -487016.4599  -5540253.5617   3111843.2816   1   8   0.0043   0.0131   0.0054   0.0039  -0.0070  -0.0022   0.00   26.7
2173 199326.000   -487016.4599  -5540253.5668   3111843.2817   1   8   0.0044   0.0131   0.0053   0.0038  -0.0070  -0.0012   0.00   26.6
2173 199327.000   -487016.4622  -5540253.5668   3111843.2804   1   8   0.0043   0.0131   0.0054   0.0041  -0.0069  -0.0022   0.00   26.7
2173 199328.000   -487016.4605  -5540253.5672   3111843.2823   1   8   0.0040   0.0131   0.0051   0.0039  -0.0070  -0.0014   0.00   26.7
2173 199329.000   -487016.4585  -5540253.5677   3111843.2805   1   8   0.0042   0.0131   0.0054   0.0036  -0.0070  -0.0025   0.00   26.7
2173 199330.000   -487016.4604  -5540253.5641   3111843.2803   1   8   0.0043   0.0131   0.0057   0.0038  -0.0070  -0.0025   0.00   26.8
2173 199331.000   -487016.4620  -5540253.5658   3111843.2809   1   8   0.0044   0.0131   0.0058   0.0040  -0.0069  -0.0025   0.00   26.8
2173 199332.000   -487016.4601  -5540253.5637   3111843.2805   1   8   0.0042   0.0131   0.0055   0.0040  -0.0069  -0.0021   0.00   26.8
2173 199333.000   -487016.4619  -5540253.5608   3111843.2803   1   8   0.0043   0.0131   0.0054   0.0036  -0.0069  -0.0025   0.00   26.8
2173 199334.000   -487016.4596  -5540253.5592   3111843.2813   1   8   0.0041   0.0131   0.0055   0.0039  -0.0068  -0.0016   0.00   26.8
2173 199335.000   -487016.4599  -5540253.5686   3111843.2814   1   8   0.0044   0.0131   0.0059   0.0037  -0.0069  -0.0020   0.00   26.8
2173 199336.000   -487016.4598  -5540253.5625   3111843.2805   1   8   0.0044   0.0131   0.0057   0.0039  -0.0069  -0.0015   0.00   26.8
2173 199337.000   -487016.4599  -5540253.5653   3111843.2807   1   8   0.0042   0.0131   0.0054   0.0037  -0.0071  -0.0021   0.00   26.8
2173 199338.000   -487016.4608  -5540253.5590   3111843.2778   1   8   0.0042   0.0131   0.0053   0.0040  -0.0070  -0.0019   0.00   26.8
2173 199339.000   -487016.4608  -5540253.5648   3111843.2820   1   8   0.0044   0.0131   0.0059   0.0040  -0.0068  -0.0024   0.00   26.8
2173 199340.000   -487016.4609  -5540253.5624   3111843.2813   1   8   0.0042   0.0131   0.0056   0.0036  -0.0070  -0.0023   0.00   26.9
2173 199341.000   -487016.4610  -5540253.5700   3111843.2819   1   8   0.0044   0.0131   0.0053   0.0038  -0.0069  -0.0022   0.00   26.9
2173 199342.000   -487016.4605  -5540253.5684   3111843.2817   1   8   0.0043   0.0131   0.0054   0.0039  -0.0069  -0.0025   0.00   26.9
2173 199343.000   -487016.4611  -5540253.5677   3111843.2825   1   8   0.0040   0.0131   0.0052   0.0038  -0.0071  -0.0021   0.00   26.8
2173 199344.000   -487016.4595  -5540253.5653   3111843.2814   1   8   0.0041   0.0131   0.0056   0.0038  -0.0070  -0.0023   0.00   26.8
2173 199345.000   -487016.4628  -5540253.5623   3111843.2816   1   8   0.0044   0.0131   0.0057   0.0039  -0.0069  -0.0017   0.00   26.8
2173 199346.000   -487016.4595  -5540253.5625   3111843.2822   1   8   0.0044   0.0131   0.0056   0.0038  -0.0070  -0.0020   0.00   26.8
2173 199347.000   -487016.4591  -5540253.5547   3111843.2782   1   8   0.0045   0.0131   0.0055   0.0037  -0.0069  -0.0016   0.00   26.8
2173 199348.000   -487016.4603  -5540253.5575   3111843.2796   1   8   0.0043   0.0131   0.0057   0.0038  -0.0068  -0.0025   0.00   26.8
2173 199349.000   -487016.4597  -5540253.5586   3111843.2818   1   8   0.0046   0.0131   0.0057   0.0035  -0.0070  -0.0020   0.00   26.8
2173 199350.000   -487016.4590  -5540253.5606   3111843.2792   1   8   0.0041   0.0131   0.0053   0.0037  -0.0071  -0.0022   0.00   26.8
2173 199351.000   -487016.4594  -5540253.5649   3111843.2847   1   8   0.0045   0.0131   0.0057   0.0038  -0.0069  -0.0022   0.00   26.8
2173 199352.000   -487016.4602  -5540253.5597   3111843.2831   1   8   0.0046   0.0131   0.0057   0.0039  -0.0069  -0.0016   0.00   26.7
2173 199353.000   -487016.4609  -5540253.5577   3111843.2805   1   8   0.0044   0.0131   0.0059   0.0038  -0.0071  -0.0025   0.00   26.7
2173 199354.000   -487016.4592  -5540253.5616   3111843.2819   1   8   0.0045   0.0131   0.0056   0.0040  -0.0072  -0.0022   0.00   26.6
2173 199355.000   -487016.4585  -5540253.5623   3111843.2827   1   8   0.0043   0.0131   0.0056   0.0038  -0.0070  -0.0026   0.00   26.6
2173 199356.000   -487016.4569  -5540253.5616   3111843.2820   1   8   0.0043   0.0131   0.0054   0.0037  -0.0070  -0.0023   0.00   26.6
2173 199357.000   -487016.4614  -5540253.5624   3111843.2813   1   8   0.0043   0.0131   0.0058   0.0040  -0.0069  -0.0023   0.00   26.6
2173 199358.000   -487016.4594  -5540253.5624   3111843.2822   1   8   0.0044   0.0131   0.0055   0.0038  -0.0069  -0.0020   0.00   26.6
2173 199359.000   -487016.4586  -5540253.5627   3111843.2820   1   8   0.0042   0.0131   0.0056   0.0039  -0.0068  -0.0009   0.00   26.5
2173 199360.000   -487016.4577  -5540253.5665   3111843.2830   1   8   0.0041   0.0131   0.0057   0.0038  -0.0070  -0.0021   0.00   26.5
2173 199361.000   -487016.4588  -5540253.5656   3111843.2834   1   8   0.0043   0.0131   0.0057   0.0038  -0.0070  -0.0023   0.00   26.4
2173 199362.000   -487016.4572  -5540253.5629   3111843.2820   1   8   0.0044   0.0131   0.0061   0.0040  -0.0070  -0.0024   0.00   26.4
2173 199363.000   -487016.4579  -5540253.5676   3111843.2840   1   8   0.0044   0.0131   0.0059   0.0038  -0.0069  -0.0025   0.00   26.3
2173 199364.000   -487016.4590  -5540253.5696   3111843.2853   1   8   0.0041   0.0131   0.0054   0.0038  -0.0069  -0.0014   0.00   26.3
2173 199365.000   -487016.4565  -5540253.5622   3111843.2830   1   8   0.0044   0.0131   0.0058   0.0038  -0.0069  -0.0013   0.00   26.3
2173 199366.000   -487016.4568  -5540253.5589   3111843.2827   1   8   0.0042   0.0131   0.0057   0.0039  -0.0069  -0.0026   0.00   26.3
2173 199367.000   -487016.4565  -5540253.5664   3111843.2839   1   8   0.0041   0.0131   0.0052   0.0041  -0.0069  -0.0020   0.00   26.3
2173 199368.000   -487016.4566  -5540253.5593   3111843.2825   1   8   0.0044   0.0131   0.0054   0.0036  -0.0070  -0.0023   0.00   26.3
2173 199369.000   -487016.4564  -5540253.5653   3111843.2838   1   8   0.0043   0.0131   0.0053   0.0039  -0.0071  -0.0009   0.00   26.3
2173 199370.000   -487016.4571  -5540253.5587   3111843.2831   1   8   0.0042   0.0131   0.0054   0.0039  -0.0068  -0.0024   0.00   26.3
2173 199371.000   -487016.4580  -5540253.5606   3111843.2831   1   8   0.0042   0.0131   0.0053   0.0040  -0.0069  -0.0012   0.00   26.2
2173 199372.000   -487016.4582  -5540253.5588   3111843.2811   1   8   0.0044   0.0131   0.0057   0.0037  -0.0072  -0.0024   0.00   26.2
2173 199373.000   -487016.4561  -5540253.5586   3111843.2829   1   8   0.0043   0.0131   0.0057   0.0038  -0.0070  -0.0022   0.00   26.2
2173 199374.000   -487016.4575  -5540253.5621   3111843.2828   1   8   0.0041   0.0131   0.0055   0.0039  -0.0069  -0.0022   0.00   26.2
2173 199375.000   -487016.4572  -5540253.5604   3111843.2829   1   8   0.0041   0.0131   0.0056   0.0038  -0.0069  -0.0017   0.00   26.2
2173 199376.000   -487016.4542  -5540253.5560   3111843.2806   1   8   0.0043   0.0131   0.0058   0.0040  -0.0069  -0.0027   0.00   26.2
2173 199377.000   -487016.4554  -5540253.5604   3111843.2809   1   8   0.0041   0.0131   0.0053   0.0037  -0.0068  -0.0027   0.00   26.2
2173 199378.000   -487016.4557  -5540253.5582   3111843.2828   1   8   0.0042   0.0131   0.0054   0.0038  -0.0071  -0.0025   0.00   26.2
2173 199379.000   -487016.4559  -5540253.5540   3111843.2818   1   8   0.0043   0.0131   0.0057   0.0041  -0.0068  -0.0020   0.00   26.2
2173 199380.000   -487016.4553  -5540253.5614   3111843.2834   1   8   0.0044   0.0131   0.0060   0.0037  -0.0068  -0.0027   0.00   26.2
2173 199381.000   -487016.4521  -5540253.5553   3111843.2804   1   8   0.0042   0.0131   0.0056   0.0036  -0.0070  -0.0022   0.00   26.1
2173 199382.000   -487016.4551  -5540253.5582   3111843.2814   1   8   0.0045   0.0131   0.0055   0.0037  -0.0069  -0.0021   0.00   26.1
2173 199383.000   -487016.4554  -5540253.5629   3111843.2829   1   8   0.0042   0.0131   0.0056   0.0039  -0.0069  -0.0020   0.00   26.0
2173 199384.000   -487016.4526  -5540253.5576   3111843.2824   1   8   0.0040   0.0131   0.0056   0.0038  -0.0070  -0.0021   0.00   26.0
2173 199385.000   -487016.4547  -5540253.5551   3111843.2825   1   8   0.0043   0.0131   0.0054   0.0039  -0.0070  -0.0027   0.00   26.1
2173 199386.000   -487016.4542  -5540253.5565   3111843.2812   1   8   0.0043   0.0131   0.0054   0.0041  -0.0070  -0.0018   0.00   26.1
2173 199387.000   -487016.4536  -5540253.5550   3111843.2806   1   8   0.0044   0.0131   0.0056   0.0036  -0.0071  -0.0014   0.00   26.0
2173 199388.000   -487016.4546  -5540253.5534   3111843.2815   1   8   0.0044   0.0131   0.0057   0.0039  -0.0070  -0.0016   0.00   26.0
2173 199389.000   -487016.4527  -5540253.5514   3111843.2809   1   8   0.0043   0.0131   0.0057   0.0038  -0.0069  -0.0023   0.00   26.0
2173 199390.000   -487016.4551  -5540253.5505   3111843.2809   1   8   0.0045   0.0131   0.0056   0.0037  -0.0070  -0.0020   0.00   26.0
2173 199391.000   -487016.4560  -5540253.5527   3111843.2784   1   8   0.0045   0.0131   0.0056   0.0038  -0.0069  -0.0022   0.00   25.9
2173 199392.000   -487016.4558  -5540253.5572   3111843.2812   1   8   0.0040   0.0131   0.0055   0.0039  -0.0069  -0.0009   0.00   25.9
2173 199393.000   -487016.4545  -5540253.5564   3111843.2812   1   8   0.0042   0.0131   0.0051   0.0038  -0.0069  -0.0018   0.00   25.9
2173 199394.000   -487016.4538  -5540253.5550   3111843.2812   1   8   0.0041   0.0131   0.0052   0.0037  -0.0071  -0.0022   0.00   25.9
2173 199395.000   -487016.4542  -5540253.5608   3111843.2847   1   8   0.0046   0.0131   0.0055   0.0036  -0.0070  -0.0030   0.00   25.9
2173 199396.000   -487016.4534  -5540253.5527   3111843.2823   1   8   0.0043   0.0131   0.0056   0.0039  -0.0070  -0.0022   0.00   25.8
2173 199397.000   -487016.4550  -5540253.5558   3111843.2798   1   8   0.0043   0.0131   0.0062   0.0039  -0.0070  -0.0021   0.00   25.8
2173 199398.000   -487016.4532  -5540253.5546   3111843.2816   1   8   0.0042   0.0131   0.0051   0.0038  -0.0071  -0.0019   0.00   25.8
2173 199399.000   -487016.4560  -5540253.5591   3111843.2819   1   8   0.0043   0.0131   0.0056   0.0038  -0.0068  -0.0016   0.00   25.8
2173 199400.000   -487016.4561  -5540253.5559   3111843.2807   1   8   0.0042   0.0131   0.0053   0.0039  -0.0070  -0.0019   0.00   25.8
2173 199401.000   -487016.4578  -5540253.5580   3111843.2810   1   8   0.0046   0.0131   0.0054   0.0037  -0.0069  -0.0018   0.00   25.8
2173 199402.000   -487016.4569  -5540253.5601   3111843.2820   1   8   0.0040   0.0131   0.0056   0.0039  -0.0068  -0.0021   0.00   25.8
2173 199403.000   -487016.4578  -5540253.5564   3111843.2803   1   8   0.0044   0.0131   0.0051   0.0039  -0.0069  -0.0017   0.00   25.8
2173 199404.000   -487016.4556  -5540253.5572   3111843.2795   1   8   0.0045   0.0131   0.0055   0.0037  -0.0070  -0.0023   0.00   25.8
2173 199405.000   -487016.4554  -5540253.5602   3111843.2800   1   8   0.0042   0.0131   0.0056   0.0039  -0.0068  -0.0020   0.00   25.8
2173 199406.000   -487016.4547  -5540253.5564   3111843.2797   1   8   0.0042   0.0130   0.0051   0.0040  -0.0070  -0.0021   0.00   25.8
2173 199407.000   -487016.4561  -5540253.5586   3111843.2826   1   8   0.0042   0.0131   0.0057   0.0039  -0.0070  -0.0023   0.00   25.8
2173 199408.000   -487016.4529  -5540253.5555   3111843.2808   1   8   0.0046   0.0131   0.0055   0.0037  -0.0070  -0.0022   0.00   25.8
2173 199409.000   -487016.4560  -5540253.5571   3111843.2816   1   8   0.0044   0.0131   0.0054   0.0040  -0.0069  -0.0017   0.00   25.9
2173 199410.000   -487016.4568  -5540253.5579   3111843.2813   1   8   0.0041   0.0131   0.0055   0.0039  -0.0069  -0.0019   0.00   25.9
2173 199411.000   -487016.4565  -5540253.5593   3111843.2818   1   8   0.0045   0.0131   0.0055   0.0035  -0.0069  -0.0022   0.00   25.8
2173 199412.000   -487016.4572  -5540253.5557   3111843.2802   1   8   0.0041   0.0131   0.0057   0.0038  -0.0068  -0.0020   0.00   25.8
2173 199413.000   -487016.4568  -5540253.5568   3111843.2776   1   8   0.0043   0.0131   0.0056   0.0036  -0.0070  -0.0019   0.00   25.8
2173 199414.000   -487016.4572  -5540253.5612   3111843.2821   1   8   0.0043   0.0131   0.0052   0.0040  -0.0070  -0.0017   0.00   25.8
2173 199415.000   -487016.4560  -5540253.5546   3111843.2804   1   8   0.0045   0.0131   0.0056   0.0038  -0.0071  -0.0018   0.00   25.8
2173 199416.000   -487016.4565  -5540253.5586   3111843.2801   1   8   0.0042   0.0131   0.0053   0.0038  -0.0070  -0.0016   0.00   25.8
2173 199417.000   -487016.4573  -5540253.5599   3111843.2812   1   8   0.0043   0.0131   0.0052   0.0036  -0.0071  -0.0017   0.00   25.8
2173 199418.000   -487016.4589  -5540253.5598   3111843.2824   1   8   0.0046   0.0131   0.0056   0.0038  -0.0070  -0.0025   0.00   25.9
2173 199419.000   -487016.4579  -5540253.5634   3111843.2817   1   8   0.0041   0.0131   0.0053   0.0038  -0.0068  -0.0020   0.00   25.9
2173 199420.000   -487016.4573  -5540253.5588   3111843.2796   1   8   0.0043   0.0131   0.0054   0.0040  -0.0069  -0.0019   0.00   25.9
2173 199421.000   -487016.4568  -5540253.5633   3111843.2832   1   8   0.0043   0.0131   0.0053   0.0037  -0.0070  -0.0016   0.00   25.9
2173 199422.000   -487016.4559  -5540253.5606   3111843.2817   1   8   0.0042   0.0131   0.0055   0.0037  -0.0069  -0.0020   0.00   25.9
2173 199423.000   -487016.4556  -5540253.5560   3111843.2818   1   8   0.0040   0.0131   0.0050   0.0038  -0.0070  -0.0012   0.00   25.9
2173 199424.000   -487016.4556  -5540253.5630   3111843.2817   1   8   0.0043   0.0131   0.0060   0.0038  -0.0069  -0.0010   0.00   25.9
2173 199425.000   -487016.4579  -5540253.5558   3111843.2783   1   8   0.0045   0.0131   0.0058   0.0036  -0.0071  -0.0019   0.00   25.9
2173 199426.000   -487016.4586  -5540253.5600   3111843.2810   1   8   0.0043   0.0131   0.0052   0.0038  -0.0069  -0.0019   0.00   25.8
2173 199427.000   -487016.4597  -5540253.5642   3111843.2827   1   8   0.0043   0.0131   0.0060   0.0038  -0.0068  -0.0023   0.00   25.8
2173 199428.000   -487016.4595  -5540253.5621   3111843.2787   1   8   0.0042   0.0131   0.0055   0.0038  -0.0069  -0.0025   0.00   25.8
2173 199429.000   -487016.4579  -5540253.5578   3111843.2786   1   8   0.0044   0.0131   0.0056   0.0039  -0.0070  -0.0021   0.00   25.8
2173 199430.000   -487016.4603  -5540253.5619   3111843.2810   1   8   0.0045   0.0131   0.0051   0.0039  -0.0069  -0.0027   0.00   25.8
2173 199431.000   -487016.4591  -5540253.5648   3111843.2827   1   8   0.0042   0.0131   0.0051   0.0039  -0.0069  -0.0017   0.00   25.9
2173 199432.000   -487016.4585  -5540253.5634   3111843.2835   1   8   0.0041   0.0131   0.0053   0.0040  -0.0069  -0.0016   0.00   25.9
2173 199433.000   -487016.4602  -5540253.5633   3111843.2832   1   8   0.0041   0.0131   0.0062   0.0037  -0.0070  -0.0018   0.00   26.0
2173 199434.000   -487016.4582  -5540253.5576   3111843.2791   1   8   0.0040   0.0131   0.0053   0.0040  -0.0070   0.0009   0.00   26.0
2173 199435.000   -487016.4590  -5540253.5648   3111843.2826   1   8   0.0042   0.0131   0.0056   0.0039  -0.0069  -0.0014   0.00   26.0
2173 199436.000   -487016.4572  -5540253.5592   3111843.2817   1   8   0.0041   0.0131   0.0060   0.0036  -0.0070  -0.0010   0.00   26.0
2173 199437.000   -487016.4585  -5540253.5647   3111843.2810   1   8   0.0043   0.0131   0.0059   0.0039  -0.0070  -0.0023   0.00   26.1
2173 199438.000   -487016.4560  -5540253.5658   3111843.2822   1   8   0.0044   0.0131   0.0059   0.0037  -0.0069  -0.0029   0.00   26.1
2173 199439.000   -487016.4578  -5540253.5616   3111843.2816   1   8   0.0043   0.0131   0.0056   0.0036  -0.0069  -0.0024   0.00   26.2
2173 199440.000   -487016.4581  -5540253.5611   3111843.2809   1   8   0.0043   0.0131   0.0055   0.0039  -0.0068  -0.0019   0.00   26.2
2173 199441.000   -487016.4571  -5540253.5560   3111843.2797   1   8   0.0040   0.0131   0.0056   0.0037  -0.0069  -0.0024   0.00   26.2
2173 199442.000   -487016.4562  -5540253.5657   3111843.2824   1   8   0.0044   0.0131   0.0055   0.0038  -0.0070  -0.0016   0.00   26.2
2173 199443.000   -487016.4584  -5540253.5626   3111843.2809   1   8   0.0045   0.0131   0.0054   0.0039  -0.0069  -0.0023   0.00   26.2
2173 199444.000   -487016.4570  -5540253.5600   3111843.2800   1   8   0.0044   0.0131   0.0059   0.0038  -0.0071  -0.0022   0.00   26.2
2173 199445.000   -487016.4573  -5540253.5651   3111843.2827   1   8   0.0044   0.0131   0.0058   0.0038  -0.0069  -0.0020   0.00   26.2
2173 199446.000   -487016.4584  -5540253.5619   3111843.2825   1   8   0.0042   0.0131   0.0049   0.0038  -0.0069  -0.0017   0.00   26.2
2173 199447.000   -487016.4563  -5540253.5654   3111843.2837   1   8   0.0045   0.0131   0.0058   0.0038  -0.0068  -0.0021   0.00   26.2
2173 199448.000   -487016.4568  -5540253.5616   3111843.2818   1   8   0.0041   0.0131   0.0054   0.0036  -0.0070  -0.0021   0.00   26.2
2173 199449.000   -487016.4569  -5540253.5623   3111843.2819   1   8   0.0045   0.0131   0.0055   0.0037  -0.0070  -0.0022   0.00   26.3
2173 199450.000   -487016.4569  -5540253.5612   3111843.2814   1   8   0.0041   0.0131   0.0056   0.0038  -0.0070  -0.0023   0.00   26.3
2173 199451.000   -487016.4562  -5540253.5626   3111843.2819   1   8   0.0041   0.0131   0.0054   0.0037  -0.0069  -0.0025   0.00   26.3
2173 199452.000   -487016.4588  -5540253.5649   3111843.2815   1   8   0.0043   0.0131   0.0053   0.0039  -0.0068  -0.0016   0.00   26.3
2173 199453.000   -487016.4558  -5540253.5639   3111843.2808   1   8   0.0045   0.0131   0.0056   0.0039  -0.0069  -0.0024   0.00   26.3
2173 199454.000   -487016.4587  -5540253.5695   3111843.2834   1   8   0.0041   0.0131   0.0058   0.0039  -0.0068  -0.0020   0.00   26.3
2173 199455.000   -487016.4582  -5540253.5745   3111843.2852   1   8   0.0044   0.0131   0.0054   0.0034  -0.0071  -0.0023   0.00   26.3
2173 199456.000   -487016.4556  -5540253.5714   3111843.2830   1   8   0.0042   0.0131   0.0060   0.0036  -0.0069  -0.0020   0.00   26.4
2173 199457.000   -487016.4567  -5540253.5663   3111843.2812   1   8   0.0042   0.0131   0.0056   0.0035  -0.0070  -0.0011   0.00   26.5
2173 199458.000   -487016.4552  -5540253.5670   3111843.2829   1   8   0.0045   0.0131   0.0063   0.0040  -0.0068  -0.0026   0.00   26.5
2173 199459.000   -487016.4554  -5540253.5657   3111843.2821   1   8   0.0045   0.0131   0.0054   0.0040  -0.0068  -0.0019   0.00   26.5
2173 199460.000   -487016.4568  -5540253.5695   3111843.2835   1   8   0.0043   0.0131   0.0057   0.0038  -0.0068  -0.0027   0.00   26.5
2173 199461.000   -487016.4552  -5540253.5594   3111843.2802   1   8   0.0044   0.0131   0.0057   0.0038  -0.0072  -0.0019   0.00   26.5
2173 199462.000   -487016.4549  -5540253.5671   3111843.2842   1   8   0.0042   0.0131   0.0052   0.0037  -0.0069  -0.0017   0.00   26.5
2173 199463.000   -487016.4547  -5540253.5663   3111843.2837   1   8   0.0043   0.0131   0.0057   0.0035  -0.0071  -0.0024   0.00   26.5
2173 199464.000   -487016.4580  -5540253.5691   3111843.2844   1   8   0.0044   0.0131   0.0058   0.0035  -0.0070  -0.0023   0.00   26.6
2173 199465.000   -487016.4539  -5540253.5572   3111843.2795   1   8   0.0043   0.0131   0.0058   0.0038  -0.0068  -0.0018   0.00   26.6
2173 199466.000   -487016.4576  -5540253.5630   3111843.2803   1   8   0.0044   0.0131   0.0057   0.0035  -0.0069  -0.0020   0.00   26.6
2173 199467.000   -487016.4562  -5540253.5590   3111843.2792   1   8   0.0043   0.0131   0.0054   0.0037  -0.0068  -0.0025   0.00   26.6
2173 199468.000   -487016.4530  -5540253.5546   3111843.2791   1   8   0.0043   0.0130   0.0056   0.0039  -0.0069  -0.0023   0.00   26.6
2173 199469.000   -487016.4564  -5540253.5628   3111843.2809   1   8   0.0042   0.0131   0.0050   0.0038  -0.0070  -0.0016   0.00   26.7
2173 199470.000   -487016.4544  -5540253.5629   3111843.2813   1   8   0.0041   0.0131   0.0056   0.0037  -0.0069  -0.0027   0.00   26.7
2173 199471.000   -487016.4546  -5540253.5658   3111843.2807   1   8   0.0044   0.0131   0.0056   0.0038  -0.0070  -0.0022   0.00   26.7
2173 199472.000   -487016.4551  -5540253.5652   3111843.2825   1   8   0.0043   0.0130   0.0055   0.0036  -0.0071  -0.0024   0.00   26.7
2173 199473.000   -487016.4545  -5540253.5581   3111843.2793   1   8   0.0045   0.0131   0.0057   0.0039  -0.0070  -0.0018   0.00   26.8
2173 199474.000   -487016.4539  -5540253.5617   3111843.2794   1   8   0.0045   0.0131   0.0055   0.0038  -0.0068  -0.0019   0.00   26.8
2173 199475.000   -487016.4519  -5540253.5620   3111843.2813   1   8   0.0043   0.0131   0.0057   0.0038  -0.0068  -0.0023   0.00   26.9
2173 199476.000   -487016.4555  -5540253.5623   3111843.2812   1   8   0.0043   0.0131   0.0058   0.0039  -0.0069  -0.0013   0.00   26.9
2173 199477.000   -487016.4550  -5540253.5681   3111843.2836   1   8   0.0044   0.0131   0.0057   0.0038  -0.0069  -0.0018   0.00   26.9
2173 199478.000   -487016.4532  -5540253.5572   3111843.2785   1   8   0.0043   0.0130   0.0057   0.0040  -0.0070  -0.0018   0.00   27.0
2173 199479.000   -487016.4554  -5540253.5612   3111843.2824   1   8   0.0046   0.0131   0.0060   0.0037  -0.0070  -0.0028   0.00   27.0
2173 199480.000   -487016.4549  -5540253.5593   3111843.2813   1   8   0.0045   0.0131   0.0055   0.0038  -0.0070  -0.0018   0.00   27.0
2173 199481.000   -487016.4543  -5540253.5556   3111843.2802   1   8   0.0041   0.0131   0.0054   0.0040  -0.0068  -0.0013   0.00   27.0
