% program   : rnx2rtkp ver.2.4.3 b31
% inp file  : ngs/21_08_31_03_04_48_tn31.obs
% inp file  : ngs/21_08_31_03_04_48_tn31_VZ.obs
% inp file  : ngs/21_08_31_03_04_48_brdc.nav
% obs start : 2021/08/31 03:00:00.0 GPST (week2173 183600.0s)
% obs end   : 2021/08/31 03:59:59.0 GPST (week2173 187199.0s)
% ref pos   :   278146.3143  -5148067.5166   3742721.9101
%
% (x/y/z-ecef=WGS84,Q=1:fix,2:float,3:sbas,4:dgps,5:single,6:ppp,ns=# of satellites)
%  GPST              x-ecef(m)      y-ecef(m)      z-ecef(m)   Q  ns   sdx(m)   sdy(m)   sdz(m)  sdxy(m)  sdyz(m)  sdzx(m) age(s)  ratio
2173 183876.000    281409.1637  -5147272.2680   3743528.5487   2   6   0.5048   1.2169   1.1260   0.2399  -1.0308  -0.4451 -30.00    2.6
2173 183877.000    281409.0170  -5147272.5926   3743528.8357   2   6   0.3589   0.8648   0.8001   0.1708  -0.7324  -0.3165 -29.00    2.9
2173 183878.000    281408.9765  -5147272.5690   3743528.8393   2   6   0.2938   0.7079   0.6548   0.1395  -0.5994  -0.2590 -28.00    2.5
2173 183879.000    281408.9716  -5147272.5073   3743528.7730   2   6   0.2549   0.6141   0.5679   0.1207  -0.5199  -0.2246 -27.00    2.3
2173 183880.000    281408.9730  -5147272.4695   3743528.6667   2   6   0.2283   0.5499   0.5084   0.1077  -0.4654  -0.2010 -26.00    2.2
2173 183881.000    281408.9783  -5147272.5104   3743528.6968   2   6   0.2087   0.5025   0.4645   0.0982  -0.4252  -0.1836 -25.00    2.4
2173 183882.000    281409.0013  -5147272.5007   3743528.6842   2   6   0.1933   0.4655   0.4302   0.0907  -0.3938  -0.1701 -24.00    2.7
2173 183883.000    281408.9843  -5147272.4765   3743528.6885   2   6   0.1810   0.4357   0.4025   0.0847  -0.3685  -0.1591 -23.00    2.9
2173 183884.000    281409.0781  -5147272.4974   3743528.9094   1   6   0.0226   0.0561   0.0499  -0.0098  -0.0462  -0.0164 -22.00    3.2
2173 183885.000    281409.0782  -5147272.4954   3743528.9104   1   6   0.0216   0.0537   0.0478  -0.0094  -0.0442  -0.0157 -21.00    3.5
2173 183886.000    281409.0769  -5147272.4993   3743528.9098   1   6   0.0207   0.0513   0.0456  -0.0089  -0.0422  -0.0150 -20.00    3.8
2173 183887.000    281409.0779  -5147272.4969   3743528.9053   1   6   0.0197   0.0489   0.0435  -0.0085  -0.0402  -0.0143 -19.00    4.1
2173 183888.000    281409.0776  -5147272.4987   3743528.9054   1   6   0.0187   0.0465   0.0413  -0.0080  -0.0382  -0.0136 -18.00    4.4
2173 183889.000    281409.0743  -5147272.4927   3743528.8999   1   6   0.0178   0.0440   0.0392  -0.0075  -0.0363  -0.0130 -17.00    4.7
2173 183890.000    281409.0768  -5147272.4939   3743528.8993   1   6   0.0168   0.0417   0.0371  -0.0071  -0.0343  -0.0123 -16.00    5.4
2173 183891.000    281409.0775  -5147272.4928   3743528.8967   1   6   0.0159   0.0393   0.0350  -0.0066  -0.0323  -0.0116 -15.00    6.1
2173 183892.000    281409.0748  -5147272.4957   3743528.9023   1   6   0.0150   0.0369   0.0329  -0.0061  -0.0304  -0.0110 -14.00    7.0
2173 183893.000    281409.0746  -5147272.4907   3743528.9001   1   6   0.0140   0.0346   0.0308  -0.0056  -0.0285  -0.0103 -13.00    7.3
2173 183894.000    281409.0754  -5147272.4967   3743528.9022   1   6   0.0130   0.0323   0.0287  -0.0051  -0.0266  -0.0097 -12.00    7.9
2173 183895.000    281409.0746  -5147272.4985   3743528.9026   1   6   0.0122   0.0300   0.0267  -0.0046  -0.0247  -0.0090 -11.00    8.3
2173 183896.000    281409.0751  -5147272.4957   3743528.8994   1   6   0.0112   0.0277   0.0247  -0.0041  -0.0229  -0.0084 -10.00    8.4
2173 183897.000    281409.0759  -5147272.4924   3743528.8978   1   6   0.0104   0.0255   0.0228  -0.0035  -0.0210  -0.0078  -9.00    9.0
2173 183898.000    281409.0745  -5147272.4932   3743528.8957   1   6   0.0095   0.0233   0.0209  -0.0030  -0.0193  -0.0073  -8.00    9.6
2173 183899.000    281409.0757  -5147272.4940   3743528.8964   1   6   0.0087   0.0213   0.0191  -0.0024  -0.0176  -0.0067  -7.00   10.9
2173 183900.000    281409.0751  -5147272.4918   3743528.8914   1   6   0.0078   0.0193   0.0173  -0.0016  -0.0160  -0.0062  -6.00   13.0
2173 183901.000    281409.0743  -5147272.4895   3743528.8875   1   6   0.0072   0.0174   0.0157   0.0007  -0.0145  -0.0057  -5.00   14.4
2173 183902.000    281409.0750  -5147272.4844   3743528.8863   1   6   0.0064   0.0157   0.0143   0.0011  -0.0131  -0.0054  -4.00   17.3
2173 183903.000    281409.0762  -5147272.4844   3743528.8832   1   6   0.0059   0.0143   0.0130   0.0019  -0.0120  -0.0049  -3.00   21.1
2173 183904.000    281409.0725  -5147272.4903   3743528.8907   1   6   0.0055   0.0132   0.0121   0.0020  -0.0110  -0.0047  -2.00   24.4
2173 183905.000    281409.0771  -5147272.4884   3743528.8851   1   6   0.0052   0.0124   0.0115   0.0023  -0.0105  -0.0043  -1.00   27.4
2173 183906.000    281409.0755  -5147272.4841   3743528.8807   1   6   0.0050   0.0122   0.0112   0.0024  -0.0103  -0.0046   0.00   30.6
2173 183907.000    281409.0773  -5147272.4763   3743528.8759   1   6   0.0055   0.0122   0.0112   0.0023  -0.0103  -0.0043   0.00   35.5
2173 183908.000    281409.0741  -5147272.4848   3743528.8818   1   6   0.0050   0.0122   0.0112   0.0025  -0.0103  -0.0045   0.00   39.6
2173 183909.000    281409.0718  -5147272.4810   3743528.8815   1   6   0.0053   0.0122   0.0113   0.0024  -0.0103  -0.0043   0.00   43.9
2173 183910.000    281409.0733  -5147272.4848   3743528.8848   1   6   0.0051   0.0122   0.0112   0.0017  -0.0103  -0.0046   0.00   46.7
2173 183911.000    281409.0742  -5147272.4828   3743528.8799   1   6   0.0048   0.0122   0.0112   0.0021  -0.0102  -0.0045   0.00   48.0
2173 183912.000    281409.0746  -5147272.4833   3743528.8805   1   6   0.0047   0.0122   0.0112   0.0024  -0.0102  -0.0046   0.00   48.8
2173 183913.000    281409.0753  -5147272.4778   3743528.8799   1   6   0.0051   0.0121   0.0112   0.0024  -0.0103  -0.0043   0.00   49.1
2173 183914.000    281409.0742  -5147272.4852   3743528.8826   1   6   0.0044   0.0122   0.0111   0.0019  -0.0103  -0.0047   0.00   48.4
2173 183915.000    281409.0751  -5147272.4832   3743528.8845   1   6   0.0058   0.0122   0.0112   0.0020  -0.0102  -0.0045   0.00   49.2
2173 183916.000    281409.0750  -5147272.4846   3743528.8836   1   6   0.0052   0.0122   0.0112   0.0020  -0.0102  -0.0046   0.00   48.3
2173 183917.000    281409.0765  -5147272.4806   3743528.8795   1   6   0.0056   0.0122   0.0112   0.0022  -0.0102  -0.0045   0.00   47.5
2173 183918.000    281409.0732  -5147272.4805   3743528.8817   1   6   0.0050   0.0122   0.0112   0.0015  -0.0103  -0.0048   0.00   45.9
2173 183919.000    281409.0734  -5147272.4723   3743528.8760   1   6   0.0052   0.0121   0.0112   0.0021  -0.0103  -0.0042   0.00   44.3
2173 183920.000    281409.0745  -5147272.4739   3743528.8724   1   6   0.0051   0.0122   0.0112   0.0022  -0.0103  -0.0044   0.00   43.8
2173 183921.000    281409.0757  -5147272.4746   3743528.8738   1   6   0.0046   0.0121   0.0111   0.0019  -0.0102  -0.0047   0.00   43.2
2173 183922.000    281409.0742  -5147272.4805   3743528.8775   1   6   0.0049   0.0122   0.0111   0.0020  -0.0102  -0.0048   0.00   41.2
2173 183923.000    281409.0741  -5147272.4768   3743528.8755   1   6   0.0050   0.0121   0.0112   0.0022  -0.0103  -0.0043   0.00   39.8
2173 183924.000    281409.0772  -5147272.4803   3743528.8775   1   6   0.0053   0.0122   0.0112   0.0025  -0.0102  -0.0042   0.00   38.8
2173 183925.000    281409.0744  -5147272.4764   3743528.8758   1   6   0.0054   0.0122   0.0112   0.0025  -0.0102  -0.0041   0.00   38.3
2173 183926.000    281409.0770  -5147272.4844   3743528.8786   1   6   0.0052   0.0121   0.0112   0.0024  -0.0102  -0.0042   0.00   36.9
2173 183927.000    281409.0738  -5147272.4727   3743528.8702   1   6   0.0056   0.0122   0.0112   0.0024  -0.0102  -0.0042   0.00   36.2
2173 183928.000    281409.0768  -5147272.4797   3743528.8771   1   6   0.0049   0.0121   0.0111   0.0017  -0.0102  -0.0047   0.00   34.8
2173 183929.000    281409.0741  -5147272.4782   3743528.8766   1   6   0.0049   0.0121   0.0111   0.0023  -0.0102  -0.0045   0.00   34.0
2173 183930.000    281409.0707  -5147272.4782   3743528.8775   1   6   0.0051   0.0122   0.0112   0.0023  -0.0101  -0.0044   0.00   33.5
2173 183931.000    281409.0708  -5147272.4767   3743528.8762   1   6   0.0048   0.0122   0.0112   0.0020  -0.0102  -0.0045   0.00   33.1
2173 183932.000    281409.0729  -5147272.4739   3743528.8720   1   6   0.0046   0.0121   0.0110   0.0017  -0.0102  -0.0050   0.00   33.2
2173 183933.000    281409.0725  -5147272.4724   3743528.8695   1   6   0.0050   0.0122   0.0111   0.0018  -0.0102  -0.0048   0.00   32.7
2173 183934.000    281409.0765  -5147272.4718   3743528.8691   1   6   0.0050   0.0121   0.0111   0.0022  -0.0102  -0.0046   0.00   31.8
2173 183935.000    281409.0740  -5147272.4771   3743528.8749   1   6   0.0052   0.0121   0.0111   0.0023  -0.0102  -0.0044   0.00   31.8
2173 183936.000    281409.0730  -5147272.4773   3743528.8743   1   6   0.0047   0.0121   0.0111   0.0030  -0.0101  -0.0042   0.00   31.0
2173 183937.000    281409.0739  -5147272.4794   3743528.8753   1   6   0.0048   0.0121   0.0111   0.0022  -0.0102  -0.0046   0.00   31.0
2173 183938.000    281409.0748  -5147272.4743   3743528.8729   1   6   0.0049   0.0121   0.0111   0.0024  -0.0102  -0.0044   0.00   31.3
2173 183939.000    281409.0734  -5147272.4776   3743528.8738   1   6   0.0051   0.0121   0.0111   0.0021  -0.0102  -0.0042   0.00   30.4
2173 183940.000    281409.0742  -5147272.4657   3743528.8695   1   6   0.0052   0.0121   0.0110   0.0021  -0.0102  -0.0047   0.00   29.6
2173 183941.000    281409.0739  -5147272.4673   3743528.8696   1   6   0.0049   0.0121   0.0111   0.0023  -0.0102  -0.0044   0.00   28.5
2173 183942.000    281409.0752  -5147272.4698   3743528.8705   1   6   0.0048   0.0122   0.0110   0.0023  -0.0101  -0.0047   0.00   28.0
2173 183943.000    281409.0740  -5147272.4704   3743528.8701   1   6   0.0055   0.0121   0.0111   0.0026  -0.0101  -0.0043   0.00   28.0
2173 183944.000    281409.0752  -5147272.4728   3743528.8726   1   6   0.0049   0.0122   0.0111   0.0021  -0.0101  -0.0046   0.00   27.6
2173 183945.000    281409.0761  -5147272.4711   3743528.8711   1   6   0.0052   0.0121   0.0111   0.0025  -0.0101  -0.0042   0.00   26.8
2173 183946.000    281409.0747  -5147272.4670   3743528.8705   1   6   0.0051   0.0121   0.0111   0.0024  -0.0101  -0.0043   0.00   26.5
2173 183947.000    281409.0759  -5147272.4662   3743528.8660   1   6   0.0050   0.0121   0.0111   0.0022  -0.0101  -0.0043   0.00   26.0
2173 183948.000    281409.0765  -5147272.4680   3743528.8681   1   6   0.0056   0.0121   0.0111   0.0020  -0.0101  -0.0043   0.00   25.5
2173 183949.000    281409.0741  -5147272.4629   3743528.8640   1   6   0.0053   0.0121   0.0111   0.0017  -0.0101  -0.0045   0.00   25.5
2173 183950.000    281409.0735  -5147272.4610   3743528.8608   1   6   0.0051   0.0121   0.0110   0.0020  -0.0101  -0.0045   0.00   25.2
2173 183951.000    281409.0755  -5147272.4621   3743528.8604   1   6   0.0048   0.0121   0.0111   0.0021  -0.0101  -0.0042   0.00   24.7
2173 183952.000    281409.0735  -5147272.4621   3743528.8658   1   6   0.0048   0.0121   0.0110   0.0022  -0.0101  -0.0045   0.00   24.4
2173 183953.000    281409.0747  -5147272.4632   3743528.8661   1   6   0.0051   0.0121   0.0110   0.0021  -0.0101  -0.0045   0.00   24.3
2173 183954.000    281409.0767  -5147272.4654   3743528.8662   1   6   0.0051   0.0121   0.0110   0.0023  -0.0101  -0.0044   0.00   24.4
2173 183955.000    281409.0754  -5147272.4607   3743528.8593   1   6   0.0051   0.0121   0.0110   0.0022  -0.0101  -0.0044   0.00   24.2
2173 183956.000    281409.0744  -5147272.4649   3743528.8644   1   6   0.0048   0.0121   0.0111   0.0023  -0.0101  -0.0042   0.00   24.6
2173 183957.000    281409.0741  -5147272.4654   3743528.8624   1   6   0.0050   0.0121   0.0111   0.0023  -0.0101  -0.0042   0.00   24.6
2173 183958.000    281409.0739  -5147272.4732   3743528.8688   1   6   0.0049   0.0121   0.0110   0.0021  -0.0101  -0.0045   0.00   24.9
2173 183959.000    281409.0758  -5147272.4594   3743528.8629   1   6   0.0045   0.0121   0.0111   0.0021  -0.0101  -0.0044   0.00   24.8
2173 183960.000    281409.0765  -5147272.4634   3743528.8627   1   6   0.0048   0.0121   0.0110   0.0024  -0.0101  -0.0044   0.00   24.5
2173 183961.000    281409.0748  -5147272.4641   3743528.8647   1   6   0.0050   0.0121   0.0110   0.0024  -0.0100  -0.0043   0.00   24.2
2173 183962.000    281409.0761  -5147272.4678   3743528.8688   1   6   0.0051   0.0121   0.0111   0.0021  -0.0101  -0.0043   0.00   23.8
2173 183963.000    281409.0749  -5147272.4688   3743528.8673   1   6   0.0050   0.0121   0.0110   0.0021  -0.0101  -0.0043   0.00   23.4
2173 183964.000    281409.0753  -5147272.4603   3743528.8658   1   6   0.0052   0.0121   0.0110   0.0021  -0.0100  -0.0044   0.00   23.2
2173 183965.000    281409.0776  -5147272.4635   3743528.8644   1   6   0.0050   0.0121   0.0110   0.0022  -0.0100  -0.0043   0.00   23.3
2173 183966.000    281409.0778  -5147272.4608   3743528.8622   1   6   0.0053   0.0122   0.0110   0.0018  -0.0100  -0.0046   0.00   23.4
2173 183967.000    281409.0750  -5147272.4616   3743528.8661   1   6   0.0048   0.0121   0.0110   0.0021  -0.0100  -0.0043   0.00   23.6
2173 183968.000    281409.0752  -5147272.4567   3743528.8637   1   6   0.0051   0.0121   0.0110   0.0016  -0.0100  -0.0045   0.00   23.7
2173 183969.000    281409.0718  -5147272.4693   3743528.8687   1   6   0.0051   0.0121   0.0110   0.0019  -0.0100  -0.0042   0.00   23.7
2173 183970.000    281409.0750  -5147272.4698   3743528.8690   1   6   0.0052   0.0121   0.0110   0.0021  -0.0101  -0.0043   0.00   23.7
2173 183971.000    281409.0750  -5147272.4730   3743528.8693   1   6   0.0052   0.0121   0.0110   0.0019  -0.0100  -0.0045   0.00   23.9
2173 183972.000    281409.0759  -5147272.4666   3743528.8645   1   6   0.0052   0.0120   0.0110   0.0021  -0.0101  -0.0042   0.00   23.9
2173 183973.000    281409.0731  -5147272.4742   3743528.8725   1   6   0.0051   0.0121   0.0109   0.0022  -0.0101  -0.0043   0.00   24.0
2173 183974.000    281409.0748  -5147272.4615   3743528.8622   1   6   0.0052   0.0122   0.0110   0.0021  -0.0100  -0.0044   0.00   24.3
2173 183975.000    281409.0728  -5147272.4652   3743528.8673   1   6   0.0050   0.0120   0.0110   0.0022  -0.0101  -0.0044   0.00   24.5
2173 183976.000    281409.0711  -5147272.4691   3743528.8728   1   6   0.0050   0.0120   0.0109   0.0020  -0.0101  -0.0043   0.00   24.6
2173 183977.000    281409.0737  -5147272.4672   3743528.8705   1   6   0.0054   0.0120   0.0109   0.0020  -0.0101  -0.0044   0.00   24.8
2173 183978.000    281409.0747  -5147272.4658   3743528.8686   1   6   0.0052   0.0121   0.0110   0.0019  -0.0100  -0.0045   0.00   25.2
2173 183979.000    281409.0733  -5147272.4675   3743528.8688   1   6   0.0052   0.0121   0.0110   0.0021  -0.0100  -0.0043   0.00   25.3
2173 183980.000    281409.0726  -5147272.4631   3743528.8657   1   6   0.0052   0.0120   0.0109   0.0025  -0.0101  -0.0043   0.00   25.3
2173 183981.000    281409.0723  -5147272.4653   3743528.8625   1   6   0.0049   0.0121   0.0110   0.0019  -0.0100  -0.0046   0.00   25.2
2173 183982.000    281409.0731  -5147272.4657   3743528.8657   1   6   0.0050   0.0121   0.0110   0.0020  -0.0100  -0.0043   0.00   25.1
2173 183983.000    281409.0726  -5147272.4626   3743528.8623   1   6   0.0051   0.0121   0.0110   0.0019  -0.0100  -0.0044   0.00   25.0
2173 183984.000    281409.0732  -5147272.4707   3743528.8690   1   6   0.0053   0.0120   0.0109   0.0019  -0.0101  -0.0043   0.00   24.8
2173 183985.000    281409.0747  -5147272.4695   3743528.8659   1   6   0.0048   0.0121   0.0110   0.0019  -0.0099  -0.0046   0.00   24.8
2173 183986.000    281409.0742  -5147272.4716   3743528.8732   1   6   0.0053   0.0120   0.0109   0.0017  -0.0100  -0.0044   0.00   24.8
2173 183987.000    281409.0728  -5147272.4740   3743528.8693   1   6   0.0050   0.0121   0.0110   0.0020  -0.0100  -0.0044   0.00   24.5
2173 183988.000    281409.0717  -5147272.4719   3743528.8705   1   6   0.0052   0.0121   0.0109   0.0022  -0.0099  -0.0044   0.00   24.3
2173 183989.000    281409.0748  -5147272.4704   3743528.8693   1   6   0.0051   0.0120   0.0109   0.0022  -0.0101  -0.0042   0.00   24.0
2173 183990.000    281409.0752  -5147272.4725   3743528.8675   1   6   0.0051   0.0119   0.0109   0.0022  -0.0101  -0.0040   0.00   24.0
2173 183991.000    281409.0761  -5147272.4693   3743528.8671   1   6   0.0050   0.0120   0.0109   0.0021  -0.0100  -0.0042   0.00   23.9
2173 183992.000    281409.0751  -5147272.4778   3743528.8738   1   6   0.0050   0.0119   0.0108   0.0020  -0.0101  -0.0043   0.00   23.7
2173 183993.000    281409.0754  -5147272.4733   3743528.8688   1   6   0.0049   0.0120   0.0109   0.0022  -0.0100  -0.0043   0.00   23.7
2173 183994.000    281409.0745  -5147272.4734   3743528.8694   1   6   0.0055   0.0121   0.0109   0.0012  -0.0100  -0.0044   0.00   23.5
2173 183995.000    281409.0745  -5147272.4688   3743528.8649   1   6   0.0050   0.0120   0.0110   0.0020  -0.0100  -0.0044   0.00   23.1
2173 183996.000    281409.0731  -5147272.4690   3743528.8700   1   6   0.0051   0.0120   0.0109   0.0019  -0.0100  -0.0042   0.00   22.8
2173 183997.000    281409.0733  -5147272.4705   3743528.8711   1   6   0.0052   0.0121   0.0109   0.0019  -0.0100  -0.0045   0.00   22.5
2173 183998.000    281409.0729  -5147272.4632   3743528.8648   1   6   0.0051   0.0119   0.0108   0.0024  -0.0101  -0.0041   0.00   22.1
2173 183999.000    281409.0737  -5147272.4658   3743528.8665   1   6   0.0051   0.0120   0.0109   0.0022  -0.0100  -0.0044   0.00   22.0
2173 184000.000    281409.0757  -5147272.4693   3743528.8671   1   6   0.0049   0.0120   0.0109   0.0021  -0.0099  -0.0043   0.00   22.0
2173 184001.000    281409.0759  -5147272.4635   3743528.8644   1   6   0.0051   0.0120   0.0109   0.0022  -0.0100  -0.0043   0.00   21.9
2173 184002.000    281409.0711  -5147272.4628   3743528.8622   1   6   0.0048   0.0121   0.0109   0.0019  -0.0099  -0.0044   0.00   21.5
2173 184003.000    281409.0749  -5147272.4631   3743528.8600   1   6   0.0049   0.0120   0.0109   0.0021  -0.0099  -0.0043   0.00   21.6
2173 184004.000    281409.0735  -5147272.4632   3743528.8624   1   6   0.0051   0.0121   0.0109   0.0019  -0.0099  -0.0042   0.00   21.4
2173 184005.000    281409.0735  -5147272.4596   3743528.8601   1   6   0.0051   0.0119   0.0110   0.0020  -0.0100  -0.0040   0.00   21.2
2173 184006.000    281409.0748  -5147272.4569   3743528.8532   1   6   0.0049   0.0120   0.0108   0.0021  -0.0099  -0.0044   0.00   20.9
2173 184007.000    281409.0754  -5147272.4647   3743528.8609   1   6   0.0051   0.0120   0.0108   0.0018  -0.0100  -0.0046   0.00   20.8
2173 184008.000    281409.0728  -5147272.4608   3743528.8587   1   6   0.0052   0.0120   0.0108   0.0025  -0.0099  -0.0042   0.00   20.6
2173 184009.000    281409.0717  -5147272.4638   3743528.8634   1   6   0.0053   0.0121   0.0109   0.0018  -0.0098  -0.0043   0.00   20.5
2173 184010.000    281409.0711  -5147272.4628   3743528.8637   1   6   0.0052   0.0120   0.0108   0.0020  -0.0099  -0.0041   0.00   20.4
2173 184011.000    281409.0726  -5147272.4561   3743528.8566   1   6   0.0050   0.0120   0.0109   0.0020  -0.0099  -0.0044   0.00   20.2
2173 184012.000    281409.0729  -5147272.4588   3743528.8606   1   6   0.0049   0.0120   0.0109   0.0017  -0.0099  -0.0045   0.00   19.9
2173 184013.000    281409.0734  -5147272.4585   3743528.8636   1   6   0.0051   0.0119   0.0108   0.0014  -0.0100  -0.0044   0.00   19.8
2173 184014.000    281409.0744  -5147272.4561   3743528.8549   1   6   0.0050   0.0120   0.0109   0.0016  -0.0099  -0.0044   0.00   19.5
2173 184015.000    281409.0731  -5147272.4544   3743528.8566   1   6   0.0052   0.0120   0.0108   0.0018  -0.0100  -0.0043   0.00   19.4
2173 184016.000    281409.0742  -5147272.4584   3743528.8554   1   6   0.0050   0.0120   0.0110   0.0019  -0.0099  -0.0042   0.00   19.1
2173 184017.000    281409.0737  -5147272.4596   3743528.8598   1   6   0.0053   0.0121   0.0109   0.0011  -0.0098  -0.0043   0.00   18.8
2173 184018.000    281409.0736  -5147272.4544   3743528.8558   1   6   0.0051   0.0120   0.0108   0.0024  -0.0099  -0.0042   0.00   18.5
2173 184019.000    281409.0763  -5147272.4599   3743528.8584   1   6   0.0050   0.0120   0.0108   0.0021  -0.0099  -0.0042   0.00   18.4
2173 184020.000    281409.0735  -5147272.4604   3743528.8597   1   6   0.0051   0.0120   0.0108   0.0016  -0.0099  -0.0043   0.00   18.2
2173 184021.000    281409.0756  -5147272.4610   3743528.8612   1   6   0.0053   0.0120   0.0109   0.0016  -0.0099  -0.0043   0.00   18.0
2173 184022.000    281409.0765  -5147272.4563   3743528.8547   1   6   0.0051   0.0120   0.0109   0.0015  -0.0099  -0.0045   0.00   17.6
2173 184023.000    281409.0758  -5147272.4588   3743528.8578   1   6   0.0052   0.0120   0.0108   0.0015  -0.0099  -0.0044   0.00   17.5
2173 184024.000    281409.0777  -5147272.4668   3743528.8589   1   6   0.0049   0.0120   0.0108   0.0020  -0.0099  -0.0045   0.00   17.4
2173 184025.000    281409.0773  -5147272.4598   3743528.8548   1   6   0.0050   0.0119   0.0108   0.0019  -0.0100  -0.0043   0.00   17.3
2173 184026.000    281409.0770  -5147272.4617   3743528.8544   1   6   0.0053   0.0121   0.0109   0.0015  -0.0098  -0.0042   0.00   17.2
2173 184027.000    281409.0760  -5147272.4623   3743528.8581   1   6   0.0050   0.0120   0.0108   0.0017  -0.0098  -0.0044   0.00   17.2
2173 184028.000    281409.0708  -5147272.4646   3743528.8663   1   6   0.0054   0.0120   0.0108   0.0019  -0.0098  -0.0042   0.00   17.0
2173 184029.000    281409.0756  -5147272.4576   3743528.8591   1   6   0.0052   0.0119   0.0107   0.0022  -0.0100  -0.0041   0.00   16.9
2173 184030.000    281409.0752  -5147272.4602   3743528.8583   1   6   0.0050   0.0120   0.0108   0.0020  -0.0098  -0.0044   0.00   16.8
2173 184031.000    281409.0739  -5147272.4614   3743528.8634   1   6   0.0051   0.0120   0.0109   0.0018  -0.0098  -0.0044   0.00   16.8
2173 184032.000    281409.0750  -5147272.4652   3743528.8665   1   6   0.0052   0.0120   0.0108   0.0015  -0.0098  -0.0041   0.00   16.7
2173 184033.000    281409.0735  -5147272.4611   3743528.8618   1   6   0.0050   0.0119   0.0108   0.0020  -0.0098  -0.0043   0.00   16.7
2173 184034.000    281409.0759  -5147272.4624   3743528.8608   1   6   0.0051   0.0119   0.0108   0.0015  -0.0099  -0.0042   0.00   16.9
2173 184035.000    281409.0769  -5147272.4631   3743528.8650   1   6   0.0053   0.0119   0.0107   0.0018  -0.0099  -0.0044   0.00   16.9
2173 184036.000    281409.0741  -5147272.4638   3743528.8639   1   6   0.0051   0.0119   0.0107   0.0023  -0.0099  -0.0040   0.00   16.9
2173 184037.000    281409.0746  -5147272.4631   3743528.8636   1   6   0.0050   0.0119   0.0107   0.0022  -0.0099  -0.0043   0.00   16.9
2173 184038.000    281409.0762  -5147272.4581   3743528.8621   1   6   0.0050   0.0119   0.0108   0.0020  -0.0099  -0.0040   0.00   17.1
2173 184039.000    281409.0756  -5147272.4595   3743528.8623   1   6   0.0050   0.0119   0.0108   0.0014  -0.0098  -0.0043   0.00   17.1
2173 184040.000    281409.0770  -5147272.4626   3743528.8649   1   6   0.0050   0.0119   0.0107   0.0018  -0.0099  -0.0043   0.00   17.2
2173 184041.000    281409.0748  -5147272.4616   3743528.8593   1   6   0.0047   0.0120   0.0108   0.0019  -0.0098  -0.0043   0.00   17.3
2173 184042.000    281409.0777  -5147272.4643   3743528.8610   1   6   0.0051   0.0120   0.0108   0.0015  -0.0098  -0.0041   0.00   17.5
2173 184043.000    281409.0728  -5147272.4587   3743528.8574   1   6   0.0049   0.0120   0.0108   0.0015  -0.0098  -0.0044   0.00   17.4
2173 184044.000    281409.0732  -5147272.4620   3743528.8636   1   6   0.0051   0.0119   0.0108   0.0012  -0.0098  -0.0043   0.00   17.4
2173 184045.000    281409.0729  -5147272.4637   3743528.8616   1   6   0.0051   0.0119   0.0107   0.0017  -0.0099  -0.0041   0.00   17.5
2173 184046.000    281409.0737  -5147272.4620   3743528.8627   1   6   0.0051   0.0119   0.0107   0.0018  -0.0099  -0.0043   0.00   17.5
2173 184047.000    281409.0753  -5147272.4580   3743528.8553   1   6   0.0051   0.0119   0.0107   0.0018  -0.0098  -0.0040   0.00   17.4
2173 184048.000    281409.0747  -5147272.4615   3743528.8599   1   6   0.0051   0.0119   0.0107   0.0017  -0.0099  -0.0041   0.00   17.4
2173 184049.000    281409.0779  -5147272.4644   3743528.8588   1   6   0.0047   0.0119   0.0107   0.0019  -0.0098  -0.0043   0.00   17.4
2173 184050.000    281409.0762  -5147272.4620   3743528.8602   1   6   0.0055   0.0119   0.0106   0.0011  -0.0099  -0.0042   0.00   17.4
2173 184051.000    281409.0759  -5147272.4631   3743528.8605   1   6   0.0050   0.0119   0.0107   0.0015  -0.0098  -0.0043   0.00   17.4
2173 184052.000    281409.0763  -5147272.4631   3743528.8585   1   6   0.0052   0.0119   0.0107   0.0015  -0.0099  -0.0042   0.00   17.5
2173 184053.000    281409.0767  -5147272.4672   3743528.8602   1   6   0.0049   0.0119   0.0107   0.0015  -0.0098  -0.0043   0.00   17.4
2173 184054.000    281409.0724  -5147272.4679   3743528.8642   1   6   0.0050   0.0119   0.0107   0.0015  -0.0098  -0.0043   0.00   17.3
2173 184055.000    281409.0759  -5147272.4615   3743528.8564   1   6   0.0051   0.0120   0.0108   0.0019  -0.0097  -0.0042   0.00   17.3
2173 184056.000    281409.0741  -5147272.4615   3743528.8612   1   6   0.0050   0.0119   0.0107   0.0015  -0.0098  -0.0044   0.00   17.4
2173 184057.000    281409.0755  -5147272.4653   3743528.8590   1   6   0.0052   0.0120   0.0107   0.0016  -0.0097  -0.0043   0.00   17.4
2173 184058.000    281409.0764  -5147272.4624   3743528.8591   1   6   0.0048   0.0119   0.0107   0.0015  -0.0098  -0.0041   0.00   17.4
2173 184059.000    281409.0729  -5147272.4671   3743528.8639   1   6   0.0052   0.0119   0.0106   0.0016  -0.0098  -0.0041   0.00   17.4
2173 184060.000    281409.0735  -5147272.4665   3743528.8624   1   6   0.0049   0.0119   0.0106   0.0021  -0.0097  -0.0040   0.00   17.4
2173 184061.000    281409.0734  -5147272.4667   3743528.8640   1   6   0.0050   0.0119   0.0106   0.0018  -0.0098  -0.0042   0.00   17.4
2173 184062.000    281409.0745  -5147272.4646   3743528.8617   1   6   0.0050   0.0119   0.0106   0.0017  -0.0098  -0.0041   0.00   17.2
2173 184063.000    281409.0730  -5147272.4682   3743528.8637   1   6   0.0054   0.0119   0.0107   0.0014  -0.0098  -0.0040   0.00   17.2
2173 184064.000    281409.0719  -5147272.4694   3743528.8660   1   6   0.0050   0.0119   0.0107   0.0015  -0.0097  -0.0041   0.00   17.1
2173 184065.000    281409.0738  -5147272.4644   3743528.8644   1   6   0.0052   0.0120   0.0107   0.0013  -0.0097  -0.0042   0.00   17.1
2173 184066.000    281409.0742  -5147272.4619   3743528.8626   1   6   0.0050   0.0119   0.0106   0.0017  -0.0098  -0.0041   0.00   17.2
2173 184067.000    281409.0716  -5147272.4637   3743528.8651   1   6   0.0049   0.0119   0.0107   0.0017  -0.0097  -0.0043   0.00   17.1
2173 184068.000    281409.0718  -5147272.4624   3743528.8628   1   6   0.0048   0.0120   0.0107   0.0013  -0.0097  -0.0043   0.00   17.1
2173 184069.000    281409.0707  -5147272.4678   3743528.8676   1   6   0.0049   0.0118   0.0106   0.0014  -0.0098  -0.0042   0.00   17.2
2173 184070.000    281409.0731  -5147272.4641   3743528.8634   1   6   0.0050   0.0119   0.0107   0.0011  -0.0098  -0.0044   0.00   17.3
2173 184071.000    281409.0728  -5147272.4655   3743528.8613   1   6   0.0052   0.0119   0.0107   0.0017  -0.0098  -0.0042   0.00   17.4
2173 184072.000    281409.0760  -5147272.4688   3743528.8667   1   6   0.0051   0.0119   0.0107   0.0017  -0.0097  -0.0041   0.00   17.5
2173 184073.000    281409.0745  -5147272.4635   3743528.8613   1   6   0.0050   0.0119   0.0106   0.0020  -0.0097  -0.0039   0.00   17.6
2173 184074.000    281409.0727  -5147272.4749   3743528.8706   1   6   0.0052   0.0119   0.0106   0.0014  -0.0098  -0.0044   0.00   17.7
2173 184075.000    281409.0720  -5147272.4649   3743528.8649   1   6   0.0048   0.0119   0.0106   0.0017  -0.0098  -0.0043   0.00   17.7
2173 184076.000    281409.0732  -5147272.4740   3743528.8675   1   6   0.0053   0.0118   0.0106   0.0015  -0.0098  -0.0043   0.00   17.9
2173 184077.000    281409.0729  -5147272.4703   3743528.8656   1   6   0.0051   0.0119   0.0106   0.0015  -0.0097  -0.0044   0.00   17.9
2173 184078.000    281409.0727  -5147272.4682   3743528.8667   1   6   0.0053   0.0119   0.0107   0.0015  -0.0097  -0.0041   0.00   18.0
2173 184079.000    281409.0722  -5147272.4675   3743528.8626   1   6   0.0049   0.0119   0.0106   0.0023  -0.0097  -0.0038   0.00   18.0
2173 184080.000    281409.0722  -5147272.4664   3743528.8681   1   6   0.0054   0.0119   0.0105   0.0020  -0.0097  -0.0043   0.00   18.0
2173 184081.000    281409.0737  -5147272.4606   3743528.8603   1   6   0.0054   0.0119   0.0106   0.0019  -0.0097  -0.0041   0.00   18.1
2173 184082.000    281409.0725  -5147272.4628   3743528.8660   1   6   0.0053   0.0118   0.0105   0.0014  -0.0098  -0.0040   0.00   18.2
2173 184083.000    281409.0743  -5147272.4657   3743528.8655   1   6   0.0049   0.0119   0.0106   0.0020  -0.0097  -0.0041   0.00   18.3
2173 184084.000    281409.0729  -5147272.4641   3743528.8640   1   6   0.0052   0.0119   0.0106   0.0019  -0.0097  -0.0041   0.00   18.3
2173 184085.000    281409.0715  -5147272.4669   3743528.8664   1   6   0.0052   0.0119   0.0106   0.0010  -0.0097  -0.0043   0.00   18.3
2173 184086.000    281409.0739  -5147272.4692   3743528.8657   1   6   0.0049   0.0119   0.0106   0.0011  -0.0097  -0.0044   0.00   18.4
2173 184087.000    281409.0718  -5147272.4661   3743528.8690   1   6   0.0049   0.0119   0.0106   0.0013  -0.0097  -0.0045   0.00   18.5
2173 184088.000    281409.0719  -5147272.4632   3743528.8665   1   6   0.0053   0.0119   0.0106   0.0016  -0.0097  -0.0042   0.00   18.5
2173 184089.000    281409.0744  -5147272.4665   3743528.8652   1   6   0.0053   0.0119   0.0105   0.0017  -0.0097  -0.0041   0.00   18.6
2173 184090.000    281409.0735  -5147272.4683   3743528.8681   1   6   0.0052   0.0119   0.0105   0.0007  -0.0096  -0.0044   0.00   18.7
2173 184091.000    281409.0748  -5147272.4682   3743528.8660   1   6   0.0052   0.0119   0.0106   0.0014  -0.0096  -0.0043   0.00   18.8
2173 184092.000    281409.0707  -5147272.4645   3743528.8683   1   6   0.0052   0.0119   0.0106   0.0015  -0.0097  -0.0042   0.00   18.8
2173 184093.000    281409.0710  -5147272.4616   3743528.8673   1   6   0.0050   0.0118   0.0107   0.0016  -0.0097  -0.0041   0.00   18.9
2173 184094.000    281409.0738  -5147272.4608   3743528.8638   1   6   0.0052   0.0118   0.0106   0.0014  -0.0097  -0.0041   0.00   18.8
2173 184095.000    281409.0741  -5147272.4576   3743528.8623   1   6   0.0052   0.0118   0.0105   0.0014  -0.0097  -0.0040   0.00   18.7
2173 184096.000    281409.0747  -5147272.4624   3743528.8636   1   6   0.0051   0.0119   0.0106  -0.0005  -0.0096  -0.0041   0.00   18.7
2173 184097.000    281409.0741  -5147272.4596   3743528.8655   1   6   0.0052   0.0119   0.0105   0.0019  -0.0096  -0.0040   0.00   18.8
2173 184098.000    281409.0696  -5147272.4643   3743528.8709   1   6   0.0050   0.0119   0.0107   0.0016  -0.0096  -0.0042   0.00   18.7
2173 184099.000    281409.0741  -5147272.4673   3743528.8648   1   6   0.0053   0.0119   0.0106   0.0012  -0.0096  -0.0041   0.00   18.7
2173 184100.000    281409.0747  -5147272.4675   3743528.8651   1   6   0.0049   0.0119   0.0105   0.0016  -0.0096  -0.0043   0.00   18.7
2173 184101.000    281409.0728  -5147272.4663   3743528.8699   1   6   0.0051   0.0118   0.0105   0.0017  -0.0097  -0.0040   0.00   18.7
2173 184102.000    281409.0725  -5147272.4598   3743528.8654   1   6   0.0051   0.0118   0.0106   0.0016  -0.0096  -0.0041   0.00   18.6
2173 184103.000    281409.0706  -5147272.4630   3743528.8666   1   6   0.0050   0.0118   0.0105   0.0015  -0.0097  -0.0042   0.00   18.6
2173 184104.000    281409.0748  -5147272.4694   3743528.8657   1   6   0.0051   0.0118   0.0106   0.0011  -0.0096  -0.0041   0.00   18.5
2173 184105.000    281409.0737  -5147272.4695   3743528.8658   1   6   0.0048   0.0118   0.0106   0.0013  -0.0096  -0.0043   0.00   18.5
2173 184106.000    281409.0760  -5147272.4720   3743528.8669   1   6   0.0052   0.0119   0.0106   0.0007  -0.0096  -0.0044   0.00   18.4
2173 184107.000    281409.0727  -5147272.4717   3743528.8693   1   6   0.0049   0.0118   0.0105   0.0006  -0.0096  -0.0043   0.00   18.4
2173 184108.000    281409.0752  -5147272.4677   3743528.8627   1   6   0.0052   0.0120   0.0106   0.0014  -0.0095  -0.0041   0.00   18.3
2173 184109.000    281409.0753  -5147272.4585   3743528.8601   1   6   0.0051   0.0119   0.0106   0.0014  -0.0096  -0.0042   0.00   18.3
2173 184110.000    281409.0728  -5147272.4622   3743528.8649   1   6   0.0050   0.0118   0.0105  -0.0004  -0.0097  -0.0042   0.00   18.2
2173 184111.000    281409.0733  -5147272.4638   3743528.8630   1   6   0.0052   0.0119   0.0105   0.0015  -0.0096  -0.0041   0.00   18.2
2173 184112.000    281409.0757  -5147272.4620   3743528.8632   1   6   0.0050   0.0118   0.0105   0.0014  -0.0096  -0.0042   0.00   18.2
2173 184113.000    281409.0721  -5147272.4634   3743528.8660   1   6   0.0050   0.0119   0.0105   0.0015  -0.0096  -0.0043   0.00   18.2
2173 184114.000    281409.0707  -5147272.4656   3743528.8687   1   6   0.0052   0.0119   0.0106   0.0018  -0.0095  -0.0039   0.00   18.2
2173 184115.000    281409.0705  -5147272.4689   3743528.8715   1   6   0.0052   0.0118   0.0105   0.0016  -0.0096  -0.0039   0.00   18.2
2173 184116.000    281409.0750  -5147272.4585   3743528.8614   1   6   0.0052   0.0118   0.0105   0.0010  -0.0096  -0.0044   0.00   18.3
2173 184117.000    281409.0716  -5147272.4660   3743528.8684   1   6   0.0052   0.0118   0.0105   0.0014  -0.0096  -0.0041   0.00   18.3
2173 184118.000    281409.0734  -5147272.4611   3743528.8629   1   6   0.0053   0.0118   0.0105   0.0010  -0.0096  -0.0043   0.00   18.4
2173 184119.000    281409.0727  -5147272.4658   3743528.8666   1   6   0.0052   0.0119   0.0104   0.0014  -0.0096  -0.0042   0.00   18.4
2173 184120.000    281409.0717  -5147272.4641   3743528.8683   1   6   0.0050   0.0118   0.0104   0.0013  -0.0097  -0.0042   0.00   18.4
2173 184121.000    281409.0700  -5147272.4607   3743528.8669   1   6   0.0052   0.0117   0.0105   0.0014  -0.0096  -0.0040   0.00   18.4
2173 184122.000    281409.0738  -5147272.4621   3743528.8680   1   6   0.0050   0.0118   0.0104   0.0012  -0.0096  -0.0041   0.00   18.5
2173 184123.000    281409.0720  -5147272.4613   3743528.8660   1   6   0.0054   0.0118   0.0105   0.0016  -0.0096  -0.0042   0.00   18.5
2173 184124.000    281409.0734  -5147272.4619   3743528.8694   1   6   0.0055   0.0117   0.0104   0.0017  -0.0096  -0.0039   0.00   18.5
2173 184125.000    281409.0744  -5147272.4620   3743528.8663   1   6   0.0052   0.0118   0.0104   0.0015  -0.0097  -0.0039   0.00   18.5
2173 184126.000    281409.0748  -5147272.4618   3743528.8647   1   6   0.0054   0.0118   0.0104   0.0011  -0.0096  -0.0041   0.00   18.5
2173 184127.000    281409.0754  -5147272.4630   3743528.8685   1   6   0.0049   0.0118   0.0105   0.0015  -0.0095  -0.0041   0.00   18.5
2173 184128.000    281409.0722  -5147272.4626   3743528.8690   1   6   0.0050   0.0118   0.0105   0.0013  -0.0096  -0.0041   0.00   18.5
2173 184129.000    281409.0738  -5147272.4637   3743528.8648   1   6   0.0050   0.0117   0.0104   0.0013  -0.0096  -0.0044   0.00   18.6
2173 184130.000    281409.0757  -5147272.4594   3743528.8579   1   6   0.0051   0.0119   0.0104  -0.0006  -0.0095  -0.0043   0.00   18.6
2173 184131.000    281409.0744  -5147272.4550   3743528.8608   1   6   0.0051   0.0117   0.0104   0.0012  -0.0096  -0.0042   0.00   18.6
2173 184132.000    281409.0773  -5147272.4628   3743528.8630   1   6   0.0051   0.0117   0.0104   0.0009  -0.0096  -0.0042   0.00   18.7
2173 184133.000    281409.0783  -5147272.4646   3743528.8627   1   6   0.0051   0.0118   0.0105   0.0011  -0.0095  -0.0041   0.00   18.7
2173 184134.000    281409.0733  -5147272.4666   3743528.8694   1   6   0.0052   0.0118   0.0105   0.0012  -0.0096  -0.0040   0.00   18.7
2173 184135.000    281409.0732  -5147272.4690   3743528.8699   1   6   0.0051   0.0118   0.0103   0.0014  -0.0096  -0.0042   0.00   18.7
2173 184136.000    281409.0721  -5147272.4662   3743528.8676   1   6   0.0053   0.0118   0.0105   0.0009  -0.0095  -0.0042   0.00   18.8
2173 184137.000    281409.0741  -5147272.4613   3743528.8629   1   6   0.0049   0.0118   0.0104   0.0013  -0.0095  -0.0044   0.00   18.8
2173 184138.000    281409.0722  -5147272.4685   3743528.8695   1   6   0.0051   0.0118   0.0104   0.0011  -0.0095  -0.0041   0.00   18.9
2173 184139.000    281409.0758  -5147272.4675   3743528.8645   1   6   0.0050   0.0118   0.0104   0.0011  -0.0095  -0.0042   0.00   18.9
2173 184140.000    281409.0757  -5147272.4638   3743528.8667   1   6   0.0053   0.0118   0.0104  -0.0001  -0.0096  -0.0041   0.00   19.0
2173 184141.000    281409.0774  -5147272.4620   3743528.8608   1   6   0.0051   0.0118   0.0104   0.0011  -0.0096  -0.0043   0.00   19.0
2173 184142.000    281409.0769  -5147272.4656   3743528.8672   1   6   0.0049   0.0118   0.0104   0.0016  -0.0095  -0.0041   0.00   19.0
2173 184143.000    281409.0751  -5147272.4612   3743528.8611   1   6   0.0052   0.0118   0.0104  -0.0009  -0.0096  -0.0043   0.00   19.1
2173 184144.000    281409.0772  -5147272.4641   3743528.8601   1   6   0.0052   0.0117   0.0104   0.0008  -0.0095  -0.0042   0.00   19.2
2173 184145.000    281409.0775  -5147272.4670   3743528.8631   1   6   0.0049   0.0118   0.0104   0.0011  -0.0095  -0.0043   0.00   19.2
2173 184146.000    281409.0751  -5147272.4705   3743528.8651   1   6   0.0053   0.0118   0.0104   0.0018  -0.0095  -0.0038   0.00   19.2
2173 184147.000    281409.0785  -5147272.4740   3743528.8668   1   6   0.0050   0.0118   0.0104   0.0009  -0.0095  -0.0042   0.00   19.3
2173 184148.000    281409.0773  -5147272.4738   3743528.8681   1   6   0.0050   0.0118   0.0104   0.0016  -0.0094  -0.0043   0.00   19.4
2173 184149.000    281409.0747  -5147272.4676   3743528.8668   1   6   0.0050   0.0117   0.0104   0.0012  -0.0095  -0.0040   0.00   19.5
2173 184150.000    281409.0750  -5147272.4685   3743528.8663   1   6   0.0051   0.0119   0.0104   0.0012  -0.0094  -0.0040   0.00   19.6
2173 184151.000    281409.0772  -5147272.4759   3743528.8688   1   6   0.0050   0.0118   0.0104   0.0013  -0.0094  -0.0040   0.00   19.7
2173 184152.000    281409.0750  -5147272.4674   3743528.8642   1   6   0.0049   0.0117   0.0104   0.0012  -0.0095  -0.0042   0.00   19.8
2173 184153.000    281409.0767  -5147272.4712   3743528.8669   1   6   0.0052   0.0118   0.0104   0.0009  -0.0095  -0.0042   0.00   19.9
2173 184154.000    281409.0788  -5147272.4653   3743528.8597   1   6   0.0051   0.0118   0.0103  -0.0006  -0.0095  -0.0042   0.00   20.0
2173 184155.000    281409.0810  -5147272.4686   3743528.8624   1   6   0.0051   0.0118   0.0104   0.0014  -0.0094  -0.0039   0.00   20.2
2173 184156.000    281409.0772  -5147272.4713   3743528.8640   1   6   0.0052   0.0118   0.0104   0.0010  -0.0095  -0.0041   0.00   20.2
2173 184157.000    281409.0769  -5147272.4744   3743528.8653   1   6   0.0049   0.0118   0.0104   0.0005  -0.0094  -0.0042   0.00   20.3
2173 184158.000    281409.0791  -5147272.4707   3743528.8620   1   6   0.0049   0.0117   0.0104   0.0017  -0.0095  -0.0040   0.00   20.4
2173 184159.000    281409.0780  -5147272.4766   3743528.8656   1   6   0.0053   0.0118   0.0103  -0.0004  -0.0095  -0.0041   0.00   20.5
2173 184160.000    281409.0805  -5147272.4711   3743528.8642   1   6   0.0052   0.0117   0.0103   0.0010  -0.0095  -0.0039   0.00   20.6
2173 184161.000    281409.0798  -5147272.4761   3743528.8689   1   6   0.0052   0.0118   0.0104  -0.0003  -0.0094  -0.0041   0.00   20.7
2173 184162.000    281409.0799  -5147272.4728   3743528.8667   1   6   0.0051   0.0117   0.0103   0.0014  -0.0095  -0.0042   0.00   20.9
2173 184163.000    281409.0805  -5147272.4781   3743528.8667   1   6   0.0053   0.0118   0.0103  -0.0002  -0.0094  -0.0041   0.00   21.0
2173 184164.000    281409.0784  -5147272.4739   3743528.8649   1   6   0.0052   0.0118   0.0103  -0.0005  -0.0094  -0.0042   0.00   21.1
2173 184165.000    281409.0786  -5147272.4792   3743528.8662   1   6   0.0050   0.0118   0.0104  -0.0010  -0.0094  -0.0045   0.00   21.2
2173 184166.000    281409.0776  -5147272.4718   3743528.8641   1   6   0.0049   0.0118   0.0104   0.0007  -0.0094  -0.0042   0.00   21.3
2173 184167.000    281409.0765  -5147272.4794   3743528.8699   1   6   0.0050   0.0118   0.0104   0.0009  -0.0094  -0.0041   0.00   21.4
2173 184168.000    281409.0773  -5147272.4762   3743528.8680   1   6   0.0048   0.0118   0.0104   0.0013  -0.0094  -0.0040   0.00   21.4
2173 184169.000    281409.0787  -5147272.4791   3743528.8710   1   6   0.0053   0.0117   0.0103   0.0016  -0.0095  -0.0039   0.00   21.4
2173 184170.000    281409.0782  -5147272.4624   3743528.8609   1   6   0.0050   0.0118   0.0104   0.0013  -0.0093  -0.0040   0.00   21.4
2173 184171.000    281409.0778  -5147272.4768   3743528.8690   1   6   0.0053   0.0118   0.0103   0.0008  -0.0094  -0.0040   0.00   21.5
2173 184172.000    281409.0779  -5147272.4734   3743528.8677   1   6   0.0051   0.0117   0.0104   0.0012  -0.0094  -0.0038   0.00   21.6
2173 184173.000    281409.0784  -5147272.4699   3743528.8665   1   6   0.0052   0.0117   0.0104   0.0014  -0.0095  -0.0038   0.00   21.7
2173 184174.000    281409.0767  -5147272.4767   3743528.8692   1   6   0.0051   0.0118   0.0104   0.0008  -0.0093  -0.0042   0.00   21.8
2173 184175.000    281409.0776  -5147272.4731   3743528.8661   1   6   0.0050   0.0117   0.0103   0.0010  -0.0094  -0.0042   0.00   21.8
2173 184176.000    281409.0772  -5147272.4709   3743528.8634   1   6   0.0053   0.0118   0.0103  -0.0006  -0.0094  -0.0042   0.00   21.9
2173 184177.000    281409.0784  -5147272.4702   3743528.8625   1   6   0.0048   0.0117   0.0103   0.0009  -0.0094  -0.0043   0.00   22.0
2173 184178.000    281409.0771  -5147272.4763   3743528.8684   1   6   0.0049   0.0117   0.0103   0.0006  -0.0094  -0.0042   0.00   22.1
2173 184179.000    281409.0782  -5147272.4701   3743528.8666   1   6   0.0054   0.0118   0.0104  -0.0009  -0.0094  -0.0039   0.00   22.2
2173 184180.000    281409.0785  -5147272.4639   3743528.8595   1   6   0.0051   0.0117   0.0102   0.0016  -0.0094  -0.0040   0.00   22.3
2173 184181.000    281409.0770  -5147272.4704   3743528.8658   1   6   0.0051   0.0117   0.0102   0.0018  -0.0095  -0.0039   0.00   22.4
2173 184182.000    281409.0786  -5147272.4674   3743528.8643   1   6   0.0051   0.0118   0.0103   0.0012  -0.0093  -0.0043   0.00   22.5
2173 184183.000    281409.0789  -5147272.4681   3743528.8645   1   6   0.0050   0.0118   0.0102  -0.0003  -0.0094  -0.0041   0.00   22.7
2173 184184.000    281409.0787  -5147272.4709   3743528.8671   1   6   0.0050   0.0116   0.0103   0.0011  -0.0095  -0.0040   0.00   22.8
2173 184185.000    281409.0799  -5147272.4730   3743528.8676   1   6   0.0054   0.0118   0.0103   0.0010  -0.0094  -0.0038   0.00   22.9
2173 184186.000    281409.0762  -5147272.4702   3743528.8646   1   6   0.0053   0.0118   0.0104   0.0003  -0.0093  -0.0041   0.00   23.1
2173 184187.000    281409.0804  -5147272.4735   3743528.8671   1   6   0.0051   0.0117   0.0103  -0.0015  -0.0094  -0.0041   0.00   23.2
2173 184188.000    281409.0773  -5147272.4711   3743528.8657   1   6   0.0052   0.0118   0.0104   0.0009  -0.0093  -0.0042   0.00   23.4
2173 184189.000    281409.0793  -5147272.4750   3743528.8679   1   6   0.0054   0.0117   0.0104  -0.0009  -0.0094  -0.0039   0.00   23.5
2173 184190.000    281409.0760  -5147272.4736   3743528.8682   1   6   0.0052   0.0117   0.0103   0.0009  -0.0094  -0.0039   0.00   23.7
2173 184191.000    281409.0752  -5147272.4709   3743528.8663   1   6   0.0053   0.0118   0.0102   0.0005  -0.0093  -0.0041   0.00   23.8
2173 184192.000    281409.0790  -5147272.4780   3743528.8688   1   6   0.0052   0.0118   0.0103   0.0010  -0.0093  -0.0039   0.00   23.9
2173 184193.000    281409.0759  -5147272.4749   3743528.8722   1   6   0.0051   0.0118   0.0103   0.0004  -0.0094  -0.0040   0.00   24.0
2173 184194.000    281409.0780  -5147272.4745   3743528.8692   1   6   0.0052   0.0118   0.0103   0.0008  -0.0093  -0.0042   0.00   24.2
2173 184195.000    281409.0782  -5147272.4770   3743528.8709   1   6   0.0053   0.0117   0.0102  -0.0009  -0.0094  -0.0041   0.00   24.3
2173 184196.000    281409.0790  -5147272.4765   3743528.8702   1   6   0.0051   0.0117   0.0102  -0.0007  -0.0094  -0.0042   0.00   24.5
2173 184197.000    281409.0762  -5147272.4765   3743528.8731   1   6   0.0052   0.0118   0.0103   0.0008  -0.0093  -0.0041   0.00   24.7
2173 184198.000    281409.0781  -5147272.4790   3743528.8727   1   6   0.0052   0.0118   0.0102  -0.0017  -0.0093  -0.0043   0.00   24.8
2173 184199.000    281409.0767  -5147272.4736   3743528.8694   1   6   0.0050   0.0117   0.0102   0.0013  -0.0093  -0.0038   0.00   24.9
2173 184200.000    281409.0788  -5147272.4733   3743528.8675   1   6   0.0050   0.0117   0.0102   0.0011  -0.0094  -0.0039   0.00   25.1
2173 184201.000    281409.0739  -5147272.4719   3743528.8710   1   6   0.0051   0.0117   0.0101   0.0012  -0.0094  -0.0041   0.00   25.2
2173 184202.000    281409.0740  -5147272.4722   3743528.8708   1   6   0.0050   0.0117   0.0102  -0.0004  -0.0093  -0.0040   0.00   25.4
2173 184203.000    281409.0763  -5147272.4786   3743528.8773   1   6   0.0052   0.0118   0.0103   0.0005  -0.0092  -0.0040   0.00   25.5
2173 184204.000    281409.0776  -5147272.4746   3743528.8721   1   6   0.0051   0.0118   0.0103   0.0012  -0.0092  -0.0040   0.00   25.7
2173 184205.000    281409.0716  -5147272.4748   3743528.8753   1   6   0.0049   0.0117   0.0102   0.0002  -0.0094  -0.0040   0.00   25.9
2173 184206.000    281409.0744  -5147272.4760   3743528.8740   1   6   0.0053   0.0117   0.0102   0.0011  -0.0093  -0.0039   0.00   26.0
2173 184207.000    281409.0743  -5147272.4795   3743528.8789   1   6   0.0047   0.0117   0.0102   0.0008  -0.0093  -0.0043   0.00   26.1
2173 184208.000    281409.0734  -5147272.4740   3743528.8730   1   6   0.0053   0.0117   0.0102   0.0013  -0.0094  -0.0037   0.00   26.3
2173 184209.000    281409.0761  -5147272.4720   3743528.8746   1   6   0.0050   0.0118   0.0102   0.0006  -0.0093  -0.0042   0.00   26.4
2173 184210.000    281409.0753  -5147272.4782   3743528.8774   1   6   0.0050   0.0118   0.0102   0.0013  -0.0093  -0.0040   0.00   26.5
2173 184211.000    281409.0745  -5147272.4783   3743528.8761   1   6   0.0051   0.0117   0.0102   0.0008  -0.0093  -0.0041   0.00   26.6
2173 184212.000    281409.0733  -5147272.4818   3743528.8772   1   6   0.0051   0.0116   0.0102   0.0002  -0.0093  -0.0042   0.00   26.7
2173 184213.000    281409.0745  -5147272.4760   3743528.8744   1   6   0.0049   0.0117   0.0102   0.0007  -0.0093  -0.0042   0.00   26.8
2173 184214.000    281409.0758  -5147272.4794   3743528.8777   1   6   0.0053   0.0117   0.0102  -0.0009  -0.0093  -0.0039   0.00   26.9
2173 184215.000    281409.0734  -5147272.4724   3743528.8733   1   6   0.0052   0.0116   0.0101  -0.0015  -0.0094  -0.0040   0.00   27.0
2173 184216.000    281409.0734  -5147272.4793   3743528.8783   1   6   0.0052   0.0116   0.0100  -0.0002  -0.0094  -0.0041   0.00   27.0
2173 184217.000    281409.0738  -5147272.4829   3743528.8803   1   6   0.0052   0.0116   0.0102  -0.0005  -0.0093  -0.0039   0.00   27.1
2173 184218.000    281409.0744  -5147272.4826   3743528.8788   1   6   0.0054   0.0116   0.0101  -0.0014  -0.0093  -0.0041   0.00   27.2
2173 184219.000    281409.0752  -5147272.4825   3743528.8782   1   6   0.0050   0.0116   0.0100   0.0007  -0.0094  -0.0040   0.00   27.3
2173 184220.000    281409.0725  -5147272.4750   3743528.8734   1   6   0.0050   0.0118   0.0102  -0.0011  -0.0092  -0.0040   0.00   27.4
2173 184221.000    281409.0735  -5147272.4794   3743528.8746   1   6   0.0054   0.0116   0.0101  -0.0007  -0.0093  -0.0038   0.00   27.5
2173 184222.000    281409.0755  -5147272.4746   3743528.8697   1   6   0.0050   0.0117   0.0102  -0.0014  -0.0093  -0.0041   0.00   27.6
2173 184223.000    281409.0754  -5147272.4720   3743528.8723   1   6   0.0051   0.0117   0.0101  -0.0012  -0.0093  -0.0042   0.00   27.7
2173 184224.000    281409.0735  -5147272.4737   3743528.8735   1   6   0.0051   0.0117   0.0101  -0.0012  -0.0093  -0.0042   0.00   27.8
2173 184225.000    281409.0748  -5147272.4826   3743528.8771   1   6   0.0053   0.0117   0.0101  -0.0011  -0.0092  -0.0040   0.00   27.9
2173 184226.000    281409.0767  -5147272.4796   3743528.8752   1   6   0.0053   0.0117   0.0102  -0.0015  -0.0092  -0.0041   0.00   28.0
2173 184227.000    281409.0768  -5147272.4777   3743528.8744   1   6   0.0050   0.0117   0.0101   0.0010  -0.0093  -0.0039   0.00   28.1
2173 184228.000    281409.0787  -5147272.4764   3743528.8723   1   6   0.0052   0.0117   0.0102  -0.0013  -0.0092  -0.0041   0.00   28.2
2173 184229.000    281409.0734  -5147272.4750   3743528.8760   1   6   0.0050   0.0118   0.0101  -0.0013  -0.0092  -0.0042   0.00   28.3
2173 184230.000    281409.0754  -5147272.4741   3743528.8741   1   6   0.0051   0.0116   0.0101   0.0012  -0.0093  -0.0039   0.00   28.3
2173 184231.000    281409.0722  -5147272.4780   3743528.8787   1   6   0.0052   0.0117   0.0101  -0.0001  -0.0093  -0.0041   0.00   28.4
2173 184232.000    281409.0710  -5147272.4763   3743528.8807   1   6   0.0051   0.0117   0.0101   0.0013  -0.0092  -0.0040   0.00   28.5
2173 184233.000    281409.0694  -5147272.4750   3743528.8824   1   6   0.0050   0.0116   0.0101   0.0011  -0.0093  -0.0040   0.00   28.6
2173 184234.000    281409.0746  -5147272.4765   3743528.8749   1   6   0.0053   0.0118   0.0102  -0.0013  -0.0092  -0.0042   0.00   28.7
2173 184235.000    281409.0716  -5147272.4719   3743528.8733   1   6   0.0048   0.0117   0.0101  -0.0004  -0.0092  -0.0038   0.00   28.7
2173 184236.000    281409.0735  -5147272.4774   3743528.8757   1   6   0.0051   0.0117   0.0102  -0.0010  -0.0092  -0.0040   0.00   28.8
2173 184237.000    281409.0755  -5147272.4734   3743528.8748   1   6   0.0051   0.0116   0.0101  -0.0008  -0.0093  -0.0040   0.00   28.9
2173 184238.000    281409.0732  -5147272.4827   3743528.8822   1   6   0.0051   0.0117   0.0102  -0.0010  -0.0092  -0.0040   0.00   29.0
2173 184239.000    281409.0745  -5147272.4775   3743528.8769   1   6   0.0053   0.0117   0.0101  -0.0007  -0.0092  -0.0040   0.00   29.1
2173 184240.000    281409.0724  -5147272.4792   3743528.8812   1   6   0.0051   0.0117   0.0101  -0.0008  -0.0092  -0.0042   0.00   29.3
2173 184241.000    281409.0731  -5147272.4806   3743528.8802   1   6   0.0053   0.0117   0.0101  -0.0007  -0.0092  -0.0040   0.00   29.4
2173 184242.000    281409.0739  -5147272.4751   3743528.8758   1   6   0.0053   0.0116   0.0100  -0.0010  -0.0093  -0.0039   0.00   29.4
2173 184243.000    281409.0747  -5147272.4827   3743528.8798   1   6   0.0052   0.0117   0.0101  -0.0005  -0.0091  -0.0040   0.00   29.5
2173 184244.000    281409.0709  -5147272.4839   3743528.8846   1   6   0.0051   0.0116   0.0101  -0.0007  -0.0093  -0.0040   0.00   29.6
2173 184245.000    281409.0731  -5147272.4778   3743528.8785   1   6   0.0052   0.0117   0.0101  -0.0008  -0.0092  -0.0040   0.00   29.7
2173 184246.000    281409.0719  -5147272.4830   3743528.8856   1   6   0.0050   0.0116   0.0101   0.0007  -0.0092  -0.0040   0.00   29.8
2173 184247.000    281409.0740  -5147272.4829   3743528.8807   1   6   0.0051   0.0116   0.0101   0.0010  -0.0092  -0.0039   0.00   29.9
2173 184248.000    281409.0683  -5147272.4750   3743528.8829   1   6   0.0051   0.0117   0.0100  -0.0012  -0.0092  -0.0041   0.00   30.0
2173 184249.000    281409.0723  -5147272.4901   3743528.8897   1   6   0.0051   0.0117   0.0102  -0.0005  -0.0092  -0.0041   0.00   30.0
2173 184250.000    281409.0727  -5147272.4854   3743528.8872   1   6   0.0049   0.0116   0.0100  -0.0011  -0.0092  -0.0040   0.00   30.1
2173 184251.000    281409.0716  -5147272.4861   3743528.8872   1   6   0.0054   0.0117   0.0101  -0.0017  -0.0092  -0.0041   0.00   30.2
2173 184252.000    281409.0726  -5147272.4848   3743528.8850   1   6   0.0051   0.0117   0.0101   0.0012  -0.0092  -0.0037   0.00   30.2
2173 184253.000    281409.0701  -5147272.4889   3743528.8877   1   6   0.0051   0.0117   0.0101   0.0010  -0.0091  -0.0041   0.00   30.3
2173 184254.000    281409.0717  -5147272.4807   3743528.8827   1   6   0.0052   0.0117   0.0101  -0.0006  -0.0092  -0.0040   0.00   30.3
2173 184255.000    281409.0729  -5147272.4832   3743528.8836   1   6   0.0051   0.0117   0.0100  -0.0007  -0.0091  -0.0040   0.00   30.4
2173 184256.000    281409.0734  -5147272.4839   3743528.8846   1   6   0.0050   0.0117   0.0101  -0.0012  -0.0092  -0.0037   0.00   30.5
2173 184257.000    281409.0718  -5147272.4874   3743528.8864   1   6   0.0051   0.0117   0.0101  -0.0009  -0.0091  -0.0041   0.00   30.6
2173 184258.000    281409.0733  -5147272.4849   3743528.8841   1   6   0.0052   0.0116   0.0100   0.0010  -0.0092  -0.0037   0.00   30.7
2173 184259.000    281409.0692  -5147272.4809   3743528.8876   1   6   0.0053   0.0117   0.0101  -0.0008  -0.0091  -0.0039   0.00   30.7
2173 184260.000    281409.0718  -5147272.4839   3743528.8875   1   6   0.0052   0.0117   0.0100  -0.0010  -0.0092  -0.0042   0.00   30.8
2173 184261.000    281409.0735  -5147272.4902   3743528.8876   1   6   0.0051   0.0116   0.0101  -0.0006  -0.0092  -0.0039   0.00   31.0
2173 184262.000    281409.0713  -5147272.4855   3743528.8883   1   6   0.0052   0.0117   0.0100   0.0010  -0.0091  -0.0039   0.00   31.1
2173 184263.000    281409.0721  -5147272.4865   3743528.8849   1   6   0.0051   0.0116   0.0101   0.0008  -0.0092  -0.0038   0.00   31.1
2173 184264.000    281409.0705  -5147272.4861   3743528.8897   1   6   0.0053   0.0116   0.0100  -0.0010  -0.0092  -0.0040   0.00   31.2
2173 184265.000    281409.0711  -5147272.4809   3743528.8863   1   6   0.0052   0.0117   0.0100   0.0004  -0.0091  -0.0041   0.00   31.3
2173 184266.000    281409.0710  -5147272.4862   3743528.8880   1   6   0.0053   0.0117   0.0100  -0.0011  -0.0091  -0.0038   0.00   31.4
2173 184267.000    281409.0721  -5147272.4858   3743528.8868   1   6   0.0051   0.0116   0.0100   0.0007  -0.0092  -0.0039   0.00   31.5
2173 184268.000    281409.0715  -5147272.4849   3743528.8851   1   6   0.0052   0.0117   0.0101  -0.0010  -0.0091  -0.0039   0.00   31.6
2173 184269.000    281409.0685  -5147272.4848   3743528.8913   1   6   0.0052   0.0116   0.0100  -0.0013  -0.0092  -0.0037   0.00   31.7
2173 184270.000    281409.0689  -5147272.4815   3743528.8838   1   6   0.0052   0.0117   0.0100   0.0012  -0.0091  -0.0036   0.00   31.8
2173 184271.000    281409.0703  -5147272.4856   3743528.8876   1   6   0.0051   0.0116   0.0100  -0.0007  -0.0092  -0.0040   0.00   32.0
2173 184272.000    281409.0710  -5147272.4807   3743528.8798   1   6   0.0050   0.0116   0.0100  -0.0011  -0.0091  -0.0039   0.00   32.2
2173 184273.000    281409.0723  -5147272.4841   3743528.8854   1   6   0.0051   0.0116   0.0100  -0.0015  -0.0091  -0.0041   0.00   32.3
2173 184274.000    281409.0709  -5147272.4875   3743528.8903   1   6   0.0051   0.0117   0.0101  -0.0018  -0.0091  -0.0041   0.00   32.4
2173 184275.000    281409.0742  -5147272.4836   3743528.8835   1   6   0.0052   0.0118   0.0101  -0.0015  -0.0090  -0.0040   0.00   32.5
2173 184276.000    281409.0742  -5147272.4872   3743528.8857   1   6   0.0052   0.0116   0.0101  -0.0016  -0.0091  -0.0038   0.00   32.5
2173 184277.000    281409.0729  -5147272.4849   3743528.8859   1   6   0.0052   0.0116   0.0100  -0.0013  -0.0091  -0.0039   0.00   32.6
2173 184278.000    281409.0729  -5147272.4860   3743528.8864   1   6   0.0051   0.0116   0.0100  -0.0004  -0.0091  -0.0038   0.00   32.6
2173 184279.000    281409.0687  -5147272.4820   3743528.8868   1   6   0.0047   0.0117   0.0100  -0.0015  -0.0090  -0.0042   0.00   32.7
2173 184280.000    281409.0721  -5147272.4819   3743528.8852   1   6   0.0052   0.0117   0.0100  -0.0011  -0.0091  -0.0038   0.00   32.8
2173 184281.000    281409.0720  -5147272.4799   3743528.8814   1   6   0.0051   0.0116   0.0100  -0.0013  -0.0091  -0.0039   0.00   32.8
2173 184282.000    281409.0696  -5147272.4765   3743528.8802   1   6   0.0054   0.0116   0.0100  -0.0013  -0.0091  -0.0041   0.00   32.8
2173 184283.000    281409.0711  -5147272.4823   3743528.8830   1   6   0.0052   0.0116   0.0100  -0.0006  -0.0092  -0.0039   0.00   32.9
2173 184284.000    281409.0673  -5147272.4877   3743528.8907   1   6   0.0051   0.0116   0.0099   0.0009  -0.0091  -0.0039   0.00   33.0
2173 184285.000    281409.0713  -5147272.4846   3743528.8856   1   6   0.0052   0.0116   0.0100  -0.0014  -0.0091  -0.0040   0.00   33.0
2173 184286.000    281409.0723  -5147272.4849   3743528.8832   1   6   0.0052   0.0115   0.0099  -0.0013  -0.0092  -0.0039   0.00   33.1
2173 184287.000    281409.0718  -5147272.4819   3743528.8824   1   6   0.0053   0.0116   0.0099  -0.0017  -0.0091  -0.0038   0.00   33.1
2173 184288.000    281409.0703  -5147272.4819   3743528.8836   1   6   0.0052   0.0115   0.0099  -0.0005  -0.0092  -0.0037   0.00   33.2
2173 184289.000    281409.0710  -5147272.4805   3743528.8806   1   6   0.0051   0.0116   0.0099  -0.0013  -0.0091  -0.0041   0.00   33.2
2173 184290.000    281409.0704  -5147272.4822   3743528.8817   1   6   0.0051   0.0116   0.0098  -0.0010  -0.0091  -0.0038   0.00   33.3
2173 184291.000    281409.0717  -5147272.4858   3743528.8831   1   6   0.0053   0.0116   0.0100  -0.0016  -0.0091  -0.0039   0.00   33.3
2173 184292.000    281409.0712  -5147272.4899   3743528.8879   1   6   0.0053   0.0117   0.0100  -0.0010  -0.0090  -0.0039   0.00   33.3
2173 184293.000    281409.0719  -5147272.4824   3743528.8828   1   6   0.0051   0.0115   0.0099  -0.0004  -0.0091  -0.0038   0.00   33.3
2173 184294.000    281409.0707  -5147272.4819   3743528.8835   1   6   0.0051   0.0115   0.0099  -0.0015  -0.0091  -0.0040   0.00   33.3
2173 184295.000    281409.0721  -5147272.4919   3743528.8873   1   6   0.0051   0.0116   0.0100  -0.0016  -0.0090  -0.0040   0.00   33.4
2173 184296.000    281409.0686  -5147272.4852   3743528.8847   1   6   0.0052   0.0117   0.0100  -0.0018  -0.0090  -0.0041   0.00   33.5
2173 184297.000    281409.0683  -5147272.4869   3743528.8861   1   6   0.0050   0.0116   0.0100  -0.0013  -0.0090  -0.0042   0.00   33.5
2173 184298.000    281409.0695  -5147272.4883   3743528.8865   1   6   0.0051   0.0116   0.0099  -0.0008  -0.0091  -0.0040   0.00   33.6
2173 184299.000    281409.0723  -5147272.4777   3743528.8810   1   6   0.0054   0.0116   0.0101  -0.0008  -0.0090  -0.0038   0.00   33.6
2173 184300.000    281409.0668  -5147272.4819   3743528.8858   1   6   0.0053   0.0116   0.0099  -0.0014  -0.0090  -0.0038   0.00   33.6
2173 184301.000    281409.0693  -5147272.4827   3743528.8836   1   6   0.0051   0.0117   0.0100  -0.0019  -0.0090  -0.0042   0.00   33.7
2173 184302.000    281409.0691  -5147272.4816   3743528.8836   1   6   0.0052   0.0116   0.0098  -0.0013  -0.0091  -0.0038   0.00   33.7
2173 184303.000    281409.0711  -5147272.4848   3743528.8825   1   6   0.0052   0.0116   0.0099  -0.0016  -0.0090  -0.0040   0.00   33.7
2173 184304.000    281409.0671  -5147272.4883   3743528.8868   1   6   0.0047   0.0116   0.0099  -0.0002  -0.0090  -0.0040   0.00   33.7
2173 184305.000    281409.0681  -5147272.4836   3743528.8836   1   6   0.0054   0.0115   0.0098  -0.0018  -0.0091  -0.0039   0.00   33.7
2173 184306.000    281409.0665  -5147272.4878   3743528.8875   1   6   0.0052   0.0115   0.0099   0.0005  -0.0091  -0.0038   0.00   33.7
2173 184307.000    281409.0671  -5147272.4898   3743528.8885   1   6   0.0051   0.0116   0.0099  -0.0016  -0.0090  -0.0040   0.00   33.7
2173 184308.000    281409.0699  -5147272.4832   3743528.8834   1   6   0.0050   0.0116   0.0098  -0.0011  -0.0091  -0.0040   0.00   33.7
