% program   : rnx2rtkp ver.2.4.3 b31
% inp file  : ngs/21_09_02_06_16_42_fmyr.obs
% inp file  : ngs/21_09_02_06_16_42_fmyr_P1.obs
% inp file  : ngs/21_09_02_06_16_42_brdc.nav
% obs start : 2021/09/02 06:00:00.0 GPST (week2173 367200.0s)
% obs end   : 2021/09/02 06:59:59.0 GPST (week2173 370799.0s)
% ref pos   :   831182.1150  -5646790.9740   2837091.8490
%
% (x/y/z-ecef=WGS84,Q=1:fix,2:float,3:sbas,4:dgps,5:single,6:ppp,ns=# of satellites)
%  GPST              x-ecef(m)      y-ecef(m)      z-ecef(m)   Q  ns   sdx(m)   sdy(m)   sdz(m)  sdxy(m)  sdyz(m)  sdzx(m) age(s)  ratio
2173 368177.000    807699.6433  -5649860.6509   2837755.6492   2   7   0.6237   1.1706   0.6495  -0.6435  -0.7398   0.3954 -30.00    2.9
2173 368178.000    807699.6497  -5649860.6624   2837755.6564   2   7   0.4433   0.8329   0.4619  -0.4572  -0.5263   0.2808 -29.00    2.9
2173 368179.000    807699.9293  -5649861.3986   2837755.8738   1   7   0.0388   0.0632   0.0360  -0.0424  -0.0417   0.0283 -28.00    3.0
2173 368180.000    807699.9259  -5649861.3918   2837755.8701   1   7   0.0374   0.0610   0.0348  -0.0410  -0.0403   0.0273 -27.00    3.1
2173 368181.000    807699.9209  -5649861.3826   2837755.8649   1   7   0.0361   0.0589   0.0336  -0.0395  -0.0389   0.0264 -26.00    3.3
2173 368182.000    807699.9185  -5649861.3792   2837755.8626   1   7   0.0348   0.0568   0.0323  -0.0380  -0.0375   0.0254 -25.00    3.5
2173 368183.000    807699.9174  -5649861.3736   2837755.8623   1   7   0.0334   0.0546   0.0311  -0.0366  -0.0360   0.0244 -24.00    3.8
2173 368184.000    807699.9158  -5649861.3736   2837755.8612   1   7   0.0321   0.0525   0.0299  -0.0351  -0.0346   0.0234 -23.00    4.0
2173 368185.000    807699.9166  -5649861.3744   2837755.8642   1   7   0.0308   0.0504   0.0286  -0.0337  -0.0332   0.0224 -22.00    4.2
2173 368186.000    807699.9169  -5649861.3794   2837755.8663   1   7   0.0294   0.0483   0.0274  -0.0322  -0.0318   0.0215 -21.00    4.4
2173 368187.000    807699.9118  -5649861.3732   2837755.8620   1   7   0.0281   0.0462   0.0262  -0.0308  -0.0304   0.0205 -20.00    4.7
2173 368188.000    807699.9107  -5649861.3731   2837755.8628   1   7   0.0268   0.0441   0.0250  -0.0293  -0.0290   0.0195 -19.00    4.9
2173 368189.000    807699.9084  -5649861.3710   2837755.8609   1   7   0.0255   0.0420   0.0238  -0.0279  -0.0276   0.0185 -18.00    5.3
2173 368190.000    807699.9124  -5649861.3809   2837755.8665   1   7   0.0241   0.0399   0.0226  -0.0264  -0.0262   0.0176 -17.00    5.5
2173 368191.000    807699.9181  -5649861.3906   2837755.8735   1   7   0.0228   0.0378   0.0214  -0.0250  -0.0248   0.0166 -16.00    5.6
2173 368192.000    807699.9192  -5649861.3959   2837755.8763   1   7   0.0215   0.0357   0.0202  -0.0235  -0.0234   0.0156 -15.00    5.6
2173 368193.000    807699.9182  -5649861.3983   2837755.8773   1   7   0.0202   0.0337   0.0190  -0.0221  -0.0220   0.0147 -14.00    5.9
2173 368194.000    807699.9170  -5649861.3959   2837755.8769   1   7   0.0189   0.0317   0.0178  -0.0207  -0.0207   0.0137 -13.00    6.2
2173 368195.000    807699.9165  -5649861.3915   2837755.8759   1   7   0.0176   0.0297   0.0167  -0.0193  -0.0193   0.0127 -12.00    6.5
2173 368196.000    807699.9087  -5649861.3774   2837755.8701   1   7   0.0164   0.0277   0.0155  -0.0179  -0.0180   0.0118 -11.00    7.1
2173 368197.000    807699.9043  -5649861.3704   2837755.8653   1   7   0.0151   0.0257   0.0144  -0.0165  -0.0167   0.0109 -10.00    7.6
2173 368198.000    807699.9033  -5649861.3667   2837755.8628   1   7   0.0139   0.0238   0.0133  -0.0151  -0.0154   0.0100  -9.00    7.9
2173 368199.000    807699.8976  -5649861.3559   2837755.8548   1   7   0.0127   0.0219   0.0123  -0.0138  -0.0142   0.0090  -8.00    8.2
2173 368200.000    807699.8984  -5649861.3525   2837755.8554   1   7   0.0115   0.0201   0.0111  -0.0125  -0.0130   0.0082  -7.00    8.4
2173 368201.000    807699.8943  -5649861.3523   2837755.8539   1   7   0.0104   0.0184   0.0102  -0.0113  -0.0118   0.0073  -6.00    8.9
2173 368202.000    807699.8991  -5649861.3542   2837755.8562   1   7   0.0094   0.0167   0.0091  -0.0100  -0.0107   0.0064  -5.00    9.3
2173 368203.000    807699.8964  -5649861.3570   2837755.8563   1   7   0.0084   0.0152   0.0083  -0.0090  -0.0097   0.0056  -4.00    9.5
2173 368204.000    807699.8989  -5649861.3583   2837755.8580   1   7   0.0075   0.0139   0.0074  -0.0081  -0.0089   0.0048  -3.00    9.8
2173 368205.000    807699.9036  -5649861.3717   2837755.8647   1   7   0.0069   0.0128   0.0073  -0.0071  -0.0081   0.0048  -2.00    9.9
2173 368206.000    807699.9038  -5649861.3779   2837755.8679   1   7   0.0065   0.0121   0.0065  -0.0067  -0.0076   0.0040  -1.00   10.2
2173 368207.000    807699.9099  -5649861.3812   2837755.8702   1   7   0.0063   0.0119   0.0067  -0.0065  -0.0074   0.0042   0.00   10.4
2173 368208.000    807699.9060  -5649861.3814   2837755.8701   1   7   0.0063   0.0119   0.0065  -0.0065  -0.0075   0.0040   0.00    9.1
2173 368209.000    807699.9068  -5649861.3843   2837755.8708   1   7   0.0063   0.0119   0.0065  -0.0065  -0.0075   0.0040   0.00   10.6
2173 368210.000    807699.9054  -5649861.3836   2837755.8694   1   7   0.0063   0.0119   0.0065  -0.0065  -0.0075   0.0040   0.00   11.0
2173 368211.000    807699.9064  -5649861.3798   2837755.8679   1   7   0.0063   0.0119   0.0065  -0.0065  -0.0075   0.0040   0.00    9.7
2173 368212.000    807699.9076  -5649861.3847   2837755.8690   1   7   0.0063   0.0119   0.0065  -0.0065  -0.0075   0.0040   0.00    8.5
2173 368213.000    807699.9109  -5649861.3867   2837755.8716   1   7   0.0063   0.0119   0.0065  -0.0065  -0.0075   0.0040   0.00    7.5
2173 368214.000    807699.9071  -5649861.3774   2837755.8663   1   7   0.0063   0.0119   0.0065  -0.0065  -0.0075   0.0040   0.00    6.8
2173 368215.000    807699.9098  -5649861.3862   2837755.8690   1   7   0.0063   0.0119   0.0065  -0.0065  -0.0075   0.0040   0.00    9.0
2173 368216.000    807699.9098  -5649861.3887   2837755.8719   1   7   0.0063   0.0119   0.0065  -0.0065  -0.0075   0.0040   0.00    7.0
2173 368217.000    807699.9072  -5649861.3854   2837755.8716   1   7   0.0063   0.0119   0.0065  -0.0065  -0.0075   0.0040   0.00   11.0
2173 368218.000    807699.9070  -5649861.3785   2837755.8669   1   7   0.0063   0.0119   0.0065  -0.0065  -0.0075   0.0040   0.00   12.1
2173 368219.000    807699.9086  -5649861.3845   2837755.8701   1   7   0.0063   0.0119   0.0065  -0.0065  -0.0075   0.0040   0.00    8.9
2173 368220.000    807699.9044  -5649861.3791   2837755.8660   1   7   0.0063   0.0119   0.0065  -0.0065  -0.0075   0.0040   0.00   12.2
2173 368221.000    807699.9061  -5649861.3839   2837755.8692   1   7   0.0063   0.0119   0.0065  -0.0065  -0.0075   0.0040   0.00   12.5
2173 368222.000    807699.9046  -5649861.3804   2837755.8680   1   7   0.0063   0.0119   0.0065  -0.0065  -0.0075   0.0040   0.00   13.9
2173 368223.000    807699.9052  -5649861.3818   2837755.8687   1   7   0.0063   0.0119   0.0065  -0.0065  -0.0075   0.0040   0.00   12.9
2173 368224.000    807699.9086  -5649861.3852   2837755.8714   1   7   0.0063   0.0119   0.0065  -0.0065  -0.0075   0.0040   0.00   16.9
2173 368225.000    807699.9087  -5649861.3849   2837755.8695   1   7   0.0063   0.0119   0.0065  -0.0065  -0.0075   0.0040   0.00   11.2
2173 368226.000    807699.9056  -5649861.3813   2837755.8659   1   7   0.0063   0.0119   0.0065  -0.0065  -0.0075   0.0040   0.00   10.6
2173 368227.000    807699.9085  -5649861.3830   2837755.8691   1   7   0.0063   0.0119   0.0065  -0.0065  -0.0075   0.0040   0.00    8.2
2173 368228.000    807699.9075  -5649861.3828   2837755.8681   1   7   0.0063   0.0119   0.0065  -0.0066  -0.0075   0.0040   0.00   11.3
2173 368229.000    807699.9052  -5649861.3833   2837755.8693   1   7   0.0063   0.0119   0.0065  -0.0066  -0.0075   0.0040   0.00   16.2
2173 368230.000    807699.9080  -5649861.3846   2837755.8693   1   7   0.0065   0.0122   0.0066  -0.0068  -0.0077   0.0040   1.00   14.3
2173 368231.000    807699.9063  -5649861.3811   2837755.8671   1   7   0.0070   0.0129   0.0069  -0.0072  -0.0081   0.0044   2.00   14.0
2173 368232.000    807699.9098  -5649861.3899   2837755.8703   1   7   0.0075   0.0139   0.0076  -0.0081  -0.0089   0.0051   3.00   13.0
2173 368233.000    807699.9188  -5649861.4056   2837755.8791   1   7   0.0084   0.0153   0.0085  -0.0090  -0.0097   0.0058   4.00   12.1
2173 368234.000    807699.9203  -5649861.4155   2837755.8833   1   7   0.0094   0.0168   0.0093  -0.0102  -0.0107   0.0066   5.00   11.6
2173 368235.000    807699.9222  -5649861.4213   2837755.8870   1   7   0.0104   0.0185   0.0102  -0.0113  -0.0119   0.0073   6.00   11.3
2173 368236.000    807699.9282  -5649861.4278   2837755.8909   1   7   0.0116   0.0203   0.0112  -0.0126  -0.0130   0.0082   7.00   11.1
2173 368237.000    807699.9219  -5649861.4236   2837755.8895   1   7   0.0128   0.0221   0.0123  -0.0139  -0.0143   0.0091   8.00   11.1
2173 368238.000    807699.9251  -5649861.4254   2837755.8907   1   7   0.0140   0.0240   0.0133  -0.0153  -0.0155   0.0100   9.00   10.9
2173 368239.000    807699.9225  -5649861.4187   2837755.8860   1   7   0.0152   0.0259   0.0144  -0.0167  -0.0168   0.0109  10.00   10.8
2173 368240.000    807699.9230  -5649861.4135   2837755.8815   1   7   0.0165   0.0279   0.0155  -0.0181  -0.0181   0.0119  11.00   10.8
2173 368247.000    807699.9070  -5649861.3811   2837755.8673   1   7   0.0063   0.0120   0.0065  -0.0066  -0.0075   0.0040   0.00    7.8
2173 368248.000    807699.9050  -5649861.3843   2837755.8708   1   7   0.0063   0.0120   0.0065  -0.0066  -0.0075   0.0040   0.00    7.2
2173 368249.000    807699.9088  -5649861.3840   2837755.8694   1   7   0.0063   0.0120   0.0065  -0.0066  -0.0075   0.0040   0.00    7.1
2173 368250.000    807699.9053  -5649861.3837   2837755.8690   1   7   0.0063   0.0120   0.0065  -0.0066  -0.0075   0.0040   0.00    5.9
2173 368251.000    807699.9053  -5649861.3859   2837755.8696   1   7   0.0063   0.0120   0.0065  -0.0066  -0.0075   0.0040   0.00    7.4
2173 368252.000    807699.9060  -5649861.3818   2837755.8680   1   7   0.0063   0.0120   0.0065  -0.0066  -0.0075   0.0040   0.00    7.7
2173 368253.000    807699.9084  -5649861.3837   2837755.8698   1   7   0.0063   0.0120   0.0065  -0.0066  -0.0075   0.0040   0.00    7.3
2173 368254.000    807699.9089  -5649861.3885   2837755.8719   1   7   0.0063   0.0120   0.0065  -0.0066  -0.0075   0.0040   0.00    8.2
2173 368255.000    807699.9070  -5649861.3849   2837755.8718   1   7   0.0063   0.0120   0.0065  -0.0066  -0.0075   0.0040   0.00    9.9
2173 368256.000    807699.9054  -5649861.3852   2837755.8704   1   7   0.0063   0.0120   0.0065  -0.0066  -0.0075   0.0040   0.00    8.2
2173 368257.000    807699.9029  -5649861.3786   2837755.8671   1   7   0.0063   0.0120   0.0065  -0.0066  -0.0075   0.0040   0.00    9.5
2173 368258.000    807699.9069  -5649861.3839   2837755.8703   1   7   0.0063   0.0120   0.0065  -0.0066  -0.0075   0.0040   0.00   10.4
2173 368259.000    807699.9042  -5649861.3822   2837755.8679   1   7   0.0063   0.0120   0.0065  -0.0066  -0.0075   0.0040   0.00    9.1
2173 368260.000    807699.9049  -5649861.3830   2837755.8692   1   7   0.0063   0.0120   0.0065  -0.0066  -0.0075   0.0040   0.00    9.1
2173 368261.000    807699.9020  -5649861.3833   2837755.8700   1   7   0.0063   0.0120   0.0065  -0.0066  -0.0075   0.0040   0.00    7.8
2173 368262.000    807699.9035  -5649861.3839   2837755.8698   1   7   0.0063   0.0120   0.0065  -0.0066  -0.0075   0.0040   0.00    7.6
2173 368263.000    807699.9040  -5649861.3794   2837755.8680   1   7   0.0063   0.0120   0.0065  -0.0066  -0.0075   0.0040   0.00    6.8
2173 368264.000    807699.9024  -5649861.3828   2837755.8701   1   7   0.0063   0.0120   0.0065  -0.0066  -0.0075   0.0040   0.00    9.8
2173 368265.000    807699.9019  -5649861.3797   2837755.8706   1   7   0.0063   0.0120   0.0065  -0.0066  -0.0075   0.0040   0.00   10.5
2173 368266.000    807699.9068  -5649861.3884   2837755.8726   1   7   0.0063   0.0120   0.0065  -0.0066  -0.0075   0.0040   0.00    7.9
2173 368267.000    807699.9007  -5649861.3817   2837755.8707   1   7   0.0063   0.0120   0.0065  -0.0066  -0.0075   0.0040   0.00    9.5
2173 368268.000    807699.9050  -5649861.3806   2837755.8684   1   7   0.0063   0.0120   0.0065  -0.0066  -0.0075   0.0040   0.00    9.5
2173 368269.000    807699.9043  -5649861.3827   2837755.8711   1   7   0.0063   0.0120   0.0065  -0.0066  -0.0075   0.0040   0.00    8.2
2173 368270.000    807699.9055  -5649861.3835   2837755.8705   1   7   0.0063   0.0120   0.0065  -0.0066  -0.0075   0.0040   0.00    6.2
2173 368271.000    807699.9036  -5649861.3820   2837755.8701   1   7   0.0063   0.0120   0.0065  -0.0066  -0.0075   0.0040   0.00    7.8
2173 368272.000    807699.9023  -5649861.3846   2837755.8724   1   7   0.0063   0.0120   0.0065  -0.0066  -0.0075   0.0040   0.00    9.0
2173 368273.000    807699.9018  -5649861.3845   2837755.8725   1   7   0.0064   0.0120   0.0065  -0.0066  -0.0075   0.0040   0.00    9.6
2173 368274.000    807699.9030  -5649861.3848   2837755.8737   1   7   0.0064   0.0120   0.0065  -0.0066  -0.0075   0.0040   0.00    8.7
2173 368275.000    807699.9008  -5649861.3820   2837755.8702   1   7   0.0064   0.0120   0.0065  -0.0066  -0.0075   0.0040   0.00    7.1
2173 368276.000    807699.8993  -5649861.3803   2837755.8697   1   7   0.0064   0.0120   0.0065  -0.0066  -0.0075   0.0040   0.00    8.4
2173 368277.000    807699.9047  -5649861.3835   2837755.8710   1   7   0.0064   0.0120   0.0065  -0.0066  -0.0075   0.0040   0.00    5.8
2173 368278.000    807699.9006  -5649861.3761   2837755.8684   1   7   0.0064   0.0120   0.0065  -0.0066  -0.0075   0.0040   0.00    9.1
2173 368279.000    807699.9019  -5649861.3801   2837755.8708   1   7   0.0064   0.0120   0.0065  -0.0066  -0.0075   0.0040   0.00    6.8
2173 368280.000    807699.9030  -5649861.3822   2837755.8704   1   7   0.0064   0.0120   0.0065  -0.0067  -0.0075   0.0040   0.00    5.4
2173 368281.000    807699.9011  -5649861.3817   2837755.8698   1   7   0.0064   0.0120   0.0065  -0.0067  -0.0075   0.0041   0.00    7.0
2173 368282.000    807699.8997  -5649861.3781   2837755.8692   1   7   0.0064   0.0120   0.0065  -0.0067  -0.0075   0.0041   0.00    8.1
2173 368283.000    807699.8997  -5649861.3780   2837755.8699   1   7   0.0064   0.0121   0.0065  -0.0067  -0.0076   0.0041   0.00    7.4
2173 368284.000    807699.8999  -5649861.3818   2837755.8708   1   7   0.0064   0.0121   0.0065  -0.0067  -0.0076   0.0041   0.00    7.1
2173 368285.000    807699.9010  -5649861.3796   2837755.8702   1   7   0.0064   0.0121   0.0065  -0.0067  -0.0076   0.0041   0.00    6.9
2173 368286.000    807699.9013  -5649861.3775   2837755.8680   1   7   0.0064   0.0121   0.0065  -0.0067  -0.0076   0.0041   0.00    7.1
2173 368287.000    807699.9047  -5649861.3815   2837755.8714   1   7   0.0064   0.0121   0.0065  -0.0067  -0.0076   0.0041   0.00    7.6
2173 368288.000    807699.8976  -5649861.3774   2837755.8685   1   7   0.0064   0.0121   0.0065  -0.0067  -0.0076   0.0041   0.00    8.8
2173 368289.000    807699.9041  -5649861.3835   2837755.8726   1   7   0.0064   0.0121   0.0065  -0.0067  -0.0076   0.0041   0.00    7.4
2173 368290.000    807699.8995  -5649861.3783   2837755.8697   1   7   0.0064   0.0121   0.0065  -0.0067  -0.0076   0.0041   0.00    8.4
2173 368291.000    807699.9013  -5649861.3819   2837755.8706   1   7   0.0064   0.0121   0.0065  -0.0067  -0.0076   0.0041   0.00    7.7
2173 368292.000    807699.9025  -5649861.3845   2837755.8723   1   7   0.0064   0.0121   0.0065  -0.0067  -0.0076   0.0041   0.00    5.9
2173 368293.000    807699.8972  -5649861.3778   2837755.8669   1   7   0.0064   0.0121   0.0065  -0.0067  -0.0076   0.0041   0.00    6.6
2173 368294.000    807699.9000  -5649861.3789   2837755.8680   1   7   0.0064   0.0121   0.0065  -0.0067  -0.0076   0.0041   0.00    7.6
2173 368295.000    807699.9004  -5649861.3764   2837755.8675   1   7   0.0064   0.0121   0.0065  -0.0067  -0.0076   0.0041   0.00    5.8
2173 368296.000    807699.8978  -5649861.3769   2837755.8674   1   7   0.0064   0.0121   0.0065  -0.0067  -0.0076   0.0041   0.00    6.9
2173 368297.000    807699.9003  -5649861.3758   2837755.8693   1   7   0.0064   0.0121   0.0065  -0.0067  -0.0076   0.0041   0.00    6.0
2173 368298.000    807699.8983  -5649861.3760   2837755.8699   1   7   0.0064   0.0121   0.0065  -0.0067  -0.0076   0.0041   0.00    7.2
2173 368299.000    807699.8996  -5649861.3766   2837755.8698   1   7   0.0064   0.0121   0.0065  -0.0067  -0.0076   0.0041   0.00    4.9
2173 368300.000    807699.8999  -5649861.3784   2837755.8716   1   7   0.0064   0.0121   0.0065  -0.0067  -0.0076   0.0041   0.00    7.6
2173 368301.000    807699.8984  -5649861.3767   2837755.8685   1   7   0.0064   0.0121   0.0065  -0.0067  -0.0076   0.0041   0.00    6.7
2173 368302.000    807699.8981  -5649861.3776   2837755.8698   1   7   0.0064   0.0121   0.0065  -0.0067  -0.0076   0.0041   0.00    6.1
2173 368303.000    807699.9012  -5649861.3782   2837755.8693   1   7   0.0064   0.0121   0.0065  -0.0067  -0.0076   0.0041   0.00    5.8
2173 368304.000    807699.8968  -5649861.3750   2837755.8701   1   7   0.0064   0.0121   0.0065  -0.0067  -0.0076   0.0041   0.00    6.5
2173 368305.000    807699.8981  -5649861.3749   2837755.8698   1   7   0.0064   0.0121   0.0065  -0.0067  -0.0076   0.0041   0.00    5.6
2173 368306.000    807699.8949  -5649861.3705   2837755.8676   1   7   0.0064   0.0121   0.0065  -0.0067  -0.0076   0.0041   0.00    6.7
2173 368307.000    807699.8964  -5649861.3758   2837755.8703   1   7   0.0064   0.0121   0.0065  -0.0067  -0.0076   0.0041   0.00    6.9
2173 368308.000    807699.8991  -5649861.3732   2837755.8704   1   7   0.0064   0.0121   0.0065  -0.0067  -0.0076   0.0041   0.00    5.1
2173 368309.000    807699.8986  -5649861.3779   2837755.8719   1   7   0.0064   0.0121   0.0065  -0.0067  -0.0076   0.0041   0.00    6.2
2173 368310.000    807699.8953  -5649861.3741   2837755.8701   1   7   0.0064   0.0121   0.0065  -0.0067  -0.0076   0.0041   0.00    6.1
2173 368311.000    807699.8957  -5649861.3751   2837755.8697   1   7   0.0064   0.0121   0.0065  -0.0067  -0.0076   0.0041   0.00    5.8
2173 368312.000    807699.8950  -5649861.3753   2837755.8694   1   7   0.0064   0.0121   0.0065  -0.0067  -0.0076   0.0041   0.00    6.8
2173 368313.000    807699.8965  -5649861.3801   2837755.8733   1   7   0.0064   0.0121   0.0065  -0.0067  -0.0076   0.0041   0.00    7.0
2173 368314.000    807699.8967  -5649861.3745   2837755.8700   1   7   0.0064   0.0121   0.0065  -0.0067  -0.0076   0.0041   0.00    7.7
2173 368315.000    807699.8969  -5649861.3772   2837755.8713   1   7   0.0064   0.0121   0.0065  -0.0067  -0.0076   0.0041   0.00    7.4
2173 368316.000    807699.8955  -5649861.3724   2837755.8689   1   7   0.0064   0.0121   0.0065  -0.0067  -0.0076   0.0041   0.00    6.4
2173 368317.000    807699.8988  -5649861.3779   2837755.8720   1   7   0.0064   0.0121   0.0065  -0.0067  -0.0076   0.0041   0.00    5.0
2173 368318.000    807699.8948  -5649861.3744   2837755.8696   1   7   0.0064   0.0121   0.0065  -0.0067  -0.0076   0.0041   0.00    7.7
2173 368319.000    807699.9001  -5649861.3759   2837755.8700   1   7   0.0064   0.0121   0.0065  -0.0067  -0.0076   0.0041   0.00    6.4
2173 368320.000    807699.8971  -5649861.3739   2837755.8693   1   7   0.0064   0.0121   0.0065  -0.0067  -0.0076   0.0041   0.00    7.0
2173 368321.000    807699.8976  -5649861.3737   2837755.8692   1   7   0.0064   0.0121   0.0065  -0.0067  -0.0076   0.0041   0.00    9.3
2173 368322.000    807699.8999  -5649861.3783   2837755.8697   1   7   0.0064   0.0121   0.0065  -0.0067  -0.0076   0.0041   0.00    5.3
2173 368323.000    807699.8949  -5649861.3719   2837755.8674   1   7   0.0064   0.0122   0.0065  -0.0067  -0.0076   0.0041   0.00    7.2
2173 368324.000    807699.8957  -5649861.3739   2837755.8693   1   7   0.0064   0.0122   0.0065  -0.0067  -0.0076   0.0041   0.00    7.3
2173 368325.000    807699.8918  -5649861.3691   2837755.8661   1   7   0.0064   0.0122   0.0065  -0.0067  -0.0076   0.0041   0.00    8.6
2173 368326.000    807699.8979  -5649861.3756   2837755.8716   1   7   0.0064   0.0122   0.0065  -0.0067  -0.0076   0.0041   0.00    6.4
2173 368327.000    807699.8941  -5649861.3752   2837755.8707   1   7   0.0064   0.0122   0.0065  -0.0067  -0.0076   0.0041   0.00    7.1
2173 368328.000    807699.8964  -5649861.3751   2837755.8702   1   7   0.0064   0.0122   0.0065  -0.0067  -0.0076   0.0041   0.00    5.8
2173 368329.000    807699.8927  -5649861.3738   2837755.8705   1   7   0.0064   0.0122   0.0065  -0.0067  -0.0076   0.0041   0.00    6.7
2173 368330.000    807699.8938  -5649861.3748   2837755.8716   1   7   0.0064   0.0122   0.0065  -0.0067  -0.0076   0.0041   0.00    6.8
2173 368331.000    807699.8926  -5649861.3742   2837755.8707   1   7   0.0064   0.0122   0.0065  -0.0068  -0.0076   0.0041   0.00    7.2
2173 368332.000    807699.8940  -5649861.3717   2837755.8704   1   7   0.0064   0.0122   0.0065  -0.0068  -0.0076   0.0041   0.00    6.3
2173 368333.000    807699.8931  -5649861.3722   2837755.8712   1   7   0.0064   0.0122   0.0065  -0.0068  -0.0076   0.0041   0.00    7.2
2173 368334.000    807699.8968  -5649861.3736   2837755.8701   1   7   0.0064   0.0122   0.0065  -0.0068  -0.0076   0.0041   0.00    5.4
2173 368335.000    807699.8914  -5649861.3684   2837755.8669   1   7   0.0064   0.0122   0.0065  -0.0068  -0.0076   0.0041   0.00    5.0
2173 368336.000    807699.8948  -5649861.3722   2837755.8705   1   7   0.0064   0.0122   0.0065  -0.0068  -0.0076   0.0041   0.00    5.6
2173 368337.000    807699.8900  -5649861.3719   2837755.8700   1   7   0.0064   0.0122   0.0065  -0.0068  -0.0076   0.0041   0.00    6.0
2173 368338.000    807699.8910  -5649861.3719   2837755.8686   1   7   0.0064   0.0122   0.0065  -0.0068  -0.0076   0.0041   0.00    7.5
2173 368339.000    807699.8921  -5649861.3697   2837755.8692   1   7   0.0064   0.0122   0.0065  -0.0068  -0.0076   0.0041   0.00    5.6
2173 368340.000    807699.8916  -5649861.3728   2837755.8704   1   7   0.0064   0.0122   0.0065  -0.0068  -0.0076   0.0041   0.00    4.9
2173 368341.000    807699.8934  -5649861.3726   2837755.8711   1   7   0.0064   0.0122   0.0065  -0.0068  -0.0076   0.0041   0.00    5.1
2173 368342.000    807699.8938  -5649861.3738   2837755.8699   1   7   0.0064   0.0122   0.0065  -0.0068  -0.0076   0.0041   0.00    7.5
2173 368343.000    807699.8957  -5649861.3726   2837755.8713   1   7   0.0064   0.0122   0.0065  -0.0068  -0.0076   0.0041   0.00    5.1
2173 368344.000    807699.8945  -5649861.3751   2837755.8719   1   7   0.0064   0.0122   0.0065  -0.0068  -0.0076   0.0041   0.00    5.2
2173 368345.000    807699.8936  -5649861.3761   2837755.8713   1   7   0.0064   0.0122   0.0065  -0.0068  -0.0076   0.0041   0.00    4.7
2173 368346.000    807699.8936  -5649861.3729   2837755.8711   1   7   0.0064   0.0122   0.0065  -0.0068  -0.0076   0.0041   0.00    3.9
2173 368347.000    807699.8960  -5649861.3804   2837755.8747   1   7   0.0064   0.0122   0.0065  -0.0068  -0.0076   0.0041   0.00    4.1
2173 368348.000    807699.8915  -5649861.3777   2837755.8715   1   7   0.0064   0.0122   0.0065  -0.0068  -0.0076   0.0041   0.00    6.1
2173 368349.000    807699.8953  -5649861.3800   2837755.8724   1   7   0.0064   0.0122   0.0065  -0.0068  -0.0076   0.0041   0.00    4.7
2173 368350.000    807699.8941  -5649861.3761   2837755.8718   1   7   0.0064   0.0122   0.0065  -0.0068  -0.0076   0.0041   0.00    5.0
2173 368351.000    807699.8902  -5649861.3709   2837755.8679   1   7   0.0064   0.0122   0.0065  -0.0068  -0.0076   0.0041   0.00    6.1
2173 368352.000    807699.8889  -5649861.3667   2837755.8664   1   7   0.0064   0.0122   0.0065  -0.0068  -0.0076   0.0041   0.00    6.6
2173 368353.000    807699.8932  -5649861.3785   2837755.8706   1   7   0.0064   0.0122   0.0065  -0.0068  -0.0076   0.0041   0.00    6.4
2173 368354.000    807699.8947  -5649861.3779   2837755.8740   1   7   0.0064   0.0122   0.0065  -0.0068  -0.0076   0.0041   0.00    5.1
2173 368355.000    807699.8927  -5649861.3748   2837755.8722   1   7   0.0064   0.0122   0.0065  -0.0068  -0.0076   0.0041   0.00    4.9
2173 368356.000    807699.8923  -5649861.3768   2837755.8725   1   7   0.0064   0.0122   0.0065  -0.0068  -0.0076   0.0041   0.00    4.7
2173 368357.000    807699.8926  -5649861.3749   2837755.8708   1   7   0.0064   0.0122   0.0065  -0.0068  -0.0076   0.0041   0.00    6.0
2173 368358.000    807699.8954  -5649861.3743   2837755.8719   1   7   0.0064   0.0122   0.0065  -0.0068  -0.0076   0.0041   0.00    4.5
2173 368359.000    807699.8890  -5649861.3675   2837755.8677   1   7   0.0064   0.0122   0.0065  -0.0068  -0.0076   0.0041   0.00    6.0
2173 368360.000    807699.8884  -5649861.3704   2837755.8685   1   7   0.0064   0.0122   0.0065  -0.0068  -0.0076   0.0041   0.00    5.6
2173 368361.000    807699.8903  -5649861.3762   2837755.8729   1   7   0.0064   0.0122   0.0065  -0.0068  -0.0076   0.0041   0.00    4.6
2173 368362.000    807699.8891  -5649861.3756   2837755.8718   1   7   0.0064   0.0122   0.0065  -0.0068  -0.0076   0.0041   0.00    4.5
2173 368363.000    807699.8880  -5649861.3745   2837755.8716   1   7   0.0064   0.0123   0.0065  -0.0068  -0.0076   0.0041   0.00    4.7
2173 368364.000    807699.8903  -5649861.3752   2837755.8731   1   7   0.0064   0.0123   0.0065  -0.0068  -0.0076   0.0041   0.00    5.7
2173 368365.000    807699.8912  -5649861.3751   2837755.8720   1   7   0.0064   0.0123   0.0065  -0.0068  -0.0076   0.0041   0.00    5.5
2173 368366.000    807699.8931  -5649861.3786   2837755.8751   1   7   0.0064   0.0123   0.0065  -0.0068  -0.0076   0.0041   0.00    5.8
2173 368367.000    807699.8902  -5649861.3704   2837755.8707   1   7   0.0064   0.0123   0.0065  -0.0068  -0.0076   0.0041   0.00    6.3
2173 368368.000    807699.8910  -5649861.3739   2837755.8722   1   7   0.0064   0.0123   0.0065  -0.0068  -0.0076   0.0041   0.00    6.3
2173 368369.000    807699.8917  -5649861.3747   2837755.8719   1   7   0.0064   0.0123   0.0065  -0.0068  -0.0076   0.0041   0.00    6.4
2173 368370.000    807699.8893  -5649861.3718   2837755.8715   1   7   0.0064   0.0123   0.0065  -0.0068  -0.0076   0.0041   0.00    5.2
2173 368371.000    807699.8911  -5649861.3709   2837755.8704   1   7   0.0064   0.0123   0.0065  -0.0068  -0.0076   0.0041   0.00    4.6
2173 368372.000    807699.8951  -5649861.3801   2837755.8745   1   7   0.0064   0.0123   0.0065  -0.0068  -0.0076   0.0041   0.00    4.8
2173 368373.000    807699.8958  -5649861.3773   2837755.8736   1   7   0.0064   0.0123   0.0065  -0.0068  -0.0076   0.0041   0.00    4.5
2173 368374.000    807699.8938  -5649861.3764   2837755.8747   1   7   0.0064   0.0123   0.0065  -0.0068  -0.0076   0.0041   0.00    5.2
2173 368375.000    807699.8945  -5649861.3778   2837755.8755   1   7   0.0064   0.0123   0.0065  -0.0068  -0.0076   0.0041   0.00    4.7
2173 368376.000    807699.8881  -5649861.3703   2837755.8706   1   7   0.0064   0.0123   0.0065  -0.0068  -0.0076   0.0041   0.00    5.3
2173 368377.000    807699.8920  -5649861.3751   2837755.8742   1   7   0.0064   0.0123   0.0065  -0.0068  -0.0076   0.0041   0.00    4.5
2173 368378.000    807699.8916  -5649861.3726   2837755.8706   1   7   0.0064   0.0123   0.0065  -0.0068  -0.0076   0.0041   0.00    4.2
2173 368379.000    807699.8890  -5649861.3718   2837755.8701   1   7   0.0064   0.0123   0.0065  -0.0068  -0.0076   0.0041   0.00    4.9
2173 368380.000    807699.8912  -5649861.3750   2837755.8725   1   7   0.0065   0.0123   0.0065  -0.0068  -0.0076   0.0041   0.00    4.0
2173 368381.000    807699.8933  -5649861.3755   2837755.8731   1   7   0.0065   0.0123   0.0065  -0.0068  -0.0076   0.0041   0.00    3.8
2173 368382.000    807699.8931  -5649861.3780   2837755.8745   1   7   0.0065   0.0123   0.0065  -0.0069  -0.0076   0.0041   0.00    4.0
2173 368383.000    807699.8898  -5649861.3797   2837755.8738   1   7   0.0065   0.0123   0.0065  -0.0069  -0.0076   0.0041   0.00    3.5
2173 368384.000    807699.8901  -5649861.3760   2837755.8725   1   7   0.0065   0.0123   0.0065  -0.0069  -0.0077   0.0041   0.00    3.5
2173 368385.000    807699.8890  -5649861.3751   2837755.8735   1   7   0.0065   0.0123   0.0065  -0.0069  -0.0077   0.0041   0.00    3.4
2173 368386.000    807699.8955  -5649861.3841   2837755.8773   1   7   0.0065   0.0123   0.0065  -0.0069  -0.0077   0.0041   0.00    3.1
2173 368387.000    807699.8394  -5649861.5289   2837755.9436   2   7   0.6416   1.2185   0.6464  -0.6819  -0.7580   0.4127   0.00    2.9
2173 368388.000    807699.8893  -5649861.3795   2837755.8746   1   7   0.0065   0.0123   0.0065  -0.0069  -0.0077   0.0041   0.00    3.4
2173 368389.000    807699.8189  -5649861.4090   2837755.9262   2   7   0.6418   1.2190   0.6464  -0.6823  -0.7582   0.4129   0.00    2.9
2173 368390.000    807699.8944  -5649861.3810   2837755.8771   1   7   0.0065   0.0123   0.0065  -0.0069  -0.0077   0.0041   0.00    3.3
2173 368391.000    807699.7818  -5649861.4488   2837755.9011   2   7   0.6420   1.2195   0.6464  -0.6827  -0.7584   0.4131   0.00    2.7
2173 368392.000    807699.8910  -5649861.3784   2837755.8745   1   7   0.0065   0.0123   0.0065  -0.0069  -0.0077   0.0042   0.00    3.2
2173 368393.000    807699.8903  -5649861.3792   2837755.8758   1   7   0.0065   0.0123   0.0065  -0.0069  -0.0077   0.0042   0.00    3.4
2173 368394.000    807699.8888  -5649861.3772   2837755.8753   1   7   0.0065   0.0123   0.0065  -0.0069  -0.0077   0.0042   0.00    4.2
2173 368395.000    807699.8900  -5649861.3766   2837755.8741   1   7   0.0065   0.0123   0.0065  -0.0069  -0.0077   0.0042   0.00    4.5
2173 368396.000    807699.8933  -5649861.3801   2837755.8763   1   7   0.0065   0.0123   0.0065  -0.0069  -0.0077   0.0042   0.00    3.4
2173 368397.000    807699.8916  -5649861.3796   2837755.8754   1   7   0.0065   0.0123   0.0065  -0.0069  -0.0077   0.0042   0.00    3.1
2173 368398.000    807699.8901  -5649861.3804   2837755.8751   1   7   0.0065   0.0123   0.0065  -0.0069  -0.0077   0.0042   0.00    3.2
2173 368399.000    807699.8884  -5649861.3758   2837755.8738   1   7   0.0065   0.0123   0.0065  -0.0069  -0.0077   0.0042   0.00    4.6
2173 368400.000    807699.8912  -5649861.3796   2837755.8760   1   7   0.0065   0.0123   0.0065  -0.0069  -0.0077   0.0042   0.00    3.6
2173 368401.000    807699.8891  -5649861.3765   2837755.8739   1   7   0.0065   0.0123   0.0065  -0.0069  -0.0077   0.0042   0.00    4.5
2173 368402.000    807699.8896  -5649861.3773   2837755.8751   1   7   0.0065   0.0124   0.0065  -0.0069  -0.0077   0.0042   0.00    3.4
2173 368403.000    807699.8889  -5649861.3774   2837755.8744   1   7   0.0065   0.0124   0.0065  -0.0069  -0.0077   0.0042   0.00    3.3
2173 368404.000    807699.8897  -5649861.3773   2837755.8743   1   7   0.0065   0.0124   0.0065  -0.0069  -0.0077   0.0042   0.00    3.4
2173 368405.000    807699.8924  -5649861.3810   2837755.8769   1   7   0.0065   0.0124   0.0065  -0.0069  -0.0077   0.0042   0.00    4.0
2173 368406.000    807699.8907  -5649861.3809   2837755.8771   1   7   0.0065   0.0124   0.0065  -0.0069  -0.0077   0.0042   0.00    5.2
2173 368407.000    807699.8939  -5649861.3784   2837755.8772   1   7   0.0065   0.0124   0.0065  -0.0069  -0.0077   0.0042   0.00    4.0
2173 368408.000    807699.8930  -5649861.3793   2837755.8753   1   7   0.0065   0.0124   0.0065  -0.0069  -0.0077   0.0042   0.00    3.4
2173 368409.000    807699.8882  -5649861.3761   2837755.8734   1   7   0.0065   0.0124   0.0065  -0.0069  -0.0077   0.0042   0.00    3.7
2173 368410.000    807699.8896  -5649861.3775   2837755.8741   1   7   0.0065   0.0124   0.0065  -0.0069  -0.0077   0.0042   0.00    3.4
2173 368411.000    807699.8893  -5649861.3776   2837755.8739   1   7   0.0065   0.0124   0.0065  -0.0069  -0.0077   0.0042   0.00    3.7
2173 368412.000    807699.8918  -5649861.3772   2837755.8758   1   7   0.0065   0.0124   0.0065  -0.0069  -0.0077   0.0042   0.00    3.5
2173 368413.000    807699.8951  -5649861.3819   2837755.8760   1   7   0.0065   0.0124   0.0065  -0.0069  -0.0077   0.0042   0.00    3.3
2173 368414.000    807699.9655  -5649861.7329   2837755.9394   2   7   0.6442   1.2253   0.6463  -0.6872  -0.7607   0.4152   0.00    2.9
2173 368415.000    807699.8917  -5649861.3774   2837755.8731   1   7   0.0065   0.0124   0.0065  -0.0069  -0.0077   0.0042   0.00    3.4
2173 368416.000    807699.9736  -5649861.5418   2837755.9131   2   7   0.6444   1.2258   0.6463  -0.6876  -0.7609   0.4153   0.00    2.5
2173 368417.000    807699.8927  -5649861.3802   2837755.8746   1   7   0.0065   0.0124   0.0065  -0.0069  -0.0077   0.0042   0.00    3.2
2173 368418.000    807699.8902  -5649861.3797   2837755.8745   1   7   0.0065   0.0124   0.0065  -0.0069  -0.0077   0.0042   0.00    3.9
2173 368419.000    807699.9978  -5649861.6734   2837755.9245   2   7   0.6447   1.2265   0.6463  -0.6882  -0.7612   0.4156   0.00    2.8
2173 368420.000    807699.8925  -5649861.3813   2837755.8747   1   7   0.0065   0.0124   0.0065  -0.0069  -0.0077   0.0042   0.00    4.3
2173 368421.000    807699.8906  -5649861.3775   2837755.8739   1   7   0.0065   0.0124   0.0065  -0.0069  -0.0077   0.0042   0.00    3.7
2173 368422.000    807699.8913  -5649861.3777   2837755.8724   1   7   0.0065   0.0124   0.0065  -0.0069  -0.0077   0.0042   0.00    4.0
2173 368423.000    807700.0041  -5649861.9076   2837756.0235   2   7   0.6450   1.2276   0.6463  -0.6890  -0.7617   0.4160   0.00    2.1
2173 368424.000    807700.0122  -5649861.8654   2837756.0265   2   7   0.6451   1.2278   0.6463  -0.6892  -0.7618   0.4161   0.00    2.6
2173 368425.000    807700.0284  -5649861.7764   2837756.0049   2   7   0.6452   1.2281   0.6463  -0.6894  -0.7619   0.4162   0.00    2.5
2173 368426.000    807700.0143  -5649861.7556   2837755.9621   2   7   0.6453   1.2283   0.6463  -0.6896  -0.7620   0.4162   0.00    2.4
2173 368427.000    807699.8952  -5649861.3810   2837755.8740   1   7   0.0065   0.0124   0.0065  -0.0069  -0.0077   0.0042   0.00    3.8
2173 368428.000    807699.8940  -5649861.3818   2837755.8736   1   7   0.0065   0.0124   0.0065  -0.0069  -0.0077   0.0042   0.00    3.7
2173 368429.000    807699.8920  -5649861.3813   2837755.8749   1   7   0.0065   0.0124   0.0065  -0.0069  -0.0077   0.0042   0.00    4.0
2173 368430.000    807699.8921  -5649861.3765   2837755.8720   1   7   0.0065   0.0124   0.0065  -0.0069  -0.0077   0.0042   0.00    3.3
2173 368431.000    807699.8934  -5649861.3790   2837755.8737   1   7   0.0065   0.0124   0.0065  -0.0069  -0.0077   0.0042   0.00    3.2
2173 368432.000    807699.8905  -5649861.3759   2837755.8728   1   7   0.0065   0.0124   0.0065  -0.0070  -0.0077   0.0042   0.00    4.0
2173 368433.000    807699.8895  -5649861.3770   2837755.8731   1   7   0.0065   0.0124   0.0065  -0.0070  -0.0077   0.0042   0.00    3.1
2173 368434.000    807699.8543  -5649861.6246   2837755.9465   2   7   0.6461   1.2304   0.6463  -0.6912  -0.7628   0.4170   0.00    2.8
2173 368435.000    807699.7727  -5649861.6055   2837755.9379   2   7   0.6462   1.2306   0.6463  -0.6914  -0.7629   0.4171   0.00    2.3
2173 368436.000    807699.8956  -5649861.3832   2837755.8747   1   7   0.0065   0.0124   0.0065  -0.0070  -0.0077   0.0042   0.00    3.4
2173 368437.000    807699.7325  -5649861.6656   2837756.0553   2   7   0.6464   1.2311   0.6463  -0.6917  -0.7631   0.4172   0.00    2.9
2173 368438.000    807699.8943  -5649861.3845   2837755.8768   1   7   0.0065   0.0124   0.0065  -0.0070  -0.0077   0.0042   0.00    3.6
2173 368439.000    807699.7027  -5649861.7731   2837756.1204   2   7   0.6466   1.2316   0.6463  -0.6921  -0.7633   0.4174   0.00    2.9
2173 368440.000    807699.8941  -5649861.3824   2837755.8755   1   7   0.0065   0.0124   0.0065  -0.0070  -0.0077   0.0042   0.00    4.3
2173 368441.000    807699.8951  -5649861.3832   2837755.8762   1   7   0.0065   0.0125   0.0065  -0.0070  -0.0077   0.0042   0.00    3.2
2173 368442.000    807699.8943  -5649861.3840   2837755.8764   1   7   0.0065   0.0125   0.0065  -0.0070  -0.0077   0.0042   0.00    3.4
2173 368443.000    807699.8849  -5649861.8599   2837756.1111   2   7   0.6470   1.2327   0.6463  -0.6929  -0.7637   0.4178   0.00    3.0
2173 368444.000    807699.8924  -5649861.3814   2837755.8745   1   7   0.0065   0.0125   0.0065  -0.0070  -0.0077   0.0042   0.00    4.2
2173 368445.000    807699.8975  -5649861.3850   2837755.8765   1   7   0.0065   0.0125   0.0065  -0.0070  -0.0077   0.0042   0.00    4.2
2173 368446.000    807699.8931  -5649861.3802   2837755.8731   1   7   0.0065   0.0125   0.0065  -0.0070  -0.0077   0.0042   0.00    4.0
2173 368447.000    807699.8917  -5649861.3799   2837755.8739   1   7   0.0065   0.0125   0.0065  -0.0070  -0.0077   0.0042   0.00    4.1
2173 368448.000    807699.8917  -5649861.3815   2837755.8741   1   7   0.0065   0.0125   0.0065  -0.0070  -0.0077   0.0042   0.00    4.8
2173 368449.000    807699.8933  -5649861.3798   2837755.8734   1   7   0.0065   0.0125   0.0065  -0.0070  -0.0077   0.0042   0.00    5.9
2173 368450.000    807699.8921  -5649861.3773   2837755.8716   1   7   0.0065   0.0125   0.0065  -0.0070  -0.0077   0.0042   0.00    4.1
2173 368451.000    807699.8948  -5649861.3809   2837755.8732   1   7   0.0065   0.0125   0.0065  -0.0070  -0.0077   0.0042   0.00    4.4
2173 368452.000    807699.8918  -5649861.3817   2837755.8733   1   7   0.0065   0.0125   0.0065  -0.0070  -0.0077   0.0042   0.00    4.5
2173 368453.000    807699.8927  -5649861.3822   2837755.8736   1   7   0.0065   0.0125   0.0065  -0.0070  -0.0077   0.0042   0.00    3.9
2173 368454.000    807699.8901  -5649861.3835   2837755.8736   1   7   0.0065   0.0125   0.0065  -0.0070  -0.0077   0.0042   0.00    3.3
2173 368455.000    807699.8895  -5649861.3795   2837755.8739   1   7   0.0065   0.0125   0.0065  -0.0070  -0.0077   0.0042   0.00    3.6
2173 368456.000    807699.8945  -5649861.3827   2837755.8731   1   7   0.0065   0.0125   0.0065  -0.0070  -0.0077   0.0042   0.00    3.7
2173 368457.000    807699.8942  -5649861.3854   2837755.8760   1   7   0.0065   0.0125   0.0065  -0.0070  -0.0077   0.0042   0.00    3.5
2173 368458.000    807699.8931  -5649861.3819   2837755.8736   1   7   0.0065   0.0125   0.0065  -0.0070  -0.0077   0.0042   0.00    3.1
2173 368459.000    807699.8922  -5649861.3855   2837755.8765   1   7   0.0065   0.0125   0.0065  -0.0070  -0.0077   0.0042   0.00    3.9
2173 368460.000    807699.8941  -5649861.3843   2837755.8735   1   7   0.0065   0.0125   0.0065  -0.0070  -0.0077   0.0042   0.00    3.6
2173 368461.000    807699.8915  -5649861.3814   2837755.8725   1   7   0.0065   0.0125   0.0065  -0.0070  -0.0077   0.0042   0.00    3.9
2173 368462.000    807699.8901  -5649861.3808   2837755.8722   1   7   0.0065   0.0125   0.0065  -0.0070  -0.0077   0.0042   0.00    4.3
2173 368463.000    807700.1636  -5649861.9005   2837756.2233   2   7   0.6489   1.2378   0.6463  -0.6969  -0.7658   0.4196   0.00    2.8
2173 368464.000    807699.8917  -5649861.3801   2837755.8733   1   7   0.0065   0.0125   0.0065  -0.0070  -0.0077   0.0042   0.00    3.1
2173 368465.000    807699.8884  -5649861.3795   2837755.8709   1   7   0.0065   0.0125   0.0065  -0.0070  -0.0077   0.0042   0.00    4.3
2173 368466.000    807699.8930  -5649861.3815   2837755.8741   1   7   0.0065   0.0125   0.0065  -0.0070  -0.0077   0.0042   0.00    5.2
2173 368467.000    807699.8951  -5649861.3900   2837755.8768   1   7   0.0065   0.0125   0.0065  -0.0070  -0.0077   0.0042   0.00    4.1
2173 368468.000    807699.8915  -5649861.3836   2837755.8733   1   7   0.0065   0.0125   0.0065  -0.0070  -0.0077   0.0042   0.00    4.7
2173 368469.000    807699.8882  -5649861.3770   2837755.8688   1   7   0.0065   0.0125   0.0065  -0.0070  -0.0077   0.0042   0.00    5.6
2173 368470.000    807699.8939  -5649861.3866   2837755.8746   1   7   0.0065   0.0125   0.0065  -0.0070  -0.0077   0.0042   0.00    4.9
2173 368471.000    807699.8918  -5649861.3794   2837755.8703   1   7   0.0065   0.0125   0.0065  -0.0070  -0.0077   0.0042   0.00    5.9
2173 368472.000    807699.8937  -5649861.3834   2837755.8744   1   7   0.0065   0.0125   0.0065  -0.0070  -0.0077   0.0042   0.00    6.5
2173 368473.000    807699.8934  -5649861.3861   2837755.8737   1   7   0.0065   0.0125   0.0065  -0.0070  -0.0077   0.0042   0.00    6.0
2173 368474.000    807699.8954  -5649861.3885   2837755.8736   1   7   0.0065   0.0125   0.0065  -0.0070  -0.0077   0.0042   0.00    4.9
2173 368475.000    807699.8918  -5649861.3858   2837755.8742   1   7   0.0065   0.0125   0.0065  -0.0070  -0.0077   0.0042   0.00    4.5
2173 368476.000    807699.8920  -5649861.3849   2837755.8734   1   7   0.0065   0.0125   0.0065  -0.0070  -0.0077   0.0042   0.00    4.8
2173 368477.000    807699.8935  -5649861.3865   2837755.8742   1   7   0.0065   0.0125   0.0065  -0.0070  -0.0077   0.0042   0.00    5.5
2173 368478.000    807699.8935  -5649861.3873   2837755.8749   1   7   0.0065   0.0126   0.0065  -0.0070  -0.0077   0.0042   0.00    5.2
2173 368479.000    807699.8936  -5649861.3850   2837755.8745   1   7   0.0065   0.0126   0.0065  -0.0070  -0.0078   0.0042   0.00    5.5
2173 368480.000    807699.8911  -5649861.3831   2837755.8731   1   7   0.0065   0.0126   0.0065  -0.0070  -0.0078   0.0042   0.00    5.4
2173 368481.000    807699.8906  -5649861.3862   2837755.8722   1   7   0.0065   0.0126   0.0065  -0.0070  -0.0078   0.0042   0.00    6.0
2173 368482.000    807699.8909  -5649861.3849   2837755.8720   1   7   0.0065   0.0126   0.0065  -0.0071  -0.0078   0.0042   0.00    6.2
2173 368483.000    807699.8905  -5649861.3822   2837755.8722   1   7   0.0066   0.0126   0.0065  -0.0071  -0.0078   0.0042   0.00    6.3
2173 368484.000    807699.8898  -5649861.3836   2837755.8717   1   7   0.0066   0.0126   0.0065  -0.0071  -0.0078   0.0042   0.00    6.2
2173 368485.000    807699.8956  -5649861.3875   2837755.8746   1   7   0.0066   0.0126   0.0065  -0.0071  -0.0078   0.0042   0.00    5.2
2173 368486.000    807699.8908  -5649861.3783   2837755.8711   1   7   0.0066   0.0126   0.0065  -0.0071  -0.0078   0.0042   0.00    5.1
2173 368487.000    807699.8927  -5649861.3833   2837755.8727   1   7   0.0066   0.0126   0.0065  -0.0071  -0.0078   0.0042   0.00    5.5
2173 368488.000    807699.8947  -5649861.3850   2837755.8735   1   7   0.0066   0.0126   0.0065  -0.0071  -0.0078   0.0042   0.00    5.5
2173 368489.000    807699.8943  -5649861.3832   2837755.8738   1   7   0.0066   0.0126   0.0065  -0.0071  -0.0078   0.0042   0.00    6.6
2173 368490.000    807699.8930  -5649861.3867   2837755.8732   1   7   0.0066   0.0126   0.0065  -0.0071  -0.0078   0.0042   0.00    5.5
2173 368491.000    807699.8944  -5649861.3891   2837755.8757   1   7   0.0066   0.0126   0.0065  -0.0071  -0.0078   0.0042   0.00    5.5
2173 368492.000    807699.8914  -5649861.3838   2837755.8719   1   7   0.0066   0.0126   0.0065  -0.0071  -0.0078   0.0042   0.00    6.6
2173 368493.000    807699.8973  -5649861.3910   2837755.8757   1   7   0.0066   0.0126   0.0065  -0.0071  -0.0078   0.0042   0.00    5.2
2173 368494.000    807699.8929  -5649861.3851   2837755.8725   1   7   0.0066   0.0126   0.0065  -0.0071  -0.0078   0.0042   0.00    6.7
2173 368495.000    807699.8945  -5649861.3862   2837755.8742   1   7   0.0066   0.0126   0.0065  -0.0071  -0.0078   0.0042   0.00    6.7
2173 368496.000    807699.8925  -5649861.3853   2837755.8734   1   7   0.0066   0.0126   0.0065  -0.0071  -0.0078   0.0042   0.00    7.2
2173 368497.000    807699.8904  -5649861.3814   2837755.8715   1   7   0.0066   0.0126   0.0065  -0.0071  -0.0078   0.0042   0.00    6.8
2173 368498.000    807699.8904  -5649861.3833   2837755.8714   1   7   0.0066   0.0126   0.0065  -0.0071  -0.0078   0.0042   0.00   10.5
2173 368499.000    807699.8911  -5649861.3853   2837755.8728   1   7   0.0066   0.0126   0.0065  -0.0071  -0.0078   0.0042   0.00    7.2
2173 368500.000    807699.8931  -5649861.3884   2837755.8738   1   7   0.0066   0.0126   0.0065  -0.0071  -0.0078   0.0043   0.00    6.3
2173 368501.000    807699.8933  -5649861.3872   2837755.8721   1   7   0.0066   0.0126   0.0065  -0.0071  -0.0078   0.0043   0.00    6.6
2173 368502.000    807699.8963  -5649861.3917   2837755.8754   1   7   0.0066   0.0126   0.0065  -0.0071  -0.0078   0.0043   0.00    5.8
2173 368503.000    807699.8975  -5649861.3907   2837755.8741   1   7   0.0066   0.0126   0.0065  -0.0071  -0.0078   0.0043   0.00    7.6
2173 368504.000    807699.8939  -5649861.3885   2837755.8733   1   7   0.0066   0.0126   0.0065  -0.0071  -0.0078   0.0043   0.00    7.3
2173 368505.000    807699.8941  -5649861.3868   2837755.8722   1   7   0.0066   0.0126   0.0065  -0.0071  -0.0078   0.0043   0.00    8.1
2173 368506.000    807699.8949  -5649861.3880   2837755.8742   1   7   0.0066   0.0126   0.0065  -0.0071  -0.0078   0.0043   0.00    7.5
2173 368507.000    807699.8955  -5649861.3889   2837755.8733   1   7   0.0066   0.0126   0.0065  -0.0071  -0.0078   0.0043   0.00    8.2
2173 368508.000    807699.8961  -5649861.3888   2837755.8751   1   7   0.0066   0.0126   0.0065  -0.0071  -0.0078   0.0043   0.00    6.1
2173 368509.000    807699.8933  -5649861.3871   2837755.8733   1   7   0.0066   0.0126   0.0065  -0.0071  -0.0078   0.0043   0.00    7.1
2173 368510.000    807699.8961  -5649861.3897   2837755.8746   1   7   0.0066   0.0126   0.0065  -0.0071  -0.0078   0.0043   0.00    7.9
2173 368511.000    807699.8919  -5649861.3881   2837755.8737   1   7   0.0066   0.0126   0.0065  -0.0071  -0.0078   0.0043   0.00   11.2
2173 368512.000    807699.8938  -5649861.3906   2837755.8739   1   7   0.0066   0.0126   0.0065  -0.0071  -0.0078   0.0043   0.00   10.4
2173 368513.000    807699.8982  -5649861.3916   2837755.8741   1   7   0.0066   0.0126   0.0065  -0.0071  -0.0078   0.0043   0.00    6.9
2173 368514.000    807699.8953  -5649861.3880   2837755.8729   1   7   0.0066   0.0126   0.0065  -0.0071  -0.0078   0.0043   0.00    7.8
2173 368515.000    807699.8932  -5649861.3876   2837755.8713   1   7   0.0066   0.0126   0.0065  -0.0071  -0.0078   0.0043   0.00    7.0
2173 368516.000    807699.8967  -5649861.3919   2837755.8756   1   7   0.0066   0.0127   0.0065  -0.0071  -0.0078   0.0043   0.00    7.1
2173 368517.000    807699.8927  -5649861.3880   2837755.8721   1   7   0.0066   0.0127   0.0065  -0.0071  -0.0078   0.0043   0.00    6.4
2173 368518.000    807699.8938  -5649861.3925   2837755.8742   1   7   0.0066   0.0127   0.0065  -0.0071  -0.0078   0.0043   0.00    8.3
2173 368519.000    807699.8943  -5649861.3898   2837755.8738   1   7   0.0066   0.0127   0.0065  -0.0071  -0.0078   0.0043   0.00    8.4
2173 368520.000    807699.8927  -5649861.3906   2837755.8743   1   7   0.0066   0.0127   0.0065  -0.0071  -0.0078   0.0043   0.00    8.8
2173 368521.000    807699.8949  -5649861.3930   2837755.8751   1   7   0.0066   0.0127   0.0065  -0.0071  -0.0078   0.0043   0.00    8.2
2173 368522.000    807699.8957  -5649861.3920   2837755.8749   1   7   0.0066   0.0127   0.0065  -0.0071  -0.0078   0.0043   0.00    7.4
2173 368523.000    807699.8957  -5649861.3935   2837755.8759   1   7   0.0066   0.0127   0.0065  -0.0071  -0.0078   0.0043   0.00    7.7
2173 368524.000    807699.8917  -5649861.3872   2837755.8748   1   7   0.0066   0.0127   0.0065  -0.0071  -0.0078   0.0043   0.00    7.3
2173 368525.000    807699.8946  -5649861.3931   2837755.8762   1   7   0.0066   0.0127   0.0065  -0.0071  -0.0078   0.0043   0.00    7.2
2173 368526.000    807699.8980  -5649861.3962   2837755.8768   1   7   0.0066   0.0127   0.0065  -0.0071  -0.0078   0.0043   0.00    6.3
2173 368527.000    807699.8961  -5649861.3913   2837755.8741   1   7   0.0066   0.0127   0.0065  -0.0071  -0.0078   0.0043   0.00    6.8
2173 368528.000    807699.8942  -5649861.3905   2837755.8756   1   7   0.0066   0.0127   0.0065  -0.0071  -0.0078   0.0043   0.00    6.4
2173 368529.000    807699.8948  -5649861.3928   2837755.8755   1   7   0.0066   0.0127   0.0065  -0.0071  -0.0078   0.0043   0.00    7.0
2173 368530.000    807699.8943  -5649861.3915   2837755.8753   1   7   0.0066   0.0127   0.0065  -0.0071  -0.0078   0.0043   0.00    6.1
2173 368531.000    807699.8944  -5649861.3921   2837755.8742   1   7   0.0066   0.0127   0.0065  -0.0072  -0.0078   0.0043   0.00    7.0
2173 368532.000    807699.8933  -5649861.3921   2837755.8765   1   7   0.0066   0.0127   0.0065  -0.0072  -0.0078   0.0043   0.00    8.5
2173 368533.000    807699.8937  -5649861.3915   2837755.8737   1   7   0.0066   0.0127   0.0065  -0.0072  -0.0078   0.0043   0.00    6.6
2173 368534.000    807699.8958  -5649861.3949   2837755.8762   1   7   0.0066   0.0127   0.0065  -0.0072  -0.0078   0.0043   0.00    7.7
2173 368535.000    807699.8950  -5649861.3912   2837755.8751   1   7   0.0066   0.0127   0.0065  -0.0072  -0.0078   0.0043   0.00    6.8
2173 368536.000    807699.8948  -5649861.3921   2837755.8739   1   7   0.0066   0.0127   0.0065  -0.0072  -0.0078   0.0043   0.00    6.7
2173 368537.000    807699.8941  -5649861.3919   2837755.8745   1   7   0.0066   0.0127   0.0065  -0.0072  -0.0078   0.0043   0.00    6.4
2173 368538.000    807699.8950  -5649861.3919   2837755.8758   1   7   0.0066   0.0127   0.0065  -0.0072  -0.0078   0.0043   0.00    5.0
2173 368539.000    807699.8915  -5649861.3869   2837755.8727   1   7   0.0066   0.0127   0.0065  -0.0072  -0.0078   0.0043   0.00    5.2
2173 368540.000    807699.8954  -5649861.3944   2837755.8759   1   7   0.0066   0.0127   0.0065  -0.0072  -0.0078   0.0043   0.00    6.9
2173 368541.000    807699.8972  -5649861.3952   2837755.8762   1   7   0.0066   0.0127   0.0065  -0.0072  -0.0078   0.0043   0.00    5.8
2173 368542.000    807699.8958  -5649861.3977   2837755.8773   1   7   0.0066   0.0127   0.0065  -0.0072  -0.0078   0.0043   0.00    8.3
2173 368543.000    807699.8952  -5649861.3964   2837755.8757   1   7   0.0066   0.0127   0.0065  -0.0072  -0.0078   0.0043   0.00    7.5
2173 368544.000    807699.8942  -5649861.3935   2837755.8757   1   7   0.0066   0.0127   0.0065  -0.0072  -0.0078   0.0043   0.00    8.7
2173 368545.000    807699.8966  -5649861.3932   2837755.8752   1   7   0.0066   0.0127   0.0065  -0.0072  -0.0078   0.0043   0.00    5.2
2173 368546.000    807699.8951  -5649861.3936   2837755.8729   1   7   0.0066   0.0127   0.0065  -0.0072  -0.0078   0.0043   0.00    6.4
2173 368547.000    807699.8968  -5649861.3923   2837755.8744   1   7   0.0066   0.0127   0.0065  -0.0072  -0.0078   0.0043   0.00    6.8
2173 368548.000    807699.8963  -5649861.3914   2837755.8734   1   7   0.0066   0.0127   0.0065  -0.0072  -0.0078   0.0043   0.00    7.4
2173 368549.000    807699.8954  -5649861.3877   2837755.8726   1   7   0.0066   0.0127   0.0065  -0.0072  -0.0078   0.0043   0.00   10.1
2173 368550.000    807699.8975  -5649861.3977   2837755.8753   1   7   0.0066   0.0127   0.0065  -0.0072  -0.0078   0.0043   0.00    6.3
2173 368551.000    807699.8969  -5649861.3965   2837755.8754   1   7   0.0066   0.0127   0.0065  -0.0072  -0.0078   0.0043   0.00    4.7
2173 368552.000    807699.8960  -5649861.3967   2837755.8760   1   7   0.0066   0.0127   0.0065  -0.0072  -0.0078   0.0043   0.00    5.5
2173 368553.000    807699.8972  -5649861.3960   2837755.8773   1   7   0.0066   0.0128   0.0065  -0.0072  -0.0078   0.0043   0.00    6.8
2173 368554.000    807699.8979  -5649861.3951   2837755.8758   1   7   0.0066   0.0128   0.0065  -0.0072  -0.0078   0.0043   0.00    7.8
2173 368555.000    807699.8949  -5649861.3953   2837755.8759   1   7   0.0066   0.0128   0.0065  -0.0072  -0.0078   0.0043   0.00    7.4
2173 368556.000    807699.8963  -5649861.3931   2837755.8743   1   7   0.0066   0.0128   0.0065  -0.0072  -0.0078   0.0043   0.00    7.7
2173 368557.000    807699.8964  -5649861.3921   2837755.8751   1   7   0.0066   0.0128   0.0065  -0.0072  -0.0078   0.0043   0.00    6.3
2173 368558.000    807699.8965  -5649861.3977   2837755.8772   1   7   0.0066   0.0128   0.0065  -0.0072  -0.0078   0.0043   0.00    6.7
2173 368559.000    807699.8981  -5649861.3968   2837755.8781   1   7   0.0066   0.0128   0.0065  -0.0072  -0.0078   0.0043   0.00    6.9
2173 368560.000    807699.8963  -5649861.3957   2837755.8767   1   7   0.0066   0.0128   0.0065  -0.0072  -0.0078   0.0043   0.00    8.7
2173 368561.000    807699.8951  -5649861.3961   2837755.8754   1   7   0.0066   0.0128   0.0065  -0.0072  -0.0078   0.0043   0.00    6.4
2173 368562.000    807699.8983  -5649861.3986   2837755.8780   1   7   0.0066   0.0128   0.0065  -0.0072  -0.0078   0.0043   0.00    5.8
2173 368563.000    807699.8954  -5649861.3978   2837755.8763   1   7   0.0066   0.0128   0.0065  -0.0072  -0.0078   0.0043   0.00    7.8
2173 368564.000    807699.8974  -5649861.4000   2837755.8774   1   7   0.0066   0.0128   0.0065  -0.0072  -0.0078   0.0043   0.00    5.7
2173 368565.000    807699.8961  -5649861.3966   2837755.8759   1   7   0.0066   0.0128   0.0065  -0.0072  -0.0078   0.0043   0.00    6.5
2173 368566.000    807699.8942  -5649861.3969   2837755.8779   1   7   0.0066   0.0128   0.0065  -0.0072  -0.0078   0.0043   0.00    5.6
2173 368567.000    807699.8968  -5649861.3958   2837755.8776   1   7   0.0066   0.0128   0.0065  -0.0072  -0.0078   0.0043   0.00    7.2
2173 368568.000    807699.8977  -5649861.3990   2837755.8779   1   7   0.0066   0.0128   0.0065  -0.0072  -0.0078   0.0043   0.00    5.0
2173 368569.000    807699.8966  -5649861.3970   2837755.8772   1   7   0.0066   0.0128   0.0065  -0.0072  -0.0079   0.0043   0.00    7.1
2173 368570.000    807699.8993  -5649861.4005   2837755.8786   1   7   0.0066   0.0128   0.0065  -0.0072  -0.0079   0.0043   0.00    5.9
2173 368571.000    807699.8962  -5649861.3968   2837755.8763   1   7   0.0066   0.0128   0.0065  -0.0072  -0.0079   0.0043   0.00    6.4
2173 368572.000    807699.8968  -5649861.3952   2837755.8773   1   7   0.0066   0.0128   0.0065  -0.0072  -0.0079   0.0043   0.00    6.2
2173 368573.000    807699.8939  -5649861.3890   2837755.8735   1   7   0.0066   0.0128   0.0065  -0.0072  -0.0079   0.0043   0.00    6.6
2173 368574.000    807699.8937  -5649861.3967   2837755.8764   1   7   0.0066   0.0128   0.0065  -0.0072  -0.0079   0.0043   0.00    5.1
2173 368575.000    807699.8946  -5649861.3954   2837755.8745   1   7   0.0066   0.0128   0.0065  -0.0072  -0.0079   0.0043   0.00    4.7
2173 368576.000    807699.8935  -5649861.3961   2837755.8749   1   7   0.0066   0.0128   0.0065  -0.0072  -0.0079   0.0043   0.00    6.8
2173 368577.000    807699.8938  -5649861.3963   2837755.8769   1   7   0.0066   0.0128   0.0065  -0.0072  -0.0079   0.0043   0.00    6.4
2173 368578.000    807699.8921  -5649861.3875   2837755.8731   1   7   0.0066   0.0128   0.0065  -0.0072  -0.0079   0.0043   0.00    6.4
2173 368579.000    807699.8951  -5649861.3946   2837755.8757   1   7   0.0066   0.0128   0.0065  -0.0072  -0.0079   0.0043   0.00    6.3
2173 368580.000    807699.8954  -5649861.3946   2837755.8751   1   7   0.0066   0.0128   0.0065  -0.0073  -0.0079   0.0043   0.00    4.7
2173 368581.000    807699.8944  -5649861.3935   2837755.8737   1   7   0.0066   0.0128   0.0065  -0.0073  -0.0079   0.0043   0.00    4.8
2173 368582.000    807699.8938  -5649861.3933   2837755.8741   1   7   0.0066   0.0128   0.0065  -0.0073  -0.0079   0.0043   0.00    4.3
2173 368583.000    807699.8923  -5649861.3937   2837755.8744   1   7   0.0067   0.0128   0.0065  -0.0073  -0.0079   0.0043   0.00    5.7
2173 368584.000    807699.8936  -5649861.3979   2837755.8778   1   7   0.0067   0.0128   0.0065  -0.0073  -0.0079   0.0043   0.00    5.4
2173 368585.000    807699.8940  -5649861.3895   2837755.8728   1   7   0.0067   0.0128   0.0065  -0.0073  -0.0079   0.0043   0.00    4.3
2173 368586.000    807699.8948  -5649861.3951   2837755.8745   1   7   0.0067   0.0128   0.0065  -0.0073  -0.0079   0.0043   0.00    4.4
2173 368587.000    807699.8933  -5649861.3958   2837755.8756   1   7   0.0067   0.0128   0.0065  -0.0073  -0.0079   0.0043   0.00    4.8
2173 368588.000    807699.8950  -5649861.4000   2837755.8769   1   7   0.0067   0.0128   0.0065  -0.0073  -0.0079   0.0043   0.00    4.0
2173 368589.000    807699.8937  -5649861.3943   2837755.8744   1   7   0.0067   0.0129   0.0065  -0.0073  -0.0079   0.0043   0.00    4.6
2173 368590.000    807699.8935  -5649861.3951   2837755.8744   1   7   0.0067   0.0129   0.0065  -0.0073  -0.0079   0.0043   0.00    3.8
2173 368591.000    807699.8944  -5649861.3982   2837755.8770   1   7   0.0067   0.0129   0.0065  -0.0073  -0.0079   0.0043   0.00    3.8
2173 368592.000    807699.8931  -5649861.3975   2837755.8740   1   7   0.0067   0.0129   0.0065  -0.0073  -0.0079   0.0043   0.00    3.3
2173 368593.000    807699.8937  -5649861.3951   2837755.8743   1   7   0.0067   0.0129   0.0065  -0.0073  -0.0079   0.0043   0.00    4.5
2173 368594.000    807699.8933  -5649861.3951   2837755.8738   1   7   0.0067   0.0129   0.0065  -0.0073  -0.0079   0.0043   0.00    4.6
2173 368595.000    807699.8931  -5649861.3988   2837755.8762   1   7   0.0067   0.0129   0.0065  -0.0073  -0.0079   0.0043   0.00    4.2
2173 368596.000    807699.8943  -5649861.3936   2837755.8729   1   7   0.0067   0.0129   0.0065  -0.0073  -0.0079   0.0043   0.00    5.0
2173 368597.000    807699.8923  -5649861.3909   2837755.8740   1   7   0.0067   0.0129   0.0065  -0.0073  -0.0079   0.0043   0.00    4.3
2173 368598.000    807699.8922  -5649861.3957   2837755.8744   1   7   0.0067   0.0129   0.0065  -0.0073  -0.0079   0.0043   0.00    4.3
2173 368599.000    807699.8932  -5649861.3963   2837755.8757   1   7   0.0067   0.0129   0.0065  -0.0073  -0.0079   0.0043   0.00    3.7
2173 368600.000    807699.8928  -5649861.3944   2837755.8749   1   7   0.0067   0.0129   0.0065  -0.0073  -0.0079   0.0043   0.00    3.9
2173 368601.000    807699.8938  -5649861.3962   2837755.8746   1   7   0.0067   0.0129   0.0065  -0.0073  -0.0079   0.0043   0.00    3.8
2173 368602.000    807699.8926  -5649861.3989   2837755.8749   1   7   0.0067   0.0129   0.0065  -0.0073  -0.0079   0.0043   0.00    3.6
2173 368603.000    807699.8925  -5649861.3974   2837755.8745   1   7   0.0067   0.0129   0.0065  -0.0073  -0.0079   0.0043   0.00    3.8
2173 368604.000    807699.8925  -5649861.3945   2837755.8749   1   7   0.0067   0.0129   0.0065  -0.0073  -0.0079   0.0043   0.00    3.6
2173 368605.000    807699.8893  -5649861.3897   2837755.8734   1   7   0.0067   0.0129   0.0065  -0.0073  -0.0079   0.0043   0.00    3.6
2173 368606.000    807699.8903  -5649861.3858   2837755.8716   1   7   0.0067   0.0129   0.0065  -0.0073  -0.0079   0.0043   0.00    3.0
2173 368607.000    807699.8889  -5649861.3893   2837755.8732   1   7   0.0067   0.0129   0.0065  -0.0073  -0.0079   0.0043   0.00    3.5
2173 368608.000    807699.8894  -5649861.3918   2837755.8731   1   7   0.0067   0.0129   0.0065  -0.0073  -0.0079   0.0044   0.00    3.7
2173 368609.000    807699.8902  -5649861.3918   2837755.8734   1   7   0.0067   0.0129   0.0065  -0.0073  -0.0079   0.0044   0.00    3.2
2173 368610.000    807699.8913  -5649861.3942   2837755.8739   1   7   0.0067   0.0129   0.0065  -0.0073  -0.0079   0.0044   0.00    3.3
2173 368611.000    807699.8107  -5649860.5911   2837755.7333   2   7   0.6635   1.2770   0.6469  -0.7264  -0.7819   0.4330   0.00    3.0
2173 368612.000    807699.8904  -5649861.3938   2837755.8747   1   7   0.0067   0.0129   0.0065  -0.0073  -0.0079   0.0044   0.00    3.3
2173 368613.000    807699.8918  -5649861.3970   2837755.8750   1   7   0.0067   0.0129   0.0065  -0.0073  -0.0079   0.0044   0.00    3.1
2173 368614.000    807699.8903  -5649861.3966   2837755.8739   1   7   0.0067   0.0129   0.0065  -0.0073  -0.0079   0.0044   0.00    3.2
2173 368615.000    807699.8913  -5649861.3923   2837755.8739   1   7   0.0067   0.0129   0.0065  -0.0073  -0.0079   0.0044   0.00    3.0
