     2.11           OBSERVATION DATA    M (MIXED)           RINEX VERSION / TYPE
CONVBIN 2.4.3                           20210901 004835 UTC PGM / RUN BY / DATE 
log: logs/21_08_31_17_48_16_mtei_SW.rtcm                    COMMENT             
format: RTCM 3, station ID: 2991                            COMMENT             
2991                                                        MARKER NAME         
                                                            MARKER NUMBER       
                                                            OBSERVER / AGENCY   
                    SWFT                                    REC # / TYPE / VERS 
                    NULL                                    ANT # / TYPE        
 -1444748.4814 -4292932.5491  4475403.8525                  APPROX POSITION XYZ 
        0.0000        0.0000        0.0000                  ANTENNA: DELTA H/E/N
     1     1                                                WAVELENGTH FACT L1/2
     5    C1    L1    P2    L2    C2                        # / TYPES OF OBSERV 
  2021     8    31    17    48   21.0000000     GPS         TIME OF FIRST OBS   
  2021     8    31    18    18   19.0000000     GPS         TIME OF LAST OBS    
                                                            END OF HEADER       
 21  8 31 17 48 21.0000000  0 20G 5G13G15G16G18G20G23G26G29C19C20C22
                                C29C35E 2E 4E 5E 9E30E36
  21662133.649   113835284.031    21662134.060    88702819.380                  
  22164322.204   116474295.390    22164322.561    90759190.008                  
  21445662.801   112697719.665    21445663.498    87816404.890                  
  23904456.228   125618748.215    23904456.836    97884734.746                  
  20769914.677   109146641.729    20769915.481    85049334.044                  
  24256330.098   127467850.310    24256330.992    99325592.284                  
  22073964.952   115999461.747    22073966.399    90389190.970                  
  23410091.231   123020786.559    23410095.627    95860334.973                  
  20846008.392   109546511.970    20846008.821    85360917.579                  
                 111862137.969                   111862137.969    21481947.728  
                 127022147.310                   127022147.310    24393264.442  
                 124793470.848                   124793470.848    23965272.572  
                 124265119.810                   124265119.810    23863811.742  
                 112405526.382                   112405526.382    21586300.553  
  27622858.456   145159021.355                                                  
  27031267.694   142050265.362                                                  
  25848996.723   135837364.699                                                  
  22709839.995   119340997.157                                                  
  25852073.679   135853509.782                                                  
  23678215.885   124429807.875                                                  
 21  8 31 17 48 22.0000000  0 20G 5G13G15G16G18G20G23G26G29C19C20C22
                                C29C35E 2E 4E 5E 9E30E36
  21662635.464   113837921.091    21662635.857    88704874.227                  
  22164163.813   116473463.130    22164164.188    90758541.492                  
  21445263.446   112695621.062    21445264.161    87814769.618                  
  23904246.571   125617646.543    23904247.197    97883876.305                  
  20769633.132   109145162.277    20769633.936    85048181.219                  
  24256961.393   127471167.882    24256962.322    99328177.410                  
  22073440.335   115996704.848    22073441.765    90387042.738                  
  23410284.324   123021801.241    23410288.702    95861125.637                  
  20846365.755   109548389.923    20846366.183    85362380.919                  
                 111862014.417                   111862014.417    21481923.998  
                 127024744.555                   127024744.555    24393763.220  
                 124790547.384                   124790547.384    23964711.146  
                 124267787.926                   124267787.926    23864324.118  
                 112405753.546                   112405753.546    21586344.171  
  27623407.160   145161904.747                                                  
  27031644.105   142052243.380                                                  
  25848452.379   135834504.225                                                  
  22709714.537   119340337.953                                                  
  25852376.613   135855101.703                                                  
  23678336.019   124430439.251                                                  
 21  8 31 17 48 23.0000000  0 20G 5G13G15G16G18G20G23G26G29C19C20C22
                                C29C35E 2E 4E 5E 9E30E36
  21663137.334   113840558.468    21663137.745    88706929.328                  
  22164005.565   116472631.534    22164005.940    90757893.497                  
  21444864.198   112693523.046    21444864.913    87813134.797                  
  23904037.057   125616545.515    23904037.682    97883018.359                  
  20769351.677   109143683.119    20769352.464    85047028.628                  
  24257592.741   127474485.520    24257593.652    99330762.578                  
  22072915.772   115993948.300    22072917.220    90384894.777                  
  23410477.524   123022816.472    23410481.902    95861916.724                  
  20846723.224   109550268.434    20846723.653    85363844.696                  
                 111861891.398                   111861891.398    21481900.375  
                 127027342.090                   127027342.090    24394262.033  
                 124787624.204                   124787624.204    23964149.772  
                 124270456.292                   124270456.292    23864836.566  
                 112405981.146                   112405981.146    21586387.897  
  27623955.864   145164788.165                                                  
  27032020.552   142054221.735                                                  
  25847908.088   135831643.960                                                  
  22709589.204   119339679.246                                                  
  25852679.618   135856694.016                                                  
  23678456.206   124431070.855                                                  
 21  8 31 17 48 24.0000000  0 20G 5G13G15G16G18G20G23G26G29C19C20C22
                                C29C35E 2E 4E 5E 9E30E36
  21663639.275   113843196.176    21663639.686    88708984.680                  
  22163847.442   116471800.607    22163847.817    90757246.019                  
  21444465.076   112691425.625    21444465.773    87811500.446                  
  23903827.668   125615445.126    23903828.275    97882160.915                  
  20769070.258   109142204.250    20769071.044    85045876.266                  
  24258224.072   127477803.207    24258224.983    99333347.789                  
  22072391.299   115991192.102    22072392.728    90382747.095                  
  23410670.795   123023832.255    23410675.191    95862708.243                  
  20847080.801   109552147.499    20847081.212    85365308.902                  
                 111861768.914                   111861768.914    21481876.859  
                 127029939.911                   127029939.911    24394760.919  
                 124784701.312                   124784701.312    23963588.489  
                 124273124.911                   124273124.911    23865349.032  
                 112406209.168                   112406209.168    21586431.676  
  27624504.569   145167671.601                                                  
  27032397.106   142056200.443                                                  
  25847363.833   135828783.902                                                  
  22709463.942   119339021.020                                                  
  25852982.694   135858286.706                                                  
  23678576.446   124431702.660                                                  
 21  8 31 17 48 25.0000000  0 20G 5G13G15G16G18G20G23G26G29C19C20C22
                                C29C35E 2E 4E 5E 9E30E36
  21664141.287   113845834.198    21664141.680    88711040.284                  
  22163689.462   116470970.352    22163689.819    90756599.071                  
  21444066.060   112689328.786    21444066.757    87809866.548                  
  23903618.404   125614345.380    23903618.993    97881303.968                  
  20768788.875   109140725.667    20768789.679    85044724.121                  
  24258855.420   127481120.950    24258856.331    99335933.043                  
  22071866.861   115988436.229    22071868.308    90380599.664                  
  23410864.228   123024848.592    23410868.605    95863500.192                  
  20847438.486   109554027.110    20847438.897    85366773.532                  
                 111861646.965                   111861646.965    21481853.433  
                 127032538.016                   127032538.016    24395259.858  
                 124781778.710                   124781778.710    23963027.223  
                 124275793.777                   124275793.777    23865861.551  
                 112406437.617                   112406437.617    21586475.562  
  27625053.255   145170555.058                                                  
  27032773.696   142058179.473                                                  
  25846819.614   135825924.015                                                  
  22709338.787   119338363.249                                                  
  25853285.860   135859879.780                                                  
  23678696.705   124432334.684                                                  
 21  8 31 17 48 26.0000000  0 20G 5G13G15G16G18G20G23G26G29C19C20C22
                                C29C35E 2E 4E 5E 9E30E36
  21664643.335   113848472.558    21664643.746    88713096.149                  
  22163531.607   116470140.765    22163531.964    90755952.640                  
  21443667.152   112687232.536    21443667.867    87808233.106                  
  23903409.247   125613246.273    23903409.854    97880447.524                  
  20768507.580   109139247.383    20768508.384    85043572.211                  
  24259486.786   127484438.758    24259487.697    99338518.343                  
  22071342.494   115985680.715    22071343.942    90378452.507                  
  23411057.713   123025865.484    23411062.091    95864292.575                  
  20847796.259   109555907.270    20847796.706    85368238.594                  
                 111861525.548                   111861525.548    21481830.114  
                 127035136.407                   127035136.407    24395758.868  
                 124778856.391                   124778856.391    23962466.028  
                 124278462.891                   124278462.891    23866374.142  
                 112406666.499                   112406666.499    21586519.502  
  27625601.977   145173438.532                                                  
  27033150.357   142060158.864                                                  
  25846275.431   135823064.331                                                  
  22709213.704   119337705.976                                                  
  25853589.079   135861473.223                                                  
  23678817.017   124432966.923                                                  
 21  8 31 17 48 27.0000000  0 20G 5G13G15G16G18G20G23G26G29C19C20C22
                                C29C35E 2E 4E 5E 9E30E36
  21665145.454   113851111.231    21665145.865    88715152.258                  
  22163373.859   116469311.848    22163374.217    90755306.731                  
  21443268.352   112685136.879    21443269.084    87806600.125                  
  23903200.197   125612147.813    23903200.822    97879591.578                  
  20768226.322   109137769.383    20768227.126    85042420.523                  
  24260118.134   127487756.616    24260119.064    99341103.687                  
  22070818.217   115982925.532    22070819.647    90376305.609                  
  23411251.342   123026882.934    23411255.720    95865085.395                  
  20848154.140   109557787.981    20848154.587    85369704.081                  
                 111861404.661                   111861404.661    21481806.902  
                 127037735.085                   127037735.085    24396257.914  
                 124775934.363                   124775934.363    23961904.851  
                 124281132.257                   124281132.257    23866886.768  
                 112406895.806                   112406895.806    21586563.531  
  27626150.681   145176322.026                                                  
  27033527.107   142062138.590                                                  
  25845731.302   135820204.840                                                  
  22709088.728   119337049.173                                                  
  25853892.388   135863067.046                                                  
  23678937.383   124433599.376                                                  
 21  8 31 17 48 28.0000000  0 20G 5G13G15G16G18G20G23G26G29C19C20C22
                                C29C35E 2E 4E 5E 9E30E36
  21665647.645   113853750.228    21665648.056    88717208.617                  
  22163216.237   116468483.609    22163216.594    90754661.347                  
  21442869.694   112683041.809    21442870.408    87804967.605                  
  23902991.308   125611049.980    23902991.898    97878736.128                  
  20767945.117   109136291.668    20767945.921    85041269.059                  
  24260749.518   127491074.535    24260750.448    99343689.079                  
  22070293.976   115980170.704    22070295.423    90374158.992                  
  23411445.060   123027900.932    23411449.438    95865878.636                  
  20848512.146   109559669.250    20848512.575    85371170.003                  
                 111861284.305                   111861284.305    21481783.780  
                 127040334.046                   127040334.046    24396757.014  
                 124773012.616                   124773012.616    23961343.782  
                 124283801.870                   124283801.870    23867399.449  
                 112407125.543                   112407125.543    21586607.668  
  27626699.403   145179205.539                                                  
  27033903.876   142064118.656                                                  
  25845187.172   135817345.546                                                  
  22708963.823   119336392.849                                                  
  25854195.733   135864661.243                                                  
  23679057.766   124434232.040                                                  
 21  8 31 17 48 29.0000000  0 20G 5G13G15G16G18G20G23G26G29C19C20C22
                                C29C35E 2E 4E 5E 9E30E36
  21666149.908   113856389.550    21666150.301    88719265.231                  
  22163058.757   116467656.024    22163059.114    90754016.476                  
  21442471.125   112680947.320    21442471.822    87803335.535                  
  23902782.508   125609952.792    23902783.116    97877881.177                  
  20767663.984   109134814.253    20767664.788    85040117.828                  
  24261380.920   127494392.495    24261381.832    99346274.500                  
  22069769.824   115977416.210    22069771.253    90372012.636                  
  23411638.885   123028919.488    23411643.263    95866672.316                  
  20848870.241   109561551.074    20848870.688    85372636.359                  
                 111861164.484                   111861164.484    21481760.782  
                 127042933.294                   127042933.294    24397256.185  
                 124770091.164                   124770091.164    23960782.748  
                 124286471.734                   124286471.734    23867912.164  
                 112407355.708                   112407355.708    21586651.858  
  27627248.125   145182089.077                                                  
  27034280.733   142066099.071                                                  
  25844643.114   135814486.454                                                  
  22708839.026   119335737.005                                                  
  25854499.184   135866255.814                                                  
  23679178.204   124434864.921                                                  
 21  8 31 17 48 30.0000000  0 20G 5G13G15G16G18G20G23G26G29C19C20C22
                                C29C35E 2E 4E 5E 9E30E36
  21666652.206   113859029.201    21666652.599    88721322.102                  
  22162901.402   116466829.105    22162901.760    90753372.126                  
  21442072.664   112678853.418    21442073.379    87801703.921                  
  23902573.834   125608856.242    23902574.459    97877026.720                  
  20767382.904   109133337.122    20767383.672    85038966.817                  
  24262012.322   127497710.532    24262013.234    99348859.981                  
  22069245.725   115974662.055    22069247.155    90369866.543                  
  23411832.800   123029938.605    23411837.196    95867466.433                  
  20849228.444   109563433.446    20849228.872    85374103.140                  
                 111861045.199                   111861045.199    21481737.874  
                 127045532.827                   127045532.827    24397755.374  
                 124767169.996                   124767169.996    23960221.768  
                 124289141.848                   124289141.848    23868424.916  
                 112407586.297                   112407586.297    21586696.137  
  27627796.847   145184972.634                                                  
  27034657.680   142068079.812                                                  
  25844099.074   135811627.535                                                  
  22708714.300   119335081.631                                                  
  25854802.672   135867850.775                                                  
  23679298.677   124435498.020                                                  
 21  8 31 17 48 31.0000000  0 20G 5G13G15G16G18G20G23G26G29C19C20C22
                                C29C35E 2E 4E 5E 9E30E36
  21667154.576   113861669.177    21667154.987    88723379.222                  
  22162744.173   116466002.870    22162744.548    90752728.304                  
  21441674.328   112676760.106    21441675.024    87800072.773                  
  23902365.303   125607760.337    23902365.928    97876172.770                  
  20767101.860   109131860.282    20767102.664    85037816.030                  
  24262643.724   127501028.612    24262644.636    99351445.500                  
  22068721.698   115971908.257    22068723.128    90367720.726                  
  23412026.840   123030958.267    23412031.236    95868260.972                  
  20849586.753   109565316.382    20849587.182    85375570.368                  
                 111860926.445                   111860926.445    21481715.055  
                 127048132.649                   127048132.649    24398254.652  
                 124764249.113                   124764249.113    23959660.842  
                 124291812.208                   124291812.208    23868937.739  
                 112407817.317                   112407817.317    21586740.506  
  27628345.587   145187856.199                                                  
  27035034.663   142070060.911                                                  
  25843555.087   135808768.825                                                  
  22708589.682   119334426.739                                                  
  25855106.284   135869446.105                                                  
  23679419.185   124436131.335                                                  
 21  8 31 17 48 32.0000000  0 20G 5G13G15G16G18G20G23G26G29C19C20C22
                                C29C35E 2E 4E 5E 9E30E36
  21667656.999   113864309.473    21667657.428    88725436.598                  
  22162587.086   116465177.295    22162587.444    90752085.004                  
  21441276.081   112674667.375    21441276.795    87798442.074                  
  23902156.878   125606665.074    23902157.486    97875319.321                  
  20766820.888   109130383.735    20766821.674    85036665.477                  
  24263275.162   127504346.761    24263276.073    99354031.066                  
  22068197.725   115969154.796    22068199.154    90365575.175                  
  23412220.987   123031978.483    23412225.383    95869055.946                  
  20849945.188   109567199.890    20849945.599    85377038.036                  
                 111860808.221                   111860808.221    21481692.362  
                 127050732.749                   127050732.749    24398753.984  
                 124761328.518                   124761328.518    23959099.969  
                 124294482.819                   124294482.819    23869450.598  
                 112408048.766                   112408048.766    21586784.964  
  27628894.308   145190739.784                                                  
  27035411.717   142072042.350                                                  
  25843011.136   135805910.305                                                  
  22708465.135   119333772.322                                                  
  25855409.915   135871041.817                                                  
  23679539.748   124436764.859                                                  
 21  8 31 17 48 33.0000000  0 20G 5G13G15G16G18G20G23G26G29C19C20C22
                                C29C35E 2E 4E 5E 9E30E36
  21668159.494   113866950.087    21668159.905    88727494.219                  
  22162430.107   116464352.396    22162430.464    90751442.222                  
  21440877.959   112672575.251    21440878.674    87796811.847                  
  23901948.579   125605570.440    23901949.187    97874466.359                  
  20766539.969   109128907.475    20766540.755    85035515.145                  
  24263906.582   127507664.961    24263907.493    99356616.672                  
  22067673.823   115966401.679    22067675.252    90363429.891                  
  23412415.241   123032999.255    23412419.619    95869851.353                  
  20850303.694   109569083.941    20850304.141    85378506.125                  
                 111860690.532                   111860690.532    21481669.758  
                 127053333.140                   127053333.140    24399253.352  
                 124758408.214                   124758408.214    23958539.167  
                 124297153.680                   124297153.680    23869963.528  
                 112408280.641                   112408280.641    21586829.476  
  27629443.048   145193623.399                                                  
  27035788.843   142074024.133                                                  
  25842467.203   135803051.979                                                  
  22708340.695   119333118.383                                                  
  25855713.635   135872637.896                                                  
  23679660.346   124437398.594                                                  
 21  8 31 17 48 34.0000000  0 20G 5G13G15G16G18G20G23G26G29C19C20C22
                                C29C35E 2E 4E 5E 9E30E36
  21668662.060   113869591.023    21668662.453    88729552.089                  
  22162273.252   116463528.159    22162273.628    90750799.965                  
  21440479.962   112670483.702    21440480.659    87795182.071                  
  23901740.405   125604476.466    23901740.995    97873613.910                  
  20766259.085   109127431.503    20766259.872    85034365.034                  
  24264538.019   127510983.215    24264538.949    99359202.324                  
  22067149.993   115963648.911    22067151.422    90361284.875                  
  23412609.584   123034020.581    23412613.980    95870647.191                  
  20850662.343   109570968.552    20850662.754    85379974.649                  
                 111860573.375                   111860573.375    21481647.260  
                 127055933.813                   127055933.813    24399752.773  
                 124755488.198                   124755488.198    23957978.402  
                 124299824.788                   124299824.788    23870476.476  
                 112408512.946                   112408512.946    21586874.095  
  27629991.788   145196507.023                                                  
  27036166.023   142076006.250                                                  
  25841923.323   135800193.856                                                  
  22708216.362   119332464.931                                                  
  25856017.444   135874234.362                                                  
  23679780.979   124438032.547                                                  
 21  8 31 17 48 35.0000000  0 20G 5G13G15G16G18G20G23G26G29C19C20C22
                                C29C35E 2E 4E 5E 9E30E36
  21669164.662   113872232.282    21669165.073    88731610.215                  
  22162116.541   116462704.597    22162116.899    90750158.226                  
  21440082.055   112668392.746    21440082.752    87793552.753                  
  23901532.338   125603383.117    23901532.963    97872761.949                  
  20765978.274   109125955.828    20765979.078    85033215.160                  
  24265169.475   127514301.525    24265170.404    99361788.020                  
  22066626.216   115960896.472    22066627.663    90359140.117                  
  23412804.035   123035042.458    23412808.449    95871443.457                  
  20851021.064   109572853.703    20851021.493    85381443.601                  
                 111860456.750                   111860456.750    21481624.853  
                 127058534.774                   127058534.774    24400252.284  
                 124752568.470                   124752568.470    23957417.672  
                 124302496.149                   124302496.149    23870989.478  
                 112408745.681                   112408745.681    21586918.803  
  27630540.528   145199390.664                                                  
  27036543.273   142077988.708                                                  
  25841379.480   135797335.915                                                  
  22708092.101   119331811.943                                                  
  25856321.324   135875831.192                                                  
  23679901.667   124438666.707                                                  
 21  8 31 17 48 36.0000000  0 20G 5G13G15G16G18G20G23G26G29C19C20C22
                                C29C35E 2E 4E 5E 9E30E36
  21669667.336   113874873.866    21669667.765    88733668.595                  
  22161959.937   116461881.696    22161960.294    90749517.004                  
  21439684.272   112666302.383    21439684.987    87791923.898                  
  23901324.396   125602290.413    23901325.022    97871910.497                  
  20765697.516   109124480.434    20765698.320    85032065.500                  
  24265800.948   127517619.884    24265801.860    99364373.750                  
  22066102.528   115958144.382    22066103.940    90356995.634                  
  23412998.593   123036064.888    23413003.007    95872240.155                  
  20851379.892   109574739.406    20851380.339    85382912.979                  
                 111860340.660                   111860340.660    21481602.588  
                 127061136.014                   127061136.014    24400751.812  
                 124749649.023                   124749649.023    23956857.049  
                 124305167.755                   124305167.755    23871502.534  
                 112408978.840                   112408978.840    21586963.565  
  27631089.268   145202274.329                                                  
  27036920.596   142079971.515                                                  
  25840835.654   135794478.176                                                  
  22707967.947   119331159.445                                                  
  25856625.259   135877428.409                                                  
  23680022.372   124439301.094                                                  
 21  8 31 17 48 37.0000000  0 20G 5G13G15G16G18G20G23G26G29C19C20C22
                                C29C35E 2E 4E 5E 9E30E36
  21670170.081   113877515.774    21670170.492    88735727.219                  
  22161803.476   116461059.469    22161803.833    90748876.308                  
  21439286.597   112664212.592    21439287.312    87790295.492                  
  23901116.597   125601198.356    23901117.205    97871059.540                  
  20765416.811   109123005.340    20765417.615    85030916.078                  
  24266432.422   127520938.296    24266433.333    99366959.528                  
  22065578.877   115955392.638    22065580.306    90354851.418                  
  23413193.276   123037087.875    23413197.654    95873037.290                  
  20851738.845   109576625.661    20851739.274    85384382.786                  
                 111860225.103                   111860225.103    21481580.377  
                 127063737.542                   127063737.542    24401251.412  
                 124746729.871                   124746729.871    23956296.444  
                 124307839.613                   124307839.613    23872015.643  
                 112409212.430                   112409212.430    21587008.416  
  27631638.008   145205158.012                                                  
  27037297.972   142081954.659                                                  
  25840291.899   135791620.633                                                  
  22707843.865   119330507.419                                                  
  25856929.264   135879026.008                                                  
  23680143.149   124439935.686                                                  
 21  8 31 17 48 38.0000000  0 20G 5G13G15G16G18G20G23G26G29C19C20C22
                                C29C35E 2E 4E 5E 9E30E36
  21670672.879   113880158.001    21670673.308    88737786.098                  
  22161647.140   116460237.912    22161647.497    90748236.133                  
  21438889.047   112662123.406    21438889.762    87788667.559                  
  23900908.906   125600106.929    23900909.513    97870209.077                  
  20765136.178   109121530.530    20765136.964    85029766.876                  
  24267063.895   127524256.761    24267064.824    99369545.343                  
  22065055.296   115952641.235    22065056.726    90352707.469                  
  23413388.048   123038111.419    23413392.444    95873834.855                  
  20852097.905   109578512.462    20852098.316    85385853.022                  
                 111860110.074                   111860110.074    21481558.273  
                 127066339.358                   127066339.358    24401751.066  
                 124743811.003                   124743811.003    23955735.893  
                 124310511.718                   124310511.718    23872528.787  
                 112409446.448                   112409446.448    21587053.357  
  27632186.765   145208041.718                                                  
  27037675.419   142083938.140                                                  
  25839748.163   135788763.281                                                  
  22707719.871   119329855.872                                                  
  25857233.359   135880623.974                                                  
  23680263.943   124440570.501                                                  
 21  8 31 17 48 39.0000000  0 20G 5G13G15G16G18G20G23G26G29C19C20C22
                                C29C35E 2E 4E 5E 9E30E36
  21671175.732   113882800.551    21671176.160    88739845.225                  
  22161490.929   116459417.020    22161491.286    90747596.478                  
  21438491.604   112660034.809    21438492.301    87787040.079                  
  23900701.339   125599016.144    23900701.947    97869359.118                  
  20764855.581   109120056.011    20764856.385    85028617.902                  
  24267695.404   127527575.294    24267696.316    99372131.210                  
  22064531.788   115949890.180    22064533.217    90350563.788                  
  23413582.928   123039135.512    23413587.324    95874632.847                  
  20852457.037   109580399.820    20852457.483    85387323.691                  
                 111859995.583                   111859995.583    21481536.294  
                 127068941.456                   127068941.456    24402250.773  
                 124740892.423                   124740892.423    23955175.413  
                 124313184.074                   124313184.074    23873041.986  
                 112409680.896                   112409680.896    21587098.405  
  27632735.523   145210925.432                                                  
  27038052.920   142085921.971                                                  
  25839204.462   135785906.132                                                  
  22707595.985   119329204.800                                                  
  25857537.508   135882222.324                                                  
  23680384.774   124441205.528                                                  
 21  8 31 17 48 40.0000000  0 20G 5G13G15G16G18G20G23G26G29C19C20C22
                                C29C35E 2E 4E 5E 9E30E36
  21671678.655   113885443.409    21671679.084    88741904.598                  
  22161334.843   116458596.792    22161335.200    90746957.339                  
  21438094.269   112657946.800    21438094.966    87785413.059                  
  23900493.880   125597926.005    23900494.505    97868509.657                  
  20764575.037   109118581.785    20764575.841    85027469.152                  
  24268326.896   127530893.879    24268327.843    99374717.121                  
  22064008.332   115947139.461    22064009.780    90348420.375                  
  23413777.897   123040160.148    23413782.293    95875431.265                  
  20852816.293   109582287.726    20852816.740    85388794.785                  
                 111859881.622                   111859881.622    21481514.422  
                 127071543.839                   127071543.839    24402750.534  
                 124737974.134                   124737974.134    23954615.005  
                 124315856.677                   124315856.677    23873555.238  
                 112409915.771                   112409915.771    21587143.506  
  27633284.281   145213809.177                                                  
  27038430.492   142087906.146                                                  
  25838660.797   135783049.165                                                  
  22707472.189   119328554.206                                                  
  25857841.746   135883821.044                                                  
  23680505.658   124441840.765                                                  
 21  8 31 17 48 41.0000000  0 20G 5G13G15G16G18G20G23G26G29C19C20C22
                                C29C35E 2E 4E 5E 9E30E36
  21672181.632   113888086.605    21672182.061    88743964.231                  
  22161178.882   116457777.242    22161179.239    90746318.730                  
  21437697.040   112655859.374    21437697.737    87783786.493                  
  23900286.563   125596836.509    23900287.189    97867660.694                  
  20764294.565   109117107.847    20764295.351    85026320.629                  
  24268958.423   127534212.523    24268959.334    99377303.075                  
  22063484.967   115944389.087    22063486.396    90346277.227                  
  23413973.009   123041185.339    23413977.387    95876230.117                  
  20853175.657   109584176.188    20853176.104    85390266.313                  
                 111859768.193                   111859768.193    21481492.640  
                 127074146.504                   127074146.504    24403250.349  
                 124735056.130                   124735056.130    23954054.614  
                 124318529.526                   124318529.526    23874068.525  
                 112410151.071                   112410151.071    21587188.679  
  27633833.038   145216692.929                                                  
  27038808.136   142089890.649                                                  
  25838117.168   135780192.403                                                  
  22707348.464   119327904.091                                                  
  25858146.038   135885420.145                                                  
  23680626.577   124442476.214                                                  
 21  8 31 17 48 42.0000000  0 20G 5G13G15G16G18G20G23G26G29C19C20C22
                                C29C35E 2E 4E 5E 9E30E36
  21672684.699   113890730.126    21672685.092    88746024.117                  
  22161023.064   116456958.351    22161023.422    90745680.632                  
  21437299.919   112653772.526    21437300.616    87782160.383                  
  23900079.354   125595747.638    23900079.962    97866812.226                  
  20764014.147   109115634.202    20764014.933    85025172.337                  
  24269589.967   127537531.211    24269590.879    99379889.065                  
  22062961.654   115941639.063    22062963.084    90344134.351                  
  23414168.192   123042211.102    23414172.588    95877029.410                  
  20853535.128   109586065.195    20853535.557    85391738.267                  
                 111859655.296                   111859655.296    21481470.965  
                 127076749.457                   127076749.457    24403750.217  
                 124732138.414                   124732138.414    23953494.295  
                 124321202.629                   124321202.629    23874581.867  
                 112410386.801                   112410386.801    21587233.959  
  27634381.796   145219576.706                                                  
  27039185.834   142091875.504                                                  
  25837573.574   135777335.823                                                  
  22707224.846   119327254.448                                                  
  25858450.401   135887019.622                                                  
  23680747.533   124443111.883                                                  
 21  8 31 17 48 43.0000000  0 20G 5G13G15G16G18G20G23G26G29C19C20C22
                                C29C35E 2E 4E 5E 9E30E36
  21673187.801   113893373.958    21673188.194    88748084.247                  
  22160867.354   116456140.133    22160867.729    90745043.062                  
  21436902.923   112651686.289    21436903.638    87780534.743                  
  23899872.288   125594659.421    23899872.878    97865964.267                  
  20763733.764   109114160.848    20763734.568    85024024.266                  
  24270221.477   127540849.958    24270222.424    99382475.097                  
  22062438.396   115938889.376    22062439.843    90341991.738                  
  23414363.500   123043237.399    23414367.878    95877829.125                  
  20853894.707   109587954.762    20853895.135    85393210.657                  
                 111859542.934                   111859542.934    21481449.379  
                 127079352.692                   127079352.692    24404250.138  
                 124729220.988                   124729220.988    23952934.048  
                 124323875.979                   124323875.979    23875095.262  
                 112410622.961                   112410622.961    21587279.293  
  27634930.554   145222460.488                                                  
  27039563.621   142093860.699                                                  
  25837030.034   135774479.452                                                  
  22707101.299   119326605.298                                                  
  25858754.835   135888619.471                                                  
  23680868.542   124443747.761                                                  
 21  8 31 17 48 44.0000000  0 20G 5G13G15G16G18G20G23G26G29C19C20C22
                                C29C35E 2E 4E 5E 9E30E36
  21673690.957   113896018.111    21673691.386    88750144.620                  
  22160711.786   116455322.590    22160712.143    90744406.015                  
  21436506.034   112649600.642    21436506.731    87778909.563                  
  23899665.329   125593571.844    23899665.919    97865116.804                  
  20763453.452   109112687.781    20763454.239    85022876.422                  
  24270853.039   127544168.757    24270853.968    99385061.175                  
  22061915.227   115936140.030    22061916.638    90339849.395                  
  23414558.898   123044264.259    23414563.276    95878629.273                  
  20854254.374   109589844.867    20854254.803    85394683.466                  
                 111859431.101                   111859431.101    21481427.900  
                 127081956.214                   127081956.214    24404750.114  
                 124726303.848                   124726303.848    23952373.836  
                 124326549.579                   124326549.579    23875608.692  
                 112410859.552                   112410859.552    21587324.734  
  27635479.347   145225344.300                                                  
  27039941.461   142095846.229                                                  
  25836486.512   135771623.274                                                  
  22706977.860   119325956.618                                                  
  25859059.359   135890219.702                                                  
  23680989.604   124444383.855                                                  
 21  8 31 17 48 45.0000000  0 20G 5G13G15G16G18G20G23G26G29C19C20C22
                                C29C35E 2E 4E 5E 9E30E36
  21674194.203   113898662.597    21674194.596    88752205.262                  
  22160556.343   116454505.716    22160556.701    90743769.487                  
  21436109.253   112647515.569    21436109.967    87777284.832                  
  23899458.477   125592484.913    23899459.085    97864269.847                  
  20763173.177   109111214.999    20763173.981    85021728.802                  
  24271484.602   127547487.613    24271485.513    99387647.298                  
  22061392.093   115933391.039    22061393.540    90337707.324                  
  23414754.403   123045291.665    23414758.799    95879429.852                  
  20854614.167   109591735.544    20854614.596    85396156.718                  
                 111859319.806                   111859319.806    21481406.529  
                 127084560.016                   127084560.016    24405250.160  
                 124723387.001                   124723387.001    23951813.678  
                 124329223.427                   124329223.427    23876122.176  
                 112411096.568                   112411096.568    21587370.264  
  27636028.123   145228228.129                                                  
  27040319.355   142097832.105                                                  
  25835943.044   135768767.290                                                  
  22706854.528   119325308.419                                                  
  25859363.937   135891820.306                                                  
  23681110.685   124445020.173                                                  
 21  8 31 17 48 46.0000000  0 20G 5G13G15G16G18G20G23G26G29C19C20C22
                                C29C35E 2E 4E 5E 9E30E36
  21674697.484   113901307.387    21674697.877    88754266.136                  
  22160401.026   116453689.505    22160401.383    90743133.483                  
  21435712.596   112645431.098    21435713.293    87775660.566                  
  23899251.768   125591398.621    23899252.376    97863423.383                  
  20762892.973   109109742.516    20762893.777    85020581.410                  
  24272116.165   127550806.527    24272117.094    99390233.460                  
  22060869.067   115930642.382    22060870.478    90335565.511                  
  23414950.015   123046319.629    23414954.411    95880230.860                  
  20854974.031   109593626.758    20854974.478    85397630.391                  
                 111859209.040                   111859209.040    21481385.265  
                 127087164.106                   127087164.106    24405750.243  
                 124720470.437                   124720470.437    23951253.573  
                 124331897.524                   124331897.524    23876635.714  
                 112411334.010                   112411334.010    21587415.866  
  27636576.898   145231111.981                                                  
  27040697.321   142099818.313                                                  
  25835399.593   135765911.487                                                  
  22706731.268   119324660.683                                                  
  25859668.603   135893421.288                                                  
  23681231.801   124445656.696                                                  
 21  8 31 17 48 47.0000000  0 20G 5G13G15G16G18G20G23G26G29C19C20C22
                                C29C35E 2E 4E 5E 9E30E36
  21675200.836   113903952.507    21675201.247    88756327.269                  
  22160245.815   116452873.978    22160246.173    90742498.008                  
  21435316.065   112643347.223    21435316.761    87774036.770                  
  23899045.167   125590312.960    23899045.774    97862577.419                  
  20762612.840   109108270.327    20762613.644    85019434.254                  
  24272747.745   127554125.496    24272748.675    99392819.668                  
  22060346.058   115927894.074    22060347.506    90333423.977                  
  23415145.735   123047348.144    23415150.148    95881032.301                  
  20855334.039   109595518.532    20855334.485    85399104.499                  
                 111859098.803                   111859098.803    21481364.072  
                 127089768.478                   127089768.478    24406250.379  
                 124717554.160                   124717554.160    23950693.540  
                 124334571.871                   124334571.871    23877149.306  
                 112411571.884                   112411571.884    21587461.539  
  27637125.674   145233995.837                                                  
  27041075.340   142101804.876                                                  
  25834856.196   135763055.894                                                  
  22706608.097   119324013.441                                                  
  25859973.342   135895022.649                                                  
  23681352.989   124446293.427                                                  
 21  8 31 17 48 48.0000000  0 20G 5G13G15G16G18G20G23G26G29C19C20C22
                                C29C35E 2E 4E 5E 9E30E36
  21675704.242   113906597.951    21675704.635    88758388.649                  
  22160090.766   116452059.102    22160091.123    90741863.039                  
  21434919.622   112641263.926    21434920.319    87772413.422                  
  23898838.708   125589227.945    23898839.298    97861731.950                  
  20762332.743   109106798.422    20762333.547    85018287.313                  
  24273379.344   127557444.513    24273380.255    99395405.910                  
  22059823.139   115925146.110    22059824.587    90331282.704                  
  23415341.561   123048377.214    23415345.957    95881834.171                  
  20855694.135   109597410.855    20855694.582    85400579.039                  
                 111858989.105                   111858989.105    21481343.022  
                 127092373.138                   127092373.138    24406750.586  
                 124714638.177                   124714638.177    23950133.561  
                 124337246.466                   124337246.466    23877662.915  
                 112411810.184                   112411810.184    21587507.302  
  27637674.467   145236879.722                                                  
  27041453.449   142103791.765                                                  
  25834312.835   135760200.499                                                  
  22706485.015   119323366.668                                                  
  25860278.134   135896624.385                                                  
  23681474.177   124446930.378                                                  
 21  8 31 17 48 49.0000000  0 20G 5G13G15G16G18G20G23G26G29C19C20C22
                                C29C35E 2E 4E 5E 9E30E36
  21676207.720   113909243.708    21676208.113    88760450.280                  
  22159935.823   116451244.898    22159936.181    90741228.597                  
  21434523.305   112639181.231    21434524.002    87770790.542                  
  23898632.339   125588143.567    23898632.964    97860886.980                  
  20762052.700   109105326.811    20762053.504    85017140.606                  
  24274010.942   127560763.586    24274011.854    99397992.203                  
  22059300.274   115922398.489    22059301.721    90329141.703                  
  23415537.495   123049406.833    23415541.873    95882636.474                  
  20856054.339   109599303.739    20856054.786    85402054.011                  
                 111858879.938                   111858879.938    21481322.062  
                 127094978.073                   127094978.073    24407250.848  
                 124711722.481                   124711722.481    23949573.635  
                 124339921.304                   124339921.304    23878176.596  
                 112412048.915                   112412048.915    21587553.136  
  27638223.261   145239763.622                                                  
  27041831.593   142105779.005                                                  
  25833769.492   135757345.293                                                  
  22706362.040   119322720.376                                                  
  25860582.997   135898226.492                                                  
  23681595.418   124447567.547                                                  
 21  8 31 17 48 50.0000000  0 20G 5G13G15G16G18G20G23G26G29C19C20C22
                                C29C35E 2E 4E 5E 9E30E36
  21676711.233   113911889.773    21676711.662    88762512.147                  
  22159781.024   116450431.372    22159781.364    90740594.676                  
  21434127.078   112637099.128    21434127.775    87769168.124                  
  23898426.112   125587059.837    23898426.738    97860042.515                  
  20761772.728   109103855.493    20761773.514    85015994.122                  
  24274642.541   127564082.720    24274643.488    99400578.539                  
  22058777.498   115919651.206    22058778.927    90327000.965                  
  23415733.536   123050437.015    23415737.914    95883439.211                  
  20856414.668   109601197.177    20856415.079    85403529.415                  
                 111858771.301                   111858771.301    21481301.209  
                 127097583.300                   127097583.300    24407751.144  
                 124708807.071                   124708807.071    23949013.763  
                 124342596.399                   124342596.399    23878690.312  
                 112412288.074                   112412288.074    21587599.077  
  27638772.036   145242647.542                                                  
  27042209.826   142107766.581                                                  
  25833226.220   135754490.286                                                  
  22706239.137   119322074.560                                                  
  25860887.968   135899828.979                                                  
  23681716.713   124448204.927                                                  
 21  8 31 17 48 51.0000000  0 20G 5G13G15G16G18G20G23G26G29C19C20C22
                                C29C35E 2E 4E 5E 9E30E36
  21677214.836   113914536.168    21677215.247    88764574.273                  
  22159626.314   116449618.507    22159626.672    90739961.277                  
  21433730.975   112635017.618    21433731.672    87767546.171                  
  23898220.029   125585976.738    23898220.618    97859198.539                  
  20761492.792   109102384.457    20761493.578    85014847.860                  
  24275274.157   127567401.909    24275275.104    99403164.918                  
  22058254.775   115916904.278    22058256.205    90324860.499                  
  23415929.685   123051467.734    23415934.062    95884242.366                  
  20856775.068   109603091.164    20856775.497    85405005.251                  
                 111858663.199                   111858663.199    21481280.445  
                 127100188.809                   127100188.809    24408251.495  
                 124705891.943                   124705891.943    23948453.944  
                 124345271.752                   124345271.752    23879204.100  
                 112412527.665                   112412527.665    21587645.072  
  27639320.848   145245531.477                                                  
  27042588.114   142109754.505                                                  
  25832682.966   135751635.472                                                  
  22706116.341   119321429.230                                                  
  25861192.956   135901431.839                                                  
  23681838.044   124448842.524                                                  
 21  8 31 17 48 52.0000000  0 20G 5G13G15G16G18G20G23G26G29C19C20C22
                                C29C35E 2E 4E 5E 9E30E36
  21677718.474   113917182.870    21677718.903    88766636.640                  
  22159471.783   116448806.322    22159472.140    90739328.405                  
  21433334.997   112632936.692    21433335.694    87765924.668                  
  23898014.017   125584894.281    23898014.642    97858355.071                  
  20761212.927   109100913.712    20761213.713    85013701.825                  
  24275905.791   127570721.149    24275906.721    99405751.336                  
  22057732.124   115914157.684    22057733.536    90322720.300                  
  23416125.922   123052499.011    23416130.318    95885045.961                  
  20857135.576   109604985.697    20857136.022    85406481.508                  
                 111858555.629                   111858555.629    21481259.789  
                 127102794.603                   127102794.603    24408751.917  
                 124702977.108                   124702977.108    23947894.179  
                 124347947.344                   124347947.344    23879717.924  
                 112412767.678                   112412767.678    21587691.174  
  27639869.641   145248415.426                                                  
  27042966.454   142111742.767                                                  
  25832139.747   135748780.844                                                  
  22705993.617   119320784.362                                                  
  25861498.052   135903035.078                                                  
  23681959.428   124449480.323                                                  
 21  8 31 17 48 53.0000000  0 20G 5G13G15G16G18G20G23G26G29C19C20C22
                                C29C35E 2E 4E 5E 9E30E36
  21678222.202   113919829.904    21678222.595    88768699.262                  
  22159317.341   116447994.797    22159317.698    90738696.051                  
  21432939.127   112630856.362    21432939.824    87764303.636                  
  23897808.166   125583812.476    23897808.773    97857512.106                  
  20760933.098   109099443.263    20760933.902    85012556.020                  
  24276537.444   127574040.445    24276538.355    99408337.800                  
  22057209.527   115911411.436    22057210.938    90320580.367                  
  23416322.285   123053530.848    23416326.663    95885849.987                  
  20857496.208   109606880.784    20857496.637    85407958.204                  
                 111858448.591                   111858448.591    21481239.221  
                 127105400.675                   127105400.675    24409252.375  
                 124700062.567                   124700062.567    23947334.468  
                 124350623.180                   124350623.180    23880231.784  
                 112413008.125                   112413008.125    21587737.365  
  27640418.435   145251299.399                                                  
  27043344.885   142113731.372                                                  
  25831596.565   135745926.421                                                  
  22705870.999   119320139.989                                                  
  25861803.201   135904638.687                                                  
  23682080.848   124450118.354                                                  
 21  8 31 17 48 54.0000000  0 20G 5G13G15G16G18G20G23G26G29C19C20C22
                                C29C35E 2E 4E 5E 9E30E36
  21678725.983   113922477.257    21678726.377    88770762.137                  
  22159163.042   116447183.941    22159163.399    90738064.215                  
  21432543.364   112628776.625    21432544.061    87762683.064                  
  23897602.422   125582731.305    23897603.047    97856669.633                  
  20760653.341   109097973.101    20760654.145    85011410.442                  
  24277169.096   127577359.796    24277170.025    99410924.308                  
  22056686.983   115908665.535    22056688.412    90318440.704                  
  23416518.719   123054563.228    23416523.115    95886654.437                  
  20857856.948   109608776.423    20857857.359    85409435.321                  
                 111858342.082                   111858342.082    21481218.761  
                 127108007.036                   127108007.036    24409752.922  
