% program   : rnx2rtkp ver.2.4.3 b31
% inp file  : ngs/21_08_31_21_19_43_mego.obs
% inp file  : ngs/21_08_31_21_19_43_mego_SNME.obs
% inp file  : ngs/21_08_31_21_19_43_brdc.nav
% obs start : 2021/08/31 21:00:00.0 GPST (week2173 248400.0s)
% obs end   : 2021/08/31 21:59:59.0 GPST (week2173 251999.0s)
% ref pos   :  1545914.5119  -4353699.7972   4382537.4995
%
% (x/y/z-ecef=WGS84,Q=1:fix,2:float,3:sbas,4:dgps,5:single,6:ppp,ns=# of satellites)
%  GPST              x-ecef(m)      y-ecef(m)      z-ecef(m)   Q  ns   sdx(m)   sdy(m)   sdz(m)  sdxy(m)  sdyz(m)  sdzx(m) age(s)  ratio
2173 249559.000   1545936.3034  -4353761.5198   4382599.6413   2   6   0.5467   1.0600   0.7918  -0.5398  -0.6688   0.2857 -30.00    2.8
2173 249560.000   1545936.2769  -4353761.1582   4382599.6993   1   6   0.0311   0.0547   0.0441  -0.0317  -0.0361   0.0166 -29.00    3.4
2173 249561.000   1545936.2784  -4353761.1573   4382599.6978   1   6   0.0301   0.0529   0.0426  -0.0307  -0.0349   0.0160 -28.00    3.5
2173 249562.000   1545936.2787  -4353761.1532   4382599.6935   1   6   0.0291   0.0511   0.0412  -0.0296  -0.0337   0.0155 -27.00    3.7
2173 249563.000   1545936.2789  -4353761.1513   4382599.6915   1   6   0.0280   0.0493   0.0397  -0.0286  -0.0325   0.0149 -26.00    4.1
2173 249564.000   1545936.2767  -4353761.1467   4382599.6901   1   6   0.0270   0.0475   0.0382  -0.0275  -0.0313   0.0144 -25.00    4.2
2173 249565.000   1545936.2819  -4353761.1520   4382599.6903   1   6   0.0260   0.0457   0.0368  -0.0265  -0.0301   0.0139 -24.00    4.3
2173 249566.000   1545936.2828  -4353761.1497   4382599.6891   1   6   0.0250   0.0439   0.0353  -0.0254  -0.0289   0.0133 -23.00    4.8
2173 249567.000   1545936.2845  -4353761.1528   4382599.6904   1   6   0.0240   0.0421   0.0339  -0.0244  -0.0277   0.0128 -22.00    5.0
2173 249568.000   1545936.2833  -4353761.1468   4382599.6843   1   6   0.0229   0.0403   0.0324  -0.0233  -0.0265   0.0122 -21.00    5.3
2173 249569.000   1545936.2855  -4353761.1478   4382599.6856   1   6   0.0219   0.0386   0.0310  -0.0223  -0.0254   0.0117 -20.00    5.5
2173 249570.000   1545936.2863  -4353761.1510   4382599.6853   1   6   0.0209   0.0368   0.0295  -0.0213  -0.0242   0.0111 -19.00    5.5
2173 249571.000   1545936.2870  -4353761.1491   4382599.6812   1   6   0.0199   0.0350   0.0281  -0.0202  -0.0230   0.0106 -18.00    5.4
2173 249572.000   1545936.2873  -4353761.1492   4382599.6818   1   6   0.0189   0.0333   0.0266  -0.0192  -0.0219   0.0100 -17.00    5.7
2173 249573.000   1545936.2893  -4353761.1453   4382599.6790   1   6   0.0179   0.0315   0.0252  -0.0182  -0.0207   0.0095 -16.00    6.1
2173 249574.000   1545936.2890  -4353761.1452   4382599.6783   1   6   0.0169   0.0298   0.0238  -0.0172  -0.0195   0.0090 -15.00    6.7
2173 249575.000   1545936.2899  -4353761.1457   4382599.6796   1   6   0.0159   0.0281   0.0224  -0.0162  -0.0184   0.0084 -14.00    7.0
2173 249576.000   1545936.2905  -4353761.1454   4382599.6776   1   6   0.0149   0.0264   0.0210  -0.0151  -0.0173   0.0079 -13.00    7.4
2173 249577.000   1545936.2918  -4353761.1437   4382599.6772   1   6   0.0140   0.0248   0.0196  -0.0142  -0.0162   0.0074 -12.00    8.0
2173 249578.000   1545936.2926  -4353761.1422   4382599.6756   1   6   0.0130   0.0231   0.0183  -0.0132  -0.0151   0.0069 -11.00    8.9
2173 249579.000   1545936.2940  -4353761.1411   4382599.6740   1   6   0.0121   0.0215   0.0170  -0.0122  -0.0140   0.0063 -10.00    9.7
2173 249580.000   1545936.2946  -4353761.1425   4382599.6738   1   6   0.0112   0.0199   0.0157  -0.0113  -0.0129   0.0059  -9.00   10.5
2173 249581.000   1545936.2955  -4353761.1404   4382599.6741   1   6   0.0102   0.0184   0.0144  -0.0103  -0.0119   0.0054  -8.00   11.9
2173 249582.000   1545936.2969  -4353761.1406   4382599.6714   1   6   0.0094   0.0169   0.0132  -0.0095  -0.0109   0.0049  -7.00   13.7
2173 249583.000   1545936.2974  -4353761.1396   4382599.6717   1   6   0.0085   0.0156   0.0120  -0.0086  -0.0100   0.0045  -6.00   15.8
2173 249584.000   1545936.2980  -4353761.1371   4382599.6704   1   6   0.0077   0.0143   0.0109  -0.0077  -0.0092   0.0041  -5.00   17.7
2173 249585.000   1545936.2968  -4353761.1381   4382599.6711   1   6   0.0071   0.0132   0.0100  -0.0070  -0.0084   0.0036  -4.00   21.4
2173 249586.000   1545936.2988  -4353761.1427   4382599.6710   1   6   0.0066   0.0122   0.0092  -0.0064  -0.0077   0.0034  -3.00   25.4
2173 249587.000   1545936.3002  -4353761.1436   4382599.6678   1   6   0.0060   0.0113   0.0084  -0.0060  -0.0072   0.0031  -2.00   31.1
2173 249588.000   1545936.3000  -4353761.1437   4382599.6683   1   6   0.0054   0.0109   0.0080  -0.0056  -0.0069   0.0030  -1.00   38.7
2173 249589.000   1545936.2997  -4353761.1417   4382599.6657   1   6   0.0055   0.0107   0.0079  -0.0055  -0.0067   0.0031   0.00   50.7
2173 249590.000   1545936.3012  -4353761.1421   4382599.6654   1   6   0.0057   0.0107   0.0079  -0.0054  -0.0067   0.0030   0.00   65.8
2173 249591.000   1545936.2992  -4353761.1364   4382599.6624   1   6   0.0057   0.0106   0.0079  -0.0056  -0.0067   0.0025   0.00   83.4
2173 249592.000   1545936.2990  -4353761.1371   4382599.6642   1   6   0.0055   0.0107   0.0080  -0.0054  -0.0067   0.0029   0.00   98.5
2173 249593.000   1545936.2989  -4353761.1377   4382599.6633   1   6   0.0055   0.0108   0.0079  -0.0054  -0.0068   0.0027   0.00  118.9
2173 249594.000   1545936.2987  -4353761.1376   4382599.6617   1   6   0.0053   0.0107   0.0080  -0.0054  -0.0067   0.0030   0.00  136.5
2173 249595.000   1545936.3005  -4353761.1384   4382599.6620   1   6   0.0057   0.0107   0.0080  -0.0055  -0.0067   0.0030   0.00  155.3
2173 249596.000   1545936.2996  -4353761.1369   4382599.6636   1   6   0.0054   0.0109   0.0080  -0.0053  -0.0068   0.0030   0.00  172.0
2173 249597.000   1545936.3002  -4353761.1372   4382599.6635   1   6   0.0055   0.0107   0.0079  -0.0055  -0.0067   0.0025   0.00  179.7
2173 249598.000   1545936.3016  -4353761.1410   4382599.6654   1   6   0.0057   0.0107   0.0079  -0.0054  -0.0067   0.0027   0.00  192.1
2173 249599.000   1545936.2997  -4353761.1410   4382599.6646   1   6   0.0056   0.0107   0.0078  -0.0055  -0.0067   0.0028   0.00  204.9
2173 249600.000   1545936.3001  -4353761.1389   4382599.6652   1   6   0.0055   0.0107   0.0080  -0.0055  -0.0067   0.0028   0.00  219.4
2173 249601.000   1545936.3013  -4353761.1385   4382599.6638   1   6   0.0055   0.0107   0.0080  -0.0054  -0.0067   0.0028   0.00  227.1
2173 249602.000   1545936.3001  -4353761.1384   4382599.6632   1   6   0.0054   0.0108   0.0080  -0.0053  -0.0067   0.0031   0.00  229.6
2173 249603.000   1545936.3019  -4353761.1412   4382599.6635   1   6   0.0055   0.0107   0.0079  -0.0055  -0.0067   0.0028   0.00  234.0
2173 249604.000   1545936.3000  -4353761.1396   4382599.6637   1   6   0.0056   0.0107   0.0079  -0.0055  -0.0068   0.0030   0.00  240.0
2173 249605.000   1545936.3001  -4353761.1376   4382599.6637   1   6   0.0054   0.0108   0.0078  -0.0053  -0.0067   0.0027   0.00  246.9
2173 249606.000   1545936.2998  -4353761.1382   4382599.6637   1   6   0.0057   0.0107   0.0079  -0.0055  -0.0068   0.0029   0.00  252.0
2173 249607.000   1545936.2997  -4353761.1386   4382599.6645   1   6   0.0057   0.0108   0.0079  -0.0055  -0.0067   0.0025   0.00  258.5
2173 249608.000   1545936.2996  -4353761.1391   4382599.6637   1   6   0.0056   0.0107   0.0080  -0.0055  -0.0067   0.0028   0.00  257.0
2173 249609.000   1545936.2980  -4353761.1344   4382599.6628   1   6   0.0057   0.0108   0.0080  -0.0055  -0.0067   0.0028   0.00  259.2
2173 249610.000   1545936.3003  -4353761.1398   4382599.6645   1   6   0.0057   0.0107   0.0080  -0.0055  -0.0067   0.0028   0.00  268.9
2173 249611.000   1545936.2995  -4353761.1415   4382599.6654   1   6   0.0056   0.0108   0.0079  -0.0054  -0.0067   0.0027   0.00  283.7
2173 249612.000   1545936.2994  -4353761.1386   4382599.6631   1   6   0.0056   0.0108   0.0080  -0.0054  -0.0067   0.0028   0.00  286.1
2173 249613.000   1545936.2989  -4353761.1377   4382599.6641   1   6   0.0056   0.0107   0.0079  -0.0056  -0.0068   0.0027   0.00  291.5
2173 249614.000   1545936.2980  -4353761.1370   4382599.6629   1   6   0.0054   0.0107   0.0081  -0.0055  -0.0067   0.0031   0.00  292.2
2173 249615.000   1545936.2994  -4353761.1382   4382599.6626   1   6   0.0056   0.0108   0.0080  -0.0053  -0.0068   0.0030   0.00  289.6
2173 249616.000   1545936.2982  -4353761.1366   4382599.6643   1   6   0.0056   0.0108   0.0078  -0.0055  -0.0067   0.0028   0.00  295.8
2173 249617.000   1545936.2988  -4353761.1363   4382599.6642   1   6   0.0054   0.0108   0.0080  -0.0054  -0.0067   0.0029   0.00  293.4
2173 249618.000   1545936.2993  -4353761.1379   4382599.6650   1   6   0.0053   0.0107   0.0080  -0.0055  -0.0068   0.0031   0.00  294.6
2173 249619.000   1545936.2982  -4353761.1363   4382599.6613   1   6   0.0054   0.0107   0.0079  -0.0055  -0.0067   0.0025   0.00  287.4
2173 249620.000   1545936.2992  -4353761.1377   4382599.6621   1   6   0.0053   0.0108   0.0078  -0.0054  -0.0068   0.0026   0.00  279.7
2173 249621.000   1545936.2993  -4353761.1372   4382599.6612   1   6   0.0056   0.0108   0.0079  -0.0055  -0.0067   0.0029   0.00  267.9
2173 249622.000   1545936.2996  -4353761.1394   4382599.6648   1   6   0.0060   0.0107   0.0082  -0.0056  -0.0067   0.0028   0.00  277.8
2173 249623.000   1545936.2997  -4353761.1370   4382599.6619   1   6   0.0057   0.0108   0.0077  -0.0055  -0.0067   0.0027   0.00  271.1
2173 249624.000   1545936.2995  -4353761.1403   4382599.6646   1   6   0.0055   0.0108   0.0079  -0.0055  -0.0067   0.0028   0.00  270.0
2173 249625.000   1545936.2986  -4353761.1373   4382599.6625   1   6   0.0056   0.0107   0.0080  -0.0056  -0.0067   0.0028   0.00  266.6
2173 249626.000   1545936.3005  -4353761.1415   4382599.6667   1   6   0.0056   0.0107   0.0079  -0.0056  -0.0067   0.0032   0.00  278.0
2173 249627.000   1545936.2984  -4353761.1365   4382599.6622   1   6   0.0055   0.0108   0.0081  -0.0054  -0.0067   0.0033   0.00  278.3
2173 249628.000   1545936.2970  -4353761.1359   4382599.6623   1   6   0.0057   0.0107   0.0079  -0.0055  -0.0067   0.0028   0.00  278.7
2173 249629.000   1545936.2997  -4353761.1395   4382599.6626   1   6   0.0055   0.0108   0.0079  -0.0055  -0.0067   0.0029   0.00  272.1
2173 249630.000   1545936.2977  -4353761.1377   4382599.6639   1   6   0.0055   0.0107   0.0080  -0.0054  -0.0067   0.0028   0.00  277.9
2173 249631.000   1545936.2986  -4353761.1383   4382599.6642   1   6   0.0055   0.0107   0.0079  -0.0055  -0.0067   0.0030   0.00  279.0
2173 249632.000   1545936.2986  -4353761.1380   4382599.6630   1   6   0.0058   0.0108   0.0080  -0.0055  -0.0067   0.0028   0.00  279.0
2173 249633.000   1545936.2992  -4353761.1392   4382599.6644   1   6   0.0054   0.0108   0.0079  -0.0054  -0.0067   0.0030   0.00  281.7
2173 249634.000   1545936.2986  -4353761.1386   4382599.6629   1   6   0.0053   0.0108   0.0080  -0.0054  -0.0067   0.0031   0.00  285.1
2173 249635.000   1545936.2991  -4353761.1364   4382599.6633   1   6   0.0055   0.0108   0.0080  -0.0055  -0.0068   0.0031   0.00  286.8
2173 249636.000   1545936.2990  -4353761.1362   4382599.6626   1   6   0.0057   0.0109   0.0080  -0.0053  -0.0067   0.0029   0.00  285.3
2173 249637.000   1545936.2987  -4353761.1367   4382599.6631   1   6   0.0055   0.0108   0.0080  -0.0055  -0.0067   0.0028   0.00  278.9
2173 249638.000   1545936.2989  -4353761.1395   4382599.6634   1   6   0.0055   0.0107   0.0079  -0.0055  -0.0067   0.0028   0.00  278.1
2173 249639.000   1545936.2968  -4353761.1357   4382599.6634   1   6   0.0056   0.0107   0.0079  -0.0055  -0.0067   0.0027   0.00  274.2
2173 249640.000   1545936.2992  -4353761.1359   4382599.6623   1   6   0.0055   0.0108   0.0080  -0.0055  -0.0067   0.0026   0.00  267.9
2173 249641.000   1545936.2989  -4353761.1366   4382599.6631   1   6   0.0055   0.0108   0.0080  -0.0054  -0.0067   0.0030   0.00  266.3
2173 249642.000   1545936.2983  -4353761.1391   4382599.6630   1   6   0.0057   0.0107   0.0079  -0.0056  -0.0067   0.0030   0.00  266.6
2173 249643.000   1545936.3000  -4353761.1385   4382599.6646   1   6   0.0057   0.0108   0.0079  -0.0055  -0.0066   0.0029   0.00  272.5
2173 249644.000   1545936.2978  -4353761.1371   4382599.6629   1   6   0.0056   0.0107   0.0079  -0.0055  -0.0067   0.0025   0.00  270.0
2173 249645.000   1545936.2988  -4353761.1398   4382599.6660   1   6   0.0054   0.0108   0.0079  -0.0055  -0.0067   0.0030   0.00  277.3
2173 249646.000   1545936.2990  -4353761.1412   4382599.6654   1   6   0.0054   0.0108   0.0081  -0.0054  -0.0067   0.0028   0.00  286.0
2173 249647.000   1545936.2982  -4353761.1399   4382599.6636   1   6   0.0058   0.0108   0.0081  -0.0055  -0.0068   0.0031   0.00  287.9
2173 249648.000   1545936.3002  -4353761.1390   4382599.6668   1   6   0.0051   0.0108   0.0081  -0.0054  -0.0067   0.0029   0.00  291.1
2173 249649.000   1545936.3001  -4353761.1397   4382599.6633   1   6   0.0057   0.0108   0.0078  -0.0055  -0.0067   0.0027   0.00  291.5
2173 249650.000   1545936.2992  -4353761.1391   4382599.6639   1   6   0.0058   0.0108   0.0080  -0.0055  -0.0067   0.0028   0.00  289.2
2173 249651.000   1545936.2996  -4353761.1392   4382599.6634   1   6   0.0055   0.0107   0.0079  -0.0055  -0.0067   0.0029   0.00  286.9
2173 249652.000   1545936.2985  -4353761.1381   4382599.6608   1   6   0.0055   0.0108   0.0078  -0.0055  -0.0067   0.0026   0.00  280.5
2173 249653.000   1545936.2982  -4353761.1374   4382599.6634   1   6   0.0053   0.0107   0.0080  -0.0056  -0.0067   0.0029   0.00  279.2
2173 249654.000   1545936.2985  -4353761.1381   4382599.6622   1   6   0.0054   0.0107   0.0079  -0.0055  -0.0067   0.0028   0.00  275.0
2173 249655.000   1545936.3001  -4353761.1401   4382599.6635   1   6   0.0057   0.0108   0.0080  -0.0055  -0.0067   0.0028   0.00  280.2
2173 249656.000   1545936.3009  -4353761.1391   4382599.6636   1   6   0.0055   0.0107   0.0078  -0.0055  -0.0067   0.0030   0.00  276.9
2173 249657.000   1545936.3004  -4353761.1388   4382599.6632   1   6   0.0056   0.0108   0.0079  -0.0055  -0.0067   0.0030   0.00  277.6
2173 249658.000   1545936.2986  -4353761.1378   4382599.6622   1   6   0.0053   0.0108   0.0081  -0.0055  -0.0066   0.0030   0.00  274.1
2173 249659.000   1545936.3005  -4353761.1398   4382599.6634   1   6   0.0053   0.0108   0.0080  -0.0055  -0.0067   0.0029   0.00  275.6
2173 249660.000   1545936.2989  -4353761.1369   4382599.6612   1   6   0.0055   0.0109   0.0079  -0.0053  -0.0067   0.0026   0.00  267.8
2173 249661.000   1545936.2993  -4353761.1395   4382599.6630   1   6   0.0052   0.0108   0.0079  -0.0054  -0.0067   0.0029   0.00  266.5
2173 249662.000   1545936.3004  -4353761.1372   4382599.6652   1   6   0.0056   0.0108   0.0081  -0.0055  -0.0066   0.0028   0.00  269.7
2173 249663.000   1545936.3003  -4353761.1415   4382599.6627   1   6   0.0056   0.0108   0.0080  -0.0056  -0.0066   0.0028   0.00  267.5
2173 249664.000   1545936.2992  -4353761.1394   4382599.6644   1   6   0.0053   0.0108   0.0080  -0.0055  -0.0067   0.0030   0.00  271.8
2173 249665.000   1545936.2991  -4353761.1360   4382599.6629   1   6   0.0055   0.0107   0.0081  -0.0055  -0.0067   0.0032   0.00  268.6
2173 249666.000   1545936.2997  -4353761.1395   4382599.6636   1   6   0.0055   0.0108   0.0081  -0.0055  -0.0066   0.0030   0.00  268.2
2173 249667.000   1545936.2985  -4353761.1368   4382599.6621   1   6   0.0056   0.0107   0.0078  -0.0056  -0.0067   0.0025   0.00  264.6
2173 249668.000   1545936.3003  -4353761.1385   4382599.6625   1   6   0.0057   0.0108   0.0079  -0.0056  -0.0067   0.0028   0.00  265.3
2173 249669.000   1545936.2992  -4353761.1391   4382599.6666   1   6   0.0055   0.0107   0.0079  -0.0056  -0.0068   0.0028   0.00  269.8
2173 249670.000   1545936.2986  -4353761.1361   4382599.6625   1   6   0.0054   0.0108   0.0081  -0.0055  -0.0066   0.0030   0.00  268.4
2173 249671.000   1545936.2990  -4353761.1362   4382599.6616   1   6   0.0054   0.0107   0.0079  -0.0054  -0.0067   0.0030   0.00  265.9
2173 249672.000   1545936.2982  -4353761.1377   4382599.6632   1   6   0.0057   0.0107   0.0080  -0.0056  -0.0067   0.0031   0.00  265.6
2173 249673.000   1545936.2992  -4353761.1403   4382599.6672   1   6   0.0056   0.0108   0.0078  -0.0055  -0.0067   0.0028   0.00  268.4
2173 249674.000   1545936.2981  -4353761.1349   4382599.6637   1   6   0.0052   0.0107   0.0079  -0.0055  -0.0066   0.0029   0.00  269.4
2173 249675.000   1545936.3000  -4353761.1400   4382599.6657   1   6   0.0056   0.0108   0.0080  -0.0054  -0.0066   0.0029   0.00  274.1
2173 249676.000   1545936.2994  -4353761.1385   4382599.6651   1   6   0.0053   0.0108   0.0077  -0.0055  -0.0067   0.0028   0.00  276.7
2173 249677.000   1545936.2999  -4353761.1417   4382599.6665   1   6   0.0056   0.0108   0.0079  -0.0054  -0.0067   0.0030   0.00  280.3
2173 249678.000   1545936.2996  -4353761.1356   4382599.6622   1   6   0.0056   0.0108   0.0078  -0.0055  -0.0067   0.0026   0.00  276.3
2173 249679.000   1545936.2997  -4353761.1382   4382599.6645   1   6   0.0056   0.0108   0.0079  -0.0056  -0.0067   0.0030   0.00  280.8
2173 249680.000   1545936.2998  -4353761.1405   4382599.6622   1   6   0.0057   0.0108   0.0077  -0.0056  -0.0066   0.0026   0.00  282.4
2173 249681.000   1545936.2988  -4353761.1383   4382599.6645   1   6   0.0056   0.0108   0.0079  -0.0055  -0.0067   0.0028   0.00  280.0
2173 249682.000   1545936.2987  -4353761.1402   4382599.6648   1   6   0.0053   0.0107   0.0081  -0.0055  -0.0066   0.0029   0.00  283.1
2173 249683.000   1545936.3017  -4353761.1401   4382599.6657   1   6   0.0056   0.0108   0.0079  -0.0055  -0.0067   0.0029   0.00  289.8
2173 249684.000   1545936.3002  -4353761.1377   4382599.6649   1   6   0.0053   0.0108   0.0080  -0.0055  -0.0067   0.0031   0.00  285.8
2173 249685.000   1545936.3002  -4353761.1399   4382599.6629   1   6   0.0054   0.0108   0.0080  -0.0055  -0.0066   0.0029   0.00  281.6
2173 249686.000   1545936.3007  -4353761.1417   4382599.6638   1   6   0.0053   0.0107   0.0079  -0.0056  -0.0066   0.0030   0.00  286.2
2173 249687.000   1545936.2979  -4353761.1355   4382599.6620   1   6   0.0054   0.0108   0.0079  -0.0055  -0.0067   0.0029   0.00  285.1
2173 249688.000   1545936.2981  -4353761.1384   4382599.6668   1   6   0.0055   0.0107   0.0079  -0.0056  -0.0067   0.0031   0.00  290.8
2173 249689.000   1545936.2994  -4353761.1397   4382599.6650   1   6   0.0053   0.0107   0.0079  -0.0055  -0.0067   0.0032   0.00  295.2
2173 249690.000   1545936.2992  -4353761.1375   4382599.6645   1   6   0.0056   0.0107   0.0081  -0.0055  -0.0066   0.0029   0.00  296.0
2173 249691.000   1545936.2992  -4353761.1408   4382599.6657   1   6   0.0056   0.0107   0.0078  -0.0057  -0.0067   0.0029   0.00  300.0
2173 249692.000   1545936.2996  -4353761.1389   4382599.6641   1   6   0.0057   0.0107   0.0076  -0.0056  -0.0067   0.0025   0.00  298.8
2173 249693.000   1545936.2998  -4353761.1390   4382599.6649   1   6   0.0058   0.0108   0.0079  -0.0055  -0.0067   0.0027   0.00  301.4
2173 249694.000   1545936.3003  -4353761.1388   4382599.6627   1   6   0.0059   0.0109   0.0079  -0.0055  -0.0067   0.0026   0.00  299.7
2173 249695.000   1545936.2997  -4353761.1391   4382599.6642   1   6   0.0057   0.0108   0.0079  -0.0055  -0.0067   0.0027   0.00  300.6
2173 249696.000   1545936.2962  -4353761.1361   4382599.6636   1   6   0.0055   0.0109   0.0080  -0.0054  -0.0066   0.0029   0.00  302.6
2173 249697.000   1545936.2993  -4353761.1389   4382599.6614   1   6   0.0053   0.0107   0.0080  -0.0057  -0.0066   0.0030   0.00  300.0
2173 249698.000   1545936.2996  -4353761.1408   4382599.6638   1   6   0.0056   0.0108   0.0078  -0.0056  -0.0066   0.0028   0.00  300.8
2173 249699.000   1545936.2982  -4353761.1363   4382599.6620   1   6   0.0056   0.0108   0.0079  -0.0055  -0.0067   0.0027   0.00  299.3
2173 249700.000   1545936.2990  -4353761.1376   4382599.6620   1   6   0.0054   0.0108   0.0078  -0.0056  -0.0067   0.0027   0.00  294.2
2173 249701.000   1545936.2994  -4353761.1389   4382599.6644   1   6   0.0055   0.0108   0.0080  -0.0056  -0.0066   0.0030   0.00  297.7
2173 249702.000   1545936.2991  -4353761.1396   4382599.6652   1   6   0.0056   0.0107   0.0077  -0.0057  -0.0067   0.0027   0.00  301.8
2173 249703.000   1545936.2985  -4353761.1391   4382599.6647   1   6   0.0058   0.0108   0.0079  -0.0055  -0.0067   0.0027   0.00  301.2
2173 249704.000   1545936.2978  -4353761.1364   4382599.6633   1   6   0.0058   0.0109   0.0077  -0.0054  -0.0067   0.0028   0.00  297.0
2173 249705.000   1545936.2990  -4353761.1400   4382599.6653   1   6   0.0056   0.0108   0.0080  -0.0056  -0.0066   0.0025   0.00  300.9
2173 249706.000   1545936.2993  -4353761.1401   4382599.6653   1   6   0.0055   0.0108   0.0079  -0.0056  -0.0066   0.0030   0.00  305.7
2173 249707.000   1545936.2972  -4353761.1374   4382599.6631   1   6   0.0054   0.0108   0.0079  -0.0056  -0.0067   0.0029   0.00  308.0
2173 249708.000   1545936.2990  -4353761.1381   4382599.6641   1   6   0.0056   0.0108   0.0079  -0.0056  -0.0067   0.0027   0.00  308.2
2173 249709.000   1545936.2987  -4353761.1393   4382599.6636   1   6   0.0056   0.0108   0.0078  -0.0055  -0.0067   0.0029   0.00  308.6
2173 249710.000   1545936.2992  -4353761.1368   4382599.6629   1   6   0.0055   0.0108   0.0081  -0.0056  -0.0067   0.0029   0.00  307.2
2173 249711.000   1545936.2982  -4353761.1367   4382599.6658   1   6   0.0054   0.0108   0.0079  -0.0055  -0.0068   0.0030   0.00  309.5
2173 249712.000   1545936.2981  -4353761.1366   4382599.6626   1   6   0.0056   0.0108   0.0078  -0.0056  -0.0067   0.0029   0.00  309.1
2173 249713.000   1545936.2986  -4353761.1399   4382599.6630   1   6   0.0056   0.0108   0.0079  -0.0055  -0.0067   0.0029   0.00  309.4
2173 249714.000   1545936.2998  -4353761.1427   4382599.6656   1   6   0.0055   0.0108   0.0079  -0.0055  -0.0066   0.0028   0.00  312.3
2173 249715.000   1545936.2994  -4353761.1398   4382599.6622   1   6   0.0057   0.0108   0.0081  -0.0055  -0.0066   0.0032   0.00  310.7
2173 249716.000   1545936.2983  -4353761.1403   4382599.6654   1   6   0.0055   0.0108   0.0080  -0.0056  -0.0067   0.0028   0.00  313.6
2173 249717.000   1545936.2972  -4353761.1372   4382599.6632   1   6   0.0054   0.0108   0.0079  -0.0055  -0.0067   0.0029   0.00  312.6
2173 249718.000   1545936.2983  -4353761.1381   4382599.6620   1   6   0.0055   0.0107   0.0079  -0.0056  -0.0066   0.0032   0.00  311.0
2173 249719.000   1545936.2984  -4353761.1390   4382599.6628   1   6   0.0056   0.0108   0.0078  -0.0056  -0.0067   0.0024   0.00  310.6
2173 249720.000   1545936.2988  -4353761.1371   4382599.6624   1   6   0.0058   0.0107   0.0079  -0.0057  -0.0067   0.0029   0.00  307.6
2173 249721.000   1545936.2994  -4353761.1372   4382599.6624   1   6   0.0054   0.0108   0.0080  -0.0055  -0.0067   0.0031   0.00  307.0
2173 249722.000   1545936.2991  -4353761.1407   4382599.6643   1   6   0.0054   0.0108   0.0079  -0.0055  -0.0067   0.0030   0.00  308.9
2173 249723.000   1545936.2992  -4353761.1387   4382599.6627   1   6   0.0053   0.0109   0.0079  -0.0054  -0.0067   0.0030   0.00  307.2
2173 249724.000   1545936.2987  -4353761.1379   4382599.6640   1   6   0.0055   0.0108   0.0078  -0.0056  -0.0067   0.0027   0.00  307.0
2173 249725.000   1545936.2993  -4353761.1388   4382599.6641   1   6   0.0052   0.0108   0.0079  -0.0055  -0.0067   0.0031   0.00  309.2
2173 249726.000   1545936.2997  -4353761.1387   4382599.6631   1   6   0.0054   0.0108   0.0080  -0.0056  -0.0066   0.0030   0.00  307.4
2173 249727.000   1545936.2984  -4353761.1361   4382599.6619   1   6   0.0056   0.0108   0.0079  -0.0056  -0.0066   0.0028   0.00  305.0
2173 249728.000   1545936.2990  -4353761.1372   4382599.6615   1   6   0.0056   0.0109   0.0079  -0.0055  -0.0067   0.0029   0.00  301.7
2173 249729.000   1545936.2976  -4353761.1385   4382599.6627   1   6   0.0057   0.0108   0.0079  -0.0056  -0.0067   0.0029   0.00  300.0
2173 249730.000   1545936.2998  -4353761.1377   4382599.6638   1   6   0.0056   0.0108   0.0078  -0.0057  -0.0067   0.0028   0.00  301.6
2173 249731.000   1545936.3012  -4353761.1424   4382599.6646   1   6   0.0057   0.0108   0.0078  -0.0056  -0.0066   0.0027   0.00  303.8
2173 249732.000   1545936.2985  -4353761.1387   4382599.6627   1   6   0.0055   0.0109   0.0079  -0.0055  -0.0066   0.0030   0.00  304.3
2173 249733.000   1545936.3002  -4353761.1395   4382599.6625   1   6   0.0059   0.0108   0.0079  -0.0056  -0.0067   0.0028   0.00  303.8
2173 249734.000   1545936.2972  -4353761.1384   4382599.6650   1   6   0.0058   0.0108   0.0079  -0.0056  -0.0066   0.0030   0.00  304.2
2173 249735.000   1545936.2993  -4353761.1383   4382599.6665   1   6   0.0053   0.0108   0.0079  -0.0056  -0.0066   0.0029   0.00  307.3
2173 249736.000   1545936.2981  -4353761.1371   4382599.6633   1   6   0.0057   0.0108   0.0079  -0.0056  -0.0067   0.0028   0.00  305.6
2173 249737.000   1545936.3001  -4353761.1420   4382599.6651   1   6   0.0055   0.0108   0.0080  -0.0056  -0.0067   0.0031   0.00  305.6
2173 249738.000   1545936.2981  -4353761.1345   4382599.6614   1   6   0.0053   0.0109   0.0079  -0.0055  -0.0067   0.0030   0.00  301.5
2173 249739.000   1545936.3010  -4353761.1418   4382599.6653   1   6   0.0055   0.0108   0.0079  -0.0055  -0.0066   0.0030   0.00  305.4
2173 249740.000   1545936.2987  -4353761.1377   4382599.6639   1   6   0.0052   0.0108   0.0080  -0.0055  -0.0066   0.0031   0.00  303.6
2173 249741.000   1545936.2983  -4353761.1365   4382599.6619   1   6   0.0055   0.0108   0.0080  -0.0055  -0.0066   0.0032   0.00  303.7
2173 249742.000   1545936.3000  -4353761.1391   4382599.6623   1   6   0.0056   0.0109   0.0080  -0.0056  -0.0066   0.0029   0.00  303.3
2173 249743.000   1545936.2988  -4353761.1382   4382599.6632   1   6   0.0059   0.0109   0.0078  -0.0056  -0.0066   0.0026   0.00  302.5
2173 249744.000   1545936.2997  -4353761.1384   4382599.6637   1   6   0.0055   0.0109   0.0078  -0.0055  -0.0067   0.0026   0.00  300.5
2173 249745.000   1545936.2979  -4353761.1356   4382599.6632   1   6   0.0053   0.0108   0.0079  -0.0056  -0.0066   0.0029   0.00  297.6
2173 249746.000   1545936.2992  -4353761.1383   4382599.6647   1   6   0.0055   0.0109   0.0078  -0.0055  -0.0067   0.0031   0.00  298.7
2173 249747.000   1545936.2996  -4353761.1381   4382599.6637   1   6   0.0053   0.0107   0.0079  -0.0057  -0.0067   0.0028   0.00  298.8
2173 249748.000   1545936.3001  -4353761.1409   4382599.6642   1   6   0.0055   0.0109   0.0080  -0.0055  -0.0066   0.0030   0.00  299.0
2173 249749.000   1545936.2993  -4353761.1398   4382599.6630   1   6   0.0056   0.0110   0.0080  -0.0058  -0.0068   0.0029   1.00  300.3
2173 249750.000   1545936.3006  -4353761.1425   4382599.6637   1   6   0.0058   0.0114   0.0084  -0.0061  -0.0071   0.0032   2.00  302.1
2173 249751.000   1545936.3025  -4353761.1435   4382599.6620   1   6   0.0066   0.0122   0.0091  -0.0067  -0.0076   0.0035   3.00  303.5
2173 249752.000   1545936.3044  -4353761.1459   4382599.6629   1   6   0.0071   0.0132   0.0099  -0.0072  -0.0082   0.0037   4.00  304.1
2173 249753.000   1545936.3028  -4353761.1431   4382599.6616   1   6   0.0079   0.0144   0.0108  -0.0080  -0.0090   0.0042   5.00  304.2
2173 249754.000   1545936.3045  -4353761.1450   4382599.6614   1   6   0.0087   0.0157   0.0118  -0.0088  -0.0098   0.0046   6.00  303.3
2173 249755.000   1545936.3049  -4353761.1415   4382599.6590   1   6   0.0096   0.0170   0.0129  -0.0097  -0.0107   0.0050   7.00  301.5
2173 249756.000   1545936.3060  -4353761.1438   4382599.6606   1   6   0.0104   0.0185   0.0141  -0.0106  -0.0117   0.0056   8.00  301.5
2173 249757.000   1545936.3057  -4353761.1451   4382599.6607   1   6   0.0113   0.0200   0.0154  -0.0116  -0.0127   0.0061   9.00  301.3
2173 249758.000   1545936.3069  -4353761.1432   4382599.6582   1   6   0.0123   0.0216   0.0166  -0.0125  -0.0137   0.0066  10.00  300.5
2173 249759.000   1545936.3068  -4353761.1451   4382599.6592   1   6   0.0132   0.0232   0.0179  -0.0135  -0.0148   0.0071  11.00  299.3
2173 249760.000   1545936.3079  -4353761.1534   4382599.6624   1   6   0.0142   0.0248   0.0192  -0.0146  -0.0158   0.0077  12.00  299.0
2173 249761.000   1545936.3099  -4353761.1596   4382599.6640   1   6   0.0152   0.0264   0.0205  -0.0156  -0.0169   0.0082  13.00  299.1
2173 249762.000   1545936.3107  -4353761.1628   4382599.6642   1   6   0.0162   0.0281   0.0219  -0.0166  -0.0180   0.0088  14.00  299.6
2173 249763.000   1545936.3117  -4353761.1699   4382599.6664   1   6   0.0173   0.0298   0.0232  -0.0177  -0.0191   0.0093  15.00  300.0
2173 249764.000   1545936.3121  -4353761.1713   4382599.6660   1   6   0.0183   0.0315   0.0246  -0.0187  -0.0202   0.0099  16.00  299.8
2173 249765.000   1545936.3133  -4353761.1762   4382599.6677   1   6   0.0193   0.0333   0.0260  -0.0198  -0.0214   0.0105  17.00  299.7
2173 249766.000   1545936.3126  -4353761.1762   4382599.6676   1   6   0.0204   0.0350   0.0274  -0.0208  -0.0225   0.0110  18.00  299.7
2173 249767.000   1545936.3132  -4353761.1787   4382599.6675   1   6   0.0214   0.0368   0.0288  -0.0219  -0.0236   0.0116  19.00  299.8
2173 249768.000   1545936.3145  -4353761.1837   4382599.6696   1   6   0.0224   0.0385   0.0302  -0.0230  -0.0248   0.0122  20.00  299.9
2173 249769.000   1545936.3163  -4353761.1864   4382599.6695   1   6   0.0235   0.0403   0.0316  -0.0241  -0.0259   0.0128  21.00  299.8
2173 249770.000   1545936.3159  -4353761.1814   4382599.6682   1   6   0.0245   0.0420   0.0330  -0.0251  -0.0270   0.0134  22.00  299.4
2173 249771.000   1545936.3175  -4353761.1847   4382599.6678   1   6   0.0256   0.0438   0.0344  -0.0262  -0.0282   0.0139  23.00  298.7
2173 249772.000   1545936.3174  -4353761.1828   4382599.6649   1   6   0.0266   0.0456   0.0358  -0.0273  -0.0293   0.0145  24.00  297.5
2173 249773.000   1545936.3203  -4353761.1861   4382599.6633   1   6   0.0277   0.0474   0.0372  -0.0284  -0.0305   0.0151  25.00  296.3
2173 249774.000   1545936.3198  -4353761.1885   4382599.6669   1   6   0.0287   0.0492   0.0386  -0.0295  -0.0316   0.0157  26.00  295.5
2173 249775.000   1545936.3184  -4353761.1887   4382599.6676   1   6   0.0298   0.0510   0.0400  -0.0306  -0.0328   0.0163  27.00  294.4
2173 249776.000   1545936.3198  -4353761.1869   4382599.6628   1   6   0.0309   0.0527   0.0414  -0.0317  -0.0340   0.0169  28.00  293.4
2173 249777.000   1545936.3199  -4353761.1905   4382599.6661   1   6   0.0319   0.0545   0.0428  -0.0328  -0.0351   0.0175  29.00  292.4
2173 249778.000   1545936.3201  -4353761.1944   4382599.6638   1   6   0.0330   0.0563   0.0443  -0.0339  -0.0363   0.0181  30.00  291.3
2173 250018.000   1545936.3004  -4353761.1382   4382599.6619   1   6   0.0057   0.0110   0.0078  -0.0058  -0.0065   0.0029   0.00   85.6
2173 250019.000   1545936.2992  -4353761.1367   4382599.6644   1   6   0.0058   0.0110   0.0079  -0.0058  -0.0065   0.0030   0.00   99.8
2173 250020.000   1545936.3011  -4353761.1399   4382599.6636   1   6   0.0057   0.0110   0.0079  -0.0058  -0.0066   0.0030   0.00  136.5
2173 250021.000   1545936.2989  -4353761.1364   4382599.6613   1   6   0.0055   0.0110   0.0079  -0.0058  -0.0065   0.0030   0.00  120.4
2173 250022.000   1545936.2985  -4353761.1371   4382599.6641   1   6   0.0059   0.0110   0.0079  -0.0057  -0.0066   0.0028   0.00  132.1
2173 250023.000   1545936.2983  -4353761.1368   4382599.6639   1   6   0.0057   0.0110   0.0078  -0.0058  -0.0065   0.0030   0.00  155.4
2173 250024.000   1545936.2987  -4353761.1361   4382599.6616   1   6   0.0057   0.0110   0.0079  -0.0058  -0.0065   0.0030   0.00  150.0
2173 250025.000   1545936.2999  -4353761.1384   4382599.6653   1   6   0.0058   0.0110   0.0077  -0.0058  -0.0065   0.0027   0.00  160.6
2173 250026.000   1545936.2982  -4353761.1367   4382599.6627   1   6   0.0056   0.0110   0.0079  -0.0058  -0.0065   0.0031   0.00  155.1
2173 250027.000   1545936.2984  -4353761.1363   4382599.6624   1   6   0.0056   0.0110   0.0078  -0.0058  -0.0065   0.0030   0.00  140.6
2173 250028.000   1545936.2992  -4353761.1392   4382599.6644   1   6   0.0058   0.0110   0.0078  -0.0058  -0.0066   0.0030   0.00  155.6
2173 250029.000   1545936.2987  -4353761.1388   4382599.6645   1   6   0.0057   0.0110   0.0076  -0.0058  -0.0065   0.0027   0.00  169.3
2173 250030.000   1545936.3005  -4353761.1401   4382599.6667   1   6   0.0056   0.0110   0.0078  -0.0058  -0.0065   0.0030   0.00  199.5
2173 250031.000   1545936.2980  -4353761.1374   4382599.6624   1   6   0.0056   0.0110   0.0077  -0.0057  -0.0065   0.0029   0.00  206.0
2173 250032.000   1545936.2986  -4353761.1399   4382599.6645   1   6   0.0057   0.0110   0.0079  -0.0059  -0.0066   0.0030   0.00  212.4
2173 250033.000   1545936.2998  -4353761.1388   4382599.6645   1   6   0.0059   0.0110   0.0078  -0.0059  -0.0066   0.0025   0.00  215.8
2173 250034.000   1545936.3006  -4353761.1404   4382599.6652   1   6   0.0055   0.0110   0.0078  -0.0058  -0.0065   0.0029   0.00  221.8
2173 250035.000   1545936.2986  -4353761.1384   4382599.6646   1   6   0.0056   0.0110   0.0078  -0.0058  -0.0065   0.0029   0.00  242.5
2173 250036.000   1545936.2998  -4353761.1406   4382599.6630   1   6   0.0059   0.0110   0.0078  -0.0058  -0.0066   0.0027   0.00  242.8
2173 250037.000   1545936.2996  -4353761.1365   4382599.6627   1   6   0.0058   0.0110   0.0079  -0.0058  -0.0065   0.0030   0.00  232.2
2173 250038.000   1545936.2976  -4353761.1368   4382599.6623   1   6   0.0059   0.0110   0.0078  -0.0058  -0.0065   0.0027   0.00  222.2
2173 250039.000   1545936.2990  -4353761.1361   4382599.6621   1   6   0.0057   0.0110   0.0079  -0.0058  -0.0065   0.0029   0.00  210.9
2173 250040.000   1545936.2994  -4353761.1362   4382599.6617   1   6   0.0061   0.0110   0.0078  -0.0060  -0.0065   0.0027   0.00  208.6
2173 250041.000   1545936.2996  -4353761.1383   4382599.6636   1   6   0.0056   0.0110   0.0079  -0.0057  -0.0065   0.0031   0.00  212.6
2173 250042.000   1545936.2983  -4353761.1401   4382599.6667   1   6   0.0055   0.0110   0.0078  -0.0059  -0.0065   0.0029   0.00  232.3
2173 250043.000   1545936.3001  -4353761.1401   4382599.6630   1   6   0.0055   0.0110   0.0077  -0.0058  -0.0066   0.0026   0.00  237.7
2173 250044.000   1545936.2997  -4353761.1382   4382599.6645   1   6   0.0059   0.0110   0.0077  -0.0058  -0.0065   0.0029   0.00  244.9
2173 250045.000   1545936.2995  -4353761.1364   4382599.6625   1   6   0.0059   0.0110   0.0079  -0.0058  -0.0066   0.0029   0.00  243.0
2173 250046.000   1545936.2997  -4353761.1388   4382599.6630   1   6   0.0057   0.0110   0.0079  -0.0058  -0.0065   0.0030   0.00  250.3
2173 250047.000   1545936.3004  -4353761.1363   4382599.6615   1   6   0.0058   0.0110   0.0078  -0.0058  -0.0065   0.0029   0.00  244.9
2173 250048.000   1545936.3005  -4353761.1385   4382599.6623   1   6   0.0054   0.0110   0.0078  -0.0057  -0.0065   0.0032   0.00  247.0
2173 250049.000   1545936.3000  -4353761.1377   4382599.6630   1   6   0.0058   0.0111   0.0081  -0.0057  -0.0065   0.0033   0.00  243.3
2173 250050.000   1545936.3001  -4353761.1394   4382599.6632   1   6   0.0056   0.0110   0.0079  -0.0058  -0.0066   0.0030   0.00  251.1
2173 250051.000   1545936.2996  -4353761.1400   4382599.6663   1   6   0.0055   0.0109   0.0079  -0.0059  -0.0065   0.0029   0.00  258.7
2173 250052.000   1545936.3006  -4353761.1380   4382599.6638   1   6   0.0059   0.0110   0.0078  -0.0058  -0.0066   0.0032   0.00  262.3
2173 250053.000   1545936.2988  -4353761.1368   4382599.6647   1   6   0.0058   0.0110   0.0079  -0.0058  -0.0065   0.0030   0.00  270.6
2173 250054.000   1545936.3006  -4353761.1377   4382599.6637   1   6   0.0058   0.0110   0.0078  -0.0058  -0.0065   0.0029   0.00  264.3
2173 250055.000   1545936.2989  -4353761.1372   4382599.6652   1   6   0.0060   0.0110   0.0080  -0.0059  -0.0066   0.0028   0.00  265.9
2173 250056.000   1545936.2986  -4353761.1356   4382599.6636   1   6   0.0060   0.0111   0.0080  -0.0058  -0.0065   0.0029   0.00  266.1
2173 250057.000   1545936.2997  -4353761.1382   4382599.6649   1   6   0.0057   0.0110   0.0080  -0.0058  -0.0065   0.0031   0.00  272.6
2173 250058.000   1545936.3002  -4353761.1380   4382599.6629   1   6   0.0055   0.0110   0.0077  -0.0058  -0.0065   0.0029   0.00  267.6
2173 250059.000   1545936.2998  -4353761.1381   4382599.6652   1   6   0.0060   0.0110   0.0079  -0.0059  -0.0065   0.0026   0.00  267.2
2173 250060.000   1545936.3000  -4353761.1382   4382599.6632   1   6   0.0060   0.0110   0.0079  -0.0058  -0.0065   0.0030   0.00  261.1
2173 250061.000   1545936.2992  -4353761.1371   4382599.6641   1   6   0.0056   0.0110   0.0078  -0.0059  -0.0065   0.0027   0.00  261.0
2173 250062.000   1545936.2991  -4353761.1351   4382599.6631   1   6   0.0056   0.0111   0.0080  -0.0057  -0.0065   0.0032   0.00  254.6
2173 250063.000   1545936.2988  -4353761.1381   4382599.6631   1   6   0.0055   0.0110   0.0079  -0.0059  -0.0066   0.0032   0.00  253.8
2173 250064.000   1545936.2993  -4353761.1397   4382599.6653   1   6   0.0056   0.0110   0.0078  -0.0058  -0.0065   0.0029   0.00  257.6
2173 250065.000   1545936.2981  -4353761.1365   4382599.6619   1   6   0.0055   0.0110   0.0078  -0.0058  -0.0065   0.0029   0.00  253.3
2173 250066.000   1545936.2974  -4353761.1356   4382599.6609   1   6   0.0056   0.0110   0.0078  -0.0058  -0.0065   0.0031   0.00  244.3
2173 250067.000   1545936.2997  -4353761.1386   4382599.6644   1   6   0.0058   0.0110   0.0077  -0.0058  -0.0065   0.0031   0.00  246.2
2173 250068.000   1545936.2983  -4353761.1390   4382599.6637   1   6   0.0056   0.0111   0.0078  -0.0058  -0.0066   0.0029   0.00  248.1
2173 250069.000   1545936.2975  -4353761.1371   4382599.6650   1   6   0.0059   0.0110   0.0077  -0.0058  -0.0065   0.0026   0.00  247.0
2173 250070.000   1545936.2991  -4353761.1360   4382599.6628   1   6   0.0057   0.0111   0.0079  -0.0057  -0.0065   0.0028   0.00  245.7
2173 250071.000   1545936.2994  -4353761.1379   4382599.6650   1   6   0.0056   0.0111   0.0079  -0.0057  -0.0065   0.0029   0.00  243.6
2173 250072.000   1545936.3004  -4353761.1370   4382599.6618   1   6   0.0053   0.0110   0.0079  -0.0057  -0.0065   0.0031   0.00  239.5
2173 250073.000   1545936.3006  -4353761.1363   4382599.6621   1   6   0.0055   0.0109   0.0079  -0.0059  -0.0066   0.0031   0.00  237.1
2173 250074.000   1545936.2977  -4353761.1365   4382599.6635   1   6   0.0058   0.0110   0.0078  -0.0059  -0.0065   0.0029   0.00  232.1
2173 250075.000   1545936.3006  -4353761.1396   4382599.6619   1   6   0.0057   0.0110   0.0077  -0.0058  -0.0065   0.0030   0.00  237.6
2173 250076.000   1545936.2986  -4353761.1377   4382599.6623   1   6   0.0057   0.0109   0.0079  -0.0059  -0.0065   0.0030   0.00  234.9
2173 250077.000   1545936.2996  -4353761.1369   4382599.6643   1   6   0.0056   0.0109   0.0078  -0.0058  -0.0065   0.0031   0.00  234.9
2173 250078.000   1545936.2996  -4353761.1406   4382599.6640   1   6   0.0055   0.0110   0.0079  -0.0058  -0.0065   0.0030   0.00  237.1
2173 250079.000   1545936.2984  -4353761.1365   4382599.6621   1   6   0.0056   0.0110   0.0078  -0.0058  -0.0065   0.0030   0.00  237.5
2173 250080.000   1545936.2986  -4353761.1357   4382599.6640   1   6   0.0055   0.0110   0.0079  -0.0059  -0.0065   0.0030   0.00  239.2
2173 250081.000   1545936.2994  -4353761.1379   4382599.6624   1   6   0.0059   0.0110   0.0080  -0.0059  -0.0065   0.0031   0.00  238.2
2173 250082.000   1545936.2997  -4353761.1369   4382599.6640   1   6   0.0058   0.0110   0.0081  -0.0059  -0.0065   0.0033   0.00  235.8
2173 250083.000   1545936.2992  -4353761.1384   4382599.6648   1   6   0.0058   0.0110   0.0078  -0.0058  -0.0065   0.0032   0.00  237.2
2173 250084.000   1545936.3016  -4353761.1377   4382599.6629   1   6   0.0056   0.0110   0.0078  -0.0058  -0.0065   0.0030   0.00  238.6
2173 250085.000   1545936.2988  -4353761.1350   4382599.6629   1   6   0.0057   0.0110   0.0078  -0.0058  -0.0065   0.0029   0.00  236.2
2173 250086.000   1545936.3004  -4353761.1400   4382599.6641   1   6   0.0059   0.0110   0.0077  -0.0059  -0.0065   0.0028   0.00  239.9
2173 250087.000   1545936.2990  -4353761.1376   4382599.6635   1   6   0.0054   0.0109   0.0078  -0.0059  -0.0065   0.0030   0.00  243.3
2173 250088.000   1545936.3000  -4353761.1372   4382599.6619   1   6   0.0058   0.0110   0.0079  -0.0058  -0.0066   0.0031   0.00  246.0
2173 250089.000   1545936.3010  -4353761.1404   4382599.6644   1   6   0.0053   0.0110   0.0078  -0.0059  -0.0066   0.0030   0.00  247.9
2173 250090.000   1545936.3010  -4353761.1395   4382599.6632   1   6   0.0058   0.0110   0.0078  -0.0059  -0.0064   0.0030   0.00  251.8
2173 250091.000   1545936.2993  -4353761.1360   4382599.6635   1   6   0.0055   0.0110   0.0078  -0.0058  -0.0066   0.0031   0.00  245.8
2173 250092.000   1545936.2986  -4353761.1361   4382599.6651   1   6   0.0058   0.0109   0.0079  -0.0060  -0.0066   0.0029   0.00  245.3
2173 250093.000   1545936.2979  -4353761.1342   4382599.6637   1   6   0.0058   0.0110   0.0079  -0.0058  -0.0065   0.0028   0.00  239.0
2173 250094.000   1545936.2992  -4353761.1378   4382599.6630   1   6   0.0056   0.0111   0.0079  -0.0058  -0.0066   0.0033   0.00  240.0
2173 250095.000   1545936.2976  -4353761.1357   4382599.6634   1   6   0.0053   0.0111   0.0079  -0.0058  -0.0065   0.0032   0.00  242.2
2173 250096.000   1545936.2995  -4353761.1366   4382599.6600   1   6   0.0059   0.0110   0.0078  -0.0059  -0.0065   0.0030   0.00  240.7
2173 250097.000   1545936.2981  -4353761.1371   4382599.6627   1   6   0.0056   0.0111   0.0078  -0.0059  -0.0065   0.0030   0.00  239.4
2173 250098.000   1545936.2994  -4353761.1388   4382599.6604   1   6   0.0055   0.0110   0.0078  -0.0057  -0.0065   0.0027   0.00  239.4
2173 250099.000   1545936.2988  -4353761.1395   4382599.6608   1   6   0.0060   0.0110   0.0078  -0.0059  -0.0065   0.0029   0.00  239.7
2173 250100.000   1545936.2997  -4353761.1401   4382599.6604   1   6   0.0058   0.0110   0.0078  -0.0059  -0.0064   0.0029   0.00  237.9
2173 250101.000   1545936.2999  -4353761.1401   4382599.6626   1   6   0.0057   0.0110   0.0077  -0.0057  -0.0064   0.0031   0.00  237.7
2173 250102.000   1545936.3005  -4353761.1395   4382599.6609   1   6   0.0058   0.0110   0.0079  -0.0060  -0.0065   0.0032   0.00  235.5
2173 250103.000   1545936.3000  -4353761.1388   4382599.6623   1   6   0.0058   0.0111   0.0080  -0.0059  -0.0066   0.0032   0.00  235.4
2173 250104.000   1545936.2986  -4353761.1389   4382599.6625   1   6   0.0059   0.0110   0.0078  -0.0059  -0.0066   0.0030   0.00  233.3
2173 250105.000   1545936.3013  -4353761.1398   4382599.6635   1   6   0.0054   0.0110   0.0078  -0.0059  -0.0065   0.0031   0.00  232.2
2173 250106.000   1545936.2989  -4353761.1387   4382599.6618   1   6   0.0055   0.0110   0.0078  -0.0058  -0.0065   0.0029   0.00  232.9
2173 250107.000   1545936.2994  -4353761.1390   4382599.6637   1   6   0.0058   0.0111   0.0077  -0.0057  -0.0064   0.0027   0.00  236.3
2173 250108.000   1545936.2991  -4353761.1382   4382599.6635   1   6   0.0057   0.0110   0.0078  -0.0058  -0.0065   0.0028   0.00  236.6
2173 250109.000   1545936.2989  -4353761.1400   4382599.6634   1   6   0.0056   0.0109   0.0077  -0.0060  -0.0065   0.0029   0.00  237.9
2173 250110.000   1545936.2992  -4353761.1380   4382599.6645   1   6   0.0058   0.0111   0.0078  -0.0058  -0.0064   0.0028   0.00  241.3
2173 250111.000   1545936.2980  -4353761.1361   4382599.6616   1   6   0.0058   0.0109   0.0078  -0.0059  -0.0065   0.0026   0.00  241.3
2173 250112.000   1545936.2987  -4353761.1368   4382599.6626   1   6   0.0057   0.0110   0.0078  -0.0059  -0.0065   0.0030   0.00  242.0
2173 250113.000   1545936.2989  -4353761.1383   4382599.6615   1   6   0.0054   0.0111   0.0078  -0.0058  -0.0065   0.0030   0.00  244.5
2173 250114.000   1545936.2981  -4353761.1375   4382599.6630   1   6   0.0058   0.0111   0.0078  -0.0058  -0.0065   0.0027   0.00  244.7
2173 250115.000   1545936.2988  -4353761.1356   4382599.6619   1   6   0.0055   0.0111   0.0078  -0.0057  -0.0066   0.0031   0.00  244.6
2173 250116.000   1545936.2984  -4353761.1359   4382599.6615   1   6   0.0056   0.0110   0.0079  -0.0058  -0.0065   0.0028   0.00  242.2
2173 250117.000   1545936.2995  -4353761.1389   4382599.6645   1   6   0.0057   0.0111   0.0078  -0.0059  -0.0065   0.0029   0.00  245.3
2173 250118.000   1545936.2986  -4353761.1368   4382599.6625   1   6   0.0056   0.0110   0.0078  -0.0059  -0.0065   0.0032   0.00  244.4
2173 250119.000   1545936.2996  -4353761.1382   4382599.6650   1   6   0.0056   0.0110   0.0079  -0.0058  -0.0064   0.0028   0.00  246.6
2173 250120.000   1545936.2984  -4353761.1362   4382599.6638   1   6   0.0058   0.0111   0.0080  -0.0059  -0.0066   0.0033   0.00  247.0
2173 250121.000   1545936.2984  -4353761.1377   4382599.6643   1   6   0.0059   0.0111   0.0079  -0.0059  -0.0065   0.0031   0.00  249.1
2173 250122.000   1545936.2993  -4353761.1347   4382599.6617   1   6   0.0057   0.0110   0.0077  -0.0059  -0.0065   0.0028   0.00  248.9
2173 250123.000   1545936.2996  -4353761.1363   4382599.6645   1   6   0.0057   0.0110   0.0078  -0.0059  -0.0064   0.0031   0.00  249.3
2173 250124.000   1545936.3000  -4353761.1390   4382599.6644   1   6   0.0058   0.0110   0.0078  -0.0059  -0.0066   0.0032   0.00  251.7
2173 250125.000   1545936.3000  -4353761.1387   4382599.6652   1   6   0.0057   0.0110   0.0078  -0.0058  -0.0065   0.0030   0.00  254.7
2173 250126.000   1545936.2998  -4353761.1366   4382599.6644   1   6   0.0058   0.0111   0.0077  -0.0057  -0.0065   0.0029   0.00  255.4
2173 250127.000   1545936.2990  -4353761.1350   4382599.6630   1   6   0.0057   0.0110   0.0078  -0.0058  -0.0065   0.0031   0.00  252.5
2173 250128.000   1545936.2990  -4353761.1356   4382599.6623   1   6   0.0056   0.0111   0.0079  -0.0058  -0.0065   0.0030   0.00  253.5
2173 250129.000   1545936.2988  -4353761.1342   4382599.6616   1   6   0.0058   0.0111   0.0078  -0.0059  -0.0066   0.0030   0.00  253.5
2173 250130.000   1545936.2983  -4353761.1366   4382599.6621   1   6   0.0061   0.0111   0.0078  -0.0058  -0.0065   0.0029   0.00  251.3
2173 250131.000   1545936.2993  -4353761.1364   4382599.6632   1   6   0.0056   0.0110   0.0078  -0.0058  -0.0065   0.0029   0.00  251.2
2173 250132.000   1545936.2994  -4353761.1385   4382599.6637   1   6   0.0056   0.0111   0.0078  -0.0058  -0.0065   0.0030   0.00  253.4
2173 250133.000   1545936.2974  -4353761.1358   4382599.6624   1   6   0.0057   0.0110   0.0078  -0.0059  -0.0065   0.0031   0.00  251.6
2173 250134.000   1545936.2996  -4353761.1367   4382599.6624   1   6   0.0056   0.0109   0.0079  -0.0060  -0.0065   0.0028   0.00  248.5
2173 250135.000   1545936.2983  -4353761.1371   4382599.6616   1   6   0.0058   0.0110   0.0078  -0.0059  -0.0065   0.0029   0.00  247.5
2173 250136.000   1545936.2995  -4353761.1375   4382599.6622   1   6   0.0057   0.0110   0.0078  -0.0059  -0.0065   0.0026   0.00  245.8
2173 250137.000   1545936.2967  -4353761.1357   4382599.6616   1   6   0.0059   0.0111   0.0079  -0.0059  -0.0065   0.0033   0.00  244.0
2173 250138.000   1545936.2982  -4353761.1383   4382599.6622   1   6   0.0055   0.0111   0.0080  -0.0058  -0.0067   0.0029   0.00  244.6
2173 250139.000   1545936.2978  -4353761.1369   4382599.6624   1   6   0.0056   0.0110   0.0079  -0.0059  -0.0065   0.0030   0.00  245.4
2173 250140.000   1545936.2980  -4353761.1375   4382599.6621   1   6   0.0060   0.0111   0.0077  -0.0058  -0.0065   0.0027   0.00  245.6
2173 250141.000   1545936.2977  -4353761.1330   4382599.6608   1   6   0.0056   0.0111   0.0078  -0.0058  -0.0066   0.0027   0.00  241.4
2173 250142.000   1545936.2998  -4353761.1385   4382599.6645   1   6   0.0059   0.0110   0.0078  -0.0059  -0.0064   0.0028   0.00  244.0
2173 250143.000   1545936.3013  -4353761.1421   4382599.6636   1   6   0.0057   0.0110   0.0078  -0.0059  -0.0066   0.0028   0.00  246.5
2173 250144.000   1545936.2995  -4353761.1389   4382599.6631   1   6   0.0057   0.0110   0.0077  -0.0058  -0.0065   0.0028   0.00  246.5
2173 250145.000   1545936.2974  -4353761.1376   4382599.6648   1   6   0.0054   0.0110   0.0078  -0.0059  -0.0065   0.0031   0.00  248.1
2173 250146.000   1545936.2992  -4353761.1395   4382599.6627   1   6   0.0058   0.0110   0.0078  -0.0060  -0.0065   0.0028   0.00  246.6
2173 250147.000   1545936.3014  -4353761.1385   4382599.6628   1   6   0.0057   0.0110   0.0079  -0.0059  -0.0065   0.0029   0.00  247.0
2173 250148.000   1545936.2988  -4353761.1382   4382599.6642   1   6   0.0056   0.0111   0.0078  -0.0058  -0.0064   0.0029   0.00  248.8
2173 250149.000   1545936.2983  -4353761.1346   4382599.6624   1   6   0.0059   0.0111   0.0079  -0.0058  -0.0065   0.0029   0.00  247.8
2173 250150.000   1545936.2990  -4353761.1350   4382599.6607   1   6   0.0057   0.0111   0.0077  -0.0060  -0.0065   0.0030   0.00  245.5
2173 250151.000   1545936.3001  -4353761.1364   4382599.6604   1   6   0.0056   0.0111   0.0078  -0.0058  -0.0065   0.0031   0.00  242.8
2173 250152.000   1545936.2992  -4353761.1394   4382599.6643   1   6   0.0058   0.0110   0.0079  -0.0060  -0.0065   0.0030   0.00  242.9
2173 250153.000   1545936.2987  -4353761.1379   4382599.6642   1   6   0.0056   0.0111   0.0077  -0.0057  -0.0065   0.0029   0.00  242.7
2173 250154.000   1545936.2989  -4353761.1364   4382599.6638   1   6   0.0055   0.0110   0.0078  -0.0058  -0.0064   0.0028   0.00  242.8
2173 250155.000   1545936.3002  -4353761.1400   4382599.6639   1   6   0.0057   0.0111   0.0079  -0.0059  -0.0064   0.0031   0.00  243.7
2173 250156.000   1545936.3002  -4353761.1416   4382599.6644   1   6   0.0057   0.0110   0.0078  -0.0059  -0.0064   0.0029   0.00  245.6
2173 250157.000   1545936.2986  -4353761.1377   4382599.6640   1   6   0.0058   0.0111   0.0078  -0.0059  -0.0064   0.0025   0.00  246.5
2173 250158.000   1545936.2992  -4353761.1374   4382599.6630   1   6   0.0060   0.0110   0.0078  -0.0059  -0.0064   0.0029   0.00  246.2
2173 250159.000   1545936.3006  -4353761.1429   4382599.6655   1   6   0.0054   0.0111   0.0077  -0.0059  -0.0065   0.0029   0.00  250.3
2173 250160.000   1545936.2987  -4353761.1396   4382599.6647   1   6   0.0057   0.0110   0.0079  -0.0059  -0.0065   0.0032   0.00  252.4
2173 250161.000   1545936.3001  -4353761.1394   4382599.6638   1   6   0.0058   0.0110   0.0079  -0.0060  -0.0066   0.0031   0.00  253.3
2173 250162.000   1545936.2990  -4353761.1386   4382599.6642   1   6   0.0057   0.0111   0.0078  -0.0059  -0.0065   0.0030   0.00  254.5
2173 250163.000   1545936.2980  -4353761.1385   4382599.6664   1   6   0.0058   0.0110   0.0079  -0.0060  -0.0065   0.0031   0.00  257.7
2173 250164.000   1545936.2992  -4353761.1388   4382599.6631   1   6   0.0055   0.0111   0.0078  -0.0059  -0.0064   0.0029   0.00  258.3
2173 250165.000   1545936.3001  -4353761.1396   4382599.6623   1   6   0.0058   0.0110   0.0079  -0.0059  -0.0065   0.0029   0.00  258.0
2173 250166.000   1545936.2988  -4353761.1363   4382599.6623   1   6   0.0056   0.0110   0.0079  -0.0059  -0.0065   0.0029   0.00  256.9
2173 250167.000   1545936.3007  -4353761.1399   4382599.6642   1   6   0.0057   0.0111   0.0078  -0.0059  -0.0064   0.0031   0.00  258.5
2173 250168.000   1545936.2985  -4353761.1358   4382599.6620   1   6   0.0058   0.0111   0.0079  -0.0059  -0.0066   0.0030   0.00  256.8
2173 250169.000   1545936.2982  -4353761.1367   4382599.6642   1   6   0.0058   0.0110   0.0079  -0.0060  -0.0065   0.0030   0.00  258.1
2173 250170.000   1545936.2990  -4353761.1373   4382599.6643   1   6   0.0059   0.0111   0.0078  -0.0059  -0.0064   0.0028   0.00  259.5
2173 250171.000   1545936.2998  -4353761.1374   4382599.6630   1   6   0.0059   0.0111   0.0078  -0.0059  -0.0065   0.0028   0.00  258.8
2173 250172.000   1545936.2997  -4353761.1399   4382599.6636   1   6   0.0056   0.0112   0.0078  -0.0058  -0.0065   0.0028   0.00  260.2
2173 250173.000   1545936.2999  -4353761.1397   4382599.6637   1   6   0.0057   0.0111   0.0078  -0.0058  -0.0066   0.0029   0.00  260.2
2173 250174.000   1545936.2996  -4353761.1398   4382599.6646   1   6   0.0058   0.0111   0.0078  -0.0058  -0.0065   0.0030   0.00  261.6
2173 250175.000   1545936.2991  -4353761.1382   4382599.6626   1   6   0.0060   0.0110   0.0078  -0.0060  -0.0065   0.0029   0.00  262.4
2173 250176.000   1545936.2992  -4353761.1385   4382599.6616   1   6   0.0059   0.0111   0.0077  -0.0059  -0.0064   0.0029   0.00  259.3
2173 250177.000   1545936.2991  -4353761.1386   4382599.6650   1   6   0.0058   0.0111   0.0077  -0.0058  -0.0064   0.0027   0.00  259.5
2173 250178.000   1545936.2988  -4353761.1395   4382599.6635   1   6   0.0059   0.0110   0.0079  -0.0060  -0.0066   0.0031   0.00  260.6
2173 250179.000   1545936.2995  -4353761.1401   4382599.6643   1   6   0.0055   0.0110   0.0078  -0.0060  -0.0065   0.0030   0.00  261.7
2173 250180.000   1545936.2982  -4353761.1366   4382599.6613   1   6   0.0055   0.0111   0.0078  -0.0058  -0.0065   0.0030   0.00  258.8
2173 250181.000   1545936.3005  -4353761.1387   4382599.6628   1   6   0.0058   0.0110   0.0079  -0.0060  -0.0065   0.0031   0.00  260.4
2173 250182.000   1545936.3000  -4353761.1409   4382599.6628   1   6   0.0057   0.0110   0.0079  -0.0060  -0.0065   0.0033   0.00  261.9
2173 250183.000   1545936.2987  -4353761.1358   4382599.6624   1   6   0.0058   0.0111   0.0076  -0.0060  -0.0064   0.0027   0.00  260.9
2173 250184.000   1545936.2993  -4353761.1367   4382599.6610   1   6   0.0056   0.0111   0.0079  -0.0059  -0.0066   0.0030   0.00  260.0
2173 250185.000   1545936.2991  -4353761.1376   4382599.6627   1   6   0.0054   0.0111   0.0079  -0.0058  -0.0065   0.0031   0.00  258.5
2173 250186.000   1545936.2980  -4353761.1358   4382599.6631   1   6   0.0055   0.0110   0.0078  -0.0059  -0.0064   0.0029   0.00  258.9
2173 250187.000   1545936.3002  -4353761.1385   4382599.6624   1   6   0.0056   0.0111   0.0079  -0.0059  -0.0065   0.0029   0.00  257.5
2173 250188.000   1545936.2976  -4353761.1353   4382599.6620   1   6   0.0057   0.0110   0.0078  -0.0061  -0.0064   0.0030   0.00  254.8
2173 250189.000   1545936.3003  -4353761.1371   4382599.6639   1   6   0.0058   0.0111   0.0077  -0.0058  -0.0064   0.0027   0.00  255.6
2173 250190.000   1545936.2995  -4353761.1400   4382599.6641   1   6   0.0058   0.0111   0.0079  -0.0059  -0.0065   0.0027   0.00  256.4
2173 250191.000   1545936.2986  -4353761.1381   4382599.6624   1   6   0.0057   0.0111   0.0077  -0.0059  -0.0064   0.0026   0.00  255.3
2173 250192.000   1545936.2985  -4353761.1377   4382599.6627   1   6   0.0057   0.0111   0.0078  -0.0059  -0.0065   0.0031   0.00  254.7
2173 250193.000   1545936.3003  -4353761.1418   4382599.6649   1   6   0.0056   0.0112   0.0078  -0.0058  -0.0065   0.0032   0.00  257.4
2173 250194.000   1545936.2991  -4353761.1371   4382599.6620   1   6   0.0058   0.0111   0.0078  -0.0058  -0.0066   0.0028   0.00  257.1
2173 250195.000   1545936.2983  -4353761.1362   4382599.6612   1   6   0.0058   0.0111   0.0078  -0.0060  -0.0065   0.0029   0.00  256.8
2173 250196.000   1545936.2992  -4353761.1389   4382599.6636   1   6   0.0058   0.0111   0.0079  -0.0059  -0.0065   0.0027   0.00  256.7
2173 250197.000   1545936.2990  -4353761.1386   4382599.6628   1   6   0.0057   0.0111   0.0077  -0.0059  -0.0064   0.0028   0.00  256.1
2173 250198.000   1545936.3008  -4353761.1393   4382599.6644   1   6   0.0056   0.0111   0.0078  -0.0058  -0.0065   0.0032   0.00  256.4
2173 250199.000   1545936.2987  -4353761.1405   4382599.6640   1   6   0.0059   0.0111   0.0079  -0.0058  -0.0066   0.0029   0.00  255.9
2173 250200.000   1545936.2984  -4353761.1392   4382599.6639   1   6   0.0059   0.0111   0.0078  -0.0060  -0.0065   0.0030   0.00  256.9
2173 250201.000   1545936.2995  -4353761.1378   4382599.6631   1   6   0.0055   0.0110   0.0078  -0.0060  -0.0064   0.0033   0.00  258.0
2173 250202.000   1545936.2977  -4353761.1343   4382599.6592   1   6   0.0058   0.0110   0.0080  -0.0061  -0.0066   0.0034   0.00  253.9
2173 250203.000   1545936.3009  -4353761.1389   4382599.6634   1   6   0.0058   0.0111   0.0078  -0.0059  -0.0065   0.0032   0.00  254.5
2173 250204.000   1545936.3000  -4353761.1377   4382599.6621   1   6   0.0058   0.0111   0.0076  -0.0058  -0.0063   0.0025   0.00  255.4
2173 250205.000   1545936.2991  -4353761.1392   4382599.6618   1   6   0.0057   0.0111   0.0077  -0.0058  -0.0065   0.0028   0.00  255.8
2173 250206.000   1545936.2995  -4353761.1389   4382599.6650   1   6   0.0055   0.0111   0.0078  -0.0059  -0.0065   0.0032   0.00  256.8
2173 250207.000   1545936.2998  -4353761.1371   4382599.6625   1   6   0.0061   0.0111   0.0079  -0.0060  -0.0065   0.0028   0.00  255.8
2173 250208.000   1545936.2984  -4353761.1362   4382599.6629   1   6   0.0056   0.0111   0.0078  -0.0060  -0.0065   0.0031   0.00  255.9
2173 250209.000   1545936.2986  -4353761.1355   4382599.6615   1   6   0.0057   0.0110   0.0079  -0.0059  -0.0065   0.0028   0.00  254.6
2173 250210.000   1545936.2990  -4353761.1382   4382599.6617   1   6   0.0056   0.0111   0.0078  -0.0059  -0.0064   0.0029   0.00  253.4
2173 250211.000   1545936.2984  -4353761.1352   4382599.6594   1   6   0.0058   0.0110   0.0080  -0.0060  -0.0065   0.0031   0.00  250.5
2173 250212.000   1545936.2996  -4353761.1382   4382599.6619   1   6   0.0059   0.0111   0.0079  -0.0059  -0.0064   0.0030   0.00  251.1
2173 250213.000   1545936.3007  -4353761.1407   4382599.6619   1   6   0.0060   0.0111   0.0078  -0.0058  -0.0064   0.0029   0.00  251.8
2173 250214.000   1545936.2992  -4353761.1368   4382599.6632   1   6   0.0056   0.0111   0.0079  -0.0059  -0.0065   0.0032   0.00  252.8
2173 250215.000   1545936.2993  -4353761.1374   4382599.6654   1   6   0.0058   0.0111   0.0080  -0.0060  -0.0065   0.0029   0.00  255.4
2173 250216.000   1545936.2995  -4353761.1414   4382599.6661   1   6   0.0056   0.0112   0.0078  -0.0057  -0.0064   0.0029   0.00  259.0
2173 250217.000   1545936.2977  -4353761.1386   4382599.6635   1   6   0.0057   0.0111   0.0078  -0.0058  -0.0064   0.0029   0.00  259.1
2173 250218.000   1545936.3001  -4353761.1393   4382599.6642   1   6   0.0057   0.0112   0.0079  -0.0059  -0.0065   0.0031   0.00  260.0
2173 250219.000   1545936.2991  -4353761.1384   4382599.6652   1   6   0.0057   0.0111   0.0079  -0.0059  -0.0065   0.0030   0.00  262.5
2173 250220.000   1545936.2994  -4353761.1379   4382599.6625   1   6   0.0055   0.0111   0.0077  -0.0058  -0.0064   0.0030   0.00  262.7
2173 250221.000   1545936.2996  -4353761.1404   4382599.6645   1   6   0.0057   0.0111   0.0079  -0.0058  -0.0064   0.0028   0.00  264.2
2173 250222.000   1545936.3000  -4353761.1370   4382599.6642   1   6   0.0059   0.0111   0.0079  -0.0059  -0.0064   0.0029   0.00  264.7
2173 250223.000   1545936.3002  -4353761.1405   4382599.6659   1   6   0.0057   0.0111   0.0078  -0.0059  -0.0065   0.0031   0.00  267.6
2173 250224.000   1545936.3004  -4353761.1373   4382599.6633   1   6   0.0058   0.0110   0.0078  -0.0060  -0.0065   0.0028   0.00  268.0
2173 250225.000   1545936.2994  -4353761.1411   4382599.6651   1   6   0.0055   0.0111   0.0079  -0.0058  -0.0064   0.0032   0.00  270.0
2173 250226.000   1545936.2993  -4353761.1361   4382599.6631   1   6   0.0057   0.0110   0.0077  -0.0060  -0.0064   0.0032   0.00  269.1
2173 250227.000   1545936.3000  -4353761.1391   4382599.6641   1   6   0.0054   0.0112   0.0079  -0.0059  -0.0065   0.0031   0.00  270.2
2173 250228.000   1545936.2986  -4353761.1344   4382599.6624   1   6   0.0058   0.0111   0.0078  -0.0059  -0.0064   0.0028   0.00  267.9
2173 250229.000   1545936.3000  -4353761.1396   4382599.6650   1   6   0.0057   0.0111   0.0078  -0.0059  -0.0064   0.0031   0.00  269.9
2173 250230.000   1545936.2983  -4353761.1372   4382599.6648   1   6   0.0057   0.0111   0.0078  -0.0058  -0.0064   0.0032   0.00  271.2
