% program   : rnx2rtkp ver.2.4.3 b31
% inp file  : ngs/21_08_31_09_18_25_arlr.obs
% inp file  : ngs/21_08_31_09_18_25_arlr_VZ.obs
% inp file  : ngs/21_08_31_09_18_25_brdc.nav
% obs start : 2021/08/31 09:00:00.0 GPST (week2173 205200.0s)
% obs end   : 2021/08/31 09:59:59.0 GPST (week2173 208799.0s)
% ref pos   :  -212321.7439  -5242220.1119   3615029.3320
%
% (x/y/z-ecef=WGS84,Q=1:fix,2:float,3:sbas,4:dgps,5:single,6:ppp,ns=# of satellites)
%  GPST              x-ecef(m)      y-ecef(m)      z-ecef(m)   Q  ns   sdx(m)   sdy(m)   sdz(m)  sdxy(m)  sdyz(m)  sdzx(m) age(s)  ratio
2173 206284.000   -218301.6425  -5246693.9898   3608099.6659   2   8   0.3825   0.9435   0.7402  -0.0851  -0.6708  -0.1676 -30.00    1.8
2173 206285.000   -218301.6905  -5246694.1090   3608099.7091   2   8   0.2721   0.6709   0.5261  -0.0620  -0.4769  -0.1186 -29.00    2.0
2173 206286.000   -218301.7201  -5246694.0352   3608099.6108   2   8   0.2227   0.5492   0.4307  -0.0510  -0.3904  -0.0971 -28.00    2.0
2173 206287.000   -218301.7205  -5246693.9448   3608099.5433   2   8   0.1933   0.4765   0.3736  -0.0443  -0.3387  -0.0843 -27.00    2.1
2173 206288.000   -218301.7201  -5246693.9882   3608099.5766   2   8   0.1731   0.4267   0.3346  -0.0397  -0.3033  -0.0755 -26.00    2.2
2173 206289.000   -218301.7233  -5246693.9192   3608099.5521   2   8   0.1582   0.3899   0.3058  -0.0363  -0.2772  -0.0690 -25.00    2.4
2173 206290.000   -218301.7470  -5246693.8883   3608099.5576   2   8   0.1466   0.3613   0.2833  -0.0336  -0.2568  -0.0640 -24.00    2.6
2173 206291.000   -218301.7446  -5246693.8767   3608099.5331   2   8   0.1372   0.3381   0.2651  -0.0315  -0.2403  -0.0599 -23.00    2.8
2173 206292.000   -218301.7220  -5246693.4582   3608099.5631   1   8   0.0159   0.0396   0.0335   0.0088  -0.0294  -0.0113 -22.00    3.0
2173 206293.000   -218301.7229  -5246693.4503   3608099.5533   1   8   0.0152   0.0379   0.0321   0.0084  -0.0281  -0.0108 -21.00    3.2
2173 206294.000   -218301.7227  -5246693.4507   3608099.5584   1   8   0.0145   0.0362   0.0306   0.0080  -0.0268  -0.0103 -20.00    3.5
2173 206295.000   -218301.7236  -5246693.4500   3608099.5582   1   8   0.0138   0.0346   0.0292   0.0075  -0.0256  -0.0098 -19.00    3.7
2173 206296.000   -218301.7238  -5246693.4477   3608099.5569   1   8   0.0132   0.0329   0.0278   0.0072  -0.0243  -0.0093 -18.00    3.9
2173 206297.000   -218301.7253  -5246693.4485   3608099.5573   1   8   0.0125   0.0312   0.0263   0.0067  -0.0231  -0.0088 -17.00    4.1
2173 206298.000   -218301.7245  -5246693.4495   3608099.5593   1   8   0.0119   0.0296   0.0249   0.0063  -0.0219  -0.0083 -16.00    4.3
2173 206299.000   -218301.7235  -5246693.4462   3608099.5593   1   8   0.0112   0.0280   0.0235   0.0059  -0.0206  -0.0078 -15.00    4.5
2173 206300.000   -218301.7227  -5246693.4459   3608099.5539   1   8   0.0106   0.0263   0.0221   0.0055  -0.0194  -0.0073 -14.00    4.8
2173 206301.000   -218301.7226  -5246693.4447   3608099.5507   1   8   0.0099   0.0247   0.0207   0.0051  -0.0182  -0.0068 -13.00    5.0
2173 206302.000   -218301.7215  -5246693.4453   3608099.5494   1   8   0.0093   0.0231   0.0193   0.0046  -0.0170  -0.0063 -12.00    5.5
2173 206303.000   -218301.7214  -5246693.4437   3608099.5438   1   8   0.0086   0.0215   0.0180   0.0043  -0.0158  -0.0058 -11.00    6.1
2173 206304.000   -218301.7208  -5246693.4471   3608099.5421   1   8   0.0081   0.0200   0.0166   0.0038  -0.0147  -0.0053 -10.00    6.8
2173 206305.000   -218301.7184  -5246693.4442   3608099.5364   1   8   0.0074   0.0185   0.0153   0.0035  -0.0135  -0.0049  -9.00    7.6
2173 206306.000   -218301.7169  -5246693.4436   3608099.5334   1   8   0.0069   0.0170   0.0140   0.0030  -0.0124  -0.0043  -8.00    8.5
2173 206307.000   -218301.7173  -5246693.4401   3608099.5298   1   8   0.0064   0.0156   0.0128   0.0025  -0.0113  -0.0038  -7.00    9.5
2173 206308.000   -218301.7179  -5246693.4379   3608099.5284   1   8   0.0057   0.0143   0.0117   0.0021  -0.0103  -0.0035  -6.00   10.9
2173 206309.000   -218301.7175  -5246693.4409   3608099.5260   1   8   0.0054   0.0131   0.0105   0.0015  -0.0093  -0.0029  -5.00   12.4
2173 206310.000   -218301.7180  -5246693.4404   3608099.5241   1   8   0.0049   0.0119   0.0096   0.0017  -0.0086  -0.0023  -4.00   13.9
2173 206311.000   -218301.7163  -5246693.4410   3608099.5234   1   8   0.0049   0.0110   0.0087   0.0013  -0.0077  -0.0021  -3.00   16.2
2173 206312.000   -218301.7171  -5246693.4389   3608099.5199   1   8   0.0039   0.0101   0.0081  -0.0002  -0.0072  -0.0024  -2.00   18.7
2173 206313.000   -218301.7162  -5246693.4395   3608099.5171   1   8   0.0043   0.0097   0.0077  -0.0010  -0.0069  -0.0017  -1.00   20.9
2173 206314.000   -218301.7152  -5246693.4424   3608099.5183   1   8   0.0043   0.0095   0.0075   0.0007  -0.0067  -0.0019   0.00   23.7
2173 206315.000   -218301.7138  -5246693.4413   3608099.5191   1   8   0.0040   0.0094   0.0074   0.0017  -0.0067  -0.0022   0.00   26.9
2173 206316.000   -218301.7151  -5246693.4425   3608099.5219   1   8   0.0031   0.0095   0.0074  -0.0020  -0.0068  -0.0021   0.00   29.3
2173 206317.000   -218301.7130  -5246693.4392   3608099.5174   1   8   0.0039   0.0096   0.0074  -0.0005  -0.0067  -0.0015   0.00   32.0
2173 206318.000   -218301.7130  -5246693.4442   3608099.5209   1   8   0.0041   0.0095   0.0074  -0.0005  -0.0067  -0.0014   0.00   34.7
2173 206319.000   -218301.7121  -5246693.4388   3608099.5162   1   8   0.0039   0.0096   0.0076  -0.0004  -0.0067  -0.0019   0.00   36.2
2173 206320.000   -218301.7170  -5246693.4403   3608099.5230   1   8   0.0035   0.0095   0.0074  -0.0006  -0.0068  -0.0012   0.00   38.3
2173 206321.000   -218301.7149  -5246693.4412   3608099.5186   1   8   0.0040   0.0095   0.0075  -0.0014  -0.0068  -0.0018   0.00   40.0
2173 206322.000   -218301.7144  -5246693.4416   3608099.5169   1   8   0.0043   0.0096   0.0074  -0.0010  -0.0067  -0.0012   0.00   41.7
2173 206323.000   -218301.7160  -5246693.4422   3608099.5186   1   8   0.0033   0.0096   0.0075  -0.0021  -0.0067  -0.0020   0.00   44.0
2173 206324.000   -218301.7140  -5246693.4456   3608099.5195   1   8   0.0033   0.0095   0.0073  -0.0019  -0.0067  -0.0020   0.00   46.1
2173 206325.000   -218301.7142  -5246693.4411   3608099.5213   1   8   0.0033   0.0094   0.0073  -0.0007  -0.0067  -0.0018   0.00   47.3
2173 206326.000   -218301.7147  -5246693.4415   3608099.5201   1   8   0.0028   0.0095   0.0075  -0.0024  -0.0067  -0.0024   0.00   49.3
2173 206327.000   -218301.7156  -5246693.4423   3608099.5196   1   8   0.0039   0.0095   0.0074  -0.0018  -0.0068  -0.0017   0.00   50.9
2173 206328.000   -218301.7158  -5246693.4447   3608099.5220   1   8   0.0038   0.0095   0.0074  -0.0013  -0.0068  -0.0014   0.00   51.9
2173 206329.000   -218301.7140  -5246693.4431   3608099.5185   1   8   0.0039   0.0095   0.0076  -0.0021  -0.0068  -0.0018   0.00   52.3
2173 206330.000   -218301.7152  -5246693.4420   3608099.5191   1   8   0.0037   0.0095   0.0073  -0.0015  -0.0068  -0.0015   0.00   53.3
2173 206331.000   -218301.7143  -5246693.4432   3608099.5177   1   8   0.0042   0.0095   0.0075   0.0002  -0.0066  -0.0016   0.00   55.5
2173 206332.000   -218301.7142  -5246693.4409   3608099.5182   1   8   0.0038   0.0096   0.0075  -0.0018  -0.0067  -0.0019   0.00   57.1
2173 206333.000   -218301.7159  -5246693.4410   3608099.5183   1   8   0.0035   0.0095   0.0076  -0.0017  -0.0067  -0.0018   0.00   58.4
2173 206334.000   -218301.7150  -5246693.4444   3608099.5214   1   8   0.0039   0.0095   0.0076  -0.0004  -0.0068  -0.0020   0.00   60.3
2173 206335.000   -218301.7152  -5246693.4466   3608099.5210   1   8   0.0045   0.0096   0.0075  -0.0010  -0.0067  -0.0017   0.00   61.6
2173 206336.000   -218301.7139  -5246693.4422   3608099.5203   1   8   0.0039   0.0096   0.0074   0.0002  -0.0066  -0.0013   0.00   63.3
2173 206337.000   -218301.7157  -5246693.4402   3608099.5195   1   8   0.0036   0.0094   0.0073   0.0011  -0.0067  -0.0020   0.00   65.6
2173 206338.000   -218301.7151  -5246693.4429   3608099.5225   1   8   0.0043   0.0094   0.0076   0.0009  -0.0067  -0.0022   0.00   67.9
2173 206339.000   -218301.7142  -5246693.4450   3608099.5188   1   8   0.0034   0.0094   0.0074  -0.0011  -0.0068  -0.0017   0.00   70.5
2173 206340.000   -218301.7165  -5246693.4410   3608099.5154   1   8   0.0039   0.0096   0.0075  -0.0003  -0.0067  -0.0018   0.00   71.4
2173 206341.000   -218301.7133  -5246693.4415   3608099.5188   1   8   0.0044   0.0095   0.0074   0.0016  -0.0067  -0.0013   0.00   71.9
2173 206342.000   -218301.7155  -5246693.4414   3608099.5170   1   8   0.0038   0.0096   0.0074  -0.0021  -0.0067  -0.0010   0.00   71.5
2173 206343.000   -218301.7145  -5246693.4439   3608099.5193   1   8   0.0039   0.0095   0.0075   0.0005  -0.0067  -0.0016   0.00   72.1
2173 206344.000   -218301.7148  -5246693.4426   3608099.5163   1   8   0.0042   0.0095   0.0073  -0.0011  -0.0067  -0.0011   0.00   72.1
2173 206345.000   -218301.7148  -5246693.4491   3608099.5216   1   8   0.0039   0.0096   0.0074   0.0002  -0.0067  -0.0014   0.00   73.1
2173 206346.000   -218301.7152  -5246693.4398   3608099.5171   1   8   0.0035   0.0095   0.0075  -0.0015  -0.0067  -0.0017   0.00   73.4
2173 206347.000   -218301.7163  -5246693.4424   3608099.5198   1   8   0.0044   0.0097   0.0075   0.0008  -0.0066  -0.0006   0.00   73.4
2173 206348.000   -218301.7155  -5246693.4471   3608099.5211   1   8   0.0036   0.0095   0.0075  -0.0020  -0.0068  -0.0009   0.00   73.5
2173 206349.000   -218301.7160  -5246693.4436   3608099.5182   1   8   0.0039   0.0095   0.0075  -0.0009  -0.0068  -0.0019   0.00   73.1
2173 206350.000   -218301.7176  -5246693.4357   3608099.5165   1   8   0.0041   0.0096   0.0075  -0.0002  -0.0067  -0.0011   0.00   72.7
2173 206351.000   -218301.7147  -5246693.4475   3608099.5189   1   8   0.0040   0.0095   0.0074  -0.0018  -0.0068  -0.0016   0.00   72.5
2173 206352.000   -218301.7181  -5246693.4451   3608099.5221   1   8   0.0034   0.0095   0.0072  -0.0019  -0.0067  -0.0020   0.00   72.7
2173 206353.000   -218301.7169  -5246693.4445   3608099.5209   1   8   0.0044   0.0096   0.0074  -0.0007  -0.0067  -0.0002   0.00   72.7
2173 206354.000   -218301.7161  -5246693.4435   3608099.5185   1   8   0.0033   0.0095   0.0074  -0.0008  -0.0067  -0.0018   0.00   71.9
2173 206355.000   -218301.7154  -5246693.4477   3608099.5224   1   8   0.0035   0.0094   0.0075  -0.0007  -0.0068  -0.0019   0.00   71.2
2173 206356.000   -218301.7177  -5246693.4404   3608099.5165   1   8   0.0043   0.0095   0.0074  -0.0016  -0.0067  -0.0019   0.00   70.4
2173 206357.000   -218301.7167  -5246693.4422   3608099.5180   1   8   0.0032   0.0095   0.0073  -0.0020  -0.0068  -0.0021   0.00   70.7
2173 206358.000   -218301.7168  -5246693.4386   3608099.5176   1   8   0.0040   0.0094   0.0075   0.0011  -0.0068  -0.0009   0.00   70.7
2173 206359.000   -218301.7162  -5246693.4397   3608099.5179   1   8   0.0037   0.0094   0.0076  -0.0006  -0.0068  -0.0024   0.00   71.4
2173 206360.000   -218301.7166  -5246693.4421   3608099.5173   1   8   0.0036   0.0096   0.0073  -0.0012  -0.0067  -0.0014   0.00   71.0
2173 206361.000   -218301.7156  -5246693.4460   3608099.5202   1   8   0.0035   0.0094   0.0074  -0.0024  -0.0068  -0.0022   0.00   70.4
2173 206362.000   -218301.7161  -5246693.4436   3608099.5189   1   8   0.0044   0.0095   0.0075   0.0006  -0.0067  -0.0008   0.00   70.1
2173 206363.000   -218301.7168  -5246693.4443   3608099.5191   1   8   0.0036   0.0095   0.0073  -0.0018  -0.0068  -0.0018   0.00   69.9
2173 206364.000   -218301.7169  -5246693.4427   3608099.5165   1   8   0.0031   0.0094   0.0074  -0.0016  -0.0068  -0.0017   0.00   69.8
2173 206365.000   -218301.7162  -5246693.4435   3608099.5189   1   8   0.0038   0.0095   0.0074  -0.0005  -0.0067  -0.0020   0.00   69.3
2173 206366.000   -218301.7167  -5246693.4423   3608099.5164   1   8   0.0036   0.0095   0.0075  -0.0016  -0.0067  -0.0019   0.00   69.4
2173 206367.000   -218301.7147  -5246693.4432   3608099.5187   1   8   0.0037   0.0095   0.0074  -0.0011  -0.0067  -0.0015   0.00   69.6
2173 206368.000   -218301.7161  -5246693.4441   3608099.5186   1   8   0.0043   0.0094   0.0073  -0.0010  -0.0068  -0.0019   0.00   69.1
2173 206369.000   -218301.7150  -5246693.4430   3608099.5183   1   8   0.0033   0.0093   0.0074  -0.0012  -0.0069  -0.0021   0.00   68.9
2173 206370.000   -218301.7161  -5246693.4445   3608099.5156   1   8   0.0043   0.0095   0.0073  -0.0016  -0.0067  -0.0015   0.00   69.6
2173 206371.000   -218301.7164  -5246693.4448   3608099.5191   1   8   0.0035   0.0094   0.0073  -0.0017  -0.0067  -0.0019   0.00   69.8
2173 206372.000   -218301.7176  -5246693.4442   3608099.5160   1   8   0.0037   0.0095   0.0074  -0.0021  -0.0068  -0.0016   0.00   70.1
2173 206373.000   -218301.7160  -5246693.4436   3608099.5197   1   8   0.0038   0.0095   0.0075   0.0014  -0.0067  -0.0016   0.00   70.7
2173 206374.000   -218301.7155  -5246693.4445   3608099.5201   1   8   0.0038   0.0094   0.0076  -0.0007  -0.0067  -0.0019   0.00   71.7
2173 206375.000   -218301.7157  -5246693.4395   3608099.5162   1   8   0.0037   0.0095   0.0074  -0.0014  -0.0067  -0.0019   0.00   72.4
2173 206376.000   -218301.7170  -5246693.4437   3608099.5166   1   8   0.0037   0.0094   0.0074  -0.0021  -0.0068  -0.0016   0.00   72.9
2173 206377.000   -218301.7189  -5246693.4420   3608099.5184   1   8   0.0043   0.0095   0.0074  -0.0008  -0.0068  -0.0014   0.00   72.7
2173 206378.000   -218301.7173  -5246693.4482   3608099.5223   1   8   0.0038   0.0094   0.0074   0.0010  -0.0068  -0.0021   0.00   72.8
2173 206379.000   -218301.7174  -5246693.4451   3608099.5203   1   8   0.0038   0.0096   0.0073  -0.0014  -0.0067  -0.0012   0.00   73.2
2173 206380.000   -218301.7171  -5246693.4398   3608099.5166   1   8   0.0032   0.0094   0.0073  -0.0013  -0.0067  -0.0021   0.00   73.7
2173 206381.000   -218301.7157  -5246693.4393   3608099.5187   1   8   0.0041   0.0095   0.0073  -0.0006  -0.0067  -0.0020   0.00   73.3
2173 206382.000   -218301.7169  -5246693.4415   3608099.5197   1   8   0.0041   0.0096   0.0076  -0.0011  -0.0066  -0.0020   0.00   73.6
2173 206383.000   -218301.7145  -5246693.4480   3608099.5205   1   8   0.0035   0.0095   0.0072  -0.0017  -0.0067  -0.0012   0.00   73.3
2173 206384.000   -218301.7172  -5246693.4474   3608099.5195   1   8   0.0035   0.0095   0.0074  -0.0013  -0.0067  -0.0015   0.00   73.1
2173 206385.000   -218301.7192  -5246693.4426   3608099.5182   1   8   0.0040   0.0095   0.0073   0.0007  -0.0067  -0.0012   0.00   73.6
2173 206386.000   -218301.7187  -5246693.4396   3608099.5183   1   8   0.0042   0.0096   0.0074  -0.0012  -0.0066  -0.0009   0.00   73.5
2173 206387.000   -218301.7158  -5246693.4487   3608099.5171   1   8   0.0040   0.0095   0.0074   0.0009  -0.0067  -0.0020   0.00   74.0
2173 206388.000   -218301.7179  -5246693.4422   3608099.5169   1   8   0.0035   0.0094   0.0074  -0.0011  -0.0068  -0.0021   0.00   73.8
2173 206389.000   -218301.7165  -5246693.4467   3608099.5170   1   8   0.0033   0.0095   0.0073  -0.0021  -0.0068  -0.0017   0.00   74.1
2173 206390.000   -218301.7162  -5246693.4453   3608099.5207   1   8   0.0037   0.0095   0.0074  -0.0016  -0.0068  -0.0018   0.00   73.9
2173 206391.000   -218301.7183  -5246693.4422   3608099.5208   1   8   0.0039   0.0095   0.0073  -0.0018  -0.0068  -0.0012   0.00   74.3
2173 206392.000   -218301.7174  -5246693.4414   3608099.5191   1   8   0.0038   0.0094   0.0073  -0.0022  -0.0067  -0.0022   0.00   74.2
2173 206393.000   -218301.7186  -5246693.4417   3608099.5173   1   8   0.0036   0.0094   0.0076  -0.0018  -0.0067  -0.0020   0.00   73.9
2173 206394.000   -218301.7185  -5246693.4428   3608099.5211   1   8   0.0041   0.0096   0.0073  -0.0015  -0.0067  -0.0017   0.00   73.9
2173 206395.000   -218301.7177  -5246693.4461   3608099.5203   1   8   0.0038   0.0095   0.0074  -0.0014  -0.0067  -0.0014   0.00   74.7
2173 206396.000   -218301.7176  -5246693.4441   3608099.5213   1   8   0.0035   0.0095   0.0071  -0.0020  -0.0068  -0.0018   0.00   75.1
2173 206397.000   -218301.7187  -5246693.4424   3608099.5192   1   8   0.0042   0.0096   0.0075   0.0004  -0.0066  -0.0011   0.00   76.2
2173 206398.000   -218301.7173  -5246693.4458   3608099.5216   1   8   0.0038   0.0095   0.0073  -0.0012  -0.0066  -0.0013   0.00   77.0
2173 206399.000   -218301.7172  -5246693.4424   3608099.5190   1   8   0.0040   0.0094   0.0074  -0.0018  -0.0068  -0.0018   0.00   77.8
2173 206400.000   -218301.7176  -5246693.4416   3608099.5183   1   8   0.0033   0.0094   0.0073   0.0015  -0.0067  -0.0017   0.00   78.5
2173 206401.000   -218301.7163  -5246693.4391   3608099.5197   1   8   0.0036   0.0094   0.0074  -0.0008  -0.0067  -0.0015   0.00   79.5
2173 206402.000   -218301.7173  -5246693.4484   3608099.5251   1   8   0.0035   0.0094   0.0074  -0.0025  -0.0068  -0.0020   0.00   80.0
2173 206403.000   -218301.7179  -5246693.4425   3608099.5175   1   8   0.0037   0.0094   0.0074  -0.0015  -0.0068  -0.0015   0.00   80.5
2173 206404.000   -218301.7163  -5246693.4477   3608099.5220   1   8   0.0043   0.0096   0.0074  -0.0010  -0.0067  -0.0014   0.00   80.5
2173 206405.000   -218301.7176  -5246693.4461   3608099.5208   1   8   0.0036   0.0094   0.0074   0.0005  -0.0068  -0.0020   0.00   80.6
2173 206406.000   -218301.7167  -5246693.4422   3608099.5196   1   8   0.0042   0.0096   0.0074   0.0006  -0.0066  -0.0013   0.00   81.2
2173 206407.000   -218301.7184  -5246693.4402   3608099.5184   1   8   0.0042   0.0095   0.0075  -0.0012  -0.0066  -0.0015   0.00   82.2
2173 206408.000   -218301.7176  -5246693.4427   3608099.5189   1   8   0.0045   0.0097   0.0075  -0.0012  -0.0066  -0.0006   0.00   82.7
2173 206409.000   -218301.7185  -5246693.4474   3608099.5216   1   8   0.0043   0.0095   0.0075  -0.0008  -0.0066  -0.0017   0.00   83.6
2173 206410.000   -218301.7170  -5246693.4430   3608099.5193   1   8   0.0043   0.0096   0.0073  -0.0011  -0.0066  -0.0009   0.00   84.7
2173 206411.000   -218301.7185  -5246693.4483   3608099.5219   1   8   0.0047   0.0094   0.0074  -0.0009  -0.0068  -0.0011   0.00   85.3
2173 206412.000   -218301.7180  -5246693.4436   3608099.5195   1   8   0.0038   0.0094   0.0075  -0.0026  -0.0068  -0.0023   0.00   86.1
2173 206413.000   -218301.7170  -5246693.4400   3608099.5184   1   8   0.0044   0.0097   0.0074   0.0010  -0.0065  -0.0012   0.00   87.0
2173 206414.000   -218301.7194  -5246693.4470   3608099.5220   1   8   0.0040   0.0094   0.0074   0.0009  -0.0066  -0.0018   0.00   87.9
2173 206415.000   -218301.7186  -5246693.4484   3608099.5203   1   8   0.0042   0.0095   0.0074  -0.0015  -0.0067  -0.0016   0.00   88.3
2173 206416.000   -218301.7187  -5246693.4439   3608099.5236   1   8   0.0035   0.0094   0.0074  -0.0016  -0.0068  -0.0018   0.00   88.0
2173 206417.000   -218301.7180  -5246693.4419   3608099.5212   1   8   0.0044   0.0096   0.0072  -0.0014  -0.0067  -0.0010   0.00   88.1
2173 206418.000   -218301.7196  -5246693.4452   3608099.5182   1   8   0.0036   0.0095   0.0074  -0.0014  -0.0067  -0.0019   0.00   87.9
2173 206419.000   -218301.7183  -5246693.4465   3608099.5189   1   8   0.0042   0.0095   0.0073  -0.0008  -0.0068  -0.0016   0.00   89.1
2173 206420.000   -218301.7194  -5246693.4433   3608099.5201   1   8   0.0038   0.0094   0.0074   0.0015  -0.0067  -0.0017   0.00   89.0
2173 206421.000   -218301.7185  -5246693.4493   3608099.5201   1   8   0.0037   0.0095   0.0073  -0.0018  -0.0067  -0.0019   0.00   90.1
2173 206422.000   -218301.7176  -5246693.4449   3608099.5240   1   8   0.0042   0.0095   0.0074   0.0007  -0.0066  -0.0019   0.00   91.5
2173 206423.000   -218301.7177  -5246693.4465   3608099.5214   1   8   0.0035   0.0094   0.0074  -0.0020  -0.0068  -0.0021   0.00   91.9
2173 206424.000   -218301.7184  -5246693.4468   3608099.5239   1   8   0.0036   0.0093   0.0075   0.0011  -0.0068  -0.0019   0.00   91.4
2173 206425.000   -218301.7193  -5246693.4473   3608099.5214   1   8   0.0037   0.0094   0.0074  -0.0019  -0.0068  -0.0017   0.00   92.0
2173 206426.000   -218301.7187  -5246693.4490   3608099.5242   1   8   0.0044   0.0096   0.0075  -0.0009  -0.0066  -0.0015   0.00   92.7
2173 206427.000   -218301.7181  -5246693.4458   3608099.5199   1   8   0.0039   0.0096   0.0075  -0.0007  -0.0066  -0.0020   0.00   94.3
2173 206428.000   -218301.7201  -5246693.4495   3608099.5229   1   8   0.0042   0.0095   0.0072  -0.0014  -0.0066  -0.0015   0.00   94.0
2173 206429.000   -218301.7184  -5246693.4497   3608099.5255   1   8   0.0038   0.0094   0.0072  -0.0013  -0.0068  -0.0005   0.00   94.5
2173 206430.000   -218301.7179  -5246693.4448   3608099.5220   1   8   0.0031   0.0095   0.0072  -0.0022  -0.0068  -0.0026   0.00   95.8
2173 206431.000   -218301.7192  -5246693.4454   3608099.5220   1   8   0.0031   0.0093   0.0074  -0.0009  -0.0067  -0.0023   0.00   96.5
2173 206432.000   -218301.7185  -5246693.4471   3608099.5210   1   8   0.0043   0.0095   0.0074   0.0004  -0.0066  -0.0007   0.00   96.7
2173 206433.000   -218301.7179  -5246693.4492   3608099.5250   1   8   0.0040   0.0095   0.0073   0.0012  -0.0066  -0.0015   0.00   96.4
2173 206434.000   -218301.7197  -5246693.4466   3608099.5257   1   8   0.0037   0.0095   0.0072  -0.0014  -0.0068  -0.0015   0.00   97.2
2173 206435.000   -218301.7194  -5246693.4455   3608099.5235   1   8   0.0038   0.0095   0.0074  -0.0008  -0.0067  -0.0017   0.00   98.0
2173 206436.000   -218301.7201  -5246693.4477   3608099.5231   1   8   0.0039   0.0094   0.0072  -0.0012  -0.0068  -0.0017   0.00   98.9
2173 206437.000   -218301.7188  -5246693.4448   3608099.5239   1   8   0.0034   0.0094   0.0075  -0.0010  -0.0068  -0.0017   0.00  100.1
2173 206438.000   -218301.7185  -5246693.4529   3608099.5260   1   8   0.0038   0.0095   0.0074  -0.0013  -0.0067  -0.0018   0.00  100.9
2173 206439.000   -218301.7199  -5246693.4516   3608099.5225   1   8   0.0035   0.0095   0.0073  -0.0016  -0.0067  -0.0019   0.00  102.0
2173 206440.000   -218301.7196  -5246693.4466   3608099.5240   1   8   0.0042   0.0096   0.0074  -0.0006  -0.0067  -0.0009   0.00  102.3
2173 206441.000   -218301.7160  -5246693.4488   3608099.5222   1   8   0.0036   0.0095   0.0072  -0.0013  -0.0066  -0.0020   0.00  102.6
2173 206442.000   -218301.7193  -5246693.4485   3608099.5210   1   8   0.0037   0.0095   0.0075  -0.0015  -0.0067  -0.0012   0.00  103.5
2173 206443.000   -218301.7190  -5246693.4467   3608099.5212   1   8   0.0040   0.0095   0.0073  -0.0020  -0.0068  -0.0018   0.00  104.6
2173 206444.000   -218301.7180  -5246693.4462   3608099.5219   1   8   0.0041   0.0095   0.0075  -0.0018  -0.0067  -0.0019   0.00  105.5
2173 206445.000   -218301.7186  -5246693.4481   3608099.5258   1   8   0.0041   0.0095   0.0073   0.0010  -0.0067  -0.0015   0.00  106.3
2173 206446.000   -218301.7191  -5246693.4453   3608099.5215   1   8   0.0039   0.0094   0.0074  -0.0018  -0.0068  -0.0022   0.00  106.2
2173 206447.000   -218301.7164  -5246693.4425   3608099.5215   1   8   0.0045   0.0095   0.0072  -0.0002  -0.0066   0.0004   0.00  106.3
2173 206448.000   -218301.7196  -5246693.4439   3608099.5219   1   8   0.0042   0.0094   0.0074  -0.0004  -0.0068  -0.0015   0.00  106.9
2173 206449.000   -218301.7166  -5246693.4460   3608099.5239   1   8   0.0029   0.0094   0.0073  -0.0028  -0.0068  -0.0022   0.00  107.7
2173 206450.000   -218301.7178  -5246693.4463   3608099.5231   1   8   0.0041   0.0095   0.0074  -0.0019  -0.0067  -0.0012   0.00  108.6
2173 206451.000   -218301.7182  -5246693.4469   3608099.5229   1   8   0.0039   0.0096   0.0074  -0.0021  -0.0067  -0.0014   0.00  109.1
2173 206452.000   -218301.7167  -5246693.4404   3608099.5210   1   8   0.0042   0.0095   0.0073  -0.0013  -0.0067  -0.0017   0.00  109.6
2173 206453.000   -218301.7164  -5246693.4442   3608099.5229   1   8   0.0040   0.0096   0.0073  -0.0015  -0.0066  -0.0016   0.00  109.8
2173 206454.000   -218301.7188  -5246693.4440   3608099.5211   1   8   0.0042   0.0096   0.0073  -0.0011  -0.0066  -0.0013   0.00  110.9
2173 206455.000   -218301.7182  -5246693.4475   3608099.5237   1   8   0.0034   0.0094   0.0073  -0.0020  -0.0068  -0.0016   0.00  111.4
2173 206456.000   -218301.7157  -5246693.4478   3608099.5244   1   8   0.0039   0.0095   0.0073  -0.0012  -0.0068  -0.0013   0.00  111.9
2173 206457.000   -218301.7178  -5246693.4436   3608099.5214   1   8   0.0041   0.0094   0.0073  -0.0017  -0.0067  -0.0022   0.00  112.9
2173 206458.000   -218301.7171  -5246693.4424   3608099.5207   1   8   0.0038   0.0095   0.0075  -0.0016  -0.0068  -0.0017   0.00  113.1
2173 206459.000   -218301.7166  -5246693.4467   3608099.5232   1   8   0.0042   0.0096   0.0073  -0.0013  -0.0066  -0.0009   0.00  113.8
2173 206460.000   -218301.7187  -5246693.4435   3608099.5214   1   8   0.0045   0.0096   0.0073  -0.0010  -0.0066  -0.0012   0.00  114.1
2173 206461.000   -218301.7166  -5246693.4415   3608099.5224   1   8   0.0041   0.0095   0.0072   0.0006  -0.0067  -0.0020   0.00  114.1
2173 206462.000   -218301.7187  -5246693.4478   3608099.5237   1   8   0.0043   0.0095   0.0073   0.0003  -0.0066  -0.0013   0.00  114.5
2173 206463.000   -218301.7187  -5246693.4445   3608099.5225   1   8   0.0041   0.0097   0.0074  -0.0014  -0.0065  -0.0012   0.00  114.7
2173 206464.000   -218301.7175  -5246693.4440   3608099.5237   1   8   0.0037   0.0095   0.0073  -0.0012  -0.0067  -0.0014   0.00  114.8
2173 206465.000   -218301.7179  -5246693.4466   3608099.5206   1   8   0.0039   0.0094   0.0074   0.0009  -0.0066  -0.0014   0.00  115.1
2173 206466.000   -218301.7175  -5246693.4473   3608099.5227   1   8   0.0037   0.0095   0.0074  -0.0011  -0.0066  -0.0020   0.00  115.1
2173 206467.000   -218301.7178  -5246693.4467   3608099.5234   1   8   0.0043   0.0095   0.0074   0.0007  -0.0067  -0.0014   0.00  115.1
2173 206468.000   -218301.7173  -5246693.4409   3608099.5184   1   8   0.0039   0.0094   0.0074  -0.0015  -0.0068  -0.0022   0.00  115.5
2173 206469.000   -218301.7168  -5246693.4344   3608099.5171   1   8   0.0028   0.0093   0.0072  -0.0023  -0.0069  -0.0021   0.00  116.2
2173 206470.000   -218301.7169  -5246693.4446   3608099.5209   1   8   0.0043   0.0094   0.0074  -0.0010  -0.0067  -0.0014   0.00  116.8
2173 206471.000   -218301.7180  -5246693.4460   3608099.5233   1   8   0.0042   0.0096   0.0074  -0.0013  -0.0066  -0.0019   0.00  117.3
2173 206472.000   -218301.7181  -5246693.4425   3608099.5217   1   8   0.0039   0.0094   0.0073  -0.0013  -0.0067  -0.0018   0.00  117.6
2173 206473.000   -218301.7194  -5246693.4443   3608099.5226   1   8   0.0040   0.0094   0.0072   0.0006  -0.0067  -0.0017   0.00  117.7
2173 206474.000   -218301.7175  -5246693.4472   3608099.5244   1   8   0.0041   0.0096   0.0072  -0.0015  -0.0066  -0.0012   0.00  118.4
2173 206475.000   -218301.7201  -5246693.4471   3608099.5246   1   8   0.0038   0.0096   0.0074   0.0003  -0.0066  -0.0014   0.00  119.1
2173 206476.000   -218301.7173  -5246693.4419   3608099.5187   1   8   0.0043   0.0095   0.0074   0.0005  -0.0067  -0.0011   0.00  119.5
2173 206477.000   -218301.7178  -5246693.4459   3608099.5220   1   8   0.0043   0.0097   0.0074  -0.0015  -0.0065  -0.0015   0.00  119.8
2173 206478.000   -218301.7174  -5246693.4510   3608099.5225   1   8   0.0041   0.0095   0.0074  -0.0017  -0.0066  -0.0019   0.00  120.4
2173 206479.000   -218301.7184  -5246693.4489   3608099.5243   1   8   0.0031   0.0094   0.0074  -0.0008  -0.0068  -0.0023   0.00  121.4
2173 206480.000   -218301.7184  -5246693.4474   3608099.5215   1   8   0.0032   0.0093   0.0073  -0.0014  -0.0068  -0.0021   0.00  122.9
2173 206481.000   -218301.7195  -5246693.4486   3608099.5254   1   8   0.0036   0.0094   0.0073  -0.0017  -0.0068  -0.0019   0.00  123.7
2173 206482.000   -218301.7194  -5246693.4460   3608099.5214   1   8   0.0035   0.0095   0.0074  -0.0023  -0.0067  -0.0022   0.00  124.4
2173 206483.000   -218301.7189  -5246693.4446   3608099.5211   1   8   0.0039   0.0095   0.0073  -0.0012  -0.0067  -0.0015   0.00  123.7
2173 206484.000   -218301.7202  -5246693.4460   3608099.5202   1   8   0.0041   0.0096   0.0074  -0.0019  -0.0066  -0.0015   0.00  123.6
2173 206485.000   -218301.7190  -5246693.4453   3608099.5217   1   8   0.0046   0.0095   0.0076   0.0016  -0.0066  -0.0016   0.00  124.0
2173 206486.000   -218301.7193  -5246693.4471   3608099.5228   1   8   0.0037   0.0095   0.0074   0.0007  -0.0066  -0.0019   0.00  124.0
2173 206487.000   -218301.7179  -5246693.4483   3608099.5241   1   8   0.0039   0.0095   0.0073   0.0001  -0.0067  -0.0013   0.00  124.5
2173 206488.000   -218301.7187  -5246693.4512   3608099.5233   1   8   0.0036   0.0095   0.0073  -0.0019  -0.0067  -0.0021   0.00  124.8
2173 206489.000   -218301.7187  -5246693.4517   3608099.5251   1   8   0.0043   0.0095   0.0072  -0.0018  -0.0067  -0.0009   0.00  124.8
2173 206490.000   -218301.7194  -5246693.4526   3608099.5280   1   8   0.0038   0.0094   0.0073  -0.0017  -0.0068  -0.0014   0.00  124.4
2173 206491.000   -218301.7200  -5246693.4488   3608099.5241   1   8   0.0039   0.0094   0.0073  -0.0017  -0.0067  -0.0018   0.00  124.8
2173 206492.000   -218301.7196  -5246693.4469   3608099.5233   1   8   0.0036   0.0096   0.0075  -0.0011  -0.0066  -0.0011   0.00  124.3
2173 206493.000   -218301.7214  -5246693.4495   3608099.5256   1   8   0.0041   0.0094   0.0072  -0.0014  -0.0067  -0.0012   0.00  124.2
2173 206494.000   -218301.7203  -5246693.4537   3608099.5288   1   8   0.0041   0.0096   0.0073  -0.0011  -0.0065  -0.0016   0.00  122.9
2173 206495.000   -218301.7196  -5246693.4485   3608099.5245   1   8   0.0039   0.0095   0.0072   0.0004  -0.0066  -0.0023   0.00  122.3
2173 206496.000   -218301.7180  -5246693.4480   3608099.5243   1   8   0.0037   0.0094   0.0074  -0.0016  -0.0068  -0.0027   0.00  121.7
2173 206497.000   -218301.7209  -5246693.4511   3608099.5298   1   8   0.0039   0.0095   0.0074   0.0015  -0.0066  -0.0017   0.00  120.8
2173 206498.000   -218301.7186  -5246693.4499   3608099.5254   1   8   0.0041   0.0095   0.0072  -0.0017  -0.0067  -0.0017   0.00  120.8
2173 206499.000   -218301.7193  -5246693.4510   3608099.5248   1   8   0.0036   0.0095   0.0073  -0.0012  -0.0067  -0.0021   0.00  120.3
2173 206500.000   -218301.7187  -5246693.4481   3608099.5214   1   8   0.0036   0.0094   0.0073  -0.0004  -0.0067  -0.0017   0.00  119.6
2173 206501.000   -218301.7197  -5246693.4507   3608099.5239   1   8   0.0036   0.0095   0.0072  -0.0018  -0.0068  -0.0019   0.00  118.9
2173 206502.000   -218301.7191  -5246693.4517   3608099.5281   1   8   0.0040   0.0095   0.0073   0.0006  -0.0067  -0.0015   0.00  118.2
2173 206503.000   -218301.7204  -5246693.4461   3608099.5230   1   8   0.0039   0.0095   0.0073  -0.0011  -0.0066   0.0008   0.00  117.6
2173 206504.000   -218301.7204  -5246693.4533   3608099.5265   1   8   0.0045   0.0096   0.0073  -0.0009  -0.0066   0.0002   0.00  116.7
2173 206505.000   -218301.7197  -5246693.4557   3608099.5254   1   8   0.0037   0.0096   0.0073   0.0007  -0.0065  -0.0013   0.00  116.7
2173 206506.000   -218301.7177  -5246693.4515   3608099.5222   1   8   0.0038   0.0094   0.0073  -0.0026  -0.0068  -0.0015   0.00  116.1
2173 206507.000   -218301.7205  -5246693.4478   3608099.5216   1   8   0.0039   0.0095   0.0072  -0.0013  -0.0066  -0.0014   0.00  115.1
2173 206508.000   -218301.7186  -5246693.4475   3608099.5246   1   8   0.0043   0.0094   0.0074   0.0005  -0.0067  -0.0012   0.00  114.5
2173 206509.000   -218301.7187  -5246693.4506   3608099.5237   1   8   0.0032   0.0094   0.0073  -0.0020  -0.0068  -0.0020   0.00  113.4
2173 206510.000   -218301.7177  -5246693.4501   3608099.5238   1   8   0.0038   0.0095   0.0074  -0.0019  -0.0066  -0.0013   0.00  112.9
2173 206511.000   -218301.7182  -5246693.4468   3608099.5195   1   8   0.0036   0.0095   0.0071  -0.0021  -0.0067  -0.0020   0.00  113.1
2173 206512.000   -218301.7175  -5246693.4521   3608099.5246   1   8   0.0040   0.0095   0.0074  -0.0010  -0.0067  -0.0018   0.00  112.9
2173 206513.000   -218301.7203  -5246693.4497   3608099.5203   1   8   0.0036   0.0095   0.0073  -0.0018  -0.0067  -0.0011   0.00  112.3
2173 206514.000   -218301.7188  -5246693.4520   3608099.5240   1   8   0.0040   0.0094   0.0073  -0.0016  -0.0068  -0.0018   0.00  112.0
2173 206515.000   -218301.7202  -5246693.4491   3608099.5240   1   8   0.0041   0.0095   0.0072  -0.0019  -0.0067  -0.0018   0.00  111.2
2173 206516.000   -218301.7181  -5246693.4472   3608099.5210   1   8   0.0049   0.0097   0.0072   0.0007  -0.0065   0.0010   0.00  110.7
2173 206517.000   -218301.7182  -5246693.4461   3608099.5213   1   8   0.0041   0.0096   0.0072  -0.0016  -0.0066  -0.0017   0.00  110.4
2173 206518.000   -218301.7196  -5246693.4515   3608099.5220   1   8   0.0039   0.0095   0.0072  -0.0014  -0.0065  -0.0022   0.00  110.1
2173 206519.000   -218301.7169  -5246693.4487   3608099.5246   1   8   0.0042   0.0095   0.0073  -0.0010  -0.0066  -0.0013   0.00  109.8
2173 206520.000   -218301.7188  -5246693.4470   3608099.5188   1   8   0.0032   0.0094   0.0072  -0.0015  -0.0067  -0.0019   0.00  109.5
2173 206521.000   -218301.7181  -5246693.4528   3608099.5235   1   8   0.0043   0.0095   0.0073  -0.0008  -0.0067  -0.0007   0.00  109.0
2173 206522.000   -218301.7189  -5246693.4515   3608099.5268   1   8   0.0040   0.0095   0.0072  -0.0018  -0.0066  -0.0013   0.00  108.1
2173 206523.000   -218301.7187  -5246693.4481   3608099.5214   1   8   0.0045   0.0096   0.0073  -0.0015  -0.0066  -0.0014   0.00  107.8
2173 206524.000   -218301.7188  -5246693.4455   3608099.5186   1   8   0.0036   0.0093   0.0074  -0.0016  -0.0068  -0.0017   0.00  107.1
2173 206525.000   -218301.7192  -5246693.4512   3608099.5225   1   8   0.0040   0.0095   0.0073  -0.0009  -0.0067  -0.0021   0.00  106.3
2173 206526.000   -218301.7204  -5246693.4483   3608099.5237   1   8   0.0039   0.0095   0.0072  -0.0023  -0.0067  -0.0015   0.00  105.6
2173 206527.000   -218301.7198  -5246693.4474   3608099.5207   1   8   0.0035   0.0096   0.0073  -0.0008  -0.0066  -0.0016   0.00  105.2
2173 206528.000   -218301.7184  -5246693.4454   3608099.5196   1   8   0.0038   0.0095   0.0072  -0.0020  -0.0066  -0.0019   0.00  104.3
2173 206529.000   -218301.7197  -5246693.4439   3608099.5203   1   8   0.0033   0.0094   0.0072  -0.0011  -0.0067  -0.0020   0.00  103.2
2173 206530.000   -218301.7204  -5246693.4500   3608099.5206   1   8   0.0037   0.0096   0.0072  -0.0016  -0.0066  -0.0018   0.00  102.9
2173 206531.000   -218301.7180  -5246693.4493   3608099.5197   1   8   0.0039   0.0093   0.0073  -0.0018  -0.0067  -0.0019   0.00  102.6
2173 206532.000   -218301.7187  -5246693.4525   3608099.5259   1   8   0.0033   0.0095   0.0072  -0.0025  -0.0067  -0.0020   0.00  101.5
2173 206533.000   -218301.7179  -5246693.4500   3608099.5247   1   8   0.0041   0.0094   0.0073  -0.0017  -0.0067  -0.0016   0.00  101.0
2173 206534.000   -218301.7180  -5246693.4498   3608099.5239   1   8   0.0037   0.0094   0.0071  -0.0016  -0.0067  -0.0021   0.00  100.3
2173 206535.000   -218301.7189  -5246693.4475   3608099.5242   1   8   0.0042   0.0095   0.0071   0.0007  -0.0066  -0.0011   0.00   99.9
2173 206536.000   -218301.7185  -5246693.4504   3608099.5224   1   8   0.0041   0.0094   0.0073  -0.0011  -0.0067  -0.0019   0.00   99.3
2173 206537.000   -218301.7180  -5246693.4522   3608099.5245   1   8   0.0032   0.0094   0.0072  -0.0013  -0.0066  -0.0021   0.00   99.0
2173 206538.000   -218301.7191  -5246693.4535   3608099.5250   1   8   0.0038   0.0094   0.0072  -0.0019  -0.0067  -0.0021   0.00   98.1
2173 206539.000   -218301.7194  -5246693.4538   3608099.5249   1   8   0.0036   0.0094   0.0073  -0.0021  -0.0067  -0.0018   0.00   97.5
2173 206540.000   -218301.7188  -5246693.4541   3608099.5248   1   8   0.0040   0.0094   0.0072  -0.0007  -0.0066  -0.0019   0.00   97.1
2173 206541.000   -218301.7199  -5246693.4504   3608099.5242   1   8   0.0045   0.0097   0.0073   0.0007  -0.0066   0.0005   0.00   96.2
2173 206542.000   -218301.7176  -5246693.4472   3608099.5221   1   8   0.0036   0.0094   0.0072  -0.0018  -0.0067  -0.0021   0.00   95.0
2173 206543.000   -218301.7175  -5246693.4472   3608099.5221   1   8   0.0031   0.0095   0.0072  -0.0027  -0.0067  -0.0020   0.00   94.5
2173 206544.000   -218301.7170  -5246693.4540   3608099.5242   1   8   0.0036   0.0095   0.0072   0.0006  -0.0066  -0.0015   0.00   94.0
2173 206545.000   -218301.7185  -5246693.4550   3608099.5270   1   8   0.0039   0.0095   0.0074  -0.0014  -0.0066  -0.0016   0.00   92.9
2173 206546.000   -218301.7195  -5246693.4521   3608099.5250   1   8   0.0039   0.0094   0.0074  -0.0023  -0.0067  -0.0018   0.00   92.1
2173 206547.000   -218301.7200  -5246693.4485   3608099.5249   1   8   0.0042   0.0096   0.0073  -0.0014  -0.0066  -0.0017   0.00   91.6
2173 206548.000   -218301.7165  -5246693.4520   3608099.5235   1   8   0.0032   0.0094   0.0073  -0.0017  -0.0068  -0.0018   0.00   91.0
2173 206549.000   -218301.7198  -5246693.4492   3608099.5241   1   8   0.0039   0.0095   0.0073  -0.0017  -0.0066  -0.0019   0.00   90.2
2173 206550.000   -218301.7192  -5246693.4504   3608099.5198   1   8   0.0036   0.0095   0.0074  -0.0019  -0.0067  -0.0014   0.00   90.0
2173 206551.000   -218301.7184  -5246693.4524   3608099.5257   1   8   0.0040   0.0096   0.0073  -0.0018  -0.0066  -0.0016   0.00   89.8
2173 206552.000   -218301.7179  -5246693.4504   3608099.5250   1   8   0.0040   0.0095   0.0073   0.0008  -0.0066  -0.0020   0.00   89.5
2173 206553.000   -218301.7154  -5246693.4531   3608099.5242   1   8   0.0038   0.0094   0.0072  -0.0020  -0.0067  -0.0018   0.00   89.2
2173 206554.000   -218301.7167  -5246693.4497   3608099.5236   1   8   0.0037   0.0095   0.0073  -0.0020  -0.0067  -0.0021   0.00   88.9
2173 206555.000   -218301.7187  -5246693.4493   3608099.5215   1   8   0.0044   0.0095   0.0073  -0.0009  -0.0066  -0.0014   0.00   88.6
2173 206556.000   -218301.7201  -5246693.4470   3608099.5214   1   8   0.0039   0.0095   0.0073   0.0016  -0.0066  -0.0016   0.00   88.5
2173 206557.000   -218301.7198  -5246693.4508   3608099.5230   1   8   0.0036   0.0095   0.0072  -0.0023  -0.0067  -0.0021   0.00   88.5
2173 206558.000   -218301.7201  -5246693.4523   3608099.5258   1   8   0.0041   0.0094   0.0072  -0.0014  -0.0067  -0.0015   0.00   88.0
2173 206559.000   -218301.7177  -5246693.4501   3608099.5255   1   8   0.0039   0.0094   0.0075  -0.0023  -0.0067  -0.0013   0.00   87.7
2173 206560.000   -218301.7192  -5246693.4528   3608099.5258   1   8   0.0044   0.0097   0.0072  -0.0010  -0.0065  -0.0010   0.00   88.0
2173 206561.000   -218301.7162  -5246693.4490   3608099.5243   1   8   0.0042   0.0096   0.0072   0.0011  -0.0066   0.0001   0.00   87.8
2173 206562.000   -218301.7203  -5246693.4551   3608099.5257   1   8   0.0039   0.0093   0.0073  -0.0016  -0.0068  -0.0019   0.00   87.4
2173 206563.000   -218301.7195  -5246693.4515   3608099.5261   1   8   0.0041   0.0095   0.0072   0.0003  -0.0067  -0.0003   0.00   87.5
2173 206564.000   -218301.7198  -5246693.4497   3608099.5231   1   8   0.0036   0.0095   0.0073  -0.0015  -0.0065  -0.0018   0.00   86.8
2173 206565.000   -218301.7199  -5246693.4504   3608099.5229   1   8   0.0034   0.0094   0.0070  -0.0016  -0.0067  -0.0008   0.00   86.8
2173 206566.000   -218301.7168  -5246693.4488   3608099.5254   1   8   0.0040   0.0096   0.0073  -0.0018  -0.0066  -0.0019   0.00   86.5
2173 206567.000   -218301.7174  -5246693.4518   3608099.5253   1   8   0.0034   0.0095   0.0073  -0.0021  -0.0066  -0.0017   0.00   86.3
2173 206568.000   -218301.7168  -5246693.4519   3608099.5253   1   8   0.0032   0.0094   0.0071  -0.0016  -0.0066  -0.0024   0.00   86.0
2173 206569.000   -218301.7185  -5246693.4535   3608099.5241   1   8   0.0040   0.0095   0.0072  -0.0013  -0.0066  -0.0019   0.00   86.3
2173 206570.000   -218301.7187  -5246693.4545   3608099.5252   1   8   0.0037   0.0095   0.0071  -0.0018  -0.0066  -0.0014   0.00   86.0
2173 206571.000   -218301.7186  -5246693.4535   3608099.5266   1   8   0.0036   0.0095   0.0073  -0.0019  -0.0066  -0.0016   0.00   85.6
2173 206572.000   -218301.7185  -5246693.4526   3608099.5235   1   8   0.0046   0.0095   0.0072   0.0007  -0.0066   0.0009   0.00   86.0
2173 206573.000   -218301.7189  -5246693.4586   3608099.5274   1   8   0.0042   0.0096   0.0074  -0.0019  -0.0066  -0.0014   0.00   85.7
2173 206574.000   -218301.7192  -5246693.4530   3608099.5250   1   8   0.0039   0.0094   0.0072  -0.0006  -0.0067  -0.0011   0.00   85.4
2173 206575.000   -218301.7205  -5246693.4455   3608099.5225   1   8   0.0036   0.0095   0.0071  -0.0016  -0.0066  -0.0018   0.00   85.1
2173 206576.000   -218301.7166  -5246693.4529   3608099.5229   1   8   0.0042   0.0095   0.0073   0.0014  -0.0065   0.0004   0.00   84.8
2173 206577.000   -218301.7208  -5246693.4488   3608099.5223   1   8   0.0037   0.0094   0.0074  -0.0022  -0.0067  -0.0019   0.00   84.3
2173 206578.000   -218301.7180  -5246693.4524   3608099.5245   1   8   0.0034   0.0094   0.0073  -0.0011  -0.0066  -0.0020   0.00   84.1
2173 206579.000   -218301.7178  -5246693.4483   3608099.5213   1   8   0.0035   0.0095   0.0074  -0.0024  -0.0067  -0.0023   0.00   84.1
2173 206580.000   -218301.7193  -5246693.4514   3608099.5249   1   8   0.0041   0.0093   0.0073  -0.0007  -0.0068  -0.0012   0.00   83.9
2173 206581.000   -218301.7169  -5246693.4545   3608099.5252   1   8   0.0040   0.0096   0.0071  -0.0011  -0.0065  -0.0009   0.00   83.5
2173 206582.000   -218301.7187  -5246693.4493   3608099.5216   1   8   0.0036   0.0094   0.0071  -0.0024  -0.0067  -0.0020   0.00   83.0
2173 206583.000   -218301.7173  -5246693.4507   3608099.5245   1   8   0.0033   0.0094   0.0073  -0.0020  -0.0066  -0.0023   0.00   82.5
2173 206584.000   -218301.7164  -5246693.4543   3608099.5242   1   8   0.0041   0.0096   0.0074  -0.0009  -0.0065  -0.0019   0.00   81.9
2173 206585.000   -218301.7180  -5246693.4536   3608099.5250   1   8   0.0038   0.0095   0.0073  -0.0022  -0.0067  -0.0008   0.00   81.3
2173 206586.000   -218301.7200  -5246693.4458   3608099.5218   1   8   0.0043   0.0096   0.0073  -0.0009  -0.0066  -0.0013   0.00   81.0
2173 206587.000   -218301.7183  -5246693.4488   3608099.5202   1   8   0.0036   0.0094   0.0073  -0.0014  -0.0066  -0.0021   0.00   81.0
2173 206588.000   -218301.7176  -5246693.4509   3608099.5238   1   8   0.0044   0.0095   0.0073  -0.0016  -0.0067  -0.0007   0.00   80.8
2173 206589.000   -218301.7180  -5246693.4508   3608099.5224   1   8   0.0040   0.0096   0.0074  -0.0007  -0.0066  -0.0010   0.00   80.4
2173 206590.000   -218301.7185  -5246693.4503   3608099.5212   1   8   0.0042   0.0096   0.0073   0.0002  -0.0065  -0.0011   0.00   80.1
2173 206591.000   -218301.7172  -5246693.4505   3608099.5239   1   8   0.0044   0.0096   0.0073   0.0013  -0.0065  -0.0018   0.00   79.9
2173 206592.000   -218301.7168  -5246693.4507   3608099.5218   1   8   0.0037   0.0096   0.0072  -0.0025  -0.0066  -0.0016   0.00   79.4
2173 206593.000   -218301.7175  -5246693.4570   3608099.5275   1   8   0.0035   0.0093   0.0073  -0.0011  -0.0068  -0.0017   0.00   78.8
2173 206594.000   -218301.7187  -5246693.4532   3608099.5243   1   8   0.0040   0.0096   0.0073  -0.0010  -0.0065  -0.0018   0.00   78.6
2173 206595.000   -218301.7174  -5246693.4547   3608099.5262   1   8   0.0035   0.0096   0.0071  -0.0017  -0.0065  -0.0019   0.00   78.0
2173 206596.000   -218301.7185  -5246693.4513   3608099.5220   1   8   0.0038   0.0094   0.0073  -0.0018  -0.0067  -0.0017   0.00   77.6
2173 206597.000   -218301.7170  -5246693.4497   3608099.5208   1   8   0.0039   0.0095   0.0073  -0.0009  -0.0067  -0.0015   0.00   77.1
2173 206598.000   -218301.7207  -5246693.4508   3608099.5230   1   8   0.0042   0.0095   0.0072  -0.0014  -0.0066  -0.0015   0.00   77.0
2173 206599.000   -218301.7170  -5246693.4553   3608099.5234   1   8   0.0038   0.0095   0.0074  -0.0016  -0.0066  -0.0020   0.00   76.7
2173 206600.000   -218301.7193  -5246693.4547   3608099.5249   1   8   0.0040   0.0095   0.0073  -0.0008  -0.0067  -0.0017   0.00   76.3
2173 206601.000   -218301.7171  -5246693.4531   3608099.5239   1   8   0.0043   0.0095   0.0073  -0.0007  -0.0066  -0.0017   0.00   76.0
2173 206602.000   -218301.7190  -5246693.4534   3608099.5236   1   8   0.0038   0.0094   0.0074  -0.0012  -0.0066  -0.0018   0.00   75.6
2173 206603.000   -218301.7181  -5246693.4504   3608099.5233   1   8   0.0037   0.0093   0.0073  -0.0013  -0.0068  -0.0020   0.00   75.4
2173 206604.000   -218301.7176  -5246693.4471   3608099.5227   1   8   0.0044   0.0097   0.0071  -0.0017  -0.0066  -0.0009   0.00   75.1
2173 206605.000   -218301.7174  -5246693.4454   3608099.5194   1   8   0.0040   0.0096   0.0073   0.0011  -0.0065  -0.0017   0.00   75.1
2173 206606.000   -218301.7192  -5246693.4518   3608099.5231   1   8   0.0036   0.0094   0.0071  -0.0011  -0.0067  -0.0023   0.00   74.7
2173 206607.000   -218301.7175  -5246693.4510   3608099.5201   1   8   0.0040   0.0095   0.0071  -0.0024  -0.0067  -0.0012   0.00   74.4
2173 206608.000   -218301.7189  -5246693.4522   3608099.5251   1   8   0.0040   0.0094   0.0073  -0.0017  -0.0068  -0.0017   0.00   74.2
2173 206609.000   -218301.7183  -5246693.4515   3608099.5220   1   8   0.0037   0.0094   0.0073  -0.0026  -0.0068  -0.0016   0.00   74.2
2173 206610.000   -218301.7188  -5246693.4524   3608099.5253   1   8   0.0041   0.0096   0.0073  -0.0010  -0.0066  -0.0014   0.00   73.8
2173 206611.000   -218301.7175  -5246693.4493   3608099.5216   1   8   0.0042   0.0096   0.0071  -0.0015  -0.0066  -0.0014   0.00   73.5
2173 206612.000   -218301.7181  -5246693.4481   3608099.5218   1   8   0.0042   0.0096   0.0073  -0.0023  -0.0066  -0.0022   0.00   73.5
2173 206613.000   -218301.7191  -5246693.4471   3608099.5206   1   8   0.0037   0.0094   0.0071  -0.0014  -0.0066  -0.0008   0.00   73.4
2173 206614.000   -218301.7180  -5246693.4540   3608099.5256   1   8   0.0035   0.0095   0.0072  -0.0020  -0.0066  -0.0017   0.00   73.1
2173 206615.000   -218301.7203  -5246693.4515   3608099.5258   1   8   0.0040   0.0095   0.0074   0.0005  -0.0065   0.0002   0.00   73.1
2173 206616.000   -218301.7197  -5246693.4466   3608099.5216   1   8   0.0042   0.0095   0.0073  -0.0019  -0.0065  -0.0018   0.00   72.7
2173 206617.000   -218301.7193  -5246693.4490   3608099.5244   1   8   0.0042   0.0094   0.0073  -0.0016  -0.0067  -0.0014   0.00   72.3
2173 206618.000   -218301.7193  -5246693.4548   3608099.5230   1   8   0.0037   0.0098   0.0072  -0.0021  -0.0065  -0.0009   0.00   72.1
2173 206619.000   -218301.7191  -5246693.4543   3608099.5254   1   8   0.0042   0.0095   0.0073   0.0004  -0.0066  -0.0016   0.00   71.6
2173 206620.000   -218301.7192  -5246693.4539   3608099.5249   1   8   0.0041   0.0094   0.0073  -0.0011  -0.0066  -0.0017   0.00   71.2
2173 206621.000   -218301.7188  -5246693.4513   3608099.5245   1   8   0.0042   0.0096   0.0072  -0.0008  -0.0065  -0.0014   0.00   71.2
2173 206622.000   -218301.7197  -5246693.4567   3608099.5274   1   8   0.0039   0.0097   0.0074  -0.0014  -0.0068  -0.0014   1.00   71.0
2173 206623.000   -218301.7188  -5246693.4499   3608099.5227   1   8   0.0040   0.0096   0.0071  -0.0019  -0.0066  -0.0012   0.00   70.7
2173 206624.000   -218301.7188  -5246693.4566   3608099.5267   1   8   0.0041   0.0097   0.0073  -0.0015  -0.0064  -0.0015   0.00   70.5
2173 206625.000   -218301.7197  -5246693.4493   3608099.5223   1   8   0.0043   0.0097   0.0074  -0.0017  -0.0065  -0.0016   0.00   70.2
2173 206626.000   -218301.7186  -5246693.4488   3608099.5209   1   8   0.0040   0.0095   0.0074  -0.0016  -0.0066  -0.0016   0.00   69.8
2173 206627.000   -218301.7189  -5246693.4533   3608099.5239   1   8   0.0037   0.0094   0.0071  -0.0011  -0.0067  -0.0019   0.00   69.5
2173 206628.000   -218301.7198  -5246693.4522   3608099.5241   1   8   0.0040   0.0095   0.0073  -0.0018  -0.0066  -0.0014   0.00   69.0
2173 206629.000   -218301.7192  -5246693.4452   3608099.5179   1   8   0.0036   0.0095   0.0072  -0.0009  -0.0065  -0.0013   0.00   68.4
2173 206630.000   -218301.7158  -5246693.4522   3608099.5247   1   8   0.0039   0.0095   0.0072  -0.0018  -0.0067  -0.0012   0.00   68.1
2173 206631.000   -218301.7173  -5246693.4518   3608099.5239   1   8   0.0039   0.0094   0.0071  -0.0019  -0.0067  -0.0020   0.00   67.6
2173 206632.000   -218301.7173  -5246693.4471   3608099.5217   1   8   0.0039   0.0095   0.0071  -0.0019  -0.0066  -0.0018   0.00   67.1
2173 206633.000   -218301.7168  -5246693.4486   3608099.5190   1   8   0.0041   0.0094   0.0072  -0.0012  -0.0066  -0.0006   0.00   66.6
2173 206634.000   -218301.7184  -5246693.4509   3608099.5212   1   8   0.0032   0.0093   0.0073  -0.0024  -0.0068  -0.0026   0.00   65.9
2173 206635.000   -218301.7187  -5246693.4511   3608099.5227   1   8   0.0037   0.0096   0.0071  -0.0019  -0.0066  -0.0019   0.00   65.6
2173 206636.000   -218301.7184  -5246693.4556   3608099.5250   1   8   0.0035   0.0093   0.0073  -0.0025  -0.0067  -0.0016   0.00   65.0
2173 206637.000   -218301.7196  -5246693.4508   3608099.5222   1   8   0.0031   0.0094   0.0073  -0.0022  -0.0066  -0.0023   0.00   64.4
2173 206638.000   -218301.7171  -5246693.4482   3608099.5225   1   8   0.0043   0.0095   0.0072  -0.0012  -0.0067  -0.0015   0.00   63.9
2173 206639.000   -218301.7189  -5246693.4473   3608099.5203   1   8   0.0038   0.0096   0.0072  -0.0018  -0.0065  -0.0019   0.00   63.2
2173 206640.000   -218301.7191  -5246693.4514   3608099.5242   1   8   0.0040   0.0094   0.0073  -0.0021  -0.0067  -0.0017   0.00   62.8
2173 206641.000   -218301.7187  -5246693.4531   3608099.5250   1   8   0.0036   0.0096   0.0072  -0.0018  -0.0065  -0.0018   0.00   62.2
2173 206642.000   -218301.7185  -5246693.4554   3608099.5255   1   8   0.0042   0.0096   0.0073  -0.0024  -0.0066  -0.0008   0.00   61.6
2173 206643.000   -218301.7185  -5246693.4510   3608099.5234   1   8   0.0040   0.0097   0.0073  -0.0027  -0.0065  -0.0019   0.00   61.0
2173 206644.000   -218301.7177  -5246693.4538   3608099.5264   1   8   0.0044   0.0095   0.0070  -0.0008  -0.0066  -0.0014   0.00   60.4
2173 206645.000   -218301.7202  -5246693.4506   3608099.5244   1   8   0.0040   0.0096   0.0072   0.0010  -0.0065  -0.0010   0.00   59.8
2173 206646.000   -218301.7171  -5246693.4524   3608099.5215   1   8   0.0032   0.0094   0.0072  -0.0023  -0.0067  -0.0020   0.00   59.4
2173 206647.000   -218301.7180  -5246693.4495   3608099.5198   1   8   0.0038   0.0096   0.0073  -0.0022  -0.0065  -0.0002   0.00   58.9
2173 206648.000   -218301.7182  -5246693.4549   3608099.5260   1   8   0.0044   0.0095   0.0071  -0.0022  -0.0067  -0.0019   0.00   58.4
2173 206649.000   -218301.7178  -5246693.4536   3608099.5286   1   8   0.0042   0.0095   0.0073  -0.0014  -0.0066  -0.0019   0.00   58.1
2173 206650.000   -218301.7171  -5246693.4515   3608099.5261   1   8   0.0039   0.0097   0.0074   0.0006  -0.0065  -0.0017   0.00   57.6
2173 206651.000   -218301.7185  -5246693.4516   3608099.5258   1   8   0.0037   0.0094   0.0073  -0.0016  -0.0067  -0.0019   0.00   57.3
2173 206652.000   -218301.7184  -5246693.4557   3608099.5261   1   8   0.0041   0.0095   0.0072  -0.0017  -0.0066  -0.0012   0.00   56.7
2173 206653.000   -218301.7186  -5246693.4514   3608099.5260   1   8   0.0038   0.0094   0.0073  -0.0011  -0.0067  -0.0012   0.00   56.2
2173 206654.000   -218301.7182  -5246693.4562   3608099.5282   1   8   0.0034   0.0092   0.0071  -0.0023  -0.0069  -0.0021   0.00   55.7
2173 206655.000   -218301.7177  -5246693.4589   3608099.5270   1   8   0.0031   0.0094   0.0072  -0.0019  -0.0066  -0.0016   0.00   55.3
2173 206656.000   -218301.7192  -5246693.4552   3608099.5262   1   8   0.0041   0.0095   0.0073  -0.0024  -0.0066  -0.0016   0.00   54.8
2173 206657.000   -218301.7180  -5246693.4506   3608099.5277   1   8   0.0039   0.0094   0.0070  -0.0023  -0.0067  -0.0016   0.00   54.3
2173 206658.000   -218301.7185  -5246693.4575   3608099.5298   1   8   0.0045   0.0094   0.0073  -0.0006  -0.0067  -0.0019   0.00   54.1
2173 206659.000   -218301.7190  -5246693.4536   3608099.5288   1   8   0.0041   0.0096   0.0073  -0.0017  -0.0065  -0.0015   0.00   53.7
2173 206660.000   -218301.7183  -5246693.4585   3608099.5252   1   8   0.0038   0.0095   0.0070  -0.0015  -0.0066  -0.0021   0.00   53.3
2173 206661.000   -218301.7168  -5246693.4540   3608099.5229   1   8   0.0040   0.0094   0.0073  -0.0002  -0.0066  -0.0020   0.00   53.0
2173 206662.000   -218301.7189  -5246693.4574   3608099.5294   1   8   0.0041   0.0096   0.0073  -0.0016  -0.0065  -0.0018   0.00   52.5
2173 206663.000   -218301.7195  -5246693.4522   3608099.5276   1   8   0.0036   0.0094   0.0072  -0.0026  -0.0067  -0.0025   0.00   52.2
2173 206664.000   -218301.7182  -5246693.4584   3608099.5293   1   8   0.0038   0.0094   0.0073  -0.0022  -0.0067  -0.0017   0.00   51.7
2173 206665.000   -218301.7197  -5246693.4565   3608099.5287   1   8   0.0040   0.0095   0.0071  -0.0020  -0.0066  -0.0018   0.00   51.3
2173 206666.000   -218301.7174  -5246693.4526   3608099.5264   1   8   0.0039   0.0096   0.0074  -0.0015  -0.0064  -0.0014   0.00   50.8
2173 206667.000   -218301.7185  -5246693.4604   3608099.5302   1   8   0.0036   0.0094   0.0070  -0.0016  -0.0066  -0.0017   0.00   50.5
2173 206668.000   -218301.7176  -5246693.4502   3608099.5243   1   8   0.0042   0.0095   0.0070  -0.0012  -0.0066  -0.0011   0.00   50.0
2173 206669.000   -218301.7186  -5246693.4603   3608099.5308   1   8   0.0045   0.0097   0.0074  -0.0018  -0.0065  -0.0010   0.00   49.6
2173 206670.000   -218301.7190  -5246693.4568   3608099.5306   1   8   0.0042   0.0095   0.0072  -0.0014  -0.0066  -0.0016   0.00   49.1
2173 206671.000   -218301.7174  -5246693.4582   3608099.5280   1   8   0.0039   0.0096   0.0072  -0.0016  -0.0065  -0.0019   0.00   48.7
2173 206672.000   -218301.7178  -5246693.4515   3608099.5270   1   8   0.0040   0.0096   0.0073  -0.0022  -0.0066  -0.0015   0.00   48.3
2173 206673.000   -218301.7176  -5246693.4551   3608099.5271   1   8   0.0033   0.0095   0.0073  -0.0022  -0.0067  -0.0021   0.00   47.9
2173 206674.000   -218301.7182  -5246693.4552   3608099.5296   1   8   0.0038   0.0096   0.0073  -0.0022  -0.0066  -0.0019   0.00   47.5
2173 206675.000   -218301.7174  -5246693.4572   3608099.5311   1   8   0.0038   0.0095   0.0073  -0.0020  -0.0066  -0.0015   0.00   47.1
2173 206676.000   -218301.7180  -5246693.4508   3608099.5263   1   8   0.0033   0.0094   0.0073  -0.0023  -0.0067  -0.0020   0.00   46.7
2173 206677.000   -218301.7176  -5246693.4558   3608099.5283   1   8   0.0045   0.0096   0.0072  -0.0021  -0.0066  -0.0010   0.00   46.3
2173 206678.000   -218301.7187  -5246693.4582   3608099.5294   1   8   0.0037   0.0096   0.0073  -0.0021  -0.0065  -0.0019   0.00   46.1
2173 206679.000   -218301.7174  -5246693.4592   3608099.5299   1   8   0.0040   0.0095   0.0073  -0.0012  -0.0066  -0.0014   0.00   45.7
2173 206680.000   -218301.7183  -5246693.4551   3608099.5269   1   8   0.0042   0.0095   0.0070  -0.0024  -0.0066  -0.0019   0.00   45.4
2173 206681.000   -218301.7176  -5246693.4568   3608099.5290   1   8   0.0039   0.0095   0.0072  -0.0018  -0.0067  -0.0017   0.00   45.0
2173 206682.000   -218301.7192  -5246693.4576   3608099.5277   1   8   0.0035   0.0095   0.0071  -0.0016  -0.0066  -0.0011   0.00   44.7
2173 206683.000   -218301.7178  -5246693.4593   3608099.5308   1   8   0.0035   0.0094   0.0071  -0.0022  -0.0066  -0.0020   0.00   44.3
2173 206684.000   -218301.7188  -5246693.4565   3608099.5237   1   8   0.0036   0.0096   0.0072  -0.0010  -0.0065  -0.0013   0.00   44.1
2173 206685.000   -218301.7197  -5246693.4596   3608099.5316   1   8   0.0044   0.0095   0.0074  -0.0013  -0.0066  -0.0012   0.00   43.7
2173 206686.000   -218301.7186  -5246693.4553   3608099.5270   1   8   0.0036   0.0095   0.0071  -0.0026  -0.0066  -0.0020   0.00   43.3
2173 206687.000   -218301.7191  -5246693.4611   3608099.5310   1   8   0.0026   0.0093   0.0070  -0.0019  -0.0068  -0.0022   0.00   42.9
2173 206688.000   -218301.7191  -5246693.4556   3608099.5268   1   8   0.0044   0.0096   0.0072  -0.0014  -0.0065  -0.0009   0.00   42.7
2173 206689.000   -218301.7190  -5246693.4589   3608099.5330   1   8   0.0038   0.0095   0.0071  -0.0023  -0.0066  -0.0013   0.00   42.3
2173 206690.000   -218301.7184  -5246693.4609   3608099.5311   1   8   0.0038   0.0095   0.0071  -0.0020  -0.0066   0.0006   0.00   42.1
2173 206691.000   -218301.7196  -5246693.4611   3608099.5330   1   8   0.0041   0.0096   0.0074  -0.0022  -0.0067  -0.0008   0.00   41.9
2173 206692.000   -218301.7181  -5246693.4589   3608099.5284   1   8   0.0042   0.0095   0.0071   0.0010  -0.0065  -0.0009   0.00   41.5
2173 206693.000   -218301.7195  -5246693.4521   3608099.5280   1   8   0.0041   0.0094   0.0073   0.0012  -0.0066  -0.0011   0.00   41.2
2173 206694.000   -218301.7206  -5246693.4578   3608099.5287   1   8   0.0037   0.0096   0.0071  -0.0021  -0.0066  -0.0018   0.00   41.0
2173 206695.000   -218301.7193  -5246693.4570   3608099.5297   1   8   0.0037   0.0096   0.0072  -0.0026  -0.0066  -0.0017   0.00   40.7
2173 206696.000   -218301.7206  -5246693.4577   3608099.5288   1   8   0.0042   0.0095   0.0072  -0.0012  -0.0066  -0.0015   0.00   40.4
2173 206697.000   -218301.7198  -5246693.4569   3608099.5275   1   8   0.0039   0.0094   0.0071   0.0009  -0.0067  -0.0011   0.00   40.1
2173 206698.000   -218301.7188  -5246693.4526   3608099.5277   1   8   0.0035   0.0095   0.0071  -0.0015  -0.0066  -0.0012   0.00   39.8
2173 206699.000   -218301.7195  -5246693.4586   3608099.5273   1   8   0.0041   0.0096   0.0073  -0.0013  -0.0064   0.0010   0.00   39.5
2173 206700.000   -218301.7202  -5246693.4589   3608099.5329   1   8   0.0042   0.0095   0.0072  -0.0015  -0.0065  -0.0019   0.00   39.2
2173 206701.000   -218301.7187  -5246693.4549   3608099.5276   1   8   0.0039   0.0095   0.0071  -0.0019  -0.0067  -0.0014   0.00   39.1
2173 206702.000   -218301.7215  -5246693.4519   3608099.5259   1   8   0.0036   0.0095   0.0072  -0.0018  -0.0066  -0.0020   0.00   38.8
2173 206703.000   -218301.7194  -5246693.4523   3608099.5303   1   8   0.0035   0.0094   0.0071  -0.0011  -0.0066  -0.0021   0.00   38.5
2173 206704.000   -218301.7192  -5246693.4506   3608099.5240   1   8   0.0041   0.0095   0.0072  -0.0013  -0.0064  -0.0011   0.00   38.4
2173 206705.000   -218301.7184  -5246693.4516   3608099.5280   1   8   0.0035   0.0094   0.0071  -0.0022  -0.0067  -0.0018   0.00   38.2
2173 206706.000   -218301.7206  -5246693.4583   3608099.5309   1   8   0.0039   0.0095   0.0072  -0.0019  -0.0065  -0.0015   0.00   38.0
2173 206707.000   -218301.7221  -5246693.4513   3608099.5268   1   8   0.0038   0.0095   0.0070  -0.0014  -0.0066  -0.0018   0.00   37.8
2173 206708.000   -218301.7210  -5246693.4526   3608099.5284   1   8   0.0041   0.0095   0.0072  -0.0022  -0.0066  -0.0018   0.00   37.6
2173 206709.000   -218301.7195  -5246693.4558   3608099.5276   1   8   0.0043   0.0097   0.0073   0.0012  -0.0063   0.0004   0.00   37.3
2173 206710.000   -218301.7195  -5246693.4487   3608099.5276   1   8   0.0038   0.0094   0.0074  -0.0014  -0.0066  -0.0018   0.00   37.1
2173 206711.000   -218301.7195  -5246693.4559   3608099.5279   1   8   0.0036   0.0095   0.0072  -0.0019  -0.0066  -0.0019   0.00   36.8
2173 206712.000   -218301.7227  -5246693.4505   3608099.5291   1   8   0.0041   0.0095   0.0072  -0.0013  -0.0066  -0.0016   0.00   36.6
2173 206713.000   -218301.7204  -5246693.4526   3608099.5267   1   8   0.0035   0.0094   0.0071  -0.0012  -0.0066  -0.0019   0.00   36.3
2173 206714.000   -218301.7191  -5246693.4510   3608099.5276   1   8   0.0040   0.0095   0.0073  -0.0021  -0.0066  -0.0020   0.00   36.1
2173 206715.000   -218301.7204  -5246693.4550   3608099.5270   1   8   0.0040   0.0096   0.0072  -0.0022  -0.0066  -0.0015   0.00   35.9
2173 206716.000   -218301.7208  -5246693.4524   3608099.5265   1   8   0.0042   0.0095   0.0073  -0.0012  -0.0065  -0.0009   0.00   35.7
