% program   : rnx2rtkp ver.2.4.3 b31
% inp file  : ngs/21_08_31_08_18_11_txlu.obs
% inp file  : ngs/21_08_31_08_18_11_txlu_P1.obs
% inp file  : ngs/21_08_31_08_18_11_brdc.nav
% obs start : 2021/08/31 08:00:00.0 GPST (week2173 201600.0s)
% obs end   : 2021/08/31 08:59:59.0 GPST (week2173 205199.0s)
% ref pos   : -1082898.2780  -5214121.7070   3500039.3420
%
% (x/y/z-ecef=WGS84,Q=1:fix,2:float,3:sbas,4:dgps,5:single,6:ppp,ns=# of satellites)
%  GPST              x-ecef(m)      y-ecef(m)      z-ecef(m)   Q  ns   sdx(m)   sdy(m)   sdz(m)  sdxy(m)  sdyz(m)  sdzx(m) age(s)  ratio
2173 202666.000  -1092365.6410  -5209399.0746   3504137.1303   2   9   0.3855   0.8130   0.6553   0.2727  -0.5448  -0.1375 -30.00    1.1
2173 202667.000  -1092365.6702  -5209399.0627   3504137.0596   2   9   0.2745   0.5785   0.4664   0.1942  -0.3875  -0.0968 -29.00    1.1
2173 202668.000  -1092365.7035  -5209399.1181   3504137.0651   2   9   0.2247   0.4736   0.3819   0.1590  -0.3173  -0.0791 -28.00    1.1
2173 202669.000  -1092365.7231  -5209399.1003   3504137.0579   2   9   0.1950   0.4109   0.3314   0.1379  -0.2753  -0.0686 -27.00    1.1
2173 202670.000  -1092365.7357  -5209399.1223   3504137.0774   2   9   0.1746   0.3680   0.2968   0.1235  -0.2465  -0.0614 -26.00    1.1
2173 202671.000  -1092365.7392  -5209399.1212   3504137.0637   2   9   0.1595   0.3362   0.2712   0.1128  -0.2253  -0.0561 -25.00    1.1
2173 202672.000  -1092365.7553  -5209399.0884   3504137.0585   2   9   0.1478   0.3115   0.2513   0.1045  -0.2087  -0.0520 -24.00    1.1
2173 202673.000  -1092365.7737  -5209399.0966   3504137.0385   2   9   0.1383   0.2915   0.2352   0.0978  -0.1954  -0.0487 -23.00    1.2
2173 202674.000  -1092365.7800  -5209399.0699   3504137.0339   2   9   0.1305   0.2750   0.2219   0.0922  -0.1843  -0.0459 -22.00    1.2
2173 202675.000  -1092365.7961  -5209399.0644   3504137.0304   2   9   0.1238   0.2609   0.2106   0.0875  -0.1749  -0.0436 -21.00    1.2
2173 202676.000  -1092365.8030  -5209399.0747   3504137.0413   2   9   0.1181   0.2488   0.2008   0.0834  -0.1668  -0.0416 -20.00    1.3
2173 202677.000  -1092365.8084  -5209399.0946   3504137.0428   2   9   0.1130   0.2382   0.1923   0.0799  -0.1597  -0.0398 -19.00    1.3
2173 202678.000  -1092365.8163  -5209399.0980   3504137.0416   2   9   0.1086   0.2289   0.1848   0.0767  -0.1534  -0.0382 -18.00    1.4
2173 202679.000  -1092365.8209  -5209399.1080   3504137.0410   2   9   0.1046   0.2205   0.1781   0.0739  -0.1479  -0.0368 -17.00    1.4
2173 202680.000  -1092365.8294  -5209399.0900   3504137.0367   2   9   0.1011   0.2130   0.1720   0.0714  -0.1428  -0.0355 -16.00    1.5
2173 202681.000  -1092365.8388  -5209399.1071   3504137.0424   2   9   0.0979   0.2062   0.1665   0.0691  -0.1383  -0.0344 -15.00    1.6
2173 202682.000  -1092365.8498  -5209399.1013   3504137.0429   2   9   0.0949   0.2000   0.1615   0.0670  -0.1341  -0.0333 -14.00    1.7
2173 202683.000  -1092365.8562  -5209399.0906   3504137.0438   2   9   0.0922   0.1943   0.1569   0.0651  -0.1303  -0.0323 -13.00    1.7
2173 202684.000  -1092365.8596  -5209399.0894   3504137.0441   2   9   0.0897   0.1891   0.1527   0.0633  -0.1268  -0.0314 -12.00    1.9
2173 202685.000  -1092365.8593  -5209399.0903   3504137.0461   2   9   0.0874   0.1842   0.1488   0.0617  -0.1235  -0.0306 -11.00    2.0
2173 202686.000  -1092365.8621  -5209399.0881   3504137.0537   2   9   0.0853   0.1797   0.1452   0.0602  -0.1205  -0.0298 -10.00    2.1
2173 202687.000  -1092365.8676  -5209399.0860   3504137.0536   2   9   0.0833   0.1755   0.1418   0.0588  -0.1177  -0.0291  -9.00    2.3
2173 202688.000  -1092365.8686  -5209399.0905   3504137.0534   2   9   0.0814   0.1716   0.1386   0.0575  -0.1150  -0.0284  -8.00    2.4
2173 202689.000  -1092365.8755  -5209399.0933   3504137.0547   2   9   0.0797   0.1679   0.1356   0.0562  -0.1126  -0.0278  -7.00    2.6
2173 202690.000  -1092365.8781  -5209399.0863   3504137.0477   2   9   0.0781   0.1644   0.1328   0.0551  -0.1103  -0.0272  -6.00    2.8
2173 202691.000  -1092365.5026  -5209399.5265   3504137.6353   1   9   0.0052   0.0109   0.0089   0.0036  -0.0075  -0.0022  -5.00    3.1
2173 202692.000  -1092365.5025  -5209399.5288   3504137.6397   1   9   0.0044   0.0100   0.0081   0.0033  -0.0068  -0.0016  -4.00    3.4
2173 202693.000  -1092365.5020  -5209399.5263   3504137.6370   1   9   0.0042   0.0093   0.0075   0.0029  -0.0062  -0.0016  -3.00    3.9
2173 202694.000  -1092365.5024  -5209399.5271   3504137.6406   1   9   0.0037   0.0087   0.0071   0.0026  -0.0059  -0.0011  -2.00    4.4
2173 202695.000  -1092365.5022  -5209399.5232   3504137.6383   1   9   0.0040   0.0084   0.0068   0.0029  -0.0057  -0.0015  -1.00    4.9
2173 202696.000  -1092365.5034  -5209399.5254   3504137.6403   1   9   0.0038   0.0082   0.0066   0.0026  -0.0056  -0.0014   0.00    5.3
2173 202697.000  -1092365.5018  -5209399.5264   3504137.6390   1   9   0.0039   0.0082   0.0066   0.0028  -0.0055  -0.0014   0.00    9.2
2173 202698.000  -1092365.5034  -5209399.5280   3504137.6417   1   9   0.0039   0.0082   0.0066   0.0028  -0.0055  -0.0014   0.00   11.8
2173 202699.000  -1092365.5008  -5209399.5261   3504137.6430   1   9   0.0039   0.0082   0.0066   0.0028  -0.0055  -0.0014   0.00    8.6
2173 202700.000  -1092365.5011  -5209399.5266   3504137.6409   1   9   0.0039   0.0082   0.0066   0.0028  -0.0055  -0.0014   0.00   11.6
2173 202701.000  -1092365.5043  -5209399.5307   3504137.6427   1   9   0.0039   0.0082   0.0066   0.0028  -0.0055  -0.0014   0.00    8.6
2173 202702.000  -1092365.5013  -5209399.5278   3504137.6407   1   9   0.0039   0.0082   0.0066   0.0028  -0.0055  -0.0014   0.00   10.8
2173 202703.000  -1092365.5024  -5209399.5306   3504137.6428   1   9   0.0039   0.0082   0.0066   0.0028  -0.0055  -0.0014   0.00    9.2
2173 202704.000  -1092365.5012  -5209399.5259   3504137.6406   1   9   0.0039   0.0082   0.0066   0.0028  -0.0055  -0.0014   0.00   11.1
2173 202705.000  -1092365.5015  -5209399.5264   3504137.6389   1   9   0.0039   0.0082   0.0066   0.0028  -0.0055  -0.0014   0.00    9.6
2173 202706.000  -1092365.5018  -5209399.5308   3504137.6396   1   9   0.0039   0.0082   0.0066   0.0028  -0.0055  -0.0014   0.00   10.7
2173 202707.000  -1092365.5023  -5209399.5302   3504137.6439   1   9   0.0039   0.0082   0.0066   0.0028  -0.0055  -0.0014   0.00    8.8
2173 202708.000  -1092365.5008  -5209399.5265   3504137.6393   1   9   0.0039   0.0082   0.0066   0.0028  -0.0055  -0.0014   0.00    9.5
2173 202709.000  -1092365.5013  -5209399.5251   3504137.6397   1   9   0.0039   0.0082   0.0066   0.0028  -0.0055  -0.0014   0.00   11.7
2173 202710.000  -1092365.5020  -5209399.5262   3504137.6411   1   9   0.0039   0.0082   0.0066   0.0028  -0.0055  -0.0014   0.00    9.9
2173 202711.000  -1092365.5031  -5209399.5274   3504137.6422   1   9   0.0039   0.0082   0.0066   0.0028  -0.0055  -0.0014   0.00    9.0
2173 202712.000  -1092365.5009  -5209399.5267   3504137.6400   1   9   0.0039   0.0082   0.0066   0.0028  -0.0055  -0.0014   0.00   10.9
2173 202713.000  -1092365.5024  -5209399.5274   3504137.6394   1   9   0.0039   0.0082   0.0066   0.0028  -0.0055  -0.0014   0.00   13.7
2173 202714.000  -1092365.5010  -5209399.5282   3504137.6421   1   9   0.0039   0.0082   0.0066   0.0028  -0.0055  -0.0014   0.00   11.0
2173 202715.000  -1092365.5018  -5209399.5286   3504137.6411   1   9   0.0039   0.0082   0.0066   0.0028  -0.0055  -0.0014   0.00   18.3
2173 202716.000  -1092365.5022  -5209399.5267   3504137.6368   1   9   0.0039   0.0082   0.0066   0.0028  -0.0055  -0.0014   0.00   11.7
2173 202717.000  -1092365.5025  -5209399.5281   3504137.6412   1   9   0.0039   0.0082   0.0066   0.0028  -0.0055  -0.0014   0.00   12.6
2173 202718.000  -1092365.5013  -5209399.5266   3504137.6382   1   9   0.0039   0.0082   0.0066   0.0028  -0.0055  -0.0014   0.00    9.8
2173 202719.000  -1092365.5027  -5209399.5285   3504137.6398   1   9   0.0039   0.0082   0.0066   0.0028  -0.0055  -0.0014   0.00   12.2
2173 202720.000  -1092365.5020  -5209399.5285   3504137.6408   1   9   0.0039   0.0082   0.0066   0.0028  -0.0055  -0.0014   0.00   13.2
2173 202721.000  -1092365.5013  -5209399.5310   3504137.6388   1   9   0.0039   0.0082   0.0066   0.0028  -0.0055  -0.0014   0.00   13.6
2173 202722.000  -1092365.4996  -5209399.5295   3504137.6394   1   9   0.0039   0.0082   0.0066   0.0028  -0.0055  -0.0014   0.00   11.1
2173 202723.000  -1092365.5007  -5209399.5265   3504137.6395   1   9   0.0039   0.0082   0.0066   0.0028  -0.0055  -0.0014   0.00   12.6
2173 202724.000  -1092365.5030  -5209399.5292   3504137.6417   1   9   0.0039   0.0082   0.0066   0.0028  -0.0055  -0.0014   0.00   18.5
2173 202725.000  -1092365.4999  -5209399.5276   3504137.6373   1   9   0.0039   0.0082   0.0066   0.0028  -0.0055  -0.0014   0.00   11.7
2173 202726.000  -1092365.5015  -5209399.5278   3504137.6386   1   9   0.0039   0.0082   0.0066   0.0028  -0.0055  -0.0014   0.00   15.8
2173 202727.000  -1092365.5017  -5209399.5270   3504137.6400   1   9   0.0039   0.0082   0.0066   0.0028  -0.0055  -0.0014   0.00   14.5
2173 202728.000  -1092365.5013  -5209399.5299   3504137.6382   1   9   0.0039   0.0082   0.0066   0.0028  -0.0055  -0.0014   0.00   16.4
2173 202729.000  -1092365.5021  -5209399.5273   3504137.6393   1   9   0.0039   0.0082   0.0066   0.0028  -0.0055  -0.0014   0.00   12.1
2173 202730.000  -1092365.5029  -5209399.5266   3504137.6381   1   9   0.0039   0.0082   0.0066   0.0028  -0.0055  -0.0014   0.00   14.4
2173 202731.000  -1092365.5012  -5209399.5264   3504137.6399   1   9   0.0039   0.0082   0.0066   0.0028  -0.0055  -0.0014   0.00   14.1
2173 202732.000  -1092365.5025  -5209399.5258   3504137.6386   1   9   0.0039   0.0082   0.0066   0.0028  -0.0055  -0.0014   0.00   17.2
2173 202733.000  -1092365.5037  -5209399.5290   3504137.6399   1   9   0.0039   0.0082   0.0066   0.0028  -0.0055  -0.0014   0.00   14.3
2173 202734.000  -1092365.5023  -5209399.5254   3504137.6378   1   9   0.0039   0.0082   0.0066   0.0028  -0.0055  -0.0014   0.00   12.4
2173 202735.000  -1092365.5027  -5209399.5290   3504137.6375   1   9   0.0039   0.0082   0.0066   0.0028  -0.0055  -0.0014   0.00   16.1
2173 202736.000  -1092365.5031  -5209399.5262   3504137.6372   1   9   0.0039   0.0082   0.0066   0.0028  -0.0055  -0.0014   0.00   13.9
2173 202737.000  -1092365.5026  -5209399.5270   3504137.6392   1   9   0.0039   0.0082   0.0066   0.0028  -0.0055  -0.0014   0.00   13.5
2173 202738.000  -1092365.5030  -5209399.5268   3504137.6391   1   9   0.0039   0.0082   0.0066   0.0028  -0.0055  -0.0014   0.00   15.0
2173 202739.000  -1092365.5024  -5209399.5266   3504137.6397   1   9   0.0039   0.0082   0.0066   0.0028  -0.0055  -0.0014   0.00   19.5
2173 202740.000  -1092365.5029  -5209399.5290   3504137.6375   1   9   0.0039   0.0082   0.0066   0.0028  -0.0055  -0.0014   0.00   16.7
2173 202741.000  -1092365.5029  -5209399.5294   3504137.6399   1   9   0.0039   0.0082   0.0066   0.0028  -0.0055  -0.0014   0.00   19.7
2173 202742.000  -1092365.5041  -5209399.5302   3504137.6417   1   9   0.0039   0.0082   0.0066   0.0028  -0.0055  -0.0014   0.00   12.6
2173 202743.000  -1092365.5010  -5209399.5294   3504137.6375   1   9   0.0039   0.0082   0.0066   0.0028  -0.0055  -0.0014   0.00   19.9
2173 202744.000  -1092365.5031  -5209399.5294   3504137.6402   1   9   0.0039   0.0082   0.0066   0.0028  -0.0055  -0.0014   0.00   16.1
2173 202745.000  -1092365.5023  -5209399.5290   3504137.6388   1   9   0.0039   0.0082   0.0066   0.0028  -0.0055  -0.0014   0.00   11.9
2173 202746.000  -1092365.5026  -5209399.5271   3504137.6400   1   9   0.0039   0.0082   0.0066   0.0028  -0.0055  -0.0014   0.00   14.1
2173 202747.000  -1092365.5044  -5209399.5283   3504137.6406   1   9   0.0039   0.0082   0.0066   0.0028  -0.0055  -0.0014   0.00   15.1
2173 202748.000  -1092365.5037  -5209399.5273   3504137.6390   1   9   0.0039   0.0082   0.0066   0.0028  -0.0055  -0.0014   0.00   10.0
2173 202749.000  -1092365.5018  -5209399.5254   3504137.6361   1   9   0.0039   0.0082   0.0066   0.0028  -0.0055  -0.0014   0.00   12.2
2173 202750.000  -1092365.5027  -5209399.5270   3504137.6402   1   9   0.0039   0.0082   0.0066   0.0028  -0.0055  -0.0014   0.00   15.8
2173 202751.000  -1092365.5039  -5209399.5293   3504137.6409   1   9   0.0039   0.0082   0.0066   0.0028  -0.0055  -0.0014   0.00   13.9
2173 202752.000  -1092365.5032  -5209399.5296   3504137.6399   1   9   0.0039   0.0082   0.0066   0.0028  -0.0055  -0.0014   0.00   16.2
2173 202753.000  -1092365.5032  -5209399.5278   3504137.6388   1   9   0.0039   0.0082   0.0066   0.0028  -0.0055  -0.0014   0.00   17.3
2173 202754.000  -1092365.5028  -5209399.5251   3504137.6385   1   9   0.0039   0.0082   0.0066   0.0028  -0.0055  -0.0014   0.00   14.5
2173 202755.000  -1092365.5041  -5209399.5315   3504137.6424   1   9   0.0039   0.0082   0.0066   0.0028  -0.0055  -0.0014   0.00   14.7
2173 202756.000  -1092365.5028  -5209399.5253   3504137.6404   1   9   0.0039   0.0082   0.0066   0.0028  -0.0055  -0.0014   0.00   13.9
2173 202757.000  -1092365.5036  -5209399.5292   3504137.6417   1   9   0.0039   0.0082   0.0066   0.0028  -0.0055  -0.0014   0.00   15.1
2173 202758.000  -1092365.5018  -5209399.5267   3504137.6396   1   9   0.0039   0.0082   0.0066   0.0028  -0.0055  -0.0014   0.00   14.1
2173 202759.000  -1092365.5025  -5209399.5276   3504137.6385   1   9   0.0039   0.0082   0.0066   0.0028  -0.0055  -0.0014   0.00   12.4
2173 202760.000  -1092365.5018  -5209399.5276   3504137.6384   1   9   0.0039   0.0082   0.0066   0.0028  -0.0055  -0.0014   0.00   15.6
2173 202761.000  -1092365.5037  -5209399.5281   3504137.6403   1   9   0.0039   0.0082   0.0066   0.0028  -0.0055  -0.0014   0.00   16.6
2173 202762.000  -1092365.5040  -5209399.5283   3504137.6403   1   9   0.0039   0.0082   0.0066   0.0028  -0.0055  -0.0014   0.00   13.1
2173 202763.000  -1092365.5023  -5209399.5282   3504137.6395   1   9   0.0039   0.0082   0.0066   0.0028  -0.0055  -0.0014   0.00   12.7
2173 202764.000  -1092365.5023  -5209399.5243   3504137.6387   1   9   0.0039   0.0082   0.0066   0.0028  -0.0055  -0.0014   0.00   16.0
2173 202765.000  -1092365.5034  -5209399.5274   3504137.6396   1   9   0.0039   0.0082   0.0066   0.0028  -0.0055  -0.0014   0.00   18.2
2173 202766.000  -1092365.5030  -5209399.5296   3504137.6382   1   9   0.0039   0.0082   0.0066   0.0028  -0.0055  -0.0014   0.00   12.8
2173 202767.000  -1092365.5017  -5209399.5293   3504137.6396   1   9   0.0039   0.0082   0.0067   0.0028  -0.0055  -0.0014   0.00   15.9
2173 202768.000  -1092365.5029  -5209399.5271   3504137.6395   1   9   0.0039   0.0082   0.0067   0.0028  -0.0055  -0.0014   0.00   13.0
2173 202769.000  -1092365.5014  -5209399.5262   3504137.6386   1   9   0.0039   0.0082   0.0067   0.0028  -0.0055  -0.0014   0.00   15.1
2173 202770.000  -1092365.5016  -5209399.5230   3504137.6375   1   9   0.0039   0.0082   0.0067   0.0028  -0.0055  -0.0014   0.00   12.4
2173 202771.000  -1092365.5023  -5209399.5290   3504137.6404   1   9   0.0039   0.0082   0.0067   0.0028  -0.0055  -0.0014   0.00   14.6
2173 202772.000  -1092365.5032  -5209399.5277   3504137.6404   1   9   0.0039   0.0082   0.0067   0.0028  -0.0055  -0.0014   0.00   13.9
2173 202773.000  -1092365.5019  -5209399.5313   3504137.6401   1   9   0.0039   0.0082   0.0067   0.0028  -0.0055  -0.0014   0.00   15.6
2173 202774.000  -1092365.5022  -5209399.5286   3504137.6390   1   9   0.0039   0.0082   0.0067   0.0028  -0.0055  -0.0014   0.00   13.8
2173 202775.000  -1092365.5025  -5209399.5288   3504137.6382   1   9   0.0039   0.0082   0.0067   0.0028  -0.0055  -0.0014   0.00   21.5
2173 202776.000  -1092365.5025  -5209399.5301   3504137.6378   1   9   0.0039   0.0082   0.0067   0.0028  -0.0055  -0.0014   0.00   12.7
2173 202777.000  -1092365.5009  -5209399.5308   3504137.6401   1   9   0.0039   0.0082   0.0067   0.0028  -0.0055  -0.0014   0.00   14.8
2173 202778.000  -1092365.5011  -5209399.5297   3504137.6399   1   9   0.0039   0.0082   0.0067   0.0028  -0.0055  -0.0014   0.00   13.7
2173 202779.000  -1092365.5008  -5209399.5250   3504137.6382   1   9   0.0039   0.0082   0.0067   0.0028  -0.0055  -0.0014   0.00   16.0
2173 202780.000  -1092365.5018  -5209399.5295   3504137.6395   1   9   0.0039   0.0082   0.0067   0.0028  -0.0055  -0.0014   0.00   15.6
2173 202781.000  -1092365.5028  -5209399.5294   3504137.6398   1   9   0.0039   0.0082   0.0067   0.0028  -0.0055  -0.0014   0.00   17.7
2173 202782.000  -1092365.5022  -5209399.5311   3504137.6402   1   9   0.0039   0.0082   0.0067   0.0028  -0.0055  -0.0014   0.00   14.9
2173 202783.000  -1092365.5014  -5209399.5296   3504137.6406   1   9   0.0039   0.0082   0.0067   0.0028  -0.0055  -0.0014   0.00   16.0
2173 202784.000  -1092365.5000  -5209399.5291   3504137.6419   1   9   0.0039   0.0082   0.0067   0.0028  -0.0055  -0.0014   0.00   16.9
2173 202785.000  -1092365.5034  -5209399.5328   3504137.6428   1   9   0.0039   0.0082   0.0067   0.0028  -0.0055  -0.0014   0.00    9.7
2173 202786.000  -1092365.5019  -5209399.5297   3504137.6405   1   9   0.0039   0.0082   0.0067   0.0028  -0.0055  -0.0014   0.00   12.4
2173 202787.000  -1092365.5016  -5209399.5316   3504137.6427   1   9   0.0039   0.0082   0.0067   0.0028  -0.0055  -0.0014   0.00   13.0
2173 202788.000  -1092365.5029  -5209399.5309   3504137.6417   1   9   0.0039   0.0082   0.0067   0.0028  -0.0055  -0.0014   0.00   13.5
2173 202789.000  -1092365.5026  -5209399.5301   3504137.6410   1   9   0.0039   0.0082   0.0067   0.0028  -0.0055  -0.0014   0.00   12.4
2173 202790.000  -1092365.5027  -5209399.5312   3504137.6403   1   9   0.0039   0.0082   0.0067   0.0028  -0.0055  -0.0014   0.00   12.2
2173 202791.000  -1092365.5025  -5209399.5280   3504137.6382   1   9   0.0039   0.0082   0.0067   0.0028  -0.0055  -0.0014   0.00   12.1
2173 202792.000  -1092365.5033  -5209399.5297   3504137.6390   1   9   0.0039   0.0082   0.0067   0.0028  -0.0055  -0.0014   0.00   15.3
2173 202793.000  -1092365.5016  -5209399.5305   3504137.6402   1   9   0.0039   0.0082   0.0067   0.0028  -0.0055  -0.0014   0.00   14.0
2173 202794.000  -1092365.5011  -5209399.5318   3504137.6412   1   9   0.0039   0.0082   0.0067   0.0028  -0.0055  -0.0014   0.00   18.7
2173 202795.000  -1092365.5016  -5209399.5297   3504137.6403   1   9   0.0039   0.0082   0.0067   0.0028  -0.0055  -0.0014   0.00   11.6
2173 202796.000  -1092365.5034  -5209399.5292   3504137.6409   1   9   0.0039   0.0082   0.0067   0.0028  -0.0055  -0.0014   0.00   13.1
2173 202797.000  -1092365.5012  -5209399.5293   3504137.6400   1   9   0.0039   0.0082   0.0067   0.0028  -0.0055  -0.0014   0.00   12.0
2173 202798.000  -1092365.5013  -5209399.5323   3504137.6392   1   9   0.0039   0.0082   0.0067   0.0028  -0.0055  -0.0014   0.00   12.8
2173 202799.000  -1092365.5041  -5209399.5291   3504137.6418   1   9   0.0039   0.0082   0.0067   0.0028  -0.0055  -0.0014   0.00    8.9
2173 202800.000  -1092365.5028  -5209399.5323   3504137.6406   1   9   0.0039   0.0082   0.0067   0.0028  -0.0055  -0.0014   0.00   13.3
2173 202801.000  -1092365.5040  -5209399.5328   3504137.6414   1   9   0.0039   0.0082   0.0067   0.0028  -0.0055  -0.0014   0.00   17.7
2173 202802.000  -1092365.5020  -5209399.5317   3504137.6413   1   9   0.0039   0.0082   0.0067   0.0028  -0.0055  -0.0014   0.00   10.3
2173 202803.000  -1092365.5020  -5209399.5304   3504137.6421   1   9   0.0039   0.0082   0.0067   0.0028  -0.0055  -0.0014   0.00   12.7
2173 202804.000  -1092365.5037  -5209399.5319   3504137.6414   1   9   0.0039   0.0082   0.0067   0.0028  -0.0055  -0.0014   0.00   13.1
2173 202805.000  -1092365.5017  -5209399.5311   3504137.6414   1   9   0.0039   0.0082   0.0067   0.0028  -0.0055  -0.0014   0.00    9.5
2173 202806.000  -1092365.5028  -5209399.5349   3504137.6424   1   9   0.0039   0.0082   0.0067   0.0028  -0.0055  -0.0014   0.00   15.4
2173 202807.000  -1092365.5028  -5209399.5316   3504137.6417   1   9   0.0039   0.0082   0.0067   0.0028  -0.0055  -0.0014   0.00   14.7
2173 202808.000  -1092365.5019  -5209399.5286   3504137.6388   1   9   0.0039   0.0082   0.0067   0.0028  -0.0055  -0.0014   0.00   13.2
2173 202809.000  -1092365.5018  -5209399.5296   3504137.6418   1   9   0.0039   0.0082   0.0067   0.0028  -0.0055  -0.0014   0.00   11.2
2173 202810.000  -1092365.5026  -5209399.5306   3504137.6403   1   9   0.0039   0.0082   0.0067   0.0028  -0.0055  -0.0014   0.00   12.0
2173 202811.000  -1092365.5029  -5209399.5319   3504137.6431   1   9   0.0039   0.0082   0.0067   0.0028  -0.0055  -0.0014   0.00   12.2
2173 202812.000  -1092365.5021  -5209399.5293   3504137.6409   1   9   0.0039   0.0082   0.0067   0.0028  -0.0055  -0.0014   0.00   13.4
2173 202813.000  -1092365.5015  -5209399.5281   3504137.6412   1   9   0.0039   0.0082   0.0067   0.0028  -0.0055  -0.0014   0.00   12.7
2173 202814.000  -1092365.5045  -5209399.5320   3504137.6439   1   9   0.0039   0.0082   0.0067   0.0028  -0.0055  -0.0014   0.00    9.6
2173 202815.000  -1092365.5014  -5209399.5298   3504137.6405   1   9   0.0039   0.0082   0.0067   0.0028  -0.0055  -0.0014   0.00   11.5
2173 202816.000  -1092365.5024  -5209399.5316   3504137.6411   1   9   0.0039   0.0082   0.0067   0.0028  -0.0055  -0.0014   0.00   10.4
2173 202817.000  -1092365.5024  -5209399.5295   3504137.6411   1   9   0.0039   0.0082   0.0067   0.0028  -0.0055  -0.0014   0.00    9.7
2173 202818.000  -1092365.5032  -5209399.5286   3504137.6403   1   9   0.0039   0.0082   0.0067   0.0028  -0.0055  -0.0014   0.00    9.3
2173 202819.000  -1092365.5034  -5209399.5283   3504137.6417   1   9   0.0039   0.0082   0.0067   0.0028  -0.0055  -0.0014   0.00   11.0
2173 202820.000  -1092365.5035  -5209399.5290   3504137.6393   1   9   0.0039   0.0082   0.0067   0.0028  -0.0055  -0.0014   0.00   12.5
2173 202821.000  -1092365.5031  -5209399.5268   3504137.6398   1   9   0.0039   0.0082   0.0067   0.0028  -0.0055  -0.0014   0.00    9.9
2173 202822.000  -1092365.5022  -5209399.5288   3504137.6439   1   9   0.0039   0.0082   0.0067   0.0028  -0.0055  -0.0014   0.00   10.0
2173 202823.000  -1092365.5014  -5209399.5288   3504137.6408   1   9   0.0039   0.0082   0.0067   0.0028  -0.0055  -0.0014   0.00   10.8
2173 202824.000  -1092365.5017  -5209399.5294   3504137.6413   1   9   0.0039   0.0082   0.0067   0.0028  -0.0055  -0.0014   0.00   10.7
2173 202825.000  -1092365.5004  -5209399.5311   3504137.6419   1   9   0.0039   0.0082   0.0067   0.0028  -0.0055  -0.0014   0.00   12.2
2173 202826.000  -1092365.5011  -5209399.5260   3504137.6405   1   9   0.0039   0.0082   0.0067   0.0028  -0.0055  -0.0014   0.00    9.9
2173 202827.000  -1092365.5020  -5209399.5278   3504137.6379   1   9   0.0039   0.0082   0.0067   0.0028  -0.0055  -0.0014   0.00    7.4
2173 202828.000  -1092365.5017  -5209399.5231   3504137.6420   1   9   0.0039   0.0082   0.0067   0.0028  -0.0055  -0.0014   0.00    7.8
2173 202829.000  -1092365.5033  -5209399.5301   3504137.6414   1   9   0.0039   0.0082   0.0067   0.0028  -0.0055  -0.0014   0.00    9.7
2173 202830.000  -1092365.5013  -5209399.5295   3504137.6420   1   9   0.0039   0.0082   0.0067   0.0028  -0.0055  -0.0014   0.00    8.3
2173 202831.000  -1092365.5024  -5209399.5275   3504137.6427   1   9   0.0039   0.0082   0.0067   0.0028  -0.0055  -0.0014   0.00    8.7
2173 202832.000  -1092365.5017  -5209399.5260   3504137.6386   1   9   0.0039   0.0082   0.0067   0.0028  -0.0055  -0.0014   0.00   12.3
2173 202833.000  -1092365.5023  -5209399.5287   3504137.6407   1   9   0.0039   0.0082   0.0067   0.0028  -0.0055  -0.0014   0.00   10.1
2173 202834.000  -1092365.5003  -5209399.5270   3504137.6401   1   9   0.0039   0.0082   0.0067   0.0028  -0.0055  -0.0014   0.00   12.3
2173 202835.000  -1092365.5014  -5209399.5270   3504137.6397   1   9   0.0039   0.0082   0.0067   0.0028  -0.0055  -0.0014   0.00   11.9
2173 202836.000  -1092365.5022  -5209399.5310   3504137.6422   1   9   0.0039   0.0082   0.0067   0.0028  -0.0055  -0.0014   0.00   10.6
2173 202837.000  -1092365.5014  -5209399.5290   3504137.6409   1   9   0.0039   0.0082   0.0067   0.0028  -0.0055  -0.0014   0.00   12.4
2173 202838.000  -1092365.5022  -5209399.5313   3504137.6408   1   9   0.0039   0.0082   0.0067   0.0028  -0.0055  -0.0014   0.00   12.0
2173 202839.000  -1092365.5024  -5209399.5330   3504137.6422   1   9   0.0039   0.0082   0.0067   0.0028  -0.0055  -0.0014   0.00   11.3
2173 202840.000  -1092365.5026  -5209399.5287   3504137.6437   1   9   0.0039   0.0082   0.0067   0.0028  -0.0055  -0.0014   0.00   11.5
2173 202841.000  -1092365.5014  -5209399.5314   3504137.6424   1   9   0.0039   0.0082   0.0067   0.0028  -0.0055  -0.0014   0.00   12.2
2173 202842.000  -1092365.5025  -5209399.5300   3504137.6436   1   9   0.0039   0.0082   0.0067   0.0028  -0.0055  -0.0014   0.00   10.5
2173 202843.000  -1092365.5030  -5209399.5303   3504137.6404   1   9   0.0039   0.0082   0.0067   0.0028  -0.0055  -0.0014   0.00    8.8
2173 202844.000  -1092365.5024  -5209399.5314   3504137.6437   1   9   0.0039   0.0082   0.0067   0.0028  -0.0055  -0.0014   0.00   13.5
2173 202845.000  -1092365.5029  -5209399.5277   3504137.6403   1   9   0.0039   0.0082   0.0067   0.0028  -0.0055  -0.0014   0.00   11.6
2173 202846.000  -1092365.5009  -5209399.5279   3504137.6406   1   9   0.0039   0.0082   0.0067   0.0028  -0.0055  -0.0014   0.00   10.9
2173 202847.000  -1092365.5012  -5209399.5295   3504137.6418   1   9   0.0039   0.0082   0.0067   0.0028  -0.0055  -0.0014   0.00   11.9
2173 202848.000  -1092365.5023  -5209399.5297   3504137.6398   1   9   0.0039   0.0082   0.0067   0.0028  -0.0055  -0.0014   0.00   12.0
2173 202849.000  -1092365.5032  -5209399.5283   3504137.6420   1   9   0.0039   0.0082   0.0067   0.0028  -0.0055  -0.0014   0.00   10.5
2173 202850.000  -1092365.5019  -5209399.5275   3504137.6423   1   9   0.0039   0.0082   0.0067   0.0028  -0.0055  -0.0014   0.00   11.3
2173 202851.000  -1092365.5035  -5209399.5298   3504137.6412   1   9   0.0039   0.0082   0.0067   0.0028  -0.0055  -0.0014   0.00   12.1
2173 202852.000  -1092365.5028  -5209399.5277   3504137.6409   1   9   0.0039   0.0082   0.0067   0.0028  -0.0055  -0.0014   0.00   13.3
2173 202853.000  -1092365.5032  -5209399.5317   3504137.6435   1   9   0.0039   0.0082   0.0067   0.0028  -0.0055  -0.0014   0.00   13.5
2173 202854.000  -1092365.5016  -5209399.5270   3504137.6405   1   9   0.0039   0.0082   0.0067   0.0028  -0.0055  -0.0014   0.00   12.3
2173 202855.000  -1092365.5021  -5209399.5303   3504137.6445   1   9   0.0039   0.0082   0.0067   0.0028  -0.0055  -0.0014   0.00   13.3
2173 202856.000  -1092365.5012  -5209399.5285   3504137.6411   1   9   0.0039   0.0082   0.0067   0.0028  -0.0055  -0.0014   0.00   12.4
2173 202857.000  -1092365.5024  -5209399.5319   3504137.6410   1   9   0.0039   0.0082   0.0067   0.0028  -0.0055  -0.0014   0.00   16.1
2173 202858.000  -1092365.5028  -5209399.5299   3504137.6428   1   9   0.0039   0.0082   0.0067   0.0028  -0.0055  -0.0014   0.00   10.5
2173 202859.000  -1092365.5029  -5209399.5302   3504137.6421   1   9   0.0039   0.0082   0.0067   0.0028  -0.0055  -0.0014   0.00   11.2
2173 202860.000  -1092365.5020  -5209399.5269   3504137.6397   1   9   0.0039   0.0082   0.0067   0.0028  -0.0055  -0.0014   0.00   10.3
2173 202861.000  -1092365.5031  -5209399.5293   3504137.6432   1   9   0.0039   0.0082   0.0067   0.0028  -0.0055  -0.0014   0.00   13.7
2173 202862.000  -1092365.5023  -5209399.5313   3504137.6425   1   9   0.0039   0.0082   0.0067   0.0028  -0.0055  -0.0014   0.00   12.2
2173 202863.000  -1092365.5025  -5209399.5289   3504137.6400   1   9   0.0039   0.0082   0.0067   0.0028  -0.0055  -0.0014   0.00   13.7
2173 202864.000  -1092365.5044  -5209399.5277   3504137.6406   1   9   0.0039   0.0082   0.0067   0.0028  -0.0055  -0.0014   0.00   12.1
2173 202865.000  -1092365.5026  -5209399.5263   3504137.6405   1   9   0.0039   0.0082   0.0067   0.0028  -0.0055  -0.0014   0.00   11.3
2173 202866.000  -1092365.5022  -5209399.5280   3504137.6403   1   9   0.0039   0.0082   0.0067   0.0028  -0.0055  -0.0014   0.00   11.1
2173 202867.000  -1092365.5018  -5209399.5293   3504137.6420   1   9   0.0039   0.0082   0.0067   0.0028  -0.0055  -0.0014   0.00    9.9
2173 202868.000  -1092365.5026  -5209399.5307   3504137.6410   1   9   0.0039   0.0082   0.0067   0.0028  -0.0055  -0.0014   0.00   12.7
2173 202869.000  -1092365.5011  -5209399.5278   3504137.6430   1   9   0.0039   0.0082   0.0067   0.0028  -0.0055  -0.0014   0.00   12.9
2173 202870.000  -1092365.5015  -5209399.5288   3504137.6435   1   9   0.0039   0.0082   0.0067   0.0028  -0.0055  -0.0014   0.00   12.7
2173 202871.000  -1092365.5017  -5209399.5317   3504137.6423   1   9   0.0039   0.0082   0.0067   0.0028  -0.0055  -0.0014   0.00   12.1
2173 202872.000  -1092365.5019  -5209399.5283   3504137.6421   1   9   0.0039   0.0082   0.0067   0.0028  -0.0055  -0.0014   0.00    8.7
2173 202873.000  -1092365.5017  -5209399.5306   3504137.6419   1   9   0.0039   0.0082   0.0067   0.0028  -0.0056  -0.0014   0.00   11.4
2173 202874.000  -1092365.5016  -5209399.5272   3504137.6405   1   9   0.0039   0.0082   0.0067   0.0028  -0.0056  -0.0014   0.00   11.1
2173 202875.000  -1092365.5005  -5209399.5269   3504137.6415   1   9   0.0039   0.0082   0.0067   0.0028  -0.0056  -0.0014   0.00   13.7
2173 202876.000  -1092365.5009  -5209399.5304   3504137.6416   1   9   0.0039   0.0082   0.0067   0.0028  -0.0056  -0.0014   0.00   10.7
2173 202877.000  -1092365.5011  -5209399.5288   3504137.6414   1   9   0.0039   0.0082   0.0067   0.0028  -0.0056  -0.0014   0.00   11.9
2173 202878.000  -1092365.4999  -5209399.5316   3504137.6415   1   9   0.0039   0.0082   0.0067   0.0028  -0.0056  -0.0014   0.00   11.7
2173 202879.000  -1092365.5010  -5209399.5285   3504137.6375   1   9   0.0039   0.0082   0.0067   0.0028  -0.0056  -0.0014   0.00   10.1
2173 202880.000  -1092365.5007  -5209399.5290   3504137.6414   1   9   0.0039   0.0082   0.0067   0.0028  -0.0056  -0.0014   0.00   13.8
2173 202881.000  -1092365.5012  -5209399.5257   3504137.6387   1   9   0.0039   0.0082   0.0067   0.0028  -0.0056  -0.0014   0.00   10.5
2173 202882.000  -1092365.5016  -5209399.5250   3504137.6368   1   9   0.0039   0.0082   0.0067   0.0028  -0.0056  -0.0014   0.00   10.0
2173 202883.000  -1092365.5003  -5209399.5264   3504137.6399   1   9   0.0039   0.0082   0.0067   0.0028  -0.0056  -0.0014   0.00   11.2
2173 202884.000  -1092365.5029  -5209399.5297   3504137.6422   1   9   0.0039   0.0082   0.0067   0.0028  -0.0056  -0.0014   0.00   14.6
2173 202885.000  -1092365.5033  -5209399.5276   3504137.6408   1   9   0.0039   0.0082   0.0067   0.0028  -0.0056  -0.0014   0.00   12.1
2173 202886.000  -1092365.5005  -5209399.5272   3504137.6399   1   9   0.0039   0.0082   0.0067   0.0028  -0.0056  -0.0014   0.00   10.9
2173 202887.000  -1092365.5012  -5209399.5276   3504137.6422   1   9   0.0039   0.0082   0.0067   0.0028  -0.0056  -0.0014   0.00   12.0
2173 202888.000  -1092365.5007  -5209399.5285   3504137.6390   1   9   0.0039   0.0082   0.0067   0.0028  -0.0056  -0.0014   0.00   16.7
2173 202889.000  -1092365.5011  -5209399.5280   3504137.6393   1   9   0.0039   0.0082   0.0067   0.0028  -0.0056  -0.0014   0.00   10.5
2173 202890.000  -1092365.5001  -5209399.5288   3504137.6397   1   9   0.0039   0.0082   0.0067   0.0028  -0.0056  -0.0014   0.00   13.3
2173 202891.000  -1092365.5016  -5209399.5288   3504137.6389   1   9   0.0039   0.0082   0.0067   0.0028  -0.0056  -0.0014   0.00   13.6
2173 202892.000  -1092365.5009  -5209399.5265   3504137.6402   1   9   0.0039   0.0082   0.0067   0.0028  -0.0056  -0.0014   0.00   12.5
2173 202893.000  -1092365.5017  -5209399.5284   3504137.6402   1   9   0.0039   0.0082   0.0067   0.0028  -0.0056  -0.0014   0.00   14.4
2173 202894.000  -1092365.5011  -5209399.5305   3504137.6428   1   9   0.0039   0.0082   0.0067   0.0028  -0.0056  -0.0014   0.00   11.8
2173 202895.000  -1092365.5019  -5209399.5274   3504137.6397   1   9   0.0039   0.0082   0.0067   0.0028  -0.0056  -0.0014   0.00   12.8
2173 202896.000  -1092365.5027  -5209399.5267   3504137.6390   1   9   0.0039   0.0082   0.0067   0.0028  -0.0056  -0.0014   0.00   10.4
2173 202897.000  -1092365.5023  -5209399.5281   3504137.6409   1   9   0.0039   0.0082   0.0067   0.0028  -0.0056  -0.0014   0.00   10.3
2173 202898.000  -1092365.5011  -5209399.5307   3504137.6415   1   9   0.0039   0.0082   0.0067   0.0028  -0.0056  -0.0014   0.00   11.7
2173 202899.000  -1092365.5019  -5209399.5278   3504137.6410   1   9   0.0039   0.0082   0.0067   0.0028  -0.0056  -0.0014   0.00   16.5
2173 202900.000  -1092365.5023  -5209399.5297   3504137.6395   1   9   0.0039   0.0082   0.0067   0.0028  -0.0056  -0.0014   0.00   11.0
2173 202901.000  -1092365.5021  -5209399.5264   3504137.6398   1   9   0.0039   0.0082   0.0067   0.0028  -0.0056  -0.0014   0.00   16.3
2173 202902.000  -1092365.5008  -5209399.5300   3504137.6427   1   9   0.0039   0.0082   0.0067   0.0028  -0.0056  -0.0014   0.00   13.2
2173 202903.000  -1092365.5017  -5209399.5286   3504137.6401   1   9   0.0039   0.0082   0.0067   0.0028  -0.0056  -0.0014   0.00   10.6
2173 202904.000  -1092365.5027  -5209399.5308   3504137.6410   1   9   0.0039   0.0082   0.0067   0.0028  -0.0056  -0.0014   0.00   10.5
2173 202905.000  -1092365.5020  -5209399.5293   3504137.6415   1   9   0.0039   0.0082   0.0067   0.0028  -0.0056  -0.0014   0.00   16.9
2173 202906.000  -1092365.5022  -5209399.5293   3504137.6415   1   9   0.0039   0.0082   0.0067   0.0028  -0.0056  -0.0014   0.00   11.0
2173 202907.000  -1092365.5018  -5209399.5297   3504137.6407   1   9   0.0039   0.0082   0.0067   0.0028  -0.0056  -0.0014   0.00   15.0
2173 202908.000  -1092365.5015  -5209399.5252   3504137.6395   1   9   0.0039   0.0082   0.0067   0.0028  -0.0056  -0.0014   0.00   14.3
2173 202909.000  -1092365.5031  -5209399.5306   3504137.6426   1   9   0.0039   0.0082   0.0067   0.0028  -0.0056  -0.0014   0.00   11.6
2173 202910.000  -1092365.5031  -5209399.5306   3504137.6419   1   9   0.0039   0.0082   0.0067   0.0028  -0.0056  -0.0014   0.00   12.7
2173 202911.000  -1092365.5022  -5209399.5270   3504137.6381   1   9   0.0039   0.0082   0.0067   0.0028  -0.0056  -0.0014   0.00   10.3
2173 202912.000  -1092365.5019  -5209399.5282   3504137.6398   1   9   0.0039   0.0082   0.0067   0.0028  -0.0056  -0.0014   0.00   10.1
2173 202913.000  -1092365.5004  -5209399.5282   3504137.6402   1   9   0.0039   0.0082   0.0067   0.0028  -0.0056  -0.0014   0.00    9.9
2173 202914.000  -1092365.5019  -5209399.5254   3504137.6382   1   9   0.0039   0.0082   0.0067   0.0028  -0.0056  -0.0014   0.00   12.6
2173 202915.000  -1092365.5007  -5209399.5287   3504137.6407   1   9   0.0039   0.0082   0.0067   0.0028  -0.0056  -0.0014   0.00   12.1
2173 202916.000  -1092365.5018  -5209399.5329   3504137.6410   1   9   0.0039   0.0082   0.0067   0.0028  -0.0056  -0.0014   0.00   12.1
2173 202917.000  -1092365.5016  -5209399.5290   3504137.6408   1   9   0.0039   0.0082   0.0067   0.0028  -0.0056  -0.0014   0.00    9.3
2173 202918.000  -1092365.5016  -5209399.5279   3504137.6410   1   9   0.0039   0.0082   0.0067   0.0028  -0.0056  -0.0014   0.00    8.7
2173 202919.000  -1092365.5019  -5209399.5278   3504137.6385   1   9   0.0039   0.0082   0.0067   0.0028  -0.0056  -0.0014   0.00   10.8
2173 202920.000  -1092365.5010  -5209399.5264   3504137.6379   1   9   0.0039   0.0082   0.0067   0.0028  -0.0056  -0.0014   0.00   11.6
2173 202921.000  -1092365.5022  -5209399.5283   3504137.6385   1   9   0.0039   0.0082   0.0067   0.0028  -0.0056  -0.0014   0.00   12.7
2173 202922.000  -1092365.5017  -5209399.5299   3504137.6422   1   9   0.0039   0.0082   0.0067   0.0028  -0.0056  -0.0014   0.00   10.6
2173 202923.000  -1092365.5011  -5209399.5307   3504137.6408   1   9   0.0039   0.0082   0.0067   0.0028  -0.0056  -0.0014   0.00    9.5
2173 202924.000  -1092365.5018  -5209399.5274   3504137.6396   1   9   0.0039   0.0082   0.0067   0.0028  -0.0056  -0.0014   0.00   10.5
2173 202925.000  -1092365.5017  -5209399.5302   3504137.6407   1   9   0.0039   0.0082   0.0067   0.0028  -0.0056  -0.0014   0.00   12.8
2173 202926.000  -1092365.5021  -5209399.5323   3504137.6417   1   9   0.0039   0.0082   0.0067   0.0028  -0.0056  -0.0014   0.00   11.6
2173 202927.000  -1092365.5015  -5209399.5281   3504137.6388   1   9   0.0039   0.0082   0.0067   0.0028  -0.0056  -0.0014   0.00   13.1
2173 202928.000  -1092365.5018  -5209399.5292   3504137.6379   1   9   0.0039   0.0082   0.0067   0.0028  -0.0056  -0.0014   0.00   10.9
2173 202929.000  -1092365.5029  -5209399.5292   3504137.6400   1   9   0.0039   0.0082   0.0067   0.0028  -0.0056  -0.0014   0.00   12.5
2173 202930.000  -1092365.5011  -5209399.5294   3504137.6398   1   9   0.0039   0.0082   0.0067   0.0028  -0.0056  -0.0014   0.00   12.3
2173 202931.000  -1092365.5016  -5209399.5297   3504137.6418   1   9   0.0039   0.0082   0.0067   0.0028  -0.0056  -0.0014   0.00   16.5
2173 202932.000  -1092365.5019  -5209399.5277   3504137.6397   1   9   0.0039   0.0082   0.0067   0.0028  -0.0056  -0.0014   0.00   12.0
2173 202933.000  -1092365.5018  -5209399.5285   3504137.6409   1   9   0.0039   0.0082   0.0067   0.0028  -0.0056  -0.0014   0.00   13.4
2173 202934.000  -1092365.5019  -5209399.5295   3504137.6418   1   9   0.0039   0.0082   0.0067   0.0028  -0.0056  -0.0014   0.00   13.4
2173 202935.000  -1092365.5028  -5209399.5311   3504137.6419   1   9   0.0039   0.0082   0.0067   0.0028  -0.0056  -0.0014   0.00   12.4
2173 202936.000  -1092365.5023  -5209399.5291   3504137.6430   1   9   0.0039   0.0082   0.0067   0.0028  -0.0056  -0.0014   0.00   10.8
2173 202937.000  -1092365.5018  -5209399.5291   3504137.6402   1   9   0.0039   0.0082   0.0067   0.0028  -0.0056  -0.0014   0.00   12.2
2173 202938.000  -1092365.5027  -5209399.5302   3504137.6385   1   9   0.0039   0.0082   0.0067   0.0028  -0.0056  -0.0014   0.00   11.9
2173 202939.000  -1092365.5008  -5209399.5238   3504137.6398   1   9   0.0039   0.0082   0.0067   0.0028  -0.0056  -0.0014   0.00   10.3
2173 202940.000  -1092365.5023  -5209399.5286   3504137.6396   1   9   0.0039   0.0082   0.0067   0.0028  -0.0056  -0.0014   0.00   10.7
2173 202941.000  -1092365.5027  -5209399.5264   3504137.6399   1   9   0.0039   0.0082   0.0067   0.0028  -0.0056  -0.0014   0.00   13.5
2173 202942.000  -1092365.5014  -5209399.5263   3504137.6386   1   9   0.0039   0.0082   0.0067   0.0028  -0.0056  -0.0014   0.00    9.2
2173 202943.000  -1092365.5024  -5209399.5285   3504137.6416   1   9   0.0039   0.0082   0.0067   0.0028  -0.0056  -0.0014   0.00   11.4
2173 202944.000  -1092365.5024  -5209399.5280   3504137.6427   1   9   0.0039   0.0082   0.0067   0.0028  -0.0056  -0.0014   0.00   11.2
2173 202945.000  -1092365.5008  -5209399.5272   3504137.6401   1   9   0.0039   0.0082   0.0067   0.0028  -0.0056  -0.0014   0.00   11.1
2173 202946.000  -1092365.5036  -5209399.5286   3504137.6395   1   9   0.0039   0.0082   0.0067   0.0028  -0.0056  -0.0014   0.00   14.5
2173 202947.000  -1092365.5035  -5209399.5286   3504137.6402   1   9   0.0039   0.0082   0.0067   0.0028  -0.0056  -0.0014   0.00   15.0
2173 202948.000  -1092365.5023  -5209399.5288   3504137.6408   1   9   0.0039   0.0082   0.0067   0.0028  -0.0056  -0.0014   0.00   13.7
2173 202949.000  -1092365.5033  -5209399.5303   3504137.6449   1   9   0.0039   0.0082   0.0067   0.0028  -0.0056  -0.0014   0.00   16.0
2173 202950.000  -1092365.5034  -5209399.5253   3504137.6398   1   9   0.0039   0.0082   0.0067   0.0028  -0.0056  -0.0014   0.00   13.6
2173 202951.000  -1092365.5050  -5209399.5279   3504137.6422   1   9   0.0039   0.0082   0.0067   0.0028  -0.0056  -0.0014   0.00   16.0
2173 202952.000  -1092365.5012  -5209399.5300   3504137.6415   1   9   0.0039   0.0082   0.0067   0.0028  -0.0056  -0.0014   0.00   13.4
2173 202953.000  -1092365.5025  -5209399.5277   3504137.6437   1   9   0.0039   0.0082   0.0067   0.0028  -0.0056  -0.0014   0.00   11.4
2173 202954.000  -1092365.5033  -5209399.5268   3504137.6403   1   9   0.0039   0.0082   0.0067   0.0028  -0.0056  -0.0014   0.00   11.6
2173 202955.000  -1092365.5028  -5209399.5288   3504137.6435   1   9   0.0039   0.0082   0.0067   0.0028  -0.0056  -0.0014   0.00   15.5
2173 202956.000  -1092365.5020  -5209399.5307   3504137.6430   1   9   0.0039   0.0082   0.0067   0.0028  -0.0056  -0.0014   0.00   16.4
2173 202957.000  -1092365.5034  -5209399.5295   3504137.6450   1   9   0.0039   0.0082   0.0067   0.0028  -0.0056  -0.0014   0.00   15.4
2173 202958.000  -1092365.5032  -5209399.5281   3504137.6450   1   9   0.0039   0.0082   0.0067   0.0028  -0.0056  -0.0014   0.00   14.4
2173 202959.000  -1092365.5027  -5209399.5276   3504137.6433   1   9   0.0039   0.0082   0.0067   0.0028  -0.0056  -0.0014   0.00   12.2
2173 202960.000  -1092365.5037  -5209399.5294   3504137.6412   1   9   0.0039   0.0082   0.0067   0.0028  -0.0056  -0.0014   0.00   14.9
2173 202961.000  -1092365.5027  -5209399.5301   3504137.6426   1   9   0.0039   0.0082   0.0067   0.0028  -0.0056  -0.0014   0.00   14.7
2173 202962.000  -1092365.5026  -5209399.5303   3504137.6447   1   9   0.0039   0.0082   0.0067   0.0028  -0.0056  -0.0014   0.00   11.6
2173 202963.000  -1092365.5022  -5209399.5306   3504137.6426   1   9   0.0039   0.0082   0.0067   0.0028  -0.0056  -0.0014   0.00   13.3
2173 202964.000  -1092365.5023  -5209399.5297   3504137.6447   1   9   0.0039   0.0082   0.0067   0.0028  -0.0056  -0.0014   0.00   14.3
2173 202965.000  -1092365.5030  -5209399.5262   3504137.6418   1   9   0.0039   0.0082   0.0067   0.0028  -0.0056  -0.0014   0.00   13.1
2173 202966.000  -1092365.5036  -5209399.5270   3504137.6398   1   9   0.0039   0.0082   0.0067   0.0028  -0.0056  -0.0014   0.00   12.7
2173 202967.000  -1092365.5026  -5209399.5283   3504137.6429   1   9   0.0039   0.0082   0.0067   0.0028  -0.0056  -0.0014   0.00   15.1
2173 202968.000  -1092365.5031  -5209399.5310   3504137.6429   1   9   0.0039   0.0082   0.0067   0.0028  -0.0056  -0.0014   0.00   14.8
2173 202969.000  -1092365.5043  -5209399.5279   3504137.6431   1   9   0.0039   0.0082   0.0067   0.0028  -0.0056  -0.0014   0.00   13.8
2173 202970.000  -1092365.5043  -5209399.5307   3504137.6431   1   9   0.0039   0.0082   0.0067   0.0028  -0.0056  -0.0014   0.00   12.6
2173 202971.000  -1092365.5032  -5209399.5290   3504137.6425   1   9   0.0039   0.0082   0.0067   0.0028  -0.0056  -0.0014   0.00   13.0
2173 202972.000  -1092365.5041  -5209399.5294   3504137.6419   1   9   0.0039   0.0082   0.0067   0.0028  -0.0056  -0.0014   0.00   17.1
2173 202973.000  -1092365.5043  -5209399.5274   3504137.6436   1   9   0.0039   0.0082   0.0067   0.0028  -0.0056  -0.0014   0.00   13.5
2173 202974.000  -1092365.5037  -5209399.5305   3504137.6436   1   9   0.0039   0.0082   0.0067   0.0028  -0.0056  -0.0014   0.00   15.1
2173 202975.000  -1092365.5023  -5209399.5277   3504137.6412   1   9   0.0039   0.0082   0.0067   0.0028  -0.0056  -0.0014   0.00   16.1
2173 202976.000  -1092365.5036  -5209399.5309   3504137.6444   1   9   0.0039   0.0082   0.0067   0.0028  -0.0056  -0.0014   0.00   12.6
2173 202977.000  -1092365.5044  -5209399.5278   3504137.6409   1   9   0.0039   0.0082   0.0067   0.0028  -0.0056  -0.0014   0.00   10.6
2173 202978.000  -1092365.5032  -5209399.5292   3504137.6458   1   9   0.0039   0.0082   0.0067   0.0028  -0.0056  -0.0014   0.00   15.3
2173 202979.000  -1092365.5028  -5209399.5250   3504137.6422   1   9   0.0039   0.0082   0.0067   0.0028  -0.0056  -0.0014   0.00   15.0
2173 202980.000  -1092365.5042  -5209399.5306   3504137.6454   1   9   0.0039   0.0082   0.0067   0.0028  -0.0056  -0.0014   0.00   12.3
2173 202981.000  -1092365.5047  -5209399.5281   3504137.6430   1   9   0.0039   0.0082   0.0067   0.0028  -0.0056  -0.0014   0.00   11.9
2173 202982.000  -1092365.5043  -5209399.5269   3504137.6450   1   9   0.0039   0.0082   0.0067   0.0028  -0.0056  -0.0014   0.00   13.0
2173 202983.000  -1092365.5041  -5209399.5283   3504137.6430   1   9   0.0039   0.0082   0.0067   0.0028  -0.0056  -0.0014   0.00   11.3
2173 202984.000  -1092365.5044  -5209399.5285   3504137.6465   1   9   0.0039   0.0082   0.0067   0.0028  -0.0056  -0.0014   0.00   12.9
2173 202985.000  -1092365.5021  -5209399.5282   3504137.6444   1   9   0.0039   0.0082   0.0067   0.0028  -0.0056  -0.0014   0.00   13.3
2173 202986.000  -1092365.5052  -5209399.5300   3504137.6442   1   9   0.0039   0.0082   0.0067   0.0028  -0.0056  -0.0014   0.00   14.5
2173 202987.000  -1092365.5044  -5209399.5290   3504137.6451   1   9   0.0039   0.0082   0.0067   0.0028  -0.0056  -0.0014   0.00   14.6
2173 202988.000  -1092365.5046  -5209399.5298   3504137.6469   1   9   0.0039   0.0082   0.0067   0.0028  -0.0056  -0.0014   0.00   12.1
2173 202989.000  -1092365.5054  -5209399.5292   3504137.6450   1   9   0.0039   0.0082   0.0067   0.0028  -0.0056  -0.0014   0.00   11.0
2173 202990.000  -1092365.5037  -5209399.5280   3504137.6459   1   9   0.0039   0.0082   0.0067   0.0028  -0.0056  -0.0014   0.00    9.9
2173 202991.000  -1092365.5048  -5209399.5317   3504137.6480   1   9   0.0039   0.0082   0.0067   0.0028  -0.0056  -0.0014   0.00   10.9
2173 202992.000  -1092365.5042  -5209399.5296   3504137.6430   1   9   0.0039   0.0082   0.0067   0.0028  -0.0056  -0.0014   0.00   10.6
2173 202993.000  -1092365.5049  -5209399.5304   3504137.6474   1   9   0.0039   0.0082   0.0067   0.0028  -0.0056  -0.0014   0.00   12.1
2173 202994.000  -1092365.5037  -5209399.5285   3504137.6472   1   9   0.0039   0.0082   0.0067   0.0028  -0.0056  -0.0014   0.00   12.2
2173 202995.000  -1092365.5044  -5209399.5294   3504137.6462   1   9   0.0039   0.0082   0.0067   0.0028  -0.0056  -0.0014   0.00   11.5
2173 202996.000  -1092365.5046  -5209399.5308   3504137.6490   1   9   0.0039   0.0082   0.0067   0.0028  -0.0056  -0.0014   0.00   11.3
2173 202997.000  -1092365.5040  -5209399.5304   3504137.6466   1   9   0.0039   0.0082   0.0067   0.0028  -0.0056  -0.0014   0.00   13.3
2173 202998.000  -1092365.5026  -5209399.5279   3504137.6450   1   9   0.0039   0.0082   0.0067   0.0028  -0.0056  -0.0015   0.00   10.1
2173 202999.000  -1092365.5052  -5209399.5277   3504137.6453   1   9   0.0039   0.0082   0.0067   0.0028  -0.0056  -0.0015   0.00   11.2
2173 203000.000  -1092365.5044  -5209399.5294   3504137.6473   1   9   0.0039   0.0082   0.0067   0.0028  -0.0056  -0.0015   0.00   11.6
2173 203001.000  -1092365.5055  -5209399.5307   3504137.6474   1   9   0.0039   0.0082   0.0067   0.0028  -0.0056  -0.0015   0.00   12.9
2173 203002.000  -1092365.5053  -5209399.5315   3504137.6493   1   9   0.0039   0.0082   0.0067   0.0028  -0.0056  -0.0015   0.00   10.4
2173 203003.000  -1092365.5056  -5209399.5282   3504137.6467   1   9   0.0039   0.0082   0.0067   0.0028  -0.0056  -0.0015   0.00   10.9
2173 203004.000  -1092365.5047  -5209399.5287   3504137.6462   1   9   0.0039   0.0082   0.0067   0.0028  -0.0056  -0.0015   0.00   11.2
2173 203005.000  -1092365.5044  -5209399.5272   3504137.6472   1   9   0.0039   0.0082   0.0067   0.0028  -0.0056  -0.0015   0.00    9.8
2173 203006.000  -1092365.5043  -5209399.5315   3504137.6493   1   9   0.0039   0.0082   0.0067   0.0028  -0.0056  -0.0015   0.00   11.7
2173 203007.000  -1092365.5064  -5209399.5319   3504137.6478   1   9   0.0039   0.0082   0.0067   0.0028  -0.0056  -0.0015   0.00   12.8
2173 203008.000  -1092365.5039  -5209399.5272   3504137.6484   1   9   0.0039   0.0082   0.0067   0.0028  -0.0056  -0.0015   0.00    9.3
2173 203009.000  -1092365.5053  -5209399.5303   3504137.6466   1   9   0.0039   0.0082   0.0067   0.0028  -0.0056  -0.0015   0.00   11.6
2173 203010.000  -1092365.5055  -5209399.5285   3504137.6457   1   9   0.0039   0.0082   0.0067   0.0028  -0.0056  -0.0015   0.00   10.2
2173 203011.000  -1092365.5056  -5209399.5291   3504137.6462   1   9   0.0039   0.0082   0.0067   0.0028  -0.0056  -0.0015   0.00   13.5
2173 203012.000  -1092365.5053  -5209399.5272   3504137.6453   1   9   0.0039   0.0082   0.0067   0.0028  -0.0056  -0.0015   0.00   12.1
2173 203013.000  -1092365.5046  -5209399.5265   3504137.6450   1   9   0.0039   0.0082   0.0067   0.0028  -0.0056  -0.0015   0.00    8.3
2173 203014.000  -1092365.5062  -5209399.5284   3504137.6466   1   9   0.0039   0.0082   0.0067   0.0028  -0.0056  -0.0015   0.00   10.4
2173 203015.000  -1092365.5049  -5209399.5318   3504137.6479   1   9   0.0039   0.0082   0.0067   0.0028  -0.0056  -0.0015   0.00   10.1
2173 203016.000  -1092365.5058  -5209399.5317   3504137.6463   1   9   0.0039   0.0082   0.0067   0.0028  -0.0056  -0.0015   0.00   12.2
2173 203017.000  -1092365.5039  -5209399.5297   3504137.6480   1   9   0.0039   0.0082   0.0067   0.0028  -0.0056  -0.0015   0.00   11.0
2173 203018.000  -1092365.5033  -5209399.5307   3504137.6464   1   9   0.0039   0.0082   0.0067   0.0028  -0.0056  -0.0015   0.00   10.4
2173 203019.000  -1092365.5047  -5209399.5274   3504137.6461   1   9   0.0039   0.0082   0.0067   0.0028  -0.0056  -0.0015   0.00   10.1
2173 203020.000  -1092365.5047  -5209399.5280   3504137.6484   1   9   0.0039   0.0082   0.0067   0.0028  -0.0056  -0.0015   0.00   10.1
2173 203021.000  -1092365.5042  -5209399.5287   3504137.6460   1   9   0.0039   0.0082   0.0067   0.0028  -0.0056  -0.0015   0.00   10.0
2173 203022.000  -1092365.5050  -5209399.5313   3504137.6485   1   9   0.0039   0.0082   0.0067   0.0028  -0.0056  -0.0015   0.00   11.9
2173 203023.000  -1092365.5042  -5209399.5254   3504137.6445   1   9   0.0039   0.0082   0.0067   0.0028  -0.0056  -0.0015   0.00   10.2
2173 203024.000  -1092365.5042  -5209399.5278   3504137.6467   1   9   0.0039   0.0082   0.0067   0.0028  -0.0056  -0.0015   0.00   10.0
2173 203025.000  -1092365.5029  -5209399.5302   3504137.6481   1   9   0.0039   0.0082   0.0067   0.0028  -0.0056  -0.0015   0.00    9.7
2173 203026.000  -1092365.5043  -5209399.5296   3504137.6509   1   9   0.0039   0.0082   0.0067   0.0028  -0.0056  -0.0015   0.00   11.7
2173 203027.000  -1092365.5032  -5209399.5299   3504137.6485   1   9   0.0039   0.0082   0.0067   0.0028  -0.0056  -0.0015   0.00   11.4
2173 203028.000  -1092365.5033  -5209399.5333   3504137.6499   1   9   0.0039   0.0082   0.0067   0.0028  -0.0056  -0.0015   0.00   12.2
2173 203029.000  -1092365.5033  -5209399.5328   3504137.6494   1   9   0.0039   0.0082   0.0067   0.0028  -0.0056  -0.0015   0.00   10.8
2173 203030.000  -1092365.5035  -5209399.5326   3504137.6484   1   9   0.0039   0.0082   0.0067   0.0028  -0.0056  -0.0015   0.00   12.6
2173 203031.000  -1092365.5037  -5209399.5286   3504137.6456   1   9   0.0039   0.0082   0.0067   0.0028  -0.0056  -0.0015   0.00   10.4
2173 203032.000  -1092365.5039  -5209399.5342   3504137.6509   1   9   0.0039   0.0082   0.0067   0.0028  -0.0056  -0.0015   0.00   12.5
2173 203033.000  -1092365.5046  -5209399.5320   3504137.6506   1   9   0.0039   0.0082   0.0067   0.0028  -0.0056  -0.0015   0.00   12.1
2173 203034.000  -1092365.5029  -5209399.5308   3504137.6514   1   9   0.0039   0.0082   0.0067   0.0028  -0.0056  -0.0015   0.00   11.2
2173 203035.000  -1092365.5031  -5209399.5311   3504137.6510   1   9   0.0039   0.0082   0.0067   0.0028  -0.0056  -0.0015   0.00   13.1
2173 203036.000  -1092365.5025  -5209399.5304   3504137.6506   1   9   0.0039   0.0082   0.0067   0.0028  -0.0056  -0.0015   0.00   10.8
2173 203037.000  -1092365.5035  -5209399.5314   3504137.6489   1   9   0.0039   0.0082   0.0067   0.0028  -0.0056  -0.0015   0.00   10.0
2173 203038.000  -1092365.5039  -5209399.5337   3504137.6495   1   9   0.0039   0.0082   0.0067   0.0028  -0.0056  -0.0015   0.00   12.1
2173 203039.000  -1092365.5031  -5209399.5349   3504137.6501   1   9   0.0039   0.0082   0.0067   0.0028  -0.0056  -0.0015   0.00   14.5
2173 203040.000  -1092365.5040  -5209399.5301   3504137.6491   1   9   0.0039   0.0082   0.0067   0.0028  -0.0056  -0.0015   0.00   11.8
2173 203041.000  -1092365.5047  -5209399.5323   3504137.6502   1   9   0.0039   0.0082   0.0068   0.0028  -0.0056  -0.0015   0.00    9.4
2173 203042.000  -1092365.5051  -5209399.5332   3504137.6490   1   9   0.0039   0.0082   0.0068   0.0028  -0.0056  -0.0015   0.00   11.7
2173 203043.000  -1092365.5033  -5209399.5320   3504137.6512   1   9   0.0039   0.0082   0.0068   0.0028  -0.0056  -0.0015   0.00    9.8
2173 203044.000  -1092365.5040  -5209399.5323   3504137.6516   1   9   0.0039   0.0082   0.0068   0.0028  -0.0056  -0.0015   0.00    9.5
2173 203045.000  -1092365.5047  -5209399.5366   3504137.6523   1   9   0.0039   0.0082   0.0068   0.0028  -0.0056  -0.0015   0.00   10.3
2173 203046.000  -1092365.5028  -5209399.5323   3504137.6493   1   9   0.0039   0.0082   0.0068   0.0028  -0.0056  -0.0015   0.00    8.3
2173 203047.000  -1092365.5038  -5209399.5336   3504137.6499   1   9   0.0039   0.0082   0.0068   0.0028  -0.0056  -0.0015   0.00    9.5
2173 203048.000  -1092365.5033  -5209399.5338   3504137.6500   1   9   0.0039   0.0082   0.0068   0.0028  -0.0056  -0.0015   0.00   12.2
2173 203049.000  -1092365.5036  -5209399.5307   3504137.6479   1   9   0.0039   0.0082   0.0068   0.0028  -0.0056  -0.0015   0.00    9.4
2173 203050.000  -1092365.5029  -5209399.5332   3504137.6497   1   9   0.0039   0.0082   0.0068   0.0028  -0.0056  -0.0015   0.00    9.2
2173 203051.000  -1092365.5038  -5209399.5328   3504137.6472   1   9   0.0039   0.0082   0.0068   0.0028  -0.0056  -0.0015   0.00    9.3
2173 203052.000  -1092365.5035  -5209399.5321   3504137.6490   1   9   0.0039   0.0082   0.0068   0.0028  -0.0056  -0.0015   0.00    8.8
2173 203053.000  -1092365.5041  -5209399.5291   3504137.6475   1   9   0.0039   0.0082   0.0068   0.0028  -0.0056  -0.0015   0.00    7.5
2173 203054.000  -1092365.5036  -5209399.5343   3504137.6499   1   9   0.0039   0.0082   0.0068   0.0028  -0.0056  -0.0015   0.00    9.7
2173 203055.000  -1092365.5034  -5209399.5336   3504137.6509   1   9   0.0039   0.0082   0.0068   0.0028  -0.0056  -0.0015   0.00    7.6
2173 203056.000  -1092365.5032  -5209399.5327   3504137.6498   1   9   0.0039   0.0082   0.0068   0.0028  -0.0056  -0.0015   0.00    8.4
2173 203057.000  -1092365.5046  -5209399.5333   3504137.6498   1   9   0.0039   0.0082   0.0068   0.0028  -0.0056  -0.0015   0.00   10.4
2173 203058.000  -1092365.5039  -5209399.5344   3504137.6486   1   9   0.0039   0.0082   0.0068   0.0028  -0.0056  -0.0015   0.00    9.2
2173 203059.000  -1092365.5039  -5209399.5353   3504137.6506   1   9   0.0039   0.0082   0.0068   0.0028  -0.0056  -0.0015   0.00   12.0
2173 203060.000  -1092365.5032  -5209399.5343   3504137.6499   1   9   0.0039   0.0082   0.0068   0.0028  -0.0056  -0.0015   0.00    8.9
2173 203061.000  -1092365.5028  -5209399.5339   3504137.6501   1   9   0.0039   0.0082   0.0068   0.0028  -0.0056  -0.0015   0.00   12.3
2173 203062.000  -1092365.5037  -5209399.5321   3504137.6486   1   9   0.0039   0.0082   0.0068   0.0028  -0.0056  -0.0015   0.00   10.0
2173 203063.000  -1092365.5035  -5209399.5334   3504137.6508   1   9   0.0039   0.0082   0.0068   0.0028  -0.0056  -0.0015   0.00    9.1
2173 203064.000  -1092365.5040  -5209399.5357   3504137.6496   1   9   0.0039   0.0082   0.0068   0.0028  -0.0056  -0.0015   0.00    8.0
2173 203065.000  -1092365.5040  -5209399.5326   3504137.6496   1   9   0.0039   0.0082   0.0068   0.0028  -0.0056  -0.0015   0.00   11.0
2173 203066.000  -1092365.5028  -5209399.5335   3504137.6510   1   9   0.0039   0.0082   0.0068   0.0028  -0.0056  -0.0015   0.00    8.9
2173 203067.000  -1092365.5032  -5209399.5342   3504137.6500   1   9   0.0039   0.0082   0.0068   0.0028  -0.0056  -0.0015   0.00   10.1
2173 203068.000  -1092365.5041  -5209399.5339   3504137.6494   1   9   0.0039   0.0082   0.0068   0.0028  -0.0056  -0.0015   0.00    9.5
2173 203069.000  -1092365.5031  -5209399.5323   3504137.6496   1   9   0.0039   0.0082   0.0068   0.0028  -0.0056  -0.0015   0.00    9.9
2173 203070.000  -1092365.5025  -5209399.5303   3504137.6460   1   9   0.0039   0.0082   0.0068   0.0028  -0.0056  -0.0015   0.00    9.9
2173 203071.000  -1092365.5014  -5209399.5313   3504137.6484   1   9   0.0039   0.0082   0.0068   0.0028  -0.0056  -0.0015   0.00   12.4
2173 203072.000  -1092365.5041  -5209399.5346   3504137.6503   1   9   0.0039   0.0082   0.0068   0.0028  -0.0056  -0.0015   0.00   11.5
2173 203073.000  -1092365.5026  -5209399.5338   3504137.6499   1   9   0.0039   0.0082   0.0068   0.0028  -0.0056  -0.0015   0.00   12.1
2173 203074.000  -1092365.5045  -5209399.5303   3504137.6510   1   9   0.0039   0.0082   0.0068   0.0028  -0.0056  -0.0015   0.00   11.4
2173 203075.000  -1092365.5034  -5209399.5332   3504137.6506   1   9   0.0039   0.0082   0.0068   0.0028  -0.0056  -0.0015   0.00   12.1
2173 203076.000  -1092365.5026  -5209399.5323   3504137.6506   1   9   0.0039   0.0082   0.0068   0.0028  -0.0056  -0.0015   0.00   11.4
2173 203077.000  -1092365.5038  -5209399.5328   3504137.6500   1   9   0.0039   0.0082   0.0068   0.0028  -0.0056  -0.0015   0.00   10.6
2173 203078.000  -1092365.5028  -5209399.5348   3504137.6516   1   9   0.0039   0.0082   0.0068   0.0028  -0.0056  -0.0015   0.00   10.4
2173 203079.000  -1092365.5045  -5209399.5331   3504137.6486   1   9   0.0039   0.0082   0.0068   0.0028  -0.0056  -0.0015   0.00   11.4
2173 203080.000  -1092365.5020  -5209399.5323   3504137.6496   1   9   0.0039   0.0082   0.0068   0.0028  -0.0056  -0.0015   0.00    9.3
2173 203081.000  -1092365.5029  -5209399.5326   3504137.6499   1   9   0.0039   0.0082   0.0068   0.0028  -0.0056  -0.0015   0.00   10.8
2173 203082.000  -1092365.5046  -5209399.5328   3504137.6502   1   9   0.0039   0.0082   0.0068   0.0028  -0.0056  -0.0015   0.00   12.2
2173 203083.000  -1092365.5035  -5209399.5313   3504137.6500   1   9   0.0039   0.0082   0.0068   0.0028  -0.0056  -0.0015   0.00   10.6
2173 203084.000  -1092365.5039  -5209399.5319   3504137.6496   1   9   0.0039   0.0082   0.0068   0.0028  -0.0056  -0.0015   0.00   11.3
2173 203085.000  -1092365.5051  -5209399.5342   3504137.6527   1   9   0.0039   0.0082   0.0068   0.0028  -0.0056  -0.0015   0.00   12.0
2173 203086.000  -1092365.5045  -5209399.5348   3504137.6501   1   9   0.0039   0.0082   0.0068   0.0028  -0.0056  -0.0015   0.00    9.8
2173 203087.000  -1092365.5049  -5209399.5331   3504137.6504   1   9   0.0039   0.0082   0.0068   0.0028  -0.0056  -0.0015   0.00   13.0
2173 203088.000  -1092365.5032  -5209399.5330   3504137.6493   1   9   0.0039   0.0082   0.0068   0.0028  -0.0056  -0.0015   0.00   12.2
2173 203089.000  -1092365.5044  -5209399.5309   3504137.6489   1   9   0.0039   0.0082   0.0068   0.0028  -0.0056  -0.0015   0.00   14.5
2173 203090.000  -1092365.5039  -5209399.5303   3504137.6502   1   9   0.0039   0.0082   0.0068   0.0028  -0.0056  -0.0015   0.00   14.4
2173 203091.000  -1092365.5033  -5209399.5322   3504137.6506   1   9   0.0039   0.0082   0.0068   0.0028  -0.0056  -0.0015   0.00   10.5
2173 203092.000  -1092365.5046  -5209399.5327   3504137.6489   1   9   0.0039   0.0082   0.0068   0.0028  -0.0056  -0.0015   0.00   13.5
2173 203093.000  -1092365.5050  -5209399.5341   3504137.6494   1   9   0.0039   0.0082   0.0068   0.0028  -0.0056  -0.0015   0.00   11.3
2173 203094.000  -1092365.5056  -5209399.5301   3504137.6476   1   9   0.0039   0.0082   0.0068   0.0028  -0.0056  -0.0015   0.00   12.2
2173 203095.000  -1092365.5052  -5209399.5356   3504137.6527   1   9   0.0039   0.0082   0.0068   0.0028  -0.0056  -0.0015   0.00   13.4
2173 203096.000  -1092365.5040  -5209399.5310   3504137.6504   1   9   0.0039   0.0082   0.0068   0.0028  -0.0056  -0.0015   0.00   11.3
2173 203097.000  -1092365.5041  -5209399.5345   3504137.6536   1   9   0.0039   0.0082   0.0068   0.0028  -0.0056  -0.0015   0.00   14.2
2173 203098.000  -1092365.5055  -5209399.5325   3504137.6512   1   9   0.0039   0.0082   0.0068   0.0028  -0.0056  -0.0015   0.00   15.8
