% program   : rnx2rtkp ver.2.4.3 b31
% inp file  : ngs/21_08_31_21_54_01_garf.obs
% inp file  : ngs/21_08_31_21_54_01_garf_SNOH.obs
% inp file  : ngs/21_08_31_21_54_01_brdc.nav
% obs start : 2021/08/31 21:00:00.0 GPST (week2173 248400.0s)
% obs end   : 2021/08/31 21:59:59.0 GPST (week2173 251999.0s)
% ref pos   :   698531.2054  -4738965.7423   4197161.5825
%
% (x/y/z-ecef=WGS84,Q=1:fix,2:float,3:sbas,4:dgps,5:single,6:ppp,ns=# of satellites)
%  GPST              x-ecef(m)      y-ecef(m)      z-ecef(m)   Q  ns   sdx(m)   sdy(m)   sdz(m)  sdxy(m)  sdyz(m)  sdzx(m) age(s)  ratio
2173 251618.000    698559.0930  -4739153.7469   4197329.3172   2   5   0.6032   1.4943   0.9357  -0.6909  -0.9290   0.4318 -30.00    1.1
2173 251619.000    698559.0477  -4739153.7802   4197329.3229   2   5   0.4286   1.0617   0.6663  -0.4909  -0.6603   0.3070 -29.00    1.0
2173 251620.000    698559.0222  -4739153.8495   4197329.3265   2   5   0.3510   0.8690   0.5457  -0.4019  -0.5405   0.2514 -28.00    1.0
2173 251621.000    698559.0100  -4739153.7897   4197329.3082   2   5   0.3046   0.7538   0.4734  -0.3487  -0.4688   0.2182 -27.00    1.0
2173 251622.000    698558.9763  -4739153.6902   4197329.3293   2   5   0.2729   0.6750   0.4240  -0.3124  -0.4198   0.1955 -26.00    1.1
2173 251623.000    698558.9750  -4739153.6715   4197329.3854   2   5   0.2494   0.6168   0.3874  -0.2855  -0.3836   0.1787 -25.00    1.0
2173 251624.000    698558.9687  -4739153.6504   4197329.4252   2   5   0.2311   0.5714   0.3589  -0.2645  -0.3554   0.1656 -24.00    1.0
2173 251625.000    698558.9726  -4739153.6218   4197329.4302   2   5   0.2164   0.5347   0.3359  -0.2476  -0.3326   0.1550 -23.00    1.1
2173 251626.000    698558.9916  -4739153.6476   4197329.4196   2   5   0.2041   0.5042   0.3168  -0.2335  -0.3136   0.1462 -22.00    1.1
2173 251627.000    698558.9855  -4739153.6283   4197329.4100   2   5   0.1937   0.4784   0.3006  -0.2216  -0.2975   0.1388 -21.00    1.0
2173 251628.000    698558.9927  -4739153.6386   4197329.4062   2   5   0.1847   0.4560   0.2866  -0.2113  -0.2837   0.1323 -20.00    1.0
2173 251629.000    698558.9914  -4739153.6375   4197329.3973   2   5   0.1769   0.4365   0.2744  -0.2023  -0.2715   0.1267 -19.00    1.0
2173 251630.000    698558.9917  -4739153.6452   4197329.3921   2   5   0.1699   0.4192   0.2637  -0.1943  -0.2608   0.1217 -18.00    1.0
2173 251631.000    698558.9894  -4739153.6515   4197329.4045   2   5   0.1637   0.4038   0.2540  -0.1871  -0.2512   0.1173 -17.00    1.1
2173 251632.000    698558.9819  -4739153.6497   4197329.4090   2   5   0.1581   0.3899   0.2454  -0.1807  -0.2425   0.1133 -16.00    1.1
2173 251633.000    698558.9829  -4739153.6476   4197329.4038   2   5   0.1530   0.3772   0.2375  -0.1748  -0.2347   0.1096 -15.00    1.1
2173 251634.000    698558.9832  -4739153.6582   4197329.3976   2   5   0.1484   0.3657   0.2304  -0.1695  -0.2275   0.1063 -14.00    1.1
2173 251635.000    698558.9778  -4739153.6305   4197329.3856   2   5   0.1441   0.3551   0.2238  -0.1646  -0.2209   0.1033 -13.00    1.1
2173 251636.000    698558.9671  -4739153.6065   4197329.3692   2   5   0.1402   0.3453   0.2177  -0.1601  -0.2149   0.1005 -12.00    1.1
2173 251637.000    698558.9646  -4739153.6229   4197329.3756   2   5   0.1365   0.3363   0.2121  -0.1559  -0.2093   0.0979 -11.00    1.1
2173 251638.000    698558.9620  -4739153.6275   4197329.3832   2   5   0.1332   0.3279   0.2070  -0.1520  -0.2041   0.0954 -10.00    1.1
2173 251639.000    698558.9622  -4739153.6424   4197329.3843   2   5   0.1300   0.3201   0.2021  -0.1484  -0.1992   0.0932  -9.00    1.2
2173 251640.000    698558.9636  -4739153.6435   4197329.3780   2   5   0.1271   0.3128   0.1976  -0.1450  -0.1947   0.0911  -8.00    1.2
2173 251641.000    698558.9690  -4739153.6627   4197329.3750   2   5   0.1243   0.3059   0.1934  -0.1418  -0.1904   0.0891  -7.00    1.2
2173 251642.000    698558.9741  -4739153.6634   4197329.3779   2   5   0.1217   0.2995   0.1894  -0.1388  -0.1864   0.0873  -6.00    1.3
2173 251643.000    698558.9741  -4739153.6683   4197329.3783   2   5   0.1193   0.2934   0.1856  -0.1360  -0.1827   0.0855  -5.00    1.3
2173 251644.000    698558.9728  -4739153.6648   4197329.3751   2   5   0.1170   0.2877   0.1821  -0.1334  -0.1791   0.0839  -4.00    1.3
2173 251645.000    698558.9740  -4739153.6647   4197329.3802   2   5   0.1149   0.2824   0.1788  -0.1309  -0.1758   0.0824  -3.00    1.4
2173 251646.000    698558.9727  -4739153.6697   4197329.3850   2   5   0.1128   0.2773   0.1756  -0.1286  -0.1727   0.0809  -2.00    1.4
2173 251647.000    698558.9733  -4739153.6724   4197329.3846   2   5   0.1109   0.2725   0.1727  -0.1264  -0.1697   0.0796  -1.00    1.5
2173 251648.000    698558.9770  -4739153.6780   4197329.3918   2   5   0.1091   0.2680   0.1698  -0.1243  -0.1669   0.0783   0.00    1.4
2173 251649.000    698558.9779  -4739153.6675   4197329.3871   2   5   0.1074   0.2637   0.1672  -0.1223  -0.1642   0.0770   0.00    1.4
2173 251650.000    698558.9781  -4739153.6679   4197329.3832   2   5   0.1058   0.2596   0.1646  -0.1204  -0.1617   0.0759   0.00    1.3
2173 251651.000    698558.9779  -4739153.6735   4197329.3809   2   5   0.1042   0.2557   0.1622  -0.1186  -0.1593   0.0748   0.00    1.3
2173 251652.000    698558.9777  -4739153.6803   4197329.3939   2   5   0.1027   0.2519   0.1598  -0.1169  -0.1569   0.0737   0.00    1.2
2173 251653.000    698558.9772  -4739153.6797   4197329.4077   2   5   0.1013   0.2483   0.1576  -0.1153  -0.1547   0.0727   0.00    1.2
2173 251654.000    698558.9802  -4739153.6884   4197329.4147   2   5   0.0999   0.2449   0.1554  -0.1137  -0.1526   0.0717   0.00    1.2
2173 251655.000    698558.9815  -4739153.6834   4197329.4134   2   5   0.0986   0.2416   0.1534  -0.1122  -0.1505   0.0707   0.00    1.2
2173 251656.000    698558.9844  -4739153.6959   4197329.4232   2   5   0.0973   0.2384   0.1514  -0.1107  -0.1485   0.0698   0.00    1.2
2173 251657.000    698558.9767  -4739153.6800   4197329.4269   2   5   0.0961   0.2353   0.1495  -0.1093  -0.1466   0.0690   0.00    1.2
2173 251658.000    698558.9743  -4739153.6807   4197329.4312   2   5   0.0949   0.2324   0.1476  -0.1079  -0.1448   0.0681   0.00    1.2
2173 251659.000    698558.9759  -4739153.6808   4197329.4377   2   5   0.0938   0.2296   0.1459  -0.1066  -0.1430   0.0673   0.00    1.2
2173 251660.000    698558.9707  -4739153.6909   4197329.4406   2   5   0.0927   0.2268   0.1442  -0.1054  -0.1413   0.0665   0.00    1.2
2173 251661.000    698558.9740  -4739153.7008   4197329.4515   2   5   0.0916   0.2242   0.1425  -0.1041  -0.1397   0.0658   0.00    1.2
2173 251662.000    698558.9762  -4739153.7060   4197329.4592   2   5   0.0906   0.2216   0.1409  -0.1030  -0.1381   0.0651   0.00    1.2
2173 251663.000    698558.9753  -4739153.7124   4197329.4634   2   5   0.0896   0.2191   0.1394  -0.1018  -0.1366   0.0644   0.00    1.2
2173 251664.000    698558.9783  -4739153.7292   4197329.4758   2   5   0.0887   0.2167   0.1379  -0.1007  -0.1351   0.0636   0.00    1.2
2173 251665.000    698558.9806  -4739153.7354   4197329.4884   2   5   0.0877   0.2144   0.1364  -0.0997  -0.1336   0.0630   0.00    1.2
2173 251666.000    698558.9858  -4739153.7414   4197329.4989   2   5   0.0869   0.2121   0.1350  -0.0986  -0.1323   0.0624   0.00    1.2
2173 251667.000    698558.9822  -4739153.7397   4197329.5015   2   5   0.0860   0.2099   0.1336  -0.0976  -0.1309   0.0618   0.00    1.2
2173 251668.000    698558.9790  -4739153.7424   4197329.5077   2   5   0.0851   0.2078   0.1323  -0.0966  -0.1296   0.0612   0.00    1.3
2173 251669.000    698558.9822  -4739153.7435   4197329.5117   2   5   0.0843   0.2057   0.1310  -0.0957  -0.1283   0.0606   0.00    1.3
2173 251670.000    698558.9790  -4739153.7481   4197329.5211   2   5   0.0835   0.2037   0.1298  -0.0948  -0.1271   0.0600   0.00    1.3
2173 251671.000    698558.9752  -4739153.7421   4197329.5249   2   5   0.0827   0.2018   0.1286  -0.0939  -0.1259   0.0595   0.00    1.3
2173 251672.000    698558.9753  -4739153.7432   4197329.5372   2   5   0.0820   0.1999   0.1274  -0.0930  -0.1247   0.0589   0.00    1.3
2173 251673.000    698558.9764  -4739153.7413   4197329.5312   2   5   0.0813   0.1980   0.1263  -0.0921  -0.1236   0.0584   0.00    1.3
2173 251674.000    698558.9743  -4739153.7382   4197329.5347   2   5   0.0806   0.1962   0.1251  -0.0913  -0.1224   0.0579   0.00    1.3
2173 251675.000    698558.9752  -4739153.7366   4197329.5384   2   5   0.0799   0.1945   0.1241  -0.0905  -0.1214   0.0574   0.00    1.3
2173 251676.000    698558.9782  -4739153.7324   4197329.5397   2   5   0.0792   0.1928   0.1230  -0.0897  -0.1203   0.0569   0.00    1.3
2173 251677.000    698558.9814  -4739153.7326   4197329.5382   2   5   0.0785   0.1911   0.1220  -0.0890  -0.1193   0.0564   0.00    1.3
2173 251678.000    698558.9825  -4739153.7293   4197329.5409   2   5   0.0779   0.1895   0.1210  -0.0882  -0.1183   0.0560   0.00    1.3
2173 251679.000    698558.9840  -4739153.7301   4197329.5416   2   5   0.0772   0.1879   0.1200  -0.0875  -0.1173   0.0556   0.00    1.4
2173 251680.000    698558.9850  -4739153.7375   4197329.5469   2   5   0.0766   0.1863   0.1190  -0.0868  -0.1164   0.0551   0.00    1.4
2173 251681.000    698558.9839  -4739153.7336   4197329.5489   2   5   0.0760   0.1848   0.1181  -0.0861  -0.1154   0.0547   0.00    1.4
2173 251682.000    698558.9836  -4739153.7265   4197329.5455   2   5   0.0754   0.1833   0.1172  -0.0854  -0.1145   0.0543   0.00    1.4
2173 251683.000    698558.9833  -4739153.7261   4197329.5462   2   5   0.0749   0.1819   0.1163  -0.0847  -0.1136   0.0539   0.00    1.4
2173 251684.000    698558.9837  -4739153.7180   4197329.5462   2   5   0.0743   0.1805   0.1154  -0.0841  -0.1128   0.0535   0.00    1.3
2173 251685.000    698558.9808  -4739153.7115   4197329.5473   2   5   0.0738   0.1791   0.1145  -0.0834  -0.1119   0.0531   0.00    1.3
2173 251686.000    698558.9809  -4739153.7007   4197329.5461   2   5   0.0732   0.1777   0.1137  -0.0828  -0.1111   0.0527   0.00    1.3
2173 251687.000    698558.9814  -4739153.6958   4197329.5399   2   5   0.0727   0.1764   0.1129  -0.0822  -0.1103   0.0524   0.00    1.3
2173 251688.000    698558.9823  -4739153.6982   4197329.5427   2   5   0.0722   0.1751   0.1121  -0.0816  -0.1095   0.0520   0.00    1.3
2173 251689.000    698558.9835  -4739153.6883   4197329.5418   2   5   0.0717   0.1738   0.1113  -0.0810  -0.1087   0.0517   0.00    1.3
2173 251690.000    698558.9835  -4739153.6846   4197329.5462   2   5   0.0712   0.1726   0.1105  -0.0804  -0.1079   0.0513   0.00    1.3
2173 251691.000    698558.9844  -4739153.6765   4197329.5443   2   5   0.0707   0.1713   0.1098  -0.0799  -0.1072   0.0510   0.00    1.3
2173 251692.000    698558.9815  -4739153.6700   4197329.5422   2   5   0.0703   0.1701   0.1090  -0.0793  -0.1065   0.0506   0.00    1.3
2173 251693.000    698558.9827  -4739153.6688   4197329.5454   2   5   0.0698   0.1690   0.1083  -0.0788  -0.1057   0.0503   0.00    1.3
2173 251694.000    698558.9857  -4739153.6679   4197329.5491   2   5   0.0694   0.1678   0.1076  -0.0782  -0.1050   0.0500   0.00    1.3
2173 251695.000    698558.9851  -4739153.6673   4197329.5521   2   5   0.0689   0.1667   0.1069  -0.0777  -0.1044   0.0497   0.00    1.3
2173 251696.000    698558.9864  -4739153.6674   4197329.5526   2   5   0.0685   0.1656   0.1062  -0.0772  -0.1037   0.0494   0.00    1.3
2173 251697.000    698558.9841  -4739153.6610   4197329.5487   2   5   0.0680   0.1645   0.1056  -0.0767  -0.1030   0.0491   0.00    1.3
2173 251698.000    698558.9830  -4739153.6661   4197329.5602   2   5   0.0676   0.1634   0.1049  -0.0762  -0.1024   0.0488   0.00    1.3
2173 251699.000    698558.9831  -4739153.6658   4197329.5627   2   5   0.0672   0.1624   0.1043  -0.0757  -0.1017   0.0485   0.00    1.3
2173 251700.000    698558.9845  -4739153.6707   4197329.5679   2   5   0.0668   0.1613   0.1036  -0.0753  -0.1011   0.0482   0.00    1.3
2173 251701.000    698558.9865  -4739153.6712   4197329.5681   2   5   0.0664   0.1603   0.1030  -0.0748  -0.1005   0.0480   0.00    1.3
2173 251702.000    698558.9837  -4739153.6699   4197329.5727   2   5   0.0660   0.1593   0.1024  -0.0743  -0.0999   0.0477   0.00    1.3
2173 251703.000    698558.9802  -4739153.6630   4197329.5720   2   5   0.0656   0.1583   0.1018  -0.0739  -0.0993   0.0474   0.00    1.3
2173 251704.000    698558.9789  -4739153.6682   4197329.5770   2   5   0.0653   0.1574   0.1012  -0.0734  -0.0987   0.0472   0.00    1.3
2173 251705.000    698558.9805  -4739153.6778   4197329.5792   2   5   0.0649   0.1564   0.1006  -0.0730  -0.0981   0.0469   0.00    1.3
2173 251706.000    698558.9780  -4739153.6730   4197329.5821   2   5   0.0645   0.1555   0.1000  -0.0726  -0.0976   0.0467   0.00    1.3
2173 251707.000    698558.9793  -4739153.6813   4197329.5934   2   5   0.0642   0.1546   0.0995  -0.0722  -0.0970   0.0464   0.00    1.3
2173 251708.000    698558.9784  -4739153.6758   4197329.5901   2   5   0.0638   0.1537   0.0989  -0.0717  -0.0965   0.0461   0.00    1.3
2173 251709.000    698558.9795  -4739153.6711   4197329.5915   2   5   0.0635   0.1528   0.0984  -0.0713  -0.0959   0.0459   0.00    1.3
2173 251710.000    698558.9840  -4739153.6794   4197329.5993   2   5   0.0631   0.1519   0.0978  -0.0709  -0.0954   0.0457   0.00    1.3
2173 251711.000    698558.9829  -4739153.6726   4197329.5974   2   5   0.0628   0.1510   0.0973  -0.0705  -0.0949   0.0454   0.00    1.3
2173 251712.000    698558.9853  -4739153.6764   4197329.6014   2   5   0.0625   0.1502   0.0968  -0.0702  -0.0944   0.0452   0.00    1.4
2173 251713.000    698558.9835  -4739153.6720   4197329.6016   2   5   0.0621   0.1493   0.0963  -0.0698  -0.0939   0.0449   0.00    1.4
2173 251714.000    698558.9849  -4739153.6884   4197329.6071   2   5   0.0618   0.1485   0.0958  -0.0694  -0.0934   0.0448   0.00    1.4
2173 251715.000    698558.9863  -4739153.6877   4197329.6058   2   5   0.0615   0.1477   0.0953  -0.0690  -0.0929   0.0446   0.00    1.4
2173 251716.000    698558.9877  -4739153.6913   4197329.6094   2   5   0.0612   0.1469   0.0948  -0.0686  -0.0924   0.0444   0.00    1.4
2173 251717.000    698558.9904  -4739153.6987   4197329.6136   2   5   0.0609   0.1461   0.0943  -0.0683  -0.0920   0.0441   0.00    1.4
2173 251718.000    698558.9933  -4739153.7079   4197329.6158   2   5   0.0606   0.1453   0.0938  -0.0679  -0.0915   0.0439   0.00    1.4
2173 251719.000    698558.9912  -4739153.6997   4197329.6159   2   5   0.0603   0.1446   0.0934  -0.0676  -0.0910   0.0437   0.00    1.4
2173 251720.000    698558.9936  -4739153.7059   4197329.6218   2   5   0.0600   0.1438   0.0929  -0.0672  -0.0906   0.0435   0.00    1.4
2173 251721.000    698558.9934  -4739153.7070   4197329.6223   2   5   0.0597   0.1431   0.0925  -0.0669  -0.0902   0.0433   0.00    1.4
2173 251722.000    698558.9923  -4739153.7108   4197329.6273   2   5   0.0594   0.1423   0.0920  -0.0665  -0.0897   0.0431   0.00    1.4
2173 251723.000    698558.9956  -4739153.7216   4197329.6308   2   5   0.0591   0.1416   0.0916  -0.0662  -0.0893   0.0429   0.00    1.4
2173 251724.000    698558.9942  -4739153.7134   4197329.6295   2   5   0.0589   0.1409   0.0911  -0.0659  -0.0889   0.0427   0.00    1.4
2173 251725.000    698558.9976  -4739153.7291   4197329.6425   2   5   0.0586   0.1402   0.0907  -0.0655  -0.0884   0.0426   0.00    1.4
2173 251726.000    698558.9966  -4739153.7209   4197329.6370   2   5   0.0583   0.1395   0.0903  -0.0652  -0.0880   0.0424   0.00    1.4
2173 251727.000    698558.9983  -4739153.7236   4197329.6388   2   5   0.0581   0.1388   0.0899  -0.0649  -0.0876   0.0422   0.00    1.5
2173 251728.000    698558.9993  -4739153.7333   4197329.6454   2   5   0.0578   0.1381   0.0895  -0.0646  -0.0872   0.0420   0.00    1.4
2173 251729.000    698558.9990  -4739153.7330   4197329.6490   2   5   0.0575   0.1375   0.0891  -0.0643  -0.0868   0.0418   0.00    1.5
2173 251730.000    698558.9999  -4739153.7278   4197329.6427   2   5   0.0573   0.1368   0.0887  -0.0640  -0.0864   0.0417   0.00    1.5
2173 251731.000    698559.0019  -4739153.7370   4197329.6491   2   5   0.0570   0.1362   0.0883  -0.0637  -0.0861   0.0415   0.00    1.5
2173 251732.000    698559.0015  -4739153.7334   4197329.6521   2   5   0.0568   0.1355   0.0879  -0.0634  -0.0857   0.0414   0.00    1.5
2173 251733.000    698559.0027  -4739153.7486   4197329.6609   2   5   0.0565   0.1349   0.0875  -0.0631  -0.0853   0.0412   0.00    1.5
2173 251734.000    698559.0055  -4739153.7474   4197329.6650   2   5   0.0563   0.1343   0.0871  -0.0628  -0.0849   0.0410   0.00    1.5
2173 251735.000    698559.0065  -4739153.7523   4197329.6703   2   5   0.0560   0.1336   0.0867  -0.0625  -0.0846   0.0408   0.00    1.5
2173 251736.000    698559.0072  -4739153.7564   4197329.6750   2   5   0.0558   0.1330   0.0864  -0.0622  -0.0842   0.0407   0.00    1.5
2173 251737.000    698559.0063  -4739153.7536   4197329.6759   2   5   0.0556   0.1324   0.0860  -0.0620  -0.0839   0.0405   0.00    1.5
2173 251738.000    698559.0058  -4739153.7574   4197329.6818   2   5   0.0553   0.1318   0.0857  -0.0617  -0.0835   0.0404   0.00    1.4
2173 251739.000    698559.0069  -4739153.7557   4197329.6839   2   5   0.0551   0.1312   0.0853  -0.0614  -0.0832   0.0402   0.00    1.5
2173 251740.000    698559.0081  -4739153.7580   4197329.6872   2   5   0.0549   0.1306   0.0849  -0.0611  -0.0828   0.0401   0.00    1.4
2173 251741.000    698559.0086  -4739153.7554   4197329.6914   2   5   0.0547   0.1301   0.0846  -0.0609  -0.0825   0.0399   0.00    1.4
2173 251742.000    698559.0070  -4739153.7500   4197329.6923   2   5   0.0544   0.1295   0.0842  -0.0606  -0.0821   0.0397   0.00    1.4
2173 251743.000    698559.0065  -4739153.7514   4197329.6979   2   5   0.0542   0.1289   0.0839  -0.0604  -0.0818   0.0396   0.00    1.4
2173 251744.000    698559.0098  -4739153.7555   4197329.7021   2   5   0.0540   0.1284   0.0836  -0.0601  -0.0815   0.0395   0.00    1.4
2173 251745.000    698559.0082  -4739153.7537   4197329.7053   2   5   0.0538   0.1278   0.0832  -0.0598  -0.0812   0.0393   0.00    1.4
2173 251746.000    698559.0097  -4739153.7533   4197329.7107   2   5   0.0536   0.1273   0.0829  -0.0596  -0.0809   0.0392   0.00    1.4
2173 251747.000    698559.0052  -4739153.7467   4197329.7098   2   5   0.0534   0.1267   0.0826  -0.0593  -0.0805   0.0391   0.00    1.4
2173 251748.000    698559.0068  -4739153.7450   4197329.7090   2   5   0.0532   0.1262   0.0822  -0.0591  -0.0802   0.0389   0.00    1.4
2173 251749.000    698559.0039  -4739153.7362   4197329.7100   2   5   0.0530   0.1257   0.0819  -0.0588  -0.0799   0.0388   0.00    1.4
2173 251750.000    698559.0045  -4739153.7405   4197329.7159   2   5   0.0528   0.1251   0.0816  -0.0586  -0.0796   0.0387   0.00    1.4
2173 251751.000    698559.0057  -4739153.7430   4197329.7183   2   5   0.0526   0.1246   0.0813  -0.0584  -0.0793   0.0385   0.00    1.4
2173 251752.000    698559.0047  -4739153.7344   4197329.7201   2   5   0.0524   0.1241   0.0810  -0.0581  -0.0790   0.0383   0.00    1.4
2173 251753.000    698559.0051  -4739153.7286   4197329.7247   2   5   0.0522   0.1236   0.0807  -0.0579  -0.0787   0.0382   0.00    1.4
2173 251754.000    698559.0035  -4739153.7309   4197329.7246   2   5   0.0520   0.1231   0.0804  -0.0577  -0.0784   0.0381   0.00    1.4
2173 251755.000    698559.0003  -4739153.7266   4197329.7210   2   5   0.0518   0.1226   0.0801  -0.0574  -0.0782   0.0381   0.00    1.4
2173 251756.000    698558.9970  -4739153.7253   4197329.7239   2   5   0.0516   0.1221   0.0798  -0.0572  -0.0779   0.0379   0.00    1.4
2173 251757.000    698558.9993  -4739153.7269   4197329.7285   2   5   0.0515   0.1216   0.0795  -0.0570  -0.0776   0.0377   0.00    1.4
2173 251758.000    698559.0005  -4739153.7309   4197329.7306   2   5   0.0513   0.1212   0.0792  -0.0568  -0.0773   0.0377   0.00    1.4
2173 251759.000    698558.9965  -4739153.7285   4197329.7293   2   5   0.0511   0.1207   0.0789  -0.0566  -0.0770   0.0375   0.00    1.4
2173 251760.000    698558.9962  -4739153.7300   4197329.7333   2   5   0.0509   0.1202   0.0786  -0.0563  -0.0768   0.0374   0.00    1.4
2173 251761.000    698558.9959  -4739153.7324   4197329.7362   2   5   0.0507   0.1197   0.0784  -0.0561  -0.0765   0.0373   0.00    1.4
2173 251762.000    698558.9968  -4739153.7353   4197329.7398   2   5   0.0506   0.1193   0.0781  -0.0559  -0.0762   0.0372   0.00    1.4
2173 251763.000    698558.9987  -4739153.7362   4197329.7415   2   5   0.0504   0.1188   0.0778  -0.0557  -0.0760   0.0370   0.00    1.4
2173 251764.000    698559.0002  -4739153.7421   4197329.7484   2   5   0.0502   0.1184   0.0776  -0.0555  -0.0757   0.0370   0.00    1.4
2173 251765.000    698559.0007  -4739153.7428   4197329.7493   2   5   0.0500   0.1179   0.0773  -0.0553  -0.0755   0.0369   0.00    1.4
2173 251766.000    698558.9997  -4739153.7411   4197329.7500   2   5   0.0499   0.1175   0.0770  -0.0551  -0.0752   0.0367   0.00    1.4
2173 251767.000    698559.0000  -4739153.7544   4197329.7567   2   5   0.0497   0.1170   0.0768  -0.0549  -0.0750   0.0366   0.00    1.4
2173 251768.000    698559.0005  -4739153.7572   4197329.7578   2   5   0.0495   0.1166   0.0765  -0.0547  -0.0747   0.0365   0.00    1.4
2173 251769.000    698559.0028  -4739153.7703   4197329.7614   2   5   0.0494   0.1162   0.0763  -0.0545  -0.0745   0.0364   0.00    1.4
2173 251770.000    698559.0051  -4739153.7744   4197329.7664   2   5   0.0492   0.1157   0.0760  -0.0543  -0.0742   0.0363   0.00    1.4
2173 251771.000    698559.0051  -4739153.7758   4197329.7698   2   5   0.0490   0.1153   0.0757  -0.0541  -0.0740   0.0362   0.00    1.4
2173 251772.000    698559.0038  -4739153.7774   4197329.7719   2   5   0.0489   0.1149   0.0755  -0.0539  -0.0737   0.0361   0.00    1.4
2173 251773.000    698559.0044  -4739153.7860   4197329.7772   2   5   0.0487   0.1145   0.0753  -0.0537  -0.0735   0.0360   0.00    1.4
2173 251774.000    698559.0095  -4739153.7959   4197329.7794   2   5   0.0486   0.1141   0.0750  -0.0535  -0.0733   0.0359   0.00    1.4
2173 251775.000    698559.0097  -4739153.7979   4197329.7838   2   5   0.0484   0.1137   0.0748  -0.0533  -0.0730   0.0358   0.00    1.4
2173 251776.000    698559.0106  -4739153.8042   4197329.7868   2   5   0.0483   0.1133   0.0745  -0.0531  -0.0728   0.0357   0.00    1.4
2173 251777.000    698559.0131  -4739153.8108   4197329.7891   2   5   0.0481   0.1129   0.0743  -0.0529  -0.0726   0.0356   0.00    1.4
2173 251778.000    698559.0138  -4739153.8181   4197329.7914   2   5   0.0480   0.1125   0.0741  -0.0527  -0.0724   0.0355   0.00    1.4
2173 251779.000    698559.0134  -4739153.8169   4197329.7915   2   5   0.0478   0.1121   0.0738  -0.0526  -0.0721   0.0354   0.00    1.4
2173 251780.000    698559.0150  -4739153.8242   4197329.7923   2   5   0.0476   0.1117   0.0736  -0.0524  -0.0719   0.0353   0.00    1.4
2173 251781.000    698559.0147  -4739153.8247   4197329.7970   2   5   0.0475   0.1113   0.0733  -0.0522  -0.0717   0.0352   0.00    1.5
2173 251782.000    698559.0184  -4739153.8365   4197329.7998   2   5   0.0474   0.1109   0.0731  -0.0520  -0.0715   0.0352   0.00    1.5
2173 251783.000    698559.0208  -4739153.8452   4197329.8037   2   5   0.0472   0.1105   0.0728  -0.0518  -0.0713   0.0350   0.00    1.5
2173 251784.000    698559.0218  -4739153.8462   4197329.8017   2   5   0.0471   0.1101   0.0727  -0.0517  -0.0711   0.0349   0.00    1.5
2173 251785.000    698559.0257  -4739153.8556   4197329.8037   2   5   0.0469   0.1098   0.0724  -0.0515  -0.0708   0.0349   0.00    1.5
2173 251786.000    698559.0269  -4739153.8650   4197329.8065   2   5   0.0468   0.1094   0.0722  -0.0513  -0.0706   0.0347   0.00    1.5
2173 251787.000    698559.0274  -4739153.8666   4197329.8045   2   5   0.0466   0.1090   0.0720  -0.0512  -0.0704   0.0346   0.00    1.5
2173 251788.000    698559.0282  -4739153.8719   4197329.8032   2   5   0.0465   0.1087   0.0718  -0.0510  -0.0702   0.0346   0.00    1.5
2173 251789.000    698559.0273  -4739153.8785   4197329.8079   2   5   0.0464   0.1083   0.0716  -0.0508  -0.0700   0.0345   0.00    1.5
2173 251790.000    698559.0303  -4739153.8831   4197329.8086   2   5   0.0463   0.1079   0.0713  -0.0507  -0.0698   0.0344   0.00    1.5
2173 251791.000    698559.0324  -4739153.8895   4197329.8084   2   5   0.0461   0.1076   0.0711  -0.0505  -0.0696   0.0343   0.00    1.6
2173 251792.000    698559.0340  -4739153.8983   4197329.8115   2   5   0.0460   0.1072   0.0709  -0.0503  -0.0694   0.0342   0.00    1.6
2173 251793.000    698559.0354  -4739153.9012   4197329.8092   2   5   0.0458   0.1069   0.0707  -0.0502  -0.0692   0.0341   0.00    1.6
2173 251794.000    698559.0401  -4739153.9154   4197329.8095   2   5   0.0457   0.1065   0.0705  -0.0500  -0.0690   0.0341   0.00    1.6
2173 251795.000    698559.0428  -4739153.9234   4197329.8160   2   5   0.0456   0.1062   0.0703  -0.0498  -0.0688   0.0340   0.00    1.6
2173 251796.000    698559.0424  -4739153.9326   4197329.8139   2   5   0.0455   0.1058   0.0701  -0.0497  -0.0687   0.0339   0.00    1.6
2173 251797.000    698559.0437  -4739153.9272   4197329.8109   2   5   0.0454   0.1055   0.0699  -0.0495  -0.0685   0.0339   0.00    1.6
2173 251798.000    698559.0422  -4739153.9297   4197329.8097   2   5   0.0452   0.1052   0.0697  -0.0494  -0.0683   0.0338   0.00    1.6
2173 251799.000    698559.0456  -4739153.9418   4197329.8110   2   5   0.0451   0.1048   0.0695  -0.0492  -0.0681   0.0337   0.00    1.6
2173 251800.000    698559.0489  -4739153.9464   4197329.8106   2   5   0.0450   0.1045   0.0693  -0.0491  -0.0679   0.0336   0.00    1.7
2173 251801.000    698559.0483  -4739153.9488   4197329.8105   2   5   0.0448   0.1042   0.0691  -0.0489  -0.0677   0.0335   0.00    1.7
2173 251802.000    698559.0486  -4739153.9497   4197329.8086   2   5   0.0447   0.1038   0.0689  -0.0488  -0.0675   0.0334   0.00    1.7
2173 251803.000    698559.0526  -4739153.9569   4197329.8106   2   5   0.0446   0.1035   0.0687  -0.0486  -0.0674   0.0334   0.00    1.7
2173 251804.000    698559.0510  -4739153.9547   4197329.8060   2   5   0.0445   0.1032   0.0685  -0.0485  -0.0672   0.0333   0.00    1.7
2173 251805.000    698559.0507  -4739153.9612   4197329.8065   2   5   0.0443   0.1029   0.0683  -0.0483  -0.0670   0.0332   0.00    1.7
2173 251806.000    698559.0526  -4739153.9672   4197329.8072   2   5   0.0442   0.1026   0.0682  -0.0482  -0.0668   0.0331   0.00    1.7
2173 251807.000    698559.0529  -4739153.9711   4197329.8101   2   5   0.0441   0.1022   0.0680  -0.0480  -0.0667   0.0331   0.00    1.7
2173 251808.000    698559.0519  -4739153.9655   4197329.8048   2   5   0.0440   0.1019   0.0678  -0.0479  -0.0665   0.0330   0.00    1.7
2173 251809.000    698559.0540  -4739153.9759   4197329.8117   2   5   0.0439   0.1016   0.0676  -0.0477  -0.0663   0.0329   0.00    1.7
2173 251810.000    698559.0571  -4739153.9819   4197329.8086   2   5   0.0437   0.1013   0.0674  -0.0476  -0.0662   0.0329   0.00    1.7
2173 251811.000    698559.0589  -4739153.9881   4197329.8131   2   5   0.0437   0.1010   0.0673  -0.0475  -0.0660   0.0327   0.00    1.8
2173 251812.000    698559.0562  -4739153.9850   4197329.8099   2   5   0.0435   0.1007   0.0671  -0.0473  -0.0658   0.0327   0.00    1.8
2173 251813.000    698559.0612  -4739153.9986   4197329.8108   2   5   0.0434   0.1004   0.0669  -0.0472  -0.0657   0.0326   0.00    1.8
2173 251814.000    698559.0616  -4739154.0011   4197329.8109   2   5   0.0433   0.1001   0.0667  -0.0470  -0.0655   0.0326   0.00    1.8
2173 251815.000    698559.0644  -4739154.0079   4197329.8113   2   5   0.0432   0.0998   0.0665  -0.0469  -0.0653   0.0325   0.00    1.8
2173 251816.000    698559.0657  -4739154.0079   4197329.8109   2   5   0.0431   0.0995   0.0664  -0.0468  -0.0652   0.0324   0.00    1.8
2173 251817.000    698559.0632  -4739154.0142   4197329.8098   2   5   0.0430   0.0992   0.0662  -0.0466  -0.0650   0.0324   0.00    1.8
2173 251818.000    698559.0675  -4739154.0175   4197329.8073   2   5   0.0429   0.0989   0.0660  -0.0465  -0.0648   0.0323   0.00    1.8
2173 251819.000    698559.0692  -4739154.0163   4197329.8005   2   5   0.0428   0.0987   0.0659  -0.0464  -0.0647   0.0322   0.00    1.9
2173 251820.000    698559.0720  -4739154.0259   4197329.8043   2   5   0.0426   0.0984   0.0657  -0.0462  -0.0645   0.0321   0.00    1.9
2173 251821.000    698559.0738  -4739154.0316   4197329.8009   2   5   0.0426   0.0981   0.0655  -0.0461  -0.0644   0.0321   0.00    1.9
2173 251822.000    698559.0735  -4739154.0360   4197329.8025   2   5   0.0425   0.0978   0.0654  -0.0460  -0.0642   0.0320   0.00    1.9
2173 251823.000    698559.0790  -4739154.0442   4197329.8006   2   5   0.0424   0.0975   0.0652  -0.0458  -0.0641   0.0320   0.00    1.9
2173 251824.000    698559.0762  -4739154.0388   4197329.8005   2   5   0.0423   0.0972   0.0650  -0.0457  -0.0639   0.0319   0.00    1.9
2173 251825.000    698559.0791  -4739154.0479   4197329.7996   2   5   0.0421   0.0970   0.0649  -0.0456  -0.0638   0.0318   0.00    1.9
2173 251826.000    698559.0833  -4739154.0585   4197329.8025   2   5   0.0420   0.0967   0.0647  -0.0455  -0.0636   0.0318   0.00    1.9
2173 251827.000    698559.0797  -4739154.0540   4197329.7950   2   5   0.0420   0.0964   0.0646  -0.0453  -0.0635   0.0317   0.00    1.9
2173 251828.000    698559.0829  -4739154.0601   4197329.7949   2   5   0.0418   0.0961   0.0644  -0.0452  -0.0633   0.0317   0.00    1.9
2173 251829.000    698559.0851  -4739154.0649   4197329.7933   2   5   0.0418   0.0959   0.0642  -0.0451  -0.0632   0.0316   0.00    2.0
2173 251830.000    698559.0869  -4739154.0676   4197329.7967   2   5   0.0417   0.0956   0.0641  -0.0449  -0.0630   0.0315   0.00    2.0
2173 251831.000    698559.0846  -4739154.0688   4197329.7936   2   5   0.0415   0.0954   0.0639  -0.0448  -0.0629   0.0315   0.00    2.0
2173 251832.000    698559.0855  -4739154.0688   4197329.7922   2   5   0.0414   0.0951   0.0638  -0.0447  -0.0627   0.0314   0.00    2.0
2173 251833.000    698559.0898  -4739154.0741   4197329.7934   2   5   0.0413   0.0948   0.0636  -0.0446  -0.0626   0.0313   0.00    2.0
2173 251834.000    698559.0869  -4739154.0730   4197329.7880   2   5   0.0413   0.0946   0.0635  -0.0445  -0.0625   0.0313   0.00    2.0
2173 251835.000    698559.0880  -4739154.0776   4197329.7853   2   5   0.0412   0.0943   0.0633  -0.0443  -0.0623   0.0312   0.00    2.0
2173 251836.000    698559.0889  -4739154.0718   4197329.7824   2   5   0.0411   0.0941   0.0632  -0.0442  -0.0622   0.0312   0.00    2.0
2173 251837.000    698559.0909  -4739154.0793   4197329.7830   2   5   0.0409   0.0938   0.0630  -0.0441  -0.0620   0.0311   0.00    2.0
2173 251838.000    698559.0919  -4739154.0816   4197329.7826   2   5   0.0409   0.0935   0.0628  -0.0440  -0.0619   0.0310   0.00    2.0
2173 251839.000    698559.0913  -4739154.0775   4197329.7790   2   5   0.0408   0.0933   0.0627  -0.0439  -0.0618   0.0310   0.00    2.0
2173 251840.000    698559.0928  -4739154.0827   4197329.7779   2   5   0.0407   0.0930   0.0626  -0.0438  -0.0616   0.0310   0.00    2.0
2173 251841.000    698559.0904  -4739154.0751   4197329.7754   2   5   0.0406   0.0928   0.0624  -0.0437  -0.0615   0.0308   0.00    2.0
2173 251842.000    698559.0918  -4739154.0842   4197329.7761   2   5   0.0405   0.0925   0.0623  -0.0435  -0.0614   0.0308   0.00    2.0
2173 251843.000    698559.0937  -4739154.0869   4197329.7719   2   5   0.0404   0.0923   0.0621  -0.0434  -0.0612   0.0307   0.00    2.0
2173 251844.000    698559.0945  -4739154.0826   4197329.7735   2   5   0.0403   0.0921   0.0620  -0.0433  -0.0611   0.0307   0.00    2.0
2173 251845.000    698559.0921  -4739154.0745   4197329.7640   2   5   0.0402   0.0918   0.0619  -0.0432  -0.0610   0.0306   0.00    2.0
2173 251846.000    698559.0942  -4739154.0820   4197329.7662   2   5   0.0401   0.0916   0.0617  -0.0431  -0.0609   0.0306   0.00    2.1
2173 251847.000    698559.0926  -4739154.0786   4197329.7642   2   5   0.0401   0.0913   0.0616  -0.0430  -0.0607   0.0306   0.00    2.0
2173 251848.000    698559.0942  -4739154.0754   4197329.7602   2   5   0.0400   0.0911   0.0614  -0.0429  -0.0606   0.0305   0.00    2.1
2173 251849.000    698559.0927  -4739154.0800   4197329.7678   2   5   0.0399   0.0909   0.0613  -0.0428  -0.0605   0.0304   0.00    2.0
2173 251850.000    698559.0904  -4739154.0751   4197329.7624   2   5   0.0398   0.0906   0.0611  -0.0426  -0.0603   0.0304   0.00    2.1
2173 251851.000    698559.0921  -4739154.0815   4197329.7637   2   5   0.0397   0.0904   0.0610  -0.0425  -0.0602   0.0303   0.00    2.1
2173 251852.000    698559.0903  -4739154.0740   4197329.7629   2   5   0.0396   0.0902   0.0609  -0.0424  -0.0601   0.0303   0.00    2.1
2173 251853.000    698559.0911  -4739154.0739   4197329.7605   2   5   0.0395   0.0899   0.0608  -0.0423  -0.0600   0.0303   0.00    2.1
2173 251854.000    698559.0893  -4739154.0705   4197329.7540   2   5   0.0395   0.0897   0.0606  -0.0422  -0.0598   0.0302   0.00    2.1
2173 251855.000    698559.0927  -4739154.0716   4197329.7567   2   5   0.0394   0.0895   0.0605  -0.0421  -0.0597   0.0301   0.00    2.1
2173 251856.000    698559.0896  -4739154.0653   4197329.7545   2   5   0.0393   0.0893   0.0603  -0.0420  -0.0596   0.0301   0.00    2.1
2173 251857.000    698559.0922  -4739154.0666   4197329.7518   2   5   0.0392   0.0890   0.0602  -0.0419  -0.0595   0.0300   0.00    2.1
2173 251858.000    698559.0896  -4739154.0640   4197329.7543   2   5   0.0391   0.0888   0.0600  -0.0418  -0.0594   0.0300   0.00    2.1
2173 251859.000    698559.0907  -4739154.0689   4197329.7535   2   5   0.0391   0.0886   0.0599  -0.0417  -0.0592   0.0300   0.00    2.1
2173 251860.000    698559.0923  -4739154.0636   4197329.7523   2   5   0.0390   0.0884   0.0598  -0.0416  -0.0591   0.0299   0.00    2.1
2173 251861.000    698559.0909  -4739154.0687   4197329.7572   2   5   0.0389   0.0881   0.0597  -0.0415  -0.0590   0.0298   0.00    2.1
2173 251862.000    698559.0888  -4739154.0642   4197329.7528   2   5   0.0388   0.0879   0.0596  -0.0414  -0.0589   0.0299   0.00    2.1
2173 251863.000    698559.0919  -4739154.0711   4197329.7539   2   5   0.0387   0.0877   0.0594  -0.0413  -0.0588   0.0297   0.00    2.1
2173 251864.000    698559.0903  -4739154.0648   4197329.7532   2   5   0.0386   0.0875   0.0593  -0.0412  -0.0587   0.0297   0.00    2.0
2173 251865.000    698559.0923  -4739154.0681   4197329.7560   2   5   0.0386   0.0873   0.0592  -0.0411  -0.0585   0.0297   0.00    2.0
2173 251866.000    698559.0944  -4739154.0674   4197329.7535   2   5   0.0385   0.0871   0.0591  -0.0410  -0.0584   0.0296   0.00    2.0
2173 251867.000    698559.0942  -4739154.0640   4197329.7520   2   5   0.0384   0.0869   0.0589  -0.0409  -0.0583   0.0296   0.00    2.0
2173 251868.000    698559.0919  -4739154.0641   4197329.7554   2   5   0.0384   0.0866   0.0588  -0.0408  -0.0582   0.0295   0.00    2.0
2173 251869.000    698559.0911  -4739154.0613   4197329.7500   2   5   0.0383   0.0864   0.0587  -0.0407  -0.0581   0.0295   0.00    2.0
2173 251870.000    698559.0886  -4739154.0564   4197329.7497   2   5   0.0382   0.0862   0.0585  -0.0406  -0.0580   0.0294   0.00    2.0
2173 251871.000    698559.0900  -4739154.0535   4197329.7521   2   5   0.0381   0.0860   0.0584  -0.0405  -0.0579   0.0294   0.00    2.0
2173 251872.000    698559.0892  -4739154.0506   4197329.7485   2   5   0.0381   0.0858   0.0583  -0.0404  -0.0578   0.0294   0.00    2.0
2173 251873.000    698559.0884  -4739154.0464   4197329.7447   2   5   0.0380   0.0856   0.0582  -0.0403  -0.0577   0.0293   0.00    2.0
2173 251874.000    698559.0886  -4739154.0477   4197329.7471   2   5   0.0379   0.0854   0.0581  -0.0402  -0.0575   0.0292   0.00    2.0
2173 251875.000    698559.0884  -4739154.0452   4197329.7479   2   5   0.0378   0.0852   0.0580  -0.0401  -0.0574   0.0292   0.00    2.0
2173 251876.000    698559.0865  -4739154.0391   4197329.7451   2   5   0.0377   0.0850   0.0578  -0.0401  -0.0573   0.0291   0.00    2.0
2173 251877.000    698559.0861  -4739154.0423   4197329.7457   2   5   0.0377   0.0848   0.0577  -0.0400  -0.0572   0.0291   0.00    2.0
2173 251878.000    698559.0888  -4739154.0445   4197329.7502   2   5   0.0376   0.0846   0.0576  -0.0399  -0.0571   0.0291   0.00    2.0
2173 251879.000    698559.0861  -4739154.0364   4197329.7470   2   5   0.0375   0.0844   0.0575  -0.0398  -0.0570   0.0290   0.00    2.0
2173 251880.000    698559.0867  -4739154.0440   4197329.7474   2   5   0.0374   0.0842   0.0574  -0.0397  -0.0569   0.0290   0.00    2.0
2173 251881.000    698559.0868  -4739154.0405   4197329.7499   2   5   0.0374   0.0840   0.0573  -0.0396  -0.0568   0.0289   0.00    2.0
2173 251882.000    698559.0840  -4739154.0293   4197329.7426   2   5   0.0373   0.0838   0.0571  -0.0395  -0.0567   0.0289   0.00    2.0
2173 251883.000    698559.0857  -4739154.0390   4197329.7505   2   5   0.0373   0.0836   0.0570  -0.0394  -0.0566   0.0289   0.00    2.0
2173 251884.000    698559.0826  -4739154.0317   4197329.7448   2   5   0.0372   0.0834   0.0569  -0.0393  -0.0565   0.0288   0.00    2.0
2173 251885.000    698559.0842  -4739154.0295   4197329.7476   2   5   0.0371   0.0833   0.0568  -0.0392  -0.0564   0.0287   0.00    2.0
2173 251886.000    698559.0802  -4739154.0243   4197329.7413   2   5   0.0370   0.0831   0.0567  -0.0392  -0.0563   0.0287   0.00    2.0
2173 251887.000    698559.0802  -4739154.0227   4197329.7438   2   5   0.0369   0.0829   0.0566  -0.0391  -0.0562   0.0286   0.00    2.0
2173 251888.000    698559.0817  -4739154.0246   4197329.7388   2   5   0.0369   0.0827   0.0565  -0.0390  -0.0561   0.0286   0.00    2.0
2173 251889.000    698559.0818  -4739154.0239   4197329.7462   2   5   0.0368   0.0825   0.0564  -0.0389  -0.0560   0.0286   0.00    1.9
2173 251890.000    698559.0781  -4739154.0132   4197329.7377   2   5   0.0368   0.0823   0.0563  -0.0388  -0.0559   0.0286   0.00    1.9
2173 251891.000    698559.0786  -4739154.0130   4197329.7379   2   5   0.0367   0.0821   0.0562  -0.0387  -0.0558   0.0285   0.00    1.9
2173 251892.000    698559.0787  -4739154.0089   4197329.7399   2   5   0.0366   0.0820   0.0561  -0.0386  -0.0557   0.0285   0.00    1.9
2173 251893.000    698559.0774  -4739154.0108   4197329.7361   2   5   0.0366   0.0818   0.0559  -0.0386  -0.0556   0.0285   0.00    1.9
2173 251894.000    698559.0745  -4739154.0022   4197329.7383   2   5   0.0365   0.0816   0.0558  -0.0385  -0.0555   0.0284   0.00    1.9
2173 251895.000    698559.0744  -4739154.0075   4197329.7394   2   5   0.0364   0.0814   0.0557  -0.0384  -0.0554   0.0283   0.00    1.9
2173 251896.000    698559.0724  -4739154.0014   4197329.7392   2   5   0.0364   0.0812   0.0556  -0.0383  -0.0553   0.0283   0.00    1.9
2173 251897.000    698559.0737  -4739154.0031   4197329.7406   2   5   0.0363   0.0810   0.0555  -0.0382  -0.0552   0.0283   0.00    1.9
2173 251898.000    698559.0726  -4739154.0025   4197329.7414   2   5   0.0362   0.0809   0.0554  -0.0381  -0.0551   0.0282   0.00    1.9
2173 251899.000    698559.0704  -4739153.9971   4197329.7400   2   5   0.0362   0.0807   0.0553  -0.0381  -0.0550   0.0282   0.00    1.9
2173 251900.000    698559.0715  -4739153.9981   4197329.7386   2   5   0.0361   0.0805   0.0552  -0.0380  -0.0549   0.0282   0.00    1.9
2173 251901.000    698559.0732  -4739154.0044   4197329.7403   2   5   0.0360   0.0803   0.0551  -0.0379  -0.0548   0.0281   0.00    1.9
2173 251902.000    698559.0698  -4739153.9988   4197329.7388   2   5   0.0360   0.0802   0.0550  -0.0378  -0.0547   0.0281   0.00    1.9
2173 251903.000    698559.0689  -4739153.9925   4197329.7398   2   5   0.0359   0.0800   0.0549  -0.0378  -0.0547   0.0280   0.00    1.9
2173 251904.000    698559.0668  -4739153.9950   4197329.7402   2   5   0.0358   0.0798   0.0548  -0.0377  -0.0546   0.0280   0.00    1.9
2173 251905.000    698559.0646  -4739153.9912   4197329.7350   2   5   0.0358   0.0796   0.0547  -0.0376  -0.0545   0.0280   0.00    1.9
2173 251906.000    698559.0642  -4739153.9913   4197329.7392   2   5   0.0357   0.0795   0.0546  -0.0375  -0.0544   0.0279   0.00    1.9
2173 251907.000    698559.0653  -4739153.9910   4197329.7385   2   5   0.0357   0.0793   0.0545  -0.0374  -0.0543   0.0279   0.00    1.9
2173 251908.000    698559.0639  -4739153.9906   4197329.7387   2   5   0.0356   0.0791   0.0544  -0.0373  -0.0542   0.0279   0.00    1.9
2173 251909.000    698559.0612  -4739153.9913   4197329.7402   2   5   0.0355   0.0790   0.0543  -0.0373  -0.0541   0.0278   0.00    1.9
2173 251910.000    698559.0656  -4739153.9926   4197329.7365   2   5   0.0355   0.0788   0.0542  -0.0372  -0.0540   0.0278   0.00    1.9
2173 251911.000    698559.0636  -4739153.9892   4197329.7358   2   5   0.0354   0.0786   0.0541  -0.0371  -0.0539   0.0277   0.00    1.9
2173 251912.000    698559.0627  -4739153.9883   4197329.7358   2   5   0.0354   0.0785   0.0540  -0.0371  -0.0538   0.0277   0.00    1.9
2173 251913.000    698559.0610  -4739153.9920   4197329.7400   2   5   0.0353   0.0783   0.0539  -0.0370  -0.0538   0.0277   0.00    1.9
2173 251914.000    698559.0616  -4739153.9889   4197329.7355   2   5   0.0352   0.0781   0.0538  -0.0369  -0.0537   0.0276   0.00    1.9
2173 251915.000    698559.0635  -4739153.9960   4197329.7375   2   5   0.0352   0.0780   0.0537  -0.0368  -0.0536   0.0276   0.00    1.9
2173 251916.000    698559.0623  -4739153.9952   4197329.7326   2   5   0.0351   0.0778   0.0536  -0.0367  -0.0535   0.0276   0.00    1.9
2173 251917.000    698559.0601  -4739153.9910   4197329.7298   2   5   0.0350   0.0777   0.0535  -0.0367  -0.0534   0.0276   0.00    1.9
2173 251918.000    698559.0590  -4739153.9912   4197329.7317   2   5   0.0350   0.0775   0.0534  -0.0366  -0.0533   0.0275   0.00    1.9
2173 251919.000    698559.0600  -4739154.0006   4197329.7327   2   5   0.0349   0.0773   0.0533  -0.0365  -0.0532   0.0275   0.00    1.9
2173 251920.000    698559.0593  -4739153.9981   4197329.7304   2   5   0.0349   0.0772   0.0532  -0.0365  -0.0532   0.0274   0.00    1.9
2173 251921.000    698559.0589  -4739153.9965   4197329.7339   2   5   0.0348   0.0770   0.0532  -0.0364  -0.0531   0.0274   0.00    1.9
2173 251922.000    698559.0563  -4739153.9954   4197329.7321   2   5   0.0348   0.0769   0.0530  -0.0363  -0.0530   0.0274   0.00    1.9
2173 251923.000    698559.0547  -4739153.9947   4197329.7293   2   5   0.0347   0.0767   0.0530  -0.0362  -0.0529   0.0273   0.00    1.9
2173 251924.000    698559.0543  -4739153.9905   4197329.7304   2   5   0.0347   0.0766   0.0529  -0.0362  -0.0528   0.0273   0.00    1.9
2173 251925.000    698559.0561  -4739153.9929   4197329.7331   2   5   0.0346   0.0764   0.0528  -0.0361  -0.0527   0.0273   0.00    1.9
2173 251926.000    698559.0522  -4739153.9865   4197329.7289   2   5   0.0346   0.0762   0.0527  -0.0360  -0.0527   0.0272   0.00    1.9
2173 251927.000    698559.0572  -4739154.0018   4197329.7336   2   5   0.0345   0.0761   0.0526  -0.0360  -0.0526   0.0272   0.00    1.9
2173 251928.000    698559.0519  -4739153.9883   4197329.7245   2   5   0.0344   0.0759   0.0525  -0.0359  -0.0525   0.0272   0.00    1.9
2173 251929.000    698559.0546  -4739153.9955   4197329.7287   2   5   0.0344   0.0758   0.0524  -0.0358  -0.0524   0.0271   0.00    1.9
2173 251930.000    698559.0532  -4739153.9967   4197329.7276   2   5   0.0343   0.0756   0.0524  -0.0358  -0.0523   0.0270   0.00    1.9
2173 251931.000    698559.0531  -4739154.0018   4197329.7294   2   5   0.0343   0.0755   0.0523  -0.0357  -0.0523   0.0271   0.00    1.9
2173 251932.000    698559.0506  -4739153.9928   4197329.7283   2   5   0.0342   0.0753   0.0521  -0.0356  -0.0522   0.0270   0.00    1.9
2173 251933.000    698559.0520  -4739153.9949   4197329.7246   2   5   0.0342   0.0752   0.0521  -0.0355  -0.0521   0.0270   0.00    1.9
2173 251934.000    698559.0490  -4739153.9921   4197329.7247   2   5   0.0341   0.0750   0.0520  -0.0355  -0.0520   0.0270   0.00    1.9
2173 251935.000    698559.0505  -4739153.9937   4197329.7242   2   5   0.0340   0.0749   0.0519  -0.0354  -0.0519   0.0269   0.00    1.9
2173 251936.000    698559.0496  -4739153.9986   4197329.7290   2   5   0.0340   0.0747   0.0518  -0.0354  -0.0519   0.0269   0.00    1.9
2173 251937.000    698559.0503  -4739153.9995   4197329.7289   2   5   0.0339   0.0746   0.0518  -0.0353  -0.0518   0.0269   0.00    1.9
2173 251938.000    698559.0476  -4739154.0007   4197329.7302   2   5   0.0339   0.0745   0.0517  -0.0352  -0.0517   0.0268   0.00    1.9
2173 251939.000    698559.0459  -4739153.9905   4197329.7227   2   5   0.0338   0.0743   0.0516  -0.0352  -0.0516   0.0268   0.00    1.9
2173 251940.000    698559.0487  -4739153.9924   4197329.7303   2   5   0.0338   0.0742   0.0515  -0.0351  -0.0515   0.0268   0.00    1.9
2173 251941.000    698559.0461  -4739153.9895   4197329.7241   2   5   0.0337   0.0740   0.0514  -0.0350  -0.0515   0.0267   0.00    1.9
2173 251942.000    698559.0442  -4739153.9873   4197329.7249   2   5   0.0337   0.0739   0.0513  -0.0350  -0.0514   0.0267   0.00    1.9
2173 251943.000    698559.0426  -4739153.9932   4197329.7256   2   5   0.0336   0.0737   0.0512  -0.0349  -0.0513   0.0267   0.00    1.9
2173 251944.000    698559.0439  -4739153.9978   4197329.7232   2   5   0.0336   0.0736   0.0512  -0.0348  -0.0512   0.0266   0.00    1.9
2173 251945.000    698559.0429  -4739153.9939   4197329.7222   2   5   0.0336   0.0734   0.0510  -0.0348  -0.0512   0.0266   0.00    1.9
2173 251946.000    698559.0416  -4739153.9927   4197329.7229   2   5   0.0335   0.0733   0.0510  -0.0347  -0.0511   0.0266   0.00    1.9
2173 251947.000    698559.0430  -4739153.9957   4197329.7253   2   5   0.0335   0.0732   0.0509  -0.0346  -0.0510   0.0266   0.00    1.9
2173 251948.000    698559.0419  -4739153.9947   4197329.7239   2   5   0.0334   0.0730   0.0508  -0.0346  -0.0509   0.0265   0.00    1.9
2173 251949.000    698559.0423  -4739153.9981   4197329.7234   2   5   0.0333   0.0729   0.0507  -0.0345  -0.0509   0.0265   0.00    1.9
2173 251950.000    698559.0400  -4739153.9969   4197329.7257   2   5   0.0333   0.0728   0.0507  -0.0344  -0.0508   0.0264   0.00    1.9
2173 251951.000    698559.0403  -4739153.9918   4197329.7215   2   5   0.0332   0.0726   0.0506  -0.0344  -0.0507   0.0264   0.00    1.9
2173 251952.000    698559.0382  -4739153.9925   4197329.7222   2   5   0.0332   0.0725   0.0505  -0.0343  -0.0507   0.0264   0.00    1.9
2173 251953.000    698559.0381  -4739153.9865   4197329.7222   2   5   0.0331   0.0724   0.0504  -0.0342  -0.0506   0.0264   0.00    1.9
2173 251954.000    698559.0379  -4739153.9924   4197329.7215   2   5   0.0331   0.0722   0.0503  -0.0342  -0.0505   0.0264   0.00    1.9
2173 251955.000    698559.0362  -4739153.9885   4197329.7242   2   5   0.0330   0.0721   0.0502  -0.0341  -0.0504   0.0263   0.00    1.9
2173 251956.000    698559.0359  -4739153.9900   4197329.7251   2   5   0.0330   0.0719   0.0502  -0.0341  -0.0504   0.0263   0.00    1.9
2173 251957.000    698559.0362  -4739153.9941   4197329.7288   2   5   0.0330   0.0718   0.0501  -0.0340  -0.0503   0.0263   0.00    1.9
2173 251958.000    698559.0352  -4739153.9911   4197329.7284   2   5   0.0329   0.0717   0.0500  -0.0339  -0.0502   0.0262   0.00    1.9
2173 251959.000    698559.0318  -4739153.9858   4197329.7264   2   5   0.0328   0.0716   0.0499  -0.0339  -0.0502   0.0262   0.00    1.9
2173 251960.000    698559.0338  -4739153.9944   4197329.7292   2   5   0.0328   0.0714   0.0499  -0.0338  -0.0501   0.0262   0.00    1.9
2173 251961.000    698559.0323  -4739153.9912   4197329.7256   2   5   0.0328   0.0713   0.0498  -0.0338  -0.0500   0.0262   0.00    1.9
2173 251962.000    698559.0334  -4739153.9933   4197329.7255   2   5   0.0327   0.0712   0.0497  -0.0337  -0.0499   0.0261   0.00    1.9
2173 251963.000    698559.0300  -4739153.9897   4197329.7266   2   5   0.0327   0.0710   0.0496  -0.0337  -0.0499   0.0261   0.00    1.9
2173 251964.000    698559.0309  -4739153.9904   4197329.7286   2   5   0.0326   0.0709   0.0495  -0.0336  -0.0498   0.0261   0.00    1.9
2173 251965.000    698559.0293  -4739153.9923   4197329.7269   2   5   0.0326   0.0708   0.0495  -0.0335  -0.0497   0.0261   0.00    1.9
2173 251966.000    698559.0332  -4739153.9937   4197329.7278   2   5   0.0325   0.0707   0.0494  -0.0335  -0.0497   0.0260   0.00    1.9
2173 251967.000    698559.0313  -4739153.9964   4197329.7315   2   5   0.0325   0.0705   0.0493  -0.0334  -0.0496   0.0260   0.00    1.9
2173 251968.000    698559.0305  -4739153.9940   4197329.7290   2   5   0.0324   0.0704   0.0492  -0.0334  -0.0495   0.0260   0.00    1.9
2173 251969.000    698559.0292  -4739153.9915   4197329.7299   2   5   0.0324   0.0703   0.0492  -0.0333  -0.0495   0.0259   0.00    1.9
2173 251970.000    698559.0295  -4739153.9908   4197329.7284   2   5   0.0324   0.0701   0.0491  -0.0333  -0.0494   0.0259   0.00    1.9
2173 251971.000    698559.0286  -4739153.9957   4197329.7307   2   5   0.0323   0.0700   0.0490  -0.0332  -0.0493   0.0259   0.00    1.9
2173 251972.000    698559.0281  -4739153.9979   4197329.7312   2   5   0.0323   0.0699   0.0490  -0.0331  -0.0493   0.0259   0.00    1.9
2173 251973.000    698559.0276  -4739153.9965   4197329.7277   2   5   0.0322   0.0698   0.0489  -0.0331  -0.0492   0.0258   0.00    1.9
2173 251974.000    698559.0285  -4739154.0021   4197329.7333   2   5   0.0322   0.0696   0.0488  -0.0330  -0.0491   0.0258   0.00    1.9
2173 251975.000    698559.0274  -4739154.0045   4197329.7318   2   5   0.0321   0.0695   0.0487  -0.0330  -0.0491   0.0258   0.00    1.9
2173 251976.000    698559.0263  -4739154.0026   4197329.7318   2   5   0.0321   0.0694   0.0486  -0.0329  -0.0490   0.0257   0.00    1.9
2173 251977.000    698559.0284  -4739154.0071   4197329.7361   2   5   0.0320   0.0693   0.0486  -0.0329  -0.0489   0.0257   0.00    1.9
2173 251978.000    698559.0289  -4739154.0104   4197329.7355   2   5   0.0320   0.0692   0.0485  -0.0328  -0.0489   0.0257   0.00    1.9
2173 251979.000    698559.0257  -4739154.0075   4197329.7337   2   5   0.0320   0.0690   0.0484  -0.0328  -0.0488   0.0257   0.00    1.9
2173 251980.000    698559.0279  -4739154.0094   4197329.7375   2   5   0.0320   0.0689   0.0484  -0.0327  -0.0487   0.0256   0.00    1.9
2173 251981.000    698559.0259  -4739154.0108   4197329.7373   2   5   0.0319   0.0688   0.0483  -0.0327  -0.0487   0.0256   0.00    1.9
2173 251982.000    698559.0243  -4739154.0069   4197329.7368   2   5   0.0318   0.0687   0.0482  -0.0326  -0.0486   0.0256   0.00    1.9
2173 251983.000    698559.0275  -4739154.0124   4197329.7380   2   5   0.0318   0.0686   0.0482  -0.0325  -0.0485   0.0256   0.00    1.9
2173 251984.000    698559.0248  -4739154.0131   4197329.7415   2   5   0.0317   0.0684   0.0481  -0.0325  -0.0485   0.0255   0.00    1.9
2173 251985.000    698559.0228  -4739154.0093   4197329.7373   2   5   0.0317   0.0683   0.0480  -0.0325  -0.0484   0.0255   0.00    1.9
2173 251986.000    698559.0220  -4739154.0129   4197329.7441   2   5   0.0317   0.0682   0.0480  -0.0324  -0.0484   0.0255   0.00    1.9
2173 251987.000    698559.0249  -4739154.0139   4197329.7400   2   5   0.0316   0.0681   0.0479  -0.0323  -0.0483   0.0255   0.00    1.9
2173 251988.000    698559.0255  -4739154.0171   4197329.7465   2   5   0.0316   0.0680   0.0478  -0.0323  -0.0482   0.0255   0.00    1.9
2173 251989.000    698559.0236  -4739154.0110   4197329.7452   2   5   0.0315   0.0679   0.0478  -0.0322  -0.0482   0.0254   0.00    1.9
2173 251990.000    698559.0243  -4739154.0179   4197329.7511   2   5   0.0315   0.0678   0.0477  -0.0322  -0.0481   0.0254   0.00    1.9
2173 251991.000    698559.0219  -4739154.0144   4197329.7495   2   5   0.0315   0.0676   0.0476  -0.0321  -0.0480   0.0253   0.00    1.9
2173 251992.000    698559.0231  -4739154.0178   4197329.7549   2   5   0.0314   0.0675   0.0475  -0.0321  -0.0480   0.0253   0.00    1.9
2173 251993.000    698559.0215  -4739154.0232   4197329.7549   2   5   0.0314   0.0674   0.0475  -0.0320  -0.0479   0.0253   0.00    1.9
2173 251994.000    698559.0218  -4739154.0214   4197329.7564   2   5   0.0314   0.0673   0.0474  -0.0320  -0.0479   0.0253   0.00    1.9
2173 251995.000    698559.0223  -4739154.0222   4197329.7565   2   5   0.0313   0.0672   0.0474  -0.0319  -0.0478   0.0253   0.00    1.9
2173 251996.000    698559.0217  -4739154.0237   4197329.7585   2   5   0.0313   0.0671   0.0472  -0.0319  -0.0477   0.0253   0.00    1.9
2173 251997.000    698559.0205  -4739154.0222   4197329.7562   2   5   0.0312   0.0670   0.0472  -0.0318  -0.0477   0.0252   0.00    1.9
2173 251998.000    698559.0196  -4739154.0239   4197329.7609   2   5   0.0312   0.0668   0.0471  -0.0318  -0.0476   0.0252   0.00    1.9
2173 251999.000    698559.0222  -4739154.0294   4197329.7650   2   5   0.0312   0.0667   0.0470  -0.0317  -0.0476   0.0252   0.00    1.9
