     2.11           OBSERVATION DATA    M (MIXED)           RINEX VERSION / TYPE
CONVBIN 2.4.3                           20210831 054526 UTC PGM / RUN BY / DATE 
log: logs/21_08_31_02_34_40_ncrd_VZ.rtcm                    COMMENT             
format: RTCM 3, station ID: 1153                            COMMENT             
1153                                                        MARKER NAME         
                                                            MARKER NUMBER       
                                                            OBSERVER / AGENCY   
                    TRIMBLE ALLOY                           REC # / TYPE / VERS 
                    GPPNULLANTENNA                          ANT # / TYPE        
  1027044.1724 -5080539.2390  3704298.3756                  APPROX POSITION XYZ 
        0.0000        0.0000        0.0000                  ANTENNA: DELTA H/E/N
     1     1                                                WAVELENGTH FACT L1/2
     7    C1    L1    P2    L2    C2    C5    L5            # / TYPES OF OBSERV 
  2021     8    31     2    34   58.0000000     GPS         TIME OF FIRST OBS   
  2021     8    31     3     4   44.0000000     GPS         TIME OF LAST OBS    
                                                            END OF HEADER       
 21  8 31  2 34 58.0000000  0 13G 3G16G22G26G29G31G32R 7R 9R16E 7E21
                                E27
  21851819.010   114832098.676                    89479572.364    21851819.903  
  21851817.223    85751238.995  
  21212978.227   111474982.602    21212976.994    86863626.291                  
                                
  22308004.445   117229365.843    22308000.638    91347553.249                  
                                
  20037481.241   105297714.649                    82050200.401    20037482.009  
  20037477.846    78631444.882  
  24187268.969   127104983.912                    99042801.269    24187268.344  
                                
  21397119.652   112442689.664                    87617697.055    21397117.686  
                                
  23331699.452   122608907.954                    95539408.745    23331700.346  
  23331697.844    91558583.435  
  19243675.609   103012917.537    19243672.607    80121139.327                  
                                
  19593873.954   104630252.197    19593869.165    81379095.486                  
                                
  22195735.142   118565665.290    22195731.426    92217731.983                  
                                
  26893439.721   141325975.149                                                  
                                
  23859322.650   125381645.513                                                  
                                
  24126956.835   126788084.379                                                  
                                
 21  8 31  2 34 59.0000000  0 13G 3G16G22G26G29G31G32R 7R 9R16E 7E21
                                E27
  21851878.889   114832413.657                    89479817.793    21851879.586  
  21851877.155    85751474.203  
  21212457.130   111472242.699    21212455.629    86861491.304                  
                                
  22308293.172   117230883.774    22308289.581    91348736.042                  
                                
  20037469.304   105297652.236                    82050151.768    20037470.287  
  20037466.016    78631398.275  
  24187322.451   127105265.616                    99043020.777    24187321.325  
                                
  21397454.035   112444446.228                    87619065.801    21397451.569  
                                
  23332262.666   122611866.599                    95541714.169    23332263.149  
  23332260.951    91560792.842  
  19243582.422   103012419.333    19243579.384    80120751.840                  
                                
  19594068.798   104631294.519    19594064.259    81379906.180                  
                                
  22196365.937   118569032.010    22196361.845    92220350.549                  
                                
  26893927.367   141328536.233                                                  
                                
  23859116.209   125380560.721                                                  
                                
  24127252.049   126789635.121                                                  
                                
 21  8 31  2 35  0.0000000  0 13G 3G16G22G26G29G31G32R 7R 9R16E 7E21
                                E27
  21851938.893   114832729.360                    89480063.797    21851939.590  
  21851937.195    85751709.953  
  21211935.909   111469503.385    21211934.426    86859356.774                  
                                
  22308582.132   117232402.251    22308578.505    91349919.275                  
                                
  20037457.689   105297590.499                    82050103.662    20037458.297  
  20037454.241    78631352.170  
  24187376.380   127105547.984                    99043240.812    24187375.629  
                                
  21397788.275   112446203.032                    87620434.735    21397786.220  
                                
  23332825.969   122614825.592                    95544019.875    23332825.058  
  23332823.932    91563002.468  
  19243489.307   103011922.075    19243486.680    80120365.090                  
                                
  19594264.392   104632337.392    19594259.710    81380717.309                  
                                
  22196996.624   118572398.821    22196991.942    92222969.186                  
                                
  26894414.280   141331097.592                                                  
                                
  23858909.769   125379476.363                                                  
                                
  24127547.210   126791186.188                                                  
                                
 21  8 31  2 35  1.0000000  0 13G 3G16G22G26G29G31G32R 7R 9R16E 7E21
                                E27
  21851999.129   114833045.664                    89480310.297    21852000.130  
  21851997.432    85751946.150  
  21211414.669   111466764.524    21211413.293    86857222.599                  
                                
  22308871.056   117233921.178    22308867.554    91351102.854                  
                                
  20037446.074   105297529.339                    82050056.010    20037446.664  
  20037442.590    78631306.503  
  24187430.362   127105830.900                    99043461.289    24187429.576  
                                
  21398122.569   112447959.939                    87621803.749    21398120.371  
                                
  23333389.022   122617784.816                    95546325.714    23333388.611  
  23333386.949    91565212.273  
  19243397.210   103011425.620    19243393.922    80119978.954                  
                                
  19594459.915   104633380.647    19594455.072    81381528.727                  
                                
  22197626.310   118575765.622    22197622.397    92225587.805                  
                                
  26894901.711   141333659.031                                                  
                                
  23858703.596   125378392.298                                                  
                                
  24127842.352   126792737.464                                                  
                                
 21  8 31  2 35  2.0000000  0 13G 3G16G22G26G29G31G32R 7R 9R16E 7E21
                                E27
  21852059.437   114833362.637                    89480557.274    21852060.420  
  21852057.686    85752182.855  
  21210893.823   111464026.170    21210892.197    86855088.819                  
                                
  22309160.267   117235440.559    22309156.550    91352286.787                  
                                
  20037434.549   105297468.804                    82050008.831    20037435.478  
  20037431.082    78631261.292  
  24187483.862   127106114.432                    99043682.208    24187483.201  
                                
  21398457.131   112449716.993                    87623172.886    21398454.951  
                                
  23333952.272   122620744.283                    95548631.833    23333951.521  
  23333950.127    91567422.285  
  19243304.130   103010929.987    19243301.253    80119593.466                  
                                
  19594655.438   104634424.383    19594650.417    81382340.523                  
                                
  22198256.426   118579132.432    22198252.602    92228206.435                  
                                
  26895388.981   141336220.652                                                  
                                
  23858497.226   125377308.603                                                  
                                
  24128137.513   126794289.006                                                  
                                
 21  8 31  2 35  3.0000000  0 13G 3G16G22G26G29G31G32R 7R 9R16E 7E21
                                E27
  21852119.763   114833680.244                    89480804.762    21852120.549  
  21852118.209    85752420.029  
  21210372.673   111461288.309    21210371.279    86852955.423                  
                                
  22309449.423   117236960.421    22309445.760    91353471.096                  
                                
  20037423.113   105297408.865                    82049962.132    20037423.899  
  20037419.700    78631216.539  
  24187538.327   127106398.528                    99043903.620    24187537.755  
                                
  21398791.514   112451474.214                    87624542.159    21398789.280  
                                
  23334515.521   122623704.029                    95550938.109    23334514.092  
  23334513.359    91569632.481  
  19243211.836   103010435.168    19243208.888    80119208.602                  
                                
  19594851.139   104635468.532    19594846.029    81383152.640                  
                                
  22198887.184   118582499.243    22198882.806    92230825.065                  
                                
  26895876.520   141338782.473                                                  
                                
  23858291.089   125376225.243                                                  
                                
  24128432.924   126795840.801                                                  
                                
 21  8 31  2 35  4.0000000  0 13G 3G16G22G26G29G31G32R 7R 9R16E 7E21
                                E27
  21852180.446   114833998.541                    89481052.778    21852181.161  
  21852178.767    85752657.716  
  21209851.809   111458550.958    21209850.308    86850822.425                  
                                
  22309738.329   117238480.782    22309734.934    91354655.795                  
                                
  20037411.873   105297349.557                    82049915.923    20037412.356  
  20037408.389    78631172.250  
  24187592.881   127106683.304                    99044125.505    24187591.612  
                                
  21399125.914   112453231.602                    87625911.552    21399123.842  
                                
  23335078.485   122626664.057                    95553244.581    23335077.377  
  23335076.698    91571842.894  
  19243120.043   103009941.191    19243116.630    80118824.403                  
                                
  19595046.484   104636513.168    19595041.695    81383965.139                  
                                
  22199517.318   118585866.080    22199513.029    92233443.723                  
                                
  26896364.255   141341344.466                                                  
                                
  23858084.952   125375142.262                                                  
                                
  24128727.905   126797392.860                                                  
                                
 21  8 31  2 35  5.0000000  0 13G 3G16G22G26G29G31G32R 7R 9R16E 7E21
                                E27
  21852241.130   114834317.460                    89481301.291    21852241.880  
  21852239.396    85752895.869  
  21209331.106   111455814.101    21209329.408    86848689.809                  
                                
  22310027.665   117240001.595    22310024.377    91355840.844                  
                                
  20037400.705   105297290.853                    82049870.173    20037401.527  
  20037397.167    78631128.413  
  24187647.024   127106968.653                    99044347.848    24187646.595  
                                
  21399460.280   112454989.123                    87627281.053    21399458.225  
                                
  23335641.877   122629624.347                    95555551.309    23335641.716  
  23335639.751    91574053.503  
  19243027.678   103009448.057    19243024.569    80118440.857                  
                                
  19595241.971   104637558.227    19595237.217    81384777.965                  
                                
  22200147.897   118589232.965    22200143.234    92236062.414                  
                                
  26896851.775   141343906.618                                                  
                                
  23857878.887   125374059.620                                                  
                                
  24129023.513   126798945.166                                                  
                                
 21  8 31  2 35  6.0000000  0 13G 3G16G22G26G29G31G32R 7R 9R16E 7E21
                                E27
  21852302.045   114834637.077                    89481550.344    21852302.760  
  21852300.240    85753134.551  
  21208810.331   111453077.801    21208808.883    86846557.622                  
                                
  22310317.625   117241522.949    22310313.944    91357026.319                  
                                
  20037389.590   105297232.810                    82049824.946    20037390.252  
  20037386.213    78631085.071  
  24187701.167   127107254.647                    99044570.698    24187700.559  
                                
  21399794.823   112456746.863                    87628650.710    21399792.661  
                                
  23336205.216   122632584.935                    95557858.249    23336204.465  
  23336203.215    91576264.324  
  19242935.134   103008955.838    19242932.633    80118058.015                  
                                
  19595437.315   104638603.802    19595433.080    81385591.185                  
                                
  22200778.245   118592599.945    22200773.563    92238681.176                  
                                
  26897339.367   141346469.020                                                  
                                
  23857673.000   125372977.375                                                  
                                
  24129319.013   126800497.788                                                  
                                
 21  8 31  2 35  7.0000000  0 13G 3G16G22G26G29G31G32R 7R 9R16E 7E21
                                E27
  21852363.050   114834957.328                    89481799.888    21852363.925  
  21852361.120    85753373.698  
  21208289.931   111450341.968    21208288.269    86844425.816                  
                                
  22310607.246   117243044.742    22310603.494    91358212.134                  
                                
  20037378.690   105297175.348                    82049780.180    20037379.209  
  20037375.242    78631042.161  
  24187755.632   127107541.211                    99044793.997    24187755.435  
                                
  21400129.349   112458504.727                    87630020.478    21400127.670  
                                
  23336768.591   122635545.799                    95560165.400    23336767.358  
  23336766.643    91578475.365  
  19242843.860   103008464.418    19242840.840    80117675.789                  
                                
  19595634.267   104639649.768    19595628.889    81386404.714                  
                                
  22201407.735   118595966.970    22201403.911    92241299.966                  
                                
  26897826.620   141349031.524                                                  
                                
  23857466.970   125371895.462                                                  
                                
  24129614.423   126802050.622                                                  
                                
 21  8 31  2 35  8.0000000  0 13G 3G16G22G26G29G31G32R 7R 9R16E 7E21
                                E27
  21852424.073   114835278.260                    89482049.964    21852425.377  
  21852422.268    85753613.350  
  21207769.335   111447606.672    21207767.798    86842294.412                  
                                
  22310896.903   117244567.022    22310893.151    91359398.324                  
                                
  20037367.951   105297118.540                    82049735.904    20037368.523  
  20037364.467    78630999.737  
  24187810.240   127107828.402                    99045017.771    24187810.597  
                                
  21400464.001   112460262.752                    87631390.377    21400462.071  
                                
  23337332.197   122638506.928                    95562472.800    23337331.715  
  23337329.964    91580686.602  
  19242752.227   103007973.840    19242749.136    80117294.227                  
                                
  19595829.701   104640696.205    19595824.858    81387218.607                  
                                
  22202038.226   118599334.052    22202034.241    92243918.812                  
                                
  26898314.462   141351594.272                                                  
                                
  23857261.047   125370813.927                                                  
                                
  24129910.102   126803603.741                                                  
                                
 21  8 31  2 35  9.0000000  0 13G 3G16G22G26G29G31G32R 7R 9R16E 7E21
                                E27
  21852485.203   114835599.858                    89482300.565    21852486.167  
  21852483.505    85753853.502  
  21207249.293   111444871.889    21207247.345    86840163.421                  
                                
  22311186.667   117246089.807    22311182.861    91360584.907                  
                                
  20037357.158   105297062.348                    82049692.119    20037357.676  
  20037353.763    78630957.769  
  24187864.901   127108116.237                    99045242.037    24187864.490  
                                
  21400798.491   112462020.965                    87632760.399    21400796.472  
                                
  23337895.661   122641468.338                    95564780.381    23337894.964  
  23337893.606    91582898.023  
  19242660.916   103007484.126    19242657.521    80116913.340                  
                                
  19596026.171   104641743.145    19596020.899    81388032.897                  
                                
  22202668.984   118602701.142    22202664.535    92246537.658                  
                                
  26898802.537   141354157.163                                                  
                                
  23857055.411   125369732.764                                                  
                                
  24130205.727   126805157.138                                                  
                                
 21  8 31  2 35 10.0000000  0 13G 3G16G22G26G29G31G32R 7R 9R16E 7E21
                                E27
  21852546.386   114835922.057                    89482551.625    21852547.119  
  21852544.849    85754094.106  
  21206728.590   111442137.573    21206727.124    86838032.783                  
                                
  22311476.682   117247613.029    22311472.768    91361771.834                  
                                
  20037346.508   105297006.719                    82049648.779    20037347.294  
  20037343.202    78630916.233  
  24187919.920   127108404.575                    99045466.744    24187919.920  
                                
  21401133.142   112463779.278                    87634130.531    21401131.355  
                                
  23338459.125   122644429.980                    95567088.120    23338459.626  
  23338457.142    91585109.649  
  19242569.373   103006995.198    19242566.282    80116533.054                  
                                
  19596222.015   104642790.468    19596216.994    81388847.479                  
                                
  22203299.100   118606068.194    22203294.811    92249156.474                  
                                
  26899290.129   141356720.236                                                  
                                
  23856849.899   125368651.896                                                  
                                
  24130501.388   126806710.749                                                  
                                
 21  8 31  2 35 11.0000000  0 13G 3G16G22G26G29G31G32R 7R 9R16E 7E21
                                E27
  21852607.927   114836244.952                    89482803.247    21852608.481  
  21852606.176    85754335.233  
  21206208.440   111439403.809    21206206.975    86835902.577                  
                                
  22311766.142   117249136.753    22311762.693    91362959.151                  
                                
  20037336.037   105296951.757                    82049605.946    20037336.930  
  20037332.695    78630875.192  
  24187974.831   127108693.580                    99045691.934    24187974.241  
                                
  21401467.829   112465537.790                    87635500.789    21401465.506  
                                
  23339023.536   122647391.939                    95569396.122    23339022.535  
  23339020.713    91587321.484  
  19242478.188   103006507.152    19242475.061    80116153.460                  
                                
  19596417.734   104643838.297    19596413.214    81389662.452                  
                                
  22203929.626   118609435.270    22203925.266    92251775.308                  
                                
  26899777.846   141359283.471                                                  
                                
  23856644.191   125367571.435                                                  
                                
  24130797.013   126808264.648                                                  
                                
 21  8 31  2 35 12.0000000  0 13G 3G16G22G26G29G31G32R 7R 9R16E 7E21
                                E27
  21852669.522   114836568.534                    89483055.375    21852670.022  
  21852667.735    85754576.866  
  21205688.327   111436670.552    21205686.808    86833772.767                  
                                
  22312056.335   117250660.979    22312052.743    91364146.858                  
                                
  20037325.744   105296897.426                    82049563.617    20037326.531  
  20037322.331    78630834.616  
  24188029.492   127108983.219                    99045917.628    24188029.224  
                                
  21401802.337   112467296.475                    87636871.198    21401800.085  
                                
  23339587.214   122650354.185                    95571704.366    23339586.071  
  23339584.641    91589533.556  
  19242387.485   103006019.978    19242384.018    80115774.550                  
                                
  19596614.526   104644886.577    19596609.487    81390477.776                  
                                
  22204560.277   118612802.400    22204555.757    92254394.196                  
                                
  26900265.402   141361846.873                                                  
                                
  23856438.554   125366491.349                                                  
                                
  24131092.763   126809818.823                                                  
                                
 21  8 31  2 35 13.0000000  0 13G 3G16G22G26G29G31G32R 7R 9R16E 7E21
                                E27
  21852731.188   114836892.755                    89483308.031    21852731.670  
  21852729.561    85754818.982  
  21205167.927   111433937.812    21205166.730    86831643.363                  
                                
  22312346.653   117252185.695    22312342.829    91365334.953                  
                                
  20037315.505   105296843.714                    82049521.745    20037316.149  
  20037312.092    78630794.504  
  24188085.422   127109273.466                    99046143.788    24188084.797  
                                
  21402136.970   112469055.331                    87638241.726    21402135.022  
                                
  23340150.857   122653316.681                    95574012.818    23340149.964  
  23340148.212    91591745.803  
  19242296.496   103005533.639    19242293.154    80115396.281                  
                                
  19596811.103   104645935.312    19596805.832    81391293.462                  
                                
  22205190.482   118616169.633    22205186.122    92257013.154                  
                                
  26900753.280   141364410.484                                                  
                                
  23856233.168   125365411.607                                                  
                                
  24131388.531   126811373.265                                                  
                                
 21  8 31  2 35 14.0000000  0 13G 3G16G22G26G29G31G32R 7R 9R16E 7E21
                                E27
  21852793.050   114837217.608                    89483561.163    21852793.658  
  21852791.353    85755061.564  
  21204648.081   111431205.547    21204646.795    86829514.323                  
                                
  22312636.935   117253710.854    22312633.093    91366523.386                  
                                
  20037305.517   105296790.571                    82049480.351    20037306.339  
  20037302.014    78630754.821  
  24188140.423   127109564.261                    99046370.372    24188140.691  
                                
  21402471.764   112470814.292                    87639612.354    21402469.638  
                                
  23340714.142   122656279.459                    95576321.423    23340713.749  
  23340712.034    91593958.256  
  19242205.810   103005048.083    19242202.433    80115018.626                  
                                
  19597007.984   104646984.457    19597002.320    81392109.461                  
                                
  22205820.544   118619536.918    22205816.398    92259632.153                  
                                
  26901241.229   141366974.253                                                  
                                
  23856027.906   125364332.200                                                  
                                
  24131684.335   126812927.915                                                  
                                
 21  8 31  2 35 15.0000000  0 13G 3G16G22G26G29G31G32R 7R 9R16E 7E21
                                E27
  21852854.966   114837543.167                    89483814.836    21852855.627  
  21852853.304    85755304.677  
  21204128.593   111428473.816    21204126.896    86827385.704                  
                                
  22312927.217   117255236.533    22312923.376    91367712.222                  
                                
  20037295.564   105296738.106                    82049439.463    20037296.028  
  20037292.043    78630715.645  
  24188195.799   127109855.728                    99046597.512    24188195.514  
                                
  21402806.486   112472573.464                    87640983.135    21402804.485  
                                
  23341277.999   122659242.480                    95578630.303    23341277.678  
  23341275.962    91596170.927  
  19242115.357   103004563.397    19242111.926    80114641.651                  
                                
  19597204.257   104648034.069    19597198.915    81392925.826                  
                                
  22206451.160   118622904.292    22206446.835    92262251.224                  
                                
  26901729.018   141369540.2111                                                 
                                
  23855822.555   125363253.185                                                  
                                
  24131980.068   126814482.888                                                  
                                
 21  8 31  2 35 16.0000000  0 13G 3G16G22G26G29G31G32R 7R 9R16E 7E21
                                E27
  21852917.007   114837869.381                    89484069.035    21852917.972  
  21852915.453    85755548.278  
  21203608.605   111425742.625    21203607.193    86825257.506                  
                                
  22313217.678   117256762.719    22313213.872    91368901.462                  
                                
  20037285.628   105296686.275                    82049399.075    20037286.129  
  20037282.108    78630676.938  
  24188251.336   127110147.837                    99046825.096    24188251.158  
                                
  21403141.406   112474332.807                    87642354.050    21403139.029  
                                
  23341841.928   122662205.847                    95580939.374    23341841.660  
  23341839.909    91598383.816  
  19242024.940   103004079.601    19242021.581    80114265.365                  
                                
  19597400.602   104649084.177    19597395.545    81393742.576                  
                                
  22207081.757   118626271.702    22207077.308    92264870.316                  
                                
  26902216.449   141372104.379                                                  
                                
  23855617.330   125362174.544                                                  
                                
  24132276.086   126816038.120                                                  
                                
 21  8 31  2 35 17.0000000  0 13G 3G16G22G26G29G31G32R 7R 9R16E 7E21
                                E27
  21852979.245   114838196.220                    89484323.711    21852980.157  
  21852977.583    85755792.339  
  21203089.206   111423011.880    21203087.633    86823129.655                  
                                
  22313508.264   117258289.316    22313504.315    91370091.009                  
                                
  20037275.890   105296634.986                    82049359.121    20037276.444  
  20037272.388    78630638.645  
  24188307.320   127110440.466                    99047053.137    24188306.373  
                                
  21403476.146   112476092.264                    87643725.062    21403474.180  
                                
  23342405.856   122665169.405                    95583248.679    23342405.535  
  23342403.873    91600596.863  
  19241934.398   103003596.619    19241931.271    80113889.710                  
                                
  19597597.054   104650134.707    19597592.319    81394559.660                  
                                
  22207711.658   118629639.061    22207707.763    92267489.366                  
                                
  26902704.220   141374668.646                                                  
                                
  23855411.979   125361096.210                                                  
                                
  24132572.122   126817593.577                                                  
                                
 21  8 31  2 35 18.0000000  0 13G 3G16G22G26G29G31G32R 7R 9R16E 7E21
                                E27
  21853041.483   114838523.710                    89484578.896    21853042.341  
  21853039.911    85756036.896  
  21202569.074   111420281.643    21202568.038    86821002.204                  
                                
  22313798.779   117259816.400    22313794.812    91371280.947                  
                                
  20037266.366   105296584.335                    82049319.650    20037266.973  
  20037262.756    78630600.816  
  24188363.464   127110733.706                    99047281.637    24188361.767  
                                
  21403810.851   112477851.868                    87645096.193    21403808.617  
                                
  23342970.303   122668133.239                    95585558.149    23342969.946  
  23342967.873    91602810.116  
  19241844.427   103003114.501    19241841.264    80113514.734                  
                                
  19597794.382   104651185.686    19597789.146    81395377.086                  
                                
  22208341.988   118633006.399    22208338.218    92270108.414                  
                                
  26903192.544   141377233.099                                                  
                                
  23855206.825   125360018.235                                                  
                                
  24132868.247   126819149.283                                                  
                                
 21  8 31  2 35 19.0000000  0 13G 3G16G22G26G29G31G32R 7R 9R16E 7E21
                                E27
  21853103.953   114838851.890                    89484834.627    21853105.133  
  21853102.327    85756281.965  
  21202050.319   111417551.948    21202048.496    86818875.167                  
                                
  22314089.026   117261343.997    22314085.505    91372471.287                  
                                
  20037256.788   105296534.338                    82049280.689    20037257.324  
  20037253.268    78630563.481  
  24188419.198   127111027.603                    99047510.652    24188418.644  
                                
  21404145.573   112479611.674                    87646467.464    21404143.858  
                                
  23343533.928   122671097.405                    95587867.845    23343533.785  
  23343532.051    91605023.596  
  19241754.528   103002633.261    19241751.383    80113140.438                  
                                
  19597990.870   104652237.138    19597986.063    81396194.882                  
                                
  22208972.461   118636373.821    22208968.691    92272727.515                  
                                
  26903680.565   141379797.792                                                  
                                
  23855001.777   125358940.664                                                  
                                
  24133164.355   126820705.298                                                  
                                
 21  8 31  2 35 20.0000000  0 13G 3G16G22G26G29G31G32R 7R 9R16E 7E21
                                E27
  21853166.584   114839180.692                    89485090.834    21853167.728  
  21853164.833    85756527.495  
  21201530.955   111414822.735    21201529.079    86816748.508                  
                                
  22314380.076   117262872.044    22314376.413    91373661.970                  
                                
  20037247.282   105296484.925                    82049242.178    20037248.300  
  20037243.761    78630526.583  
  24188475.664   127111322.086                    99047740.097    24188474.788  
                                
  21404480.742   112481371.586                    87647838.822    21404478.848  
                                
  23344097.767   122674061.752                    95590177.763    23344097.427  
  23344095.944    91607237.250  
  19241664.969   103002152.804    19241661.627    80112766.750                  
                                
  19598188.322   104653289.014    19598183.051    81397013.005                  
                                
  22209603.077   118639741.246    22209599.128    92275346.628                  
                                
  26904168.693   141382362.597                                                  
                                
  23854797.052   125357863.396                                                  
                                
  24133460.516   126822261.518                                                  
                                
 21  8 31  2 35 21.0000000  0 13G 3G16G22G26G29G31G32R 7R 9R16E 7E21
                                E27
  21853229.197   114839510.166                    89485347.569    21853230.466  
  21853227.500    85756773.540  
  21201011.414   111412094.056    21201009.841    86814622.264                  
                                
  22314671.037   117264400.586    22314667.196    91374853.047                  
                                
  20037237.900   105296436.137                    82049204.166    20037238.311  
  20037234.505    78630490.155  
  24188531.308   127111617.157                    99047970.047    24188530.915  
                                
  21404815.501   112483131.701                    87649210.346    21404813.356  
                                
  23344661.820   122677026.411                    95592487.879    23344662.196  
  23344660.248    91609451.125  
  19241575.070   103001673.209    19241571.996    80112393.736                  
                                
  19598384.935   104654341.375    19598380.146    81397831.511                  
                                
  22210232.995   118643108.739    22210229.672    92277965.784                  
                                
  26904657.107   141384927.645                                                  
                                
  23854591.969   125356786.521                                                  
                                
  24133756.624   126823818.038                                                  
                                
 21  8 31  2 35 22.0000000  0 13G 3G16G22G26G29G31G32R 7R 9R16E 7E21
                                E27
  21853292.096   114839840.294                    89485604.812    21853293.097  
  21853290.363    85757020.055  
  21200492.390   111409365.870    21200490.496    86812496.403                  
                                
  22314961.802   117265929.601    22314958.246    91376044.490                  
                                
  20037228.751   105296387.956                    82049166.628    20037229.341  
  20037225.267    78630454.174  
  24188587.506   127111912.843                    99048200.453    24188587.935  
                                
  21405150.491   112484891.947                    87650581.960    21405148.508  
                                
  23345227.304   122679991.345                    95594798.222    23345226.589  
  23345224.462    91611665.195  
  19241485.742   103001194.423    19241482.562    80112021.347                  
                                
  19598582.263   104655394.152    19598577.188    81398650.337                  
                                
  22210862.968   118646476.271    22210860.109    92280584.971                  
                                
  26905144.753   141387492.776                                                  
                                
  23854387.190   125355709.986                                                  
                                
  24134052.964   126825374.780                                                  
                                
 21  8 31  2 35 23.0000000  0 13G 3G16G22G26G29G31G32R 7R 9R16E 7E21
                                E27
  21853355.067   114840171.065                    89485862.563    21853355.781  
  21853353.298    85757267.062  
  21199973.438   111406638.177    21199971.347    86810370.928                  
                                
  22315253.175   117267459.083    22315249.243    91377236.296                  
                                
  20037219.656   105296340.377                    82049129.557    20037220.532  
  20037216.279    78630418.646  
  24188643.597   127112209.100                    99048431.304    24188644.044  
                                
  21405485.589   112486652.346                    87651953.704    21405483.409  
                                
  23345791.286   122682956.518                    95597108.737    23345790.982  
  23345788.802    91613879.462  
  19241396.629   103000716.493    19241393.288    80111649.621                  
                                
  19598779.269   104656447.390    19598774.444    81399469.522                  
                                
  22211493.315   118649843.851    22211490.617    92283204.205                  
                                
  26905632.953   141390058.103                                                  
                                
  23854182.358   125354633.792                                                  
                                
  24134349.178   126826931.778                                                  
                                
 21  8 31  2 35 24.0000000  0 13G 3G16G22G26G29G31G32R 7R 9R16E 7E21
                                E27
  21853418.091   114840502.502                    89486120.825    21853419.109  
  21853416.232    85757514.568  
  21199454.271   111403911.033    21199452.502    86808245.885                  
                                
  22315544.350   117268989.072    22315540.330    91378428.493                  
                                
  20037210.686   105296293.455                    82049092.990    20037211.740  
  20037207.362    78630383.603  
  24188700.206   127112506.013                    99048662.685    24188700.403  
                                
  21405820.687   112488412.927                    87653325.586    21405818.686  
                                
  23346355.893   122685922.030                    95599419.528    23346354.446  
  23346352.963    91616093.929  
  19241307.981   103000239.426    19241304.086    80111278.571                  
                                
  19598977.025   104657501.085    19598971.754    81400289.072                  
                                
  22212124.807   118653211.512    22212121.108    92285823.494                  
                                
  26906121.206   141392623.647                                                  
                                
  23853977.650   125353557.988                                                  
                                
  24134645.554   126828489.078                                                  
                                
 21  8 31  2 35 25.0000000  0 13G 3G16G22G26G29G31G32R 7R 9R16E 7E21
                                E27
  21853481.222   114840834.609                    89486379.607    21853482.097  
  21853479.435    85757762.563  
  21198935.390   111401184.379    21198933.443    86806121.221                  
                                
  22315835.455   117270519.542    22315831.666    91379621.072                  
                                
  20037201.876   105296247.135                    82049056.894    20037202.538  
  20037198.428    78630349.019  
  24188757.048   127112803.545                    99048894.504    24188757.048  
                                
  21406155.731   112490173.658                    87654697.588    21406153.819  
                                
  23346920.090   122688887.739                    95601730.486    23346919.607  
  23346917.445    91618308.628  
  19241218.725   102999763.205    19241215.170    80110908.177                  
                                
  19599174.138   104658555.250    19599169.117    81401108.978                  
                                
  22212755.011   118656579.151    22212751.741    92288442.772                  
                                
  26906609.673   141395189.353                                                  
                                
  23853773.068   125352482.527                                                  
                                
  24134942.055   126830046.616                                                  
                                
 21  8 31  2 35 26.0000000  0 13G 3G16G22G26G29G31G32R 7R 9R16E 7E21
                                E27
  21853544.478   114841167.334                    89486638.869    21853545.640  
  21853542.745    85758011.029  
  21198417.082   111398458.197    21198414.669    86803996.921                  
                                
  22316126.541   117272050.441    22316123.092    91380813.984                  
                                
  20037193.210   105296201.410                    82049021.267    20037194.050  
  20037189.850    78630314.868  
  24188813.389   127113101.635                    99049126.807    24188813.532  
                                
  21406490.936   112491934.512                    87656069.677    21406488.613  
                                
  23347484.250   122691853.742                    95604041.671    23347484.376  
  23347482.053    91620523.482  
  19241129.577   102999287.782    19241126.378    80110538.402                  
                                
  19599371.555   104659609.840    19599366.767    81401929.217                  
                                
  22213385.788   118659946.767    22213382.125    92291062.021                  
                                
  26907097.998   141397755.208                                                  
                                
  23853568.467   125351407.404                                                  
                                
  24135238.359   126831604.388                                                  
                                
 21  8 31  2 35 27.0000000  0 13G 3G16G22G26G29G31G32R 7R 9R16E 7E21
                                E27
  21853607.931   114841500.764                    89486898.698    21853609.021  
  21853606.180    85758260.027  
  21197897.647   111395732.593    21197895.789    86801873.074                  
                                
  22316418.271   117273581.883    22316414.482    91382007.315                  
                                
  20037184.579   105296156.352                    82048986.134    20037185.473  
  20037181.255    78630281.216  
  24188870.319   127113400.377                    99049359.579    24188870.587  
                                
  21406825.766   112493695.583                    87657441.943    21406824.158  
                                
  23348048.804   122694820.064                    95606353.079    23348047.750  
  23348046.338    91622738.591  
  19241040.857   102998813.257    19241037.623    80110169.322                  
                                
  19599569.348   104660664.909    19599564.326    81402749.826                  
                                
  22214015.939   118663314.463    22214012.455    92293681.333                  
                                
  26907585.733   141400321.278                                                  
                                
  23853363.778   125350332.692                                                  
                                
  24135534.949   126833162.469                                                  
                                
 21  8 31  2 35 28.0000000  0 13G 3G16G22G26G29G31G32R 7R 9R16E 7E21
                                E27
  21853671.545   114841834.859                    89487159.030    21853672.903  
  21853669.704    85758509.505  
  21197379.070   111393007.500    21197377.337    86799749.630                  
                                
  22316709.339   117275113.808    22316705.890    91383201.026                  
                                
  20037176.056   105296111.895                    82048951.506    20037176.735  
  20037172.750    78630248.020  
  24188926.928   127113699.749                    99049592.847    24188927.607  
                                
  21407160.935   112495456.813                    87658814.339    21407158.648  
                                
  23348613.358   122697786.648                    95608664.705    23348612.393  
  23348611.017    91624953.888  
  19240952.012   102998339.577    19240949.153    80109800.908                  
                                
  19599766.890   104661720.449    19599761.994    81403570.802                  
                                
  22214646.179   118666682.177    22214642.838    92296300.662                  
                                
  26908074.808   141402887.523                                                  
                                
  23853159.303   125349258.340                                                  
                                
  24135831.521   126834720.808                                                  
                                
 21  8 31  2 35 29.0000000  0 13G 3G16G22G26G29G31G32R 7R 9R16E 7E21
                                E27
  21853735.212   114842169.589                    89487419.854    21853736.731  
  21853733.407    85758759.468  
  21196860.904   111390282.894    21196858.867    86797626.560                  
                                
  22317001.355   117276646.192    22316997.459    91384395.087                  
                                
  20037167.747   105296068.054                    82048917.344    20037168.461  
  20037164.476    78630215.286  
  24188984.091   127113999.691                    99049826.574    24188984.431  
                                
  21407496.104   112497218.183                    87660186.821    21407494.389  
                                
  23349177.769   122700753.486                    95610976.553    23349177.215  
  23349175.661    91627169.385  
  19240863.739   102997866.739    19240860.952    80109433.149                  
                                
  19599965.325   104662776.425    19599959.750    81404392.112                  
                                
  22215277.510   118670049.954    22215273.400    92298920.046                  
                                
  26908562.132   141405453.960                                                  
                                
  23852954.988   125348184.309                                                  
                                
  24136128.075   126836279.390                                                  
                                
 21  8 31  2 35 30.0000000  0 13G 3G16G22G26G29G31G32R 7R 9R16E 7E21
                                E27
  21853799.076   114842505.017                    89487681.220    21853800.506  
  21853797.182    85759009.954  
  21196342.649   111387558.816    21196340.379    86795503.900                  
                                
  22317292.852   117278179.078    22317289.296    91385589.543                  
                                
  20037159.563   105296024.862                    82048883.681    20037160.152  
  20037156.203    78630183.021  
  24189041.808   127114300.249                    99050060.778    24189042.005  
                                
  21407831.202   112498979.741                    87661559.464    21407829.665  
                                
  23349742.520   122703720.610                    95613288.542    23349741.483  
  23349740.501    91629385.098  
  19240775.877   102997394.790    19240772.750    80109066.077                  
                                
  19600162.760   104663832.866    19600157.614    81405213.793                  
                                
  22215907.464   118673417.799    22215903.801    92301539.489                  
                                
  26909050.385   141408020.587                                                  
                                
  23852750.709   125347110.676                                                  
                                
  24136424.540   126837838.266                                                  
                                
 21  8 31  2 35 31.0000000  0 13G 3G16G22G26G29G31G32R 7R 9R16E 7E21
                                E27
  21853862.976   114842841.064                    89487943.084    21853864.155  
  21853861.117    85759260.901  
  21195824.179   111384835.246    21195821.981    86793381.642                  
                                
  22317584.635   117279712.444    22317581.169    91386784.372                  
                                
  20037151.414   105295982.268                    82048850.489    20037151.897  
  20037148.091    78630151.219  
  24189099.329   127114601.409                    99050295.470    24189099.204  
                                
  21408166.907   112500741.449                    87662932.223    21408164.799  
                                
  23350307.056   122706688.001                    95615600.831    23350306.412  
  23350305.233    91631601.007  
  19240687.783   102996923.648    19240684.513    80108699.638                  
                                
  19600360.338   104664889.775    19600355.460    81406035.833                  
                                
  22216537.937   118676785.665    22216534.310    92304158.947                  
                                
  26909538.746   141410587.322                                                  
                                
  23852546.413   125346037.387                                                  
                                
  24136721.255   126839397.380                                                  
                                
 21  8 31  2 35 32.0000000  0 13G 3G16G22G26G29G31G32R 7R 9R16E 7E21
                                E27
  21853927.090   114843177.736                    89488205.430    21853928.984  
  21853925.196    85759512.303  
  21195305.995   111382112.128    21195303.797    86791259.729                  
                                
  22317876.240   117281246.219    22317873.059    91387979.523                  
                                
  20037143.409   105295940.244                    82048817.748    20037144.159  
  20037140.050    78630119.844  
  24189156.885   127114903.137                    99050530.554    24189157.510  
                                
  21408502.148   112502503.251                    87664305.054    21408499.879  
                                
  23350871.449   122709655.605                    95617913.253    23350871.270  
  23350869.859    91633817.088  
  19240600.404   102996453.304    19240596.651    80108333.817                  
                                
  19600558.112   104665947.069    19600553.520    81406858.166                  
                                
  22217167.749   118680153.529    22217164.640    92306778.396                  
                                
  26910028.250   141413154.243                                                  
                                
  23852342.259   125344964.409                                                  
                                
  24137018.024   126840956.704                                                  
                                
 21  8 31  2 35 33.0000000  0 13G 3G16G22G26G29G31G32R 7R 9R16E 7E21
                                E27
  21853991.240   114843515.127                    89488468.323    21853991.883  
  21853989.488    85759764.258  
  21194787.990   111379389.593    21194785.524    86789138.279                  
                                
  22318168.523   117282780.560    22318164.968    91389175.118                  
                                
  20037135.475   105295898.877                    82048785.518    20037136.333  
  20037132.223    78630088.955  
  24189214.477   127115205.541                    99050766.186    24189214.709  
                                
  21408837.246   112504265.278                    87665678.071    21408835.316  
                                
  23351436.128   122712623.550                    95620225.931    23351435.431  
  23351434.591    91636033.400  
  19240511.827   102995983.896    19240509.075    80107968.717                  
                                
  19600756.458   104667004.863    19600751.652    81407680.904                  
                                
  22217798.364   118683521.490    22217794.844    92309397.927                  
                                
  26910516.271   141415721.360                                                  
                                
  23852138.195   125343891.853                                                  
                                
  24137315.043   126842516.358                                                  
                                
 21  8 31  2 35 34.0000000  0 13G 3G16G22G26G29G31G32R 7R 9R16E 7E21
                                E27
  21854055.461   114843853.120                    89488731.694    21854056.837  
  21854053.763    85760016.655  
  21194269.574   111376667.499    21194267.573    86787017.166                  
                                
  22318460.503   117284315.311    22318456.947    91390371.026                  
                                
  20037127.666   105295858.097                    82048753.741    20037128.953  
  20037124.450    78630058.509  
  24189272.051   127115508.494                    99051002.242    24189273.069  
                                
  21409172.630   112506027.418                    87667051.158    21409170.432  
                                
  23352001.593   122715591.710                    95622538.803    23352000.539  
  23351999.377    91638249.889  
  19240424.948   102995515.279    19240421.535    80107604.242                  
                                
  19600954.822   104668063.073    19600949.783    81408503.949                  
                                
  22218428.873   118686889.413    22218425.371    92312017.418                  
                                
  26911004.935   141418288.632                                                  
                                
  23851934.292   125342819.597                                                  
                                
  24137611.740   126844076.214                                                  
