     2.11           OBSERVATION DATA    M (MIXED)           RINEX VERSION / TYPE
CONVBIN 2.4.3                           20210831 054555 UTC PGM / RUN BY / DATE 
log: logs/21_08_31_03_04_48_tn31_VZ.rtcm                    COMMENT             
format: RTCM 3, station ID: 3666                            COMMENT             
3666                                                        MARKER NAME         
                                                            MARKER NUMBER       
                                                            OBSERVER / AGENCY   
                    LEICA GR50          4.40/7.701          REC # / TYPE / VERS 
                    GPPNULLANTENNA                          ANT # / TYPE        
   278146.3143 -5148067.5166  3742721.9101                  APPROX POSITION XYZ 
        0.0000        0.0000        0.0000                  ANTENNA: DELTA H/E/N
     1     1                                                WAVELENGTH FACT L1/2
     7    C1    L1    C2    L2    P2    C5    L5            # / TYPES OF OBSERV 
  2021     8    31     3     5    6.0000000     GPS         TIME OF FIRST OBS   
  2021     8    31     3    34   52.0000000     GPS         TIME OF LAST OBS    
                                                            END OF HEADER       
 21  8 31  3  5  6.0000000  0 14G 3G 4G16G22G26G31R 7R 8R 9E 1E 4E19
                                E21E27
  21652999.540   113787311.930    21653000.594    88665453.601    21652999.915  
  21653000.844    84971064.656  
  21793894.016   114527711.429    21793893.462    89242383.598    21793893.123  
  21793897.304    85523967.317  
  20376509.248   107079322.001                    83438443.699    20376506.389  
                                
  22543989.284   118469489.175                    92313886.764    22543985.317  
                                
  20392042.272   107160986.127    20392043.273    83502103.791    20392042.969  
  20392042.415    80022861.046  
  22547301.701   118486928.394    22547299.574    92327495.299    22547298.806  
                                
  19297957.484   103303518.787    19297957.216    80347189.607    19297956.948  
                                
  20479136.211   109664869.105    20479135.211    85294908.789    20479135.121  
                                
  20159901.202   107652817.952    20159901.560    83730021.562    20159901.703  
                                
  26176334.690   137557594.203                                                  
  26176338.157   102721604.540  
  27601385.770   145046272.091                                                  
  27601388.861   108313794.350  
  23349101.326   122700390.783                                                  
  23349102.773    91626936.100  
  23478991.200   123383011.459                                                  
  23478993.916    92136720.589  
  25078912.058   131790657.412                                                  
  25078915.060    98415149.361  
 21  8 31  3  5  7.0000000  0 14G 3G 4G16G22G26G31R 7R 8R 9E 1E 4E19
                                E21E27
  21653277.654   113788773.311    21653278.690    88666592.336    21653278.011  
  21653278.958    84972155.945  
  21793420.380   114525222.342    21793419.808    89240444.045    21793419.469  
  21793423.650    85522108.581  
  20376197.380   107077683.085                    83437166.615    20376194.521  
                                
  22544440.316   118471859.379                    92315733.671    22544436.349  
                                
  20392267.136   107162167.818    20392268.136    83503024.585    20392267.833  
  20392267.297    80023743.477  
  22547754.716   118489308.948    22547752.590    92329350.269    22547751.821  
                                
  19298171.805   103304666.092    19298171.537    80348081.948    19298171.269  
                                
  20478626.265   109662138.387    20478625.265    85292784.888    20478625.175  
                                
  20160307.151   107654985.671    20160307.508    83731707.558    20160307.651  
                                
  26175878.977   137555199.303                                                  
  26175882.461   102719816.140  
  27600881.309   145043621.063                                                  
  27600884.383   108311814.680  
  23348944.686   122699567.617                                                  
  23348946.133    91626321.396  
  23478924.423   123382660.528                                                  
  23478927.157    92136458.537  
  25079312.306   131792760.561                                                  
  25079315.308    98416719.896  
 21  8 31  3  5  8.0000000  0 14G 3G 4G16G22G26G31R 7R 8R 9E 1E 4E19
                                E21E27
  21653555.874   113790235.386    21653556.928    88667731.612    21653556.232  
  21653557.179    84973247.745  
  21792946.780   114522733.598    21792946.208    89238504.759    21792945.868  
  21792950.050    85520250.103  
  20375885.637   107076044.935                    83435890.137    20375882.796  
                                
  22544891.437   118474230.038                    92317580.933    22544887.470  
                                
  20392492.142   107163350.184    20392493.143    83503945.904    20392492.821  
  20392492.285    80024626.412  
  22548207.749   118491689.666    22548205.623    92331205.370    22548204.872  
                                
  19298386.304   103305814.317    19298386.036    80348975.009    19298385.786  
                                
  20478116.444   109659408.339    20478115.444    85290661.520    20478115.354  
                                
  20160713.171   107657153.789    20160713.528    83733393.872    20160713.689  
                                
  26175423.352   137552804.731                                                  
  26175426.855   102718027.990  
  27600376.849   145040970.129                                                  
  27600379.922   108309835.100  
  23348788.117   122698744.883                                                  
  23348789.583    91625707.012  
  23478857.772   123382310.073                                                  
  23478860.542    92136196.826  
  25079712.608   131794863.994                                                  
  25079715.646    98418290.637  
 21  8 31  3  5  9.0000000  0 14G 3G 4G16G22G26G31R 7R 8R 9E 1E 4E19
                                E21E27
  21653834.202   113791698.012    21653835.239    88668871.314    21653834.559  
  21653835.489    84974339.970  
  21792473.233   114520245.053    21792472.679    89236565.634    21792472.321  
  21792476.520    85518391.779  
  20375574.055   107074407.390                    83434614.116    20375571.214  
                                
  22545342.630   118476600.996                    92319428.431    22545338.663  
                                
  20392717.239   107164533.080    20392718.239    83504867.628    20392717.935  
  20392717.399    80025509.744  
  22548660.801   118494070.434    22548658.674    92333060.507    22548657.906  
                                
  19298600.947   103306963.334    19298600.697    80349868.680    19298600.429  
                                
  20477606.730   109656678.797    20477605.730    85288538.528    20477605.640  
                                
  20161119.244   107659322.187    20161119.619    83735080.388    20161119.762  
                                
  26174967.674   137550410.336                                                  
  26174971.159   102716239.985  
  27599872.406   145038319.219                                                  
  27599875.480   108307855.511  
  23348631.620   122697922.419                                                  
  23348633.068    91625092.835  
  23478791.120   123381959.955                                                  
  23478793.854    92135935.379  
  25080112.874   131796967.574                                                  
  25080115.894    98419861.488  
 21  8 31  3  5 10.0000000  0 14G 3G 4G16G22G26G31R 7R 8R 9E 1E 4E19
                                E21E27
  21654112.619   113793161.063    21654113.656    88670011.347    21654112.977  
  21654113.906    84975432.517  
  21791999.686   114517756.606    21791999.132    89234626.579    21791998.774  
  21792002.973    85516533.523  
  20375262.545   107072770.361                    83433338.497    20375259.703  
                                
  22545793.859   118478972.180                    92321276.102    22545789.892  
                                
  20392942.424   107165716.406    20392943.425    83505789.690    20392943.121  
  20392942.585    80026393.390  
  22549113.834   118496451.140    22549111.707    92334915.596    22549110.957  
                                
  19298815.751   103308113.057    19298815.483    80350762.902    19298815.232  
                                
  20477097.106   109653949.685    20477096.123    85286415.881    20477096.034  
                                
  20161525.353   107661490.794    20161525.729    83736767.080    20161525.872  
                                
  26174512.068   137548016.064                                                  
  26174515.535   102714452.053  
  27599367.928   145035668.183                                                  
  27599370.984   108305875.843  
  23348475.141   122697100.145                                                  
  23348476.589    91624478.797  
  23478724.558   123381610.087                                                  
  23478727.274    92135674.109  
  25080513.176   131799071.207                                                  
  25080516.178    98421432.387  
 21  8 31  3  5 11.0000000  0 14G 3G 4G16G22G26G31R 7R 8R 9E 1E 4E19
                                E21E27
  21654391.108   113794624.599    21654392.162    88671151.760    21654391.465  
  21654392.413    84976525.408  
  21791526.156   114515268.264    21791525.603    89232687.609    21791525.245  
  21791529.444    85514675.352  
  20374951.123   107071133.860                    83432063.304    20374948.282  
                                
  22546245.123   118481343.584                    92323123.949    22546241.156  
                                
  20393167.699   107166900.156    20393168.717    83506712.098    20393168.396  
  20393167.877    80027277.364  
  22549566.867   118498831.796    22549564.741    92336770.648    22549563.990  
                                
  19299030.661   103309263.500    19299030.393    80351657.693    19299030.125  
                                
  20476587.553   109651221.055    20476586.552    85284293.618    20476586.463  
                                
  20161931.516   107663659.594    20161931.892    83738453.922    20161932.035  
                                
  26174056.515   137545621.903                                                  
  26174060.017   102712664.201  
  27598863.432   145033017.070                                                  
  27598866.488   108303896.120  
  23348318.698   122696278.074                                                  
  23348320.163    91623864.921  
  23478658.050   123381260.465                                                  
  23478660.802    92135413.032  
  25080913.532   131801174.904                                                  
  25080916.569    98423003.330  
 21  8 31  3  5 12.0000000  0 14G 3G 4G16G22G26G31R 7R 8R 9E 1E 4E19
                                E21E27
  21654669.704   113796088.674    21654670.740    88672292.591    21654670.061  
  21654671.008    84977618.714  
  21791052.699   114512780.119    21791052.127    89230748.788    21791051.788  
  21791055.987    85512817.324  
  20374639.827   107069497.969                    83430788.577    20374636.986  
                                
  22546696.441   118483715.293                    92324972.025    22546692.492  
                                
  20393393.063   107168084.438    20393394.081    83507634.904    20393393.778  
  20393393.242    80028161.730  
  22550019.901   118501212.488    22550017.792    92338625.726    22550017.024  
                                
  19299245.733   103310414.744    19299245.465    80352553.096    19299245.215  
                                
  20476078.089   109648492.971    20476077.106    85282171.768    20476077.017  
                                
  20162337.715   107665828.672    20162338.090    83740140.978    20162338.233  
                                
  26173600.909   137543227.924                                                  
  26173604.393   102710876.489  
  27598358.918   145030365.922                                                  
  27598361.974   108301916.380  
  23348162.326   122695456.273                                                  
  23348163.774    91623251.237  
  23478591.541   123380911.180                                                  
  23478594.275    92135152.199  
  25081313.851   131803278.745                                                  
  25081316.871    98424574.373  
 21  8 31  3  5 13.0000000  0 14G 3G 4G16G22G26G31R 7R 8R 9E 1E 4E19
                                E21E27
  21654948.443   113797553.381    21654949.479    88673433.927    21654948.800  
  21654949.747    84978712.492  
  21790579.277   114510292.279    21790578.705    89228810.220    21790578.348  
  21790582.547    85510959.525  
  20374328.656   107067862.789                    83429514.416    20374325.815  
                                
  22547147.848   118486087.422                    92326820.446    22547143.881  
                                
  20393618.552   107169269.342    20393619.553    83508558.217    20393619.249  
  20393618.713    80029046.561  
  22550472.952   118503593.311    22550470.825    92340480.922    22550470.075  
                                
  19299460.947   103311566.875    19299460.679    80353449.208    19299460.429  
                                
  20475568.768   109645765.549    20475567.785    85280050.449    20475567.696  
                                
  20162743.985   107667998.153    20162744.342    83741828.359    20162744.503  
                                
  26173145.409   137540834.227                                                  
  26173148.894   102709088.997  
  27597854.458   145027714.883                                                  
  27597857.513   108299936.710  
  23348006.026   122694634.874                                                  
  23348007.473    91622637.852  
  23478525.158   123380562.330                                                  
  23478527.892    92134891.698  
  25081714.242   131805382.830                                                  
  25081717.244    98426145.608  
 21  8 31  3  5 14.0000000  0 14G 3G 4G16G22G26G31R 7R 8R 9E 1E 4E19
                                E21E27
  21655227.289   113799018.736    21655228.325    88674575.756    21655227.646  
  21655228.576    84979806.751  
  21790105.909   114507804.723    21790105.337    89226871.863    21790104.979  
  21790109.179    85509101.931  
  20374017.628   107066228.316                    83428240.798    20374014.786  
                                
  22547599.327   118488459.938                    92328669.149    22547595.360  
                                
  20393844.148   107170454.862    20393845.149    83509481.989    20393844.845  
  20393844.309    80029931.856  
  22550926.039   118505974.258    22550923.912    92342336.198    22550923.162  
                                
  19299676.341   103312719.847    19299676.073    80354345.957    19299675.822  
                                
  20475059.555   109643038.769    20475058.572    85277929.618    20475058.483  
                                
  20163150.327   107670168.003    20163150.702    83743516.020    20163150.845  
                                
  26172689.999   137538440.821                                                  
  26172693.520   102707301.713  
  27597349.979   145025063.893                                                  
  27597353.035   108297957.080  
  23347849.779   122693813.824                                                  
  23347851.244    91622024.735  
  23478458.900   123380213.906                                                  
  23478461.669    92134631.511  
  25082114.741   131807487.134                                                  
  25082117.779    98427717.006  
 21  8 31  3  5 15.0000000  0 14G 3G 4G16G22G26G31R 7R 8R 9E 1E 4E19
                                E21E27
  21655506.260   113800484.745    21655507.297    88675718.078    21655506.618  
  21655507.565    84980901.498  
  21789632.594   114505317.470    21789632.022    89224933.721    21789631.665  
  21789635.864    85507244.571  
  20373706.742   107064594.562                    83426967.717    20373703.919  
                                
  22548050.895   118490832.892                    92330518.174    22548046.946  
                                
  20394069.888   107171641.022    20394070.888    83510406.247    20394070.585  
  20394070.067    80030817.622  
  22551379.179   118508355.352    22551377.053    92344191.575    22551376.302  
                                
  19299891.895   103313873.719    19299891.645    80355243.391    19299891.394  
                                
  20474550.484   109640312.636    20474549.501    85275809.271    20474549.412  
                                
  20163556.758   107672338.271    20163557.133    83745203.986    20163557.276  
                                
  26172234.572   137536047.707                                                  
  26172238.038   102705514.655  
  27596845.537   145022413.030                                                  
  27596848.592   108295977.537  
  23347693.622   122692993.185                                                  
  23347695.087    91621411.913  
  23478392.641   123379865.924                                                  
  23478395.375    92134371.655  
  25082515.168   131809591.709                                                  
  25082518.188    98429288.602  
 21  8 31  3  5 16.0000000  0 14G 3G 4G16G22G26G31R 7R 8R 9E 1E 4E19
                                E21E27
  21655785.339   113801951.353    21655786.375    88676860.887    21655785.696  
  21655786.643    84981996.688  
  21789159.333   114502830.475    21789158.761    89222995.803    21789158.404  
  21789162.603    85505387.395  
  20373395.982   107062961.468                    83425695.179    20373393.141  
                                
  22548502.517   118493206.194                    92332367.501    22548498.568  
                                
  20394295.717   107172827.742    20394296.717    83511330.969    20394296.413  
  20394295.895    80031703.814  
  22551832.284   118510736.534    22551830.176    92346047.039    22551829.425  
                                
  19300107.627   103315028.430    19300107.359    80356141.500    19300107.109  
                                
  20474041.503   109637587.058    20474040.520    85273689.382    20474040.431  
                                
  20163963.242   107674508.861    20163963.617    83746892.218    20163963.760  
                                
  26171779.269   137533654.855                                                  
  26171782.771   102703727.774  
  27596341.112   145019762.207                                                  
  27596344.150   108293998.031  
  23347537.500   122692172.869                                                  
  23347538.965    91620799.342  
  23478326.526   123379518.330                                                  
  23478329.296    92134112.087  
  25082915.738   131811696.474                                                  
  25082918.775    98430860.345  
 21  8 31  3  5 17.0000000  0 14G 3G 4G16G22G26G31R 7R 8R 9E 1E 4E19
                                E21E27
  21656064.506   113803418.439    21656065.543    88678004.069    21656064.864  
  21656065.811    84983092.240  
  21788686.090   114500343.598    21788685.518    89221057.974    21788685.160  
  21788689.360    85503530.318  
  20373085.329   107061328.920                    83424423.059    20373082.506  
                                
  22548954.192   118495579.752                    92334217.022    22548950.243  
                                
  20394521.599   107174014.929    20394522.617    83512256.042    20394522.314  
  20394521.795    80032590.345  
  22552285.425   118513117.671    22552283.298    92347902.474    22552282.548  
                                
  19300323.467   103316183.898    19300323.199    80357040.193    19300322.949  
                                
  20473532.611   109634861.935    20473531.628    85271569.833    20473531.539  
                                
  20164369.780   107676679.674    20164370.156    83748580.623    20164370.298  
                                
  26171323.931   137531262.115                                                  
  26171327.451   102701940.996  
  27595836.652   145017111.285                                                  
  27595839.689   108292018.455  
  23347381.450   122691352.770                                                  
  23347382.897    91620186.934  
  23478260.446   123379171.009                                                  
  23478263.198    92133852.724  
  25083316.290   131813801.319                                                  
  25083319.327    98432432.144  
 21  8 31  3  5 18.0000000  0 14G 3G 4G16G22G26G31R 7R 8R 9E 1E 4E19
                                E21E27
  21656343.835   113804886.168    21656344.853    88679147.744    21656344.174  
  21656345.121    84984188.267  
  21788212.900   114497857.023    21788212.328    89219120.374    21788211.971  
  21788216.188    85501673.459  
  20372774.801   107059697.085                    83423151.488    20372771.978  
                                
  22549405.957   118497953.706                    92336066.842    22549402.008  
                                
  20394747.642   107175202.735    20394748.661    83513181.596    20394748.357  
  20394747.839    80033477.346  
  22552738.565   118515498.950    22552736.439    92349757.995    22552735.688  
                                
  19300539.504   103317340.266    19300539.254    80357939.578    19300538.986  
                                
  20473023.844   109632137.446    20473022.861    85269450.779    20473022.772  
                                
  20164776.390   107678850.870    20164776.765    83750269.321    20164776.908  
                                
  26170868.664   137528869.668                                                  
  26170872.166   102700154.430  
  27595332.209   145014460.478                                                  
  27595335.247   108290038.969  
  23347225.471   122690533.061                                                  
  23347226.919    91619574.808  
  23478194.420   123378824.124                                                  
  23478197.190    92133593.687  
  25083716.860   131815906.407                                                  
  25083719.897    98434004.126  
 21  8 31  3  5 19.0000000  0 14G 3G 4G16G22G26G31R 7R 8R 9E 1E 4E19
                                E21E27
  21656623.271   113806354.704    21656624.307    88680292.054    21656623.628  
  21656624.575    84985284.903  
  21787739.818   114495370.911    21787739.228    89217183.132    21787738.889  
  21787743.106    85499816.941  
  20372464.452   107058066.115                    83421880.594    20372461.611  
                                
  22549857.829   118500328.233                    92337917.120    22549853.879  
                                
  20394973.846   107176391.342    20394974.847    83514107.779    20394974.543  
  20394974.025    80034364.940  
  22553191.777   118517880.522    22553189.651    92351613.774    22553188.900  
                                
  19300755.701   103318497.680    19300755.451    80358839.789    19300755.201  
                                
  20472515.220   109629413.782    20472514.237    85267332.376    20472514.148  
                                
  20165183.089   107681022.616    20165183.464    83751958.446    20165183.625  
                                
  26170413.486   137526477.688                                                  
  26170417.006   102698368.209  
  27594827.820   145011809.917                                                  
  27594830.858   108288059.641  
  23347069.582   122689713.886                                                  
  23347071.047    91618963.091  
  23478128.537   123378477.839                                                  
  23478131.289    92133335.102  
  25084117.537   131818011.915                                                  
  25084120.574    98435576.423  
 21  8 31  3  5 20.0000000  0 14G 3G 4G16G22G26G31R 7R 8R 9E 1E 4E19
                                E21E27
  21656902.796   113807823.574    21656903.832    88681436.626    21656903.153  
  21656904.100    84986381.782  
  21787266.717   114492884.773    21787266.146    89215245.882    21787265.788  
  21787270.005    85497960.409  
  20372154.157   107056435.533                    83420610.015    20372151.315  
                                
  22550309.700   118502702.844                    92339767.469    22550305.751  
                                
  20395200.086   107177580.234    20395201.086    83515034.186    20395200.783  
  20395200.282    80035252.748  
  22553644.918   118520261.906    22553642.809    92353469.396    22553642.059  
                                
  19300972.024   103319655.634    19300971.773    80359740.421    19300971.523  
                                
  20472006.632   109626690.457    20472005.667    85265214.236    20472005.578  
                                
  20165589.770   107683194.402    20165590.163    83753647.617    20165590.306  
                                
  26169958.290   137524085.649                                                  
  26169961.811   102696581.950  
  27594323.396   145009159.118                                                  
  27594326.416   108286080.159  
  23346913.710   122688894.779                                                  
  23346915.158    91618351.417  
  23478062.672   123378131.665                                                  
  23478065.442    92133076.591  
  25084518.178   131820117.326                                                  
  25084521.216    98437148.650  
 21  8 31  3  5 21.0000000  0 14G 3G 4G16G22G26G31R 7R 8R 9E 1E 4E19
                                E21E27
  21657182.392   113809292.970    21657183.429    88682581.612    21657182.750  
  21657183.697    84987479.071  
  21786793.653   114490398.820    21786793.063    89213308.780    21786792.724  
  21786796.941    85496104.029  
  20371843.986   107054805.570                    83419339.914    20371841.163  
                                
  22550761.626   118505077.764                    92341618.060    22550757.677  
                                
  20395426.415   107178769.648    20395427.433    83515961.005    20395427.129  
  20395426.611    80036140.952  
  22554098.112   118522643.337    22554095.986    92355325.054    22554095.235  
                                
  19301188.489   103320814.369    19301188.221    80360641.657    19301187.971  
                                
  20471498.187   109623967.720    20471497.222    85263096.549    20471497.133  
                                
  20165996.540   107685366.480    20165996.916    83755337.011    20165997.076  
                                
  26169503.131   137521693.829                                                  
  26169506.633   102694795.852  
  27593818.953   145006508.319                                                  
  27593821.973   108284100.675  
  23346757.893   122688075.956                                                  
  23346759.358    91617739.957  
  23477996.860   123377785.823                                                  
  23477999.612    92132818.339  
  25084918.837   131822222.896                                                  
  25084921.875    98438720.988  
 21  8 31  3  5 22.0000000  0 14G 3G 4G16G22G26G31R 7R 8R 9E 1E 4E19
                                E21E27
  21657462.096   113810762.709    21657463.133    88683726.867    21657462.454  
  21657463.401    84988576.595  
  21786320.588   114487912.852    21786320.017    89211371.662    21786319.659  
  21786323.876    85494247.620  
  20371533.887   107053175.998                    83418070.119    20371531.064  
                                
  22551213.569   118507452.774                    92343468.718    22551209.620  
                                
  20395652.815   107179959.373    20395653.834    83516888.065    20395653.530  
  20395653.012    80037029.385  
  22554551.235   118525024.565    22554549.108    92357180.557    22554548.358  
                                
  19301405.061   103321973.675    19301404.793    80361543.339    19301404.543  
                                
  20470989.813   109621245.309    20470988.830    85260979.121    20470988.741  
                                
  20166403.329   107687538.635    20166403.704    83757026.468    20166403.847  
                                
  26169047.953   137519301.966                                                  
  26169051.420   102693009.725  
  27593314.493   145003857.283                                                  
  27593317.513   108282120.994  
  23346602.093   122687257.186                                                  
  23346603.558    91617128.538  
  23477931.013   123377440.098                                                  
  23477933.747    92132560.170  
  25085319.461   131824328.383                                                  
  25085322.463    98440293.263  
 21  8 31  3  5 23.0000000  0 14G 3G 4G16G22G26G31R 7R 8R 9E 1E 4E19
                                E21E27
  21657741.925   113812233.302    21657742.979    88684872.807    21657742.283  
  21657743.230    84989674.765  
  21785847.631   114485427.400    21785847.059    89209434.974    21785846.702  
  21785850.919    85492391.601  
  20371223.949   107051547.347                    83416801.066    20371221.108  
                                
  22551665.620   118509828.404                    92345319.878    22551661.671  
                                
  20395879.359   107181149.923    20395880.359    83517815.796    20395880.056  
  20395879.537    80037918.436  
  22555004.411   118527406.152    22555002.302    92359036.364    22555001.534  
                                
  19301621.831   103323134.117    19301621.563    80362445.930    19301621.312  
                                
  20470481.547   109618523.739    20470480.564    85258862.363    20470480.475  
                                
  20166810.188   107689711.393    20166810.582    83758716.411    20166810.725  
                                
  26168592.936   137516910.611                                                  
  26168596.456   102691223.975  
  27592810.068   145001206.543                                                  
  27592813.088   108280141.559  
  23346446.382   122686439.012                                                  
  23346447.829    91616517.572  
  23477865.398   123377095.021                                                  
  23477868.168    92132302.485  
  25085720.281   131826434.334                                                  
  25085723.319    98441865.891  
 21  8 31  3  5 24.0000000  0 14G 3G 4G16G22G26G31R 7R 8R 9E 1E 4E19
                                E21E27
  21658021.897   113813704.532    21658022.951    88686019.238    21658022.272  
  21658023.201    84990773.417  
  21785374.710   114482942.237    21785374.156    89207498.497    21785373.798  
  21785377.997    85490535.801  
  20370914.136   107049919.420                    83415532.572    20370911.295  
                                
  22552117.760   118512204.462                    92347171.368    22552113.811  
                                
  20396106.009   107182341.124    20396107.010    83518744.016    20396106.706  
  20396106.170    80038807.965  
  22555457.623   118529787.865    22555455.497    92360892.269    22555454.746  
                                
  19301838.760   103324295.477    19301838.492    80363349.224    19301838.242  
                                
  20469973.423   109615802.796    20469972.440    85256746.095    20469972.351  
                                
  20167217.138   107691884.520    20167217.513    83760406.640    20167217.656  
                                
  26168137.884   137514519.564                                                  
  26168141.350   102689438.457  
  27592305.661   144998555.888                                                  
  27592308.681   108278162.189  
  23346290.778   122685621.231                                                  
  23346292.226    91615906.887  
  23477799.783   123376750.394                                                  
  23477802.499    92132045.129  
  25086121.012   131828540.525                                                  
  25086124.014    98443438.701  
 21  8 31  3  5 25.0000000  0 14G 3G 4G16G22G26G31R 7R 8R 9E 1E 4E19
                                E21E27
  21658301.976   113815176.363    21658303.030    88687166.135    21658302.351  
  21658303.280    84991872.505  
  21784901.859   114480457.316    21784901.306    89205562.211    21784900.948  
  21784905.147    85488680.174  
  20370604.483   107048292.148                    83414264.582    20370601.642  
                                
  22552569.971   118514580.852                    92349023.114    22552566.004  
                                
  20396332.785   107183532.865    20396333.786    83519672.664    20396333.482  
  20396332.946    80039697.902  
  22555910.871   118532169.654    22555908.726    92362748.225    22555907.976  
                                
  19302055.851   103325457.658    19302055.583    80364253.157    19302055.333  
                                
  20469465.407   109613082.416    20469464.424    85254630.264    20469464.335  
                                
  20167624.158   107694058.011    20167624.516    83762097.149    20167624.676  
                                
  26167682.921   137512128.734                                                  
  26167686.387   102687653.094  
  27591801.272   144995905.271                                                  
  27591804.274   108276182.839  
  23346135.211   122684803.767                                                  
  23346136.676    91615296.444  
  23477734.257   123376406.127                                                  
  23477736.973    92131788.049  
  25086521.849   131830646.896                                                  
  25086524.851    98445011.644  
 21  8 31  3  5 26.0000000  0 14G 3G 4G16G22G26G31R 7R 8R 9E 1E 4E19
                                E21E27
  21658582.144   113816648.617    21658583.199    88688313.355    21658582.520  
  21658583.449    84992971.914  
  21784429.009   114477972.472    21784428.455    89203625.983    21784428.098  
  21784432.297    85486824.616  
  20370294.903   107046665.358                    83412996.966    20370292.044  
                                
  22553022.200   118516957.429                    92350875.004    22553018.233  
                                
  20396559.632   107184725.014    20396560.633    83520601.625    20396560.329  
  20396559.793    80040588.143  
  22556364.083   118534551.367    22556361.938    92364604.116    22556361.188  
                                
  19302273.067   103326620.501    19302272.799    80365157.599    19302272.549  
                                
  20468957.462   109610362.457    20468956.461    85252514.755    20468956.372  
                                
  20168031.179   107696231.631    20168031.554    83763787.754    20168031.697  
                                
  26167227.957   137509737.974                                                  
  26167231.424   102685867.787  
  27591296.830   144993254.531                                                  
  27591299.832   108274203.394  
  23345979.679   122683986.462                                                  
  23345981.126    91614686.120  
  23477668.785   123376062.090                                                  
  23477671.519    92131531.135  
  25086922.670   131832753.299                                                  
  25086925.689    98446584.610  
 21  8 31  3  5 27.0000000  0 14G 3G 4G16G22G26G31R 7R 8R 9E 1E 4E19
                                E21E27
  21658862.420   113818121.537    21658863.474    88689461.090    21658862.795  
  21658863.725    84994071.823  
  21783956.213   114475487.951    21783955.641    89201690.001    21783955.284  
  21783959.483    85484969.294  
  20369985.465   107045039.298                    83411729.909    20369982.606  
                                
  22553474.537   118519334.444                    92352727.226    22553470.570  
                                
  20396786.605   107185917.809    20396787.605    83521531.082    20396787.284  
  20396786.748    80041478.873  
  22556817.331   118536933.232    22556815.186    92366460.120    22556814.418  
                                
  19302490.479   103327784.260    19302490.194    80366062.748    19302489.943  
                                
  20468449.660   109607643.165    20468448.660    85250399.752    20468448.570  
                                
  20168438.325   107698405.679    20168438.682    83765478.688    20168438.825  
                                
  26166773.137   137507347.540                                                  
  26166776.622   102684082.725  
  27590792.441   144990603.914                                                  
  27590795.443   108272224.031  
  23345824.236   122683169.579                                                  
  23345825.701    91614076.110  
  23477603.438   123375718.504                                                  
  23477606.190    92131274.566  
  25087323.597   131834859.966                                                  
  25087326.617    98448157.774  
 21  8 31  3  5 28.0000000  0 14G 3G 4G16G22G26G31R 7R 8R 9E 1E 4E19
                                E21E27
  21659142.857   113819595.208    21659143.911    88690609.387    21659143.232  
  21659144.161    84995172.292  
  21783483.506   114473003.844    21783482.934    89199754.315    21783482.577  
  21783486.794    85483114.278  
  20369676.223   107043414.074                    83410463.487    20369673.364  
                                
  22553926.962   118521711.966                    92354579.827    22553923.013  
                                
  20397013.738   107187111.357    20397014.739    83522461.100    20397014.435  
  20397013.899    80042370.153  
  22557270.650   118539315.356    22557268.505    92368316.302    22557267.755  
                                
  19302708.088   103328949.043    19302707.820    80366968.673    19302707.570  
                                
  20467941.983   109604924.647    20467941.001    85248285.336    20467940.911  
                                
  20168845.542   107700580.214    20168845.917    83767169.972    20168846.060  
                                
  26166318.353   137504957.505                                                  
  26166321.873   102682297.958  
  27590288.088   144987953.488                                                  
  27590291.090   108270244.821  
  23345668.883   122682353.183                                                  
  23345670.348    91613466.457  
  23477538.198   123375375.467                                                  
  23477540.986    92131018.400  
  25087724.578   131836966.994                                                  
  25087727.633    98449731.200  
 21  8 31  3  5 29.0000000  0 14G 3G 4G16G22G26G31R 7R 8R 9E 1E 4E19
                                E21E27
  21659423.436   113821069.587    21659424.472    88691758.226    21659423.793  
  21659424.723    84996273.302  
  21783010.870   114470520.088    21783010.280    89197818.889    21783009.941  
  21783014.140    85481259.533  
  20369367.107   107041789.599                    83409197.623    20369364.266  
                                
  22554379.513   118524089.973                    92356432.780    22554375.564  
                                
  20397241.032   107188305.558    20397242.033    83523391.611    20397241.729  
  20397241.211    80043261.936  
  22557724.005   118541697.644    22557721.878    92370172.600    22557721.128  
                                
  19302925.858   103330114.781    19302925.608    80367875.324    19302925.358  
                                
  20467434.503   109602206.839    20467433.520    85246171.440    20467433.431  
                                
  20169252.866   107702755.211    20169253.241    83768861.599    20169253.402  
                                
  26165863.586   137502567.817                                                  
  26165867.106   102680513.451  
  27589783.753   144985303.203                                                  
  27589786.755   108268265.714  
  23345513.601   122681537.225                                                  
  23345515.066    91612857.140  
  23477473.012   123375032.923                                                  
  23477475.782    92130762.606  
  25088125.594   131839074.332                                                  
  25088128.650    98451304.856  
 21  8 31  3  5 30.0000000  0 14G 3G 4G16G22G26G31R 7R 8R 9E 1E 4E19
                                E21E27
  21659704.087   113822544.440    21659705.123    88692907.446    21659704.444  
  21659705.373    84997374.652  
  21782538.234   114468036.462    21782537.645    89195883.580    21782537.305  
  21782541.522    85479404.879  
  20369058.098   107040165.678                    83407932.214    20369055.257  
                                
  22554832.100   118526468.211                    92358285.935    22554828.151  
                                
  20397468.362   107189500.227    20397469.380    83524322.502    20397469.076  
  20397468.558    80044154.051  
  22558177.360   118544079.917    22558175.233    92372028.899    22558174.465  
                                
  19303143.789   103331281.222    19303143.521    80368782.540    19303143.271  
                                
  20466927.059   109599489.487    20466926.076    85244057.929    20466925.986  
                                
  20169660.244   107704930.402    20169660.619    83770553.402    20169660.762  
                                
  26165408.837   137500178.242                                                  
  26165412.322   102678729.035  
  27589279.399   144982652.832                                                  
  27589282.401   108266286.546  
  23345358.391   122680721.480                                                  
  23345359.838    91612247.980  
  23477407.844   123374690.643                                                  
  23477410.595    92130507.007  
  25088526.593   131841181.730                                                  
  25088529.631    98452878.559  
 21  8 31  3  5 31.0000000  0 14G 3G 4G16G22G26G31R 7R 8R 9E 1E 4E19
                                E21E27
  21659984.845   113824019.875    21659985.881    88694057.140    21659985.202  
  21659986.149    84998476.442  
  21782065.670   114465553.065    21782065.081    89193948.475    21782064.741  
  21782068.958    85477550.394  
  20368749.196   107038542.397                    83406667.329    20368746.355  
                                
  22555284.704   118528846.775                    92360139.373    22555280.755  
                                
  20397695.798   107190695.437    20397696.817    83525253.841    20397696.513  
  20397695.995    80045046.584  
  22558630.679   118546462.258    22558628.553    92373885.277    22558627.802  
                                
  19303361.845   103332448.483    19303361.576    80369690.418    19303361.326  
                                
  20466419.703   109596772.701    20466418.721    85241944.884    20466418.631  
                                
  20170067.622   107707105.918    20170068.015    83772245.477    20170068.158  
                                
  26164954.142   137497788.897                                                  
  26164957.591   102676944.786  
  27588775.046   144980002.500                                                  
  27588778.030   108264307.402  
  23345203.198   122679906.038                                                  
  23345204.663    91611639.050  
  23477342.747   123374348.724                                                  
  23477345.463    92130251.676  
  25088927.610   131843289.301                                                  
  25088930.612    98454452.395  
 21  8 31  3  5 32.0000000  0 14G 3G 4G16G22G26G31R 7R 8R 9E 1E 4E19
                                E21E27
  21660265.674   113825495.724    21660266.729    88695207.182    21660266.050  
  21660266.979    84999578.537  
  21781593.106   114463069.744    21781592.534    89192013.449    21781592.195  
  21781596.394    85475695.968  
  20368440.366   107036919.611                    83405402.849    20368437.525  
                                
  22555737.363   118531225.545                    92361992.991    22555733.396  
                                
  20397923.307   107191891.069    20397924.325    83526185.534    20397924.004  
  20397923.486    80045939.427  
  22559083.998   118548844.510    22559081.854    92375741.608    22559081.103  
                                
  19303580.007   103333616.439    19303579.739    80370598.857    19303579.489  
                                
  20465912.438   109594056.354    20465911.455    85239832.200    20465911.365  
                                
  20170475.036   107709281.598    20170475.411    83773937.705    20170475.572  
                                
  26164499.465   137495399.631                                                  
  26164502.931   102675160.596  
  27588270.675   144977352.042                                                  
  27588273.677   108262328.165  
  23345048.077   122679090.784                                                  
  23345049.525    91611030.250  
  23477277.721   123374007.034                                                  
  23477280.455    92129996.520  
  25089328.680   131845396.901                                                  
  25089331.682    98456026.254  
 21  8 31  3  5 33.0000000  0 14G 3G 4G16G22G26G31R 7R 8R 9E 1E 4E19
                                E21E27
  21660546.611   113826971.907    21660547.648    88696357.475    21660546.969  
  21660547.898    85000680.875  
  21781120.524   114460586.376    21781119.952    89190078.375    21781119.613  
  21781123.812    85473841.509  
  20368131.625   107035297.202                    83404138.652    20368128.784  
                                
  22556190.021   118533604.382                    92363846.647    22556186.054  
                                
  20398150.869   107193086.974    20398151.870    83527117.425    20398151.548  
  20398151.030    80046832.473  
  22559537.282   118551226.563    22559535.137    92377597.767    22559534.387  
                                
  19303798.278   103334784.955    19303798.010    80371507.719    19303797.741  
                                
  20465405.208   109591340.319    20465404.225    85237719.749    20465404.135  
                                
  20170882.485   107711457.331    20170882.860    83775629.958    20170883.003  
                                
  26164044.770   137493010.306                                                  
  26164048.236   102673376.364  
  27587766.268   144974701.310                                                  
  27587769.252   108260348.736  
  23344892.921   122678275.553                                                  
  23344894.386    91610421.480  
  23477212.714   123373665.429                                                  
  23477215.448    92129741.430  
  25089729.732   131847504.404                                                  
  25089732.716    98457600.043  
 21  8 31  3  5 34.0000000  0 14G 3G 4G16G22G26G31R 7R 8R 9E 1E 4E19
                                E21E27
  21660827.655   113828448.797    21660828.710    88697508.299    21660828.030  
  21660828.942    85001783.738  
  21780648.049   114458103.410    21780647.477    89188143.606    21780647.138  
  21780651.337    85471987.342  
  20367823.027   107033675.602                    83402875.081    20367820.186  
                                
  22556642.786   118535983.700                    92365700.675    22556638.819  
                                
  20398378.574   107194283.601    20398379.575    83528049.873    20398379.253  
  20398378.735    80047726.053  
  22559990.601   118553608.837    22559988.457    92379454.100    22559987.706  
                                
  19304016.744   103335954.439    19304016.458    80372417.327    19304016.208  
                                
  20464898.138   109588625.019    20464897.138    85235607.861    20464897.048  
                                
  20171290.006   107713633.536    20171290.381    83777322.571    20171290.524  
                                
  26163590.199   137490621.398                                                  
  26163593.648   102671592.428  
  27587261.879   144972050.796                                                  
  27587264.864   108258369.445  
  23344737.907   122677460.818                                                  
  23344739.354    91609813.070  
  23477147.814   123373324.358                                                  
  23477150.530    92129486.730  
  25090130.820   131849612.242                                                  
  25090133.822    98459174.085  
 21  8 31  3  5 35.0000000  0 14G 3G 4G16G22G26G31R 7R 8R 9E 1E 4E19
                                E21E27
  21661108.878   113829926.682    21661109.932    88698659.900    21661109.253  
  21661110.164    85002887.350  
  21780175.664   114455621.069    21780175.092    89186209.317    21780174.735  
  21780178.952    85470133.650  
  20367514.661   107032055.041                    83401612.311    20367511.802  
                                
  22557095.694   118538363.764                    92367555.267    22557091.727  
                                
  20398606.457   107195481.176    20398607.440    83528983.050    20398607.137  
  20398606.600    80048620.348  
  22560444.027   118555991.579    22560441.883    92381310.785    22560441.115  
                                
  19304235.443   103337125.125    19304235.157    80373327.860    19304234.907  
                                
  20464391.248   109585910.694    20464390.265    85233496.719    20464390.158  
                                
  20171697.670   107715810.453    20171698.045    83779015.727    20171698.188  
                                
  26163135.755   137488233.092                                                  
  26163139.221   102669808.959  
  27586757.580   144969400.693                                                  
  27586760.564   108256390.472  
  23344582.982   122676646.781                                                  
  23344584.448    91609205.190  
  23477083.092   123372984.056                                                  
  23477085.844    92129232.608  
  25090532.069   131851720.661                                                  
  25090535.107    98460748.551  
 21  8 31  3  5 36.0000000  0 14G 3G 4G16G22G26G31R 7R 8R 9E 1E 4E19
                                E21E27
  21661390.279   113831405.480    21661391.334    88699812.187    21661390.655  
  21661391.584    85003991.651  
  21779703.385   114453139.306    21779702.814    89184275.455    21779702.456  
  21779706.673    85468280.393  
  20367206.474   107030435.472                    83400350.289    20367203.633  
                                
  22557548.745   118540744.517                    92369410.384    22557544.796  
                                
  20398834.538   107196679.652    20398835.538    83529916.909    20398835.235  
  20398834.699    80049515.323  
  22560897.543   118558374.724    22560895.399    92383167.755    22560894.631  
                                
  19304454.374   103338296.974    19304454.106    80374239.279    19304453.856  
                                
  20463884.572   109583197.293    20463883.589    85231386.277    20463883.499  
                                
  20172105.477   107717988.045    20172105.852    83780709.388    20172106.013  
                                
  26162681.345   137485845.360                                                  
  26162684.812   102668025.913  
  27586253.370   144966750.951                                                  
  27586256.336   108254411.773  
  23344428.219   122675833.414                                                  
  23344429.684    91608597.801  
  23477018.442   123372644.464                                                  
  23477021.158    92128979.021  
  25090933.354   131853829.599                                                  
  25090936.356    98462323.407  
 21  8 31  3  5 37.0000000  0 14G 3G 4G16G22G26G31R 7R 8R 9E 1E 4E19
                                E21E27
  21661671.806   113832884.838    21661672.860    88700964.938    21661672.181  
  21661673.092    85005096.369  
  21779231.179   114450657.764    21779230.607    89182341.787    21779230.249  
  21779234.467    85466427.290  
  20366898.412   107028816.540                    83399088.788    20366895.553  
                                
  22558001.850   118543125.602                    92371265.774    22557997.883  
                                
  20399062.689   107197878.667    20399063.690    83530851.211    20399063.386  
  20399062.868    80050410.694  
  22561351.041   118560757.928    22561348.897    92385024.797    22561348.146  
                                
  19304673.413   103339469.656    19304673.145    80375151.368    19304672.895  
                                
  20463377.967   109580484.456    20463376.984    85229276.301    20463376.877  
                                
  20172513.319   107720165.916    20172513.713    83782403.291    20172513.856  
                                
  26162227.007   137483457.826                                                  
  26162230.456   102666243.014  
  27585749.124   144964101.214                                                  
  27585752.090   108252433.078  
  23344273.491   122675020.343                                                  
  23344274.938    91607990.642  
  23476953.881   123372305.224                                                  
  23476956.597    92128725.695  
  25091334.710   131855938.710                                                  
  25091337.712    98463898.391  
 21  8 31  3  5 38.0000000  0 14G 3G 4G16G22G26G31R 7R 8R 9E 1E 4E19
                                E21E27
  21661953.386   113834364.695    21661954.440    88702118.080    21661953.761  
  21661954.690    85006201.461  
  21778758.972   114448176.365    21778758.400    89180408.241    21778758.043  
  21778762.260    85464574.306  
  20366590.422   107027198.156                    83397827.716    20366587.581  
                                
  22558454.991   118545506.930                    92373121.364    22558451.042  
                                
  20399290.930   107199078.156    20399291.931    83531785.884    20399291.627  
  20399291.091    80051306.413  
  22561804.539   118563141.117    22561802.395    92386881.834    22561801.644  
                                
  19304892.630   103340643.101    19304892.362    80376064.054    19304892.112  
                                
  20462871.452   109577772.117    20462870.451    85227166.710    20462870.362  
                                
  20172921.216   107722344.065    20172921.591    83784097.411    20172921.734  
                                
  26161772.723   137481070.458                                                  
  26161776.172   102664460.242  
  27585244.896   144961451.440                                                  
  27585247.862   108250454.346  
  23344118.817   122674207.504                                                  
  23344120.282    91607383.651  
  23476889.374   123371966.272                                                  
  23476892.090    92128472.581  
  25091736.084   131858047.904                                                  
  25091739.068    98465473.442  
 21  8 31  3  5 39.0000000  0 14G 3G 4G16G22G26G31R 7R 8R 9E 1E 4E19
                                E21E27
  21662235.091   113835844.931    21662236.145    88703271.526    21662235.466  
  21662236.378    85007306.825  
  21778286.765   114445694.975    21778286.211    89178474.702    21778285.854  
  21778290.053    85462721.325  
  20366282.521   107025580.198                    83396566.988    20366279.680  
                                
  22558908.185   118547888.391                    92374977.052    22558904.218  
                                
  20399519.261   107200277.984    20399520.261    83532720.825    20399519.940  
  20399519.422    80052202.389  
  22562258.019   118565524.162    22562255.857    92388738.771    22562255.107  
                                
  19305111.937   103341817.153    19305111.669    80376977.213    19305111.418  
                                
  20462364.990   109575060.142    20462364.007    85225057.401    20462363.918  
                                
  20173329.130   107724522.294    20173329.505    83785791.601    20173329.648  
                                
  26161318.403   137478683.050                                                  
  26161321.852   102662677.461  
  27584740.632   144958801.439                                                  
  27584743.598   108248475.462  
  23343964.142   122673394.761                                                  
  23343965.608    91606776.740  
  23476824.920   123371627.472                                                  
  23476827.636    92128219.577  
  25092137.422   131860157.047                                                  
  25092140.424    98467048.457  
 21  8 31  3  5 40.0000000  0 14G 3G 4G16G22G26G31R 7R 8R 9E 1E 4E19
                                E21E27
  21662516.850   113837325.574    21662517.904    88704425.268    21662517.225  
  21662518.136    85008412.505  
  21777814.612   114443213.687    21777814.040    89176541.227    21777813.701  
  21777817.900    85460868.413  
  20365974.745   107023962.757                    83395306.633    20365971.903  
                                
  22559361.397   118550270.065                    92376832.893    22559357.430  
                                
  20399747.663   107201478.229    20399748.663    83533656.072    20399748.342  
  20399747.823    80053098.676  
  22562711.481   118567907.124    22562709.337    92390595.618    22562708.569  
