% program   : rnx2rtkp ver.2.4.3 b31
% inp file  : ngs/21_08_31_17_48_15_mtei.obs
% inp file  : ngs/21_08_31_17_48_15_mtei_VZ.obs
% inp file  : ngs/21_08_31_17_48_15_brdc.nav
% obs start : 2021/08/31 17:00:00.0 GPST (week2173 234000.0s)
% obs end   : 2021/08/31 17:59:59.0 GPST (week2173 237599.0s)
% ref pos   : -1415434.5379  -4224405.6409   4550269.3220
%
% (x/y/z-ecef=WGS84,Q=1:fix,2:float,3:sbas,4:dgps,5:single,6:ppp,ns=# of satellites)
%  GPST              x-ecef(m)      y-ecef(m)      z-ecef(m)   Q  ns   sdx(m)   sdy(m)   sdz(m)  sdxy(m)  sdyz(m)  sdzx(m) age(s)  ratio
2173 236884.000  -1422329.0009  -4226311.6098   4546317.4482   1   8   0.0289   0.0429   0.0655   0.0296  -0.0454  -0.0329 -30.00    3.0
2173 236885.000  -1422328.7046  -4226311.1656   4546317.1307   2   8   0.3380   0.6000   0.7629   0.3522  -0.5781  -0.3599 -29.00    2.9
2173 236886.000  -1422328.6323  -4226310.9622   4546316.9194   2   8   0.2767   0.4913   0.6247   0.2883  -0.4734  -0.2947 -28.00    2.6
2173 236887.000  -1422328.6388  -4226310.9017   4546316.8827   2   8   0.2400   0.4263   0.5421   0.2501  -0.4108  -0.2557 -27.00    2.5
2173 236888.000  -1422328.6766  -4226310.9913   4546316.9798   2   8   0.2150   0.3818   0.4856   0.2241  -0.3680  -0.2291 -26.00    2.7
2173 236889.000  -1422328.6537  -4226310.9611   4546316.9854   2   8   0.1965   0.3489   0.4439   0.2048  -0.3363  -0.2094 -25.00    2.7
2173 236890.000  -1422328.6694  -4226310.9486   4546316.9794   2   8   0.1821   0.3233   0.4113   0.1897  -0.3116  -0.1941 -24.00    2.7
2173 236891.000  -1422328.7119  -4226310.9774   4546317.0930   2   8   0.1704   0.3026   0.3851   0.1776  -0.2917  -0.1817 -23.00    2.8
2173 236892.000  -1422328.7091  -4226310.9690   4546317.1436   2   8   0.1607   0.2854   0.3632   0.1675  -0.2751  -0.1714 -22.00    2.8
2173 236893.000  -1422328.7374  -4226311.0076   4546317.1494   2   8   0.1525   0.2708   0.3447   0.1589  -0.2611  -0.1627 -21.00    2.9
2173 236894.000  -1422328.9983  -4226311.6046   4546317.4611   1   8   0.0196   0.0294   0.0445   0.0201  -0.0310  -0.0223 -20.00    3.1
2173 236895.000  -1422329.0007  -4226311.6103   4546317.4666   1   8   0.0187   0.0281   0.0425   0.0192  -0.0295  -0.0213 -19.00    3.1
2173 236896.000  -1422329.0005  -4226311.6155   4546317.4747   1   8   0.0178   0.0268   0.0404   0.0183  -0.0281  -0.0202 -18.00    3.3
2173 236897.000  -1422328.9984  -4226311.6094   4546317.4671   1   8   0.0169   0.0255   0.0383   0.0173  -0.0267  -0.0192 -17.00    3.5
2173 236898.000  -1422328.9950  -4226311.6032   4546317.4663   1   8   0.0160   0.0242   0.0363   0.0164  -0.0253  -0.0182 -16.00    3.7
2173 236899.000  -1422328.9927  -4226311.6016   4546317.4641   1   8   0.0151   0.0229   0.0342   0.0155  -0.0239  -0.0171 -15.00    3.7
2173 236900.000  -1422328.9926  -4226311.5999   4546317.4652   1   8   0.0142   0.0216   0.0322   0.0146  -0.0225  -0.0161 -14.00    3.9
2173 236901.000  -1422328.9918  -4226311.5988   4546317.4656   1   8   0.0133   0.0203   0.0302   0.0137  -0.0211  -0.0151 -13.00    3.9
2173 236902.000  -1422328.9930  -4226311.5996   4546317.4631   1   8   0.0124   0.0191   0.0282   0.0128  -0.0198  -0.0140 -12.00    4.1
2173 236903.000  -1422328.9924  -4226311.5989   4546317.4632   1   8   0.0115   0.0178   0.0262   0.0119  -0.0184  -0.0131 -11.00    4.3
2173 236904.000  -1422328.9915  -4226311.5992   4546317.4618   1   8   0.0107   0.0166   0.0242   0.0111  -0.0171  -0.0120 -10.00    4.5
2173 236905.000  -1422328.9899  -4226311.5947   4546317.4613   1   8   0.0098   0.0155   0.0223   0.0102  -0.0158  -0.0111  -9.00    4.6
2173 236906.000  -1422328.9888  -4226311.5905   4546317.4574   1   8   0.0090   0.0143   0.0205   0.0093  -0.0146  -0.0101  -8.00    4.7
2173 236907.000  -1422328.9892  -4226311.5983   4546317.4635   1   8   0.0082   0.0132   0.0187   0.0085  -0.0134  -0.0092  -7.00    5.0
2173 236908.000  -1422328.9887  -4226311.5933   4546317.4566   1   8   0.0075   0.0122   0.0170   0.0078  -0.0122  -0.0083  -6.00    5.3
2173 236909.000  -1422328.9869  -4226311.5892   4546317.4551   1   8   0.0067   0.0112   0.0153   0.0070  -0.0112  -0.0076  -5.00    5.9
2173 236910.000  -1422328.9865  -4226311.5862   4546317.4529   1   8   0.0060   0.0103   0.0139   0.0063  -0.0103  -0.0069  -4.00    6.6
2173 236911.000  -1422328.9849  -4226311.5821   4546317.4512   1   8   0.0056   0.0097   0.0127   0.0059  -0.0094  -0.0061  -3.00    7.5
2173 236912.000  -1422328.9833  -4226311.5806   4546317.4525   1   8   0.0055   0.0092   0.0118   0.0054  -0.0087  -0.0054  -2.00    8.6
2173 236913.000  -1422328.9831  -4226311.5781   4546317.4474   1   8   0.0050   0.0087   0.0110   0.0051  -0.0084  -0.0053  -1.00    9.3
2173 236914.000  -1422328.9824  -4226311.5698   4546317.4447   1   8   0.0050   0.0085   0.0109   0.0049  -0.0082  -0.0054   0.00    9.7
2173 236915.000  -1422328.9843  -4226311.5818   4546317.4544   1   8   0.0050   0.0086   0.0109   0.0048  -0.0082  -0.0053   0.00   10.0
2173 236916.000  -1422328.9818  -4226311.5814   4546317.4531   1   8   0.0047   0.0085   0.0108   0.0052  -0.0083  -0.0047   0.00   10.1
2173 236917.000  -1422328.9844  -4226311.5765   4546317.4471   1   8   0.0052   0.0085   0.0109   0.0048  -0.0083  -0.0052   0.00   10.2
2173 236918.000  -1422328.9832  -4226311.5746   4546317.4485   1   8   0.0044   0.0084   0.0107   0.0053  -0.0084  -0.0050   0.00   10.3
2173 236919.000  -1422328.9824  -4226311.5735   4546317.4468   1   8   0.0052   0.0085   0.0109   0.0049  -0.0082  -0.0053   0.00   10.4
2173 236920.000  -1422328.9847  -4226311.5755   4546317.4474   1   8   0.0049   0.0085   0.0108   0.0049  -0.0083  -0.0051   0.00   10.4
2173 236921.000  -1422328.9846  -4226311.5806   4546317.4498   1   8   0.0056   0.0085   0.0109   0.0050  -0.0082  -0.0050   0.00   10.7
2173 236922.000  -1422328.9815  -4226311.5763   4546317.4463   1   8   0.0049   0.0086   0.0109   0.0050  -0.0082  -0.0052   0.00   10.8
2173 236923.000  -1422328.9828  -4226311.5811   4546317.4517   1   8   0.0050   0.0085   0.0109   0.0050  -0.0083  -0.0053   0.00   10.8
2173 236924.000  -1422328.9816  -4226311.5791   4546317.4500   1   8   0.0054   0.0085   0.0109   0.0048  -0.0082  -0.0052   0.00   11.0
2173 236925.000  -1422328.9858  -4226311.5837   4546317.4510   1   8   0.0049   0.0085   0.0108   0.0048  -0.0083  -0.0051   0.00   11.0
2173 236926.000  -1422328.9824  -4226311.5777   4546317.4473   1   8   0.0044   0.0084   0.0109   0.0053  -0.0083  -0.0049   0.00   11.1
2173 236927.000  -1422328.9837  -4226311.5798   4546317.4508   1   8   0.0040   0.0085   0.0109   0.0049  -0.0082  -0.0053   0.00   11.2
2173 236928.000  -1422328.9854  -4226311.5809   4546317.4512   1   8   0.0040   0.0086   0.0109   0.0050  -0.0082  -0.0053   0.00   11.1
2173 236929.000  -1422328.9830  -4226311.5778   4546317.4473   1   8   0.0041   0.0086   0.0109   0.0049  -0.0082  -0.0052   0.00   11.1
2173 236930.000  -1422328.9834  -4226311.5794   4546317.4480   1   8   0.0048   0.0086   0.0108   0.0048  -0.0081  -0.0049   0.00   11.0
2173 236931.000  -1422328.9856  -4226311.5808   4546317.4514   1   8   0.0048   0.0083   0.0108   0.0052  -0.0084  -0.0051   0.00   11.0
2173 236932.000  -1422328.9840  -4226311.5822   4546317.4470   1   8   0.0053   0.0085   0.0108   0.0052  -0.0083  -0.0050   0.00   11.0
2173 236933.000  -1422328.9879  -4226311.5872   4546317.4576   1   8   0.0055   0.0085   0.0107   0.0050  -0.0083  -0.0049   0.00   11.0
2173 236934.000  -1422328.9859  -4226311.5808   4546317.4516   1   8   0.0038   0.0085   0.0109   0.0050  -0.0083  -0.0052   0.00   11.0
2173 236935.000  -1422328.9852  -4226311.5806   4546317.4546   1   8   0.0051   0.0084   0.0108   0.0052  -0.0083  -0.0051   0.00   11.0
2173 236936.000  -1422328.9841  -4226311.5804   4546317.4487   1   8   0.0039   0.0086   0.0109   0.0050  -0.0083  -0.0050   0.00   11.0
2173 236937.000  -1422328.9848  -4226311.5808   4546317.4527   1   8   0.0046   0.0085   0.0109   0.0048  -0.0083  -0.0055   0.00   11.0
2173 236938.000  -1422328.9842  -4226311.5812   4546317.4508   1   8   0.0048   0.0085   0.0110   0.0049  -0.0083  -0.0052   0.00   11.0
2173 236939.000  -1422328.9847  -4226311.5781   4546317.4477   1   8   0.0052   0.0086   0.0109   0.0048  -0.0082  -0.0053   0.00   11.0
2173 236940.000  -1422328.9832  -4226311.5789   4546317.4529   1   8   0.0044   0.0084   0.0109   0.0051  -0.0083  -0.0052   0.00   11.0
2173 236941.000  -1422328.9824  -4226311.5811   4546317.4521   1   8   0.0047   0.0085   0.0109   0.0050  -0.0082  -0.0049   0.00   11.1
2173 236942.000  -1422328.9829  -4226311.5812   4546317.4493   1   8   0.0043   0.0085   0.0109   0.0051  -0.0082  -0.0051   0.00   11.2
2173 236943.000  -1422328.9815  -4226311.5802   4546317.4499   1   8   0.0056   0.0084   0.0109   0.0051  -0.0083  -0.0053   0.00   11.2
2173 236944.000  -1422328.9835  -4226311.5813   4546317.4547   1   8   0.0045   0.0085   0.0108   0.0049  -0.0083  -0.0051   0.00   11.3
2173 236945.000  -1422328.9844  -4226311.5822   4546317.4528   1   8   0.0050   0.0085   0.0109   0.0049  -0.0082  -0.0050   0.00   11.4
2173 236946.000  -1422328.9832  -4226311.5791   4546317.4508   1   8   0.0041   0.0086   0.0109   0.0051  -0.0082  -0.0048   0.00   11.4
2173 236947.000  -1422328.9834  -4226311.5789   4546317.4494   1   8   0.0052   0.0085   0.0109   0.0050  -0.0084  -0.0053   0.00   11.4
2173 236948.000  -1422328.9822  -4226311.5766   4546317.4470   1   8   0.0050   0.0086   0.0109   0.0048  -0.0081  -0.0051   0.00   11.4
2173 236949.000  -1422328.9832  -4226311.5774   4546317.4527   1   8   0.0052   0.0086   0.0108   0.0049  -0.0082  -0.0050   0.00   11.5
2173 236950.000  -1422328.9810  -4226311.5785   4546317.4484   1   8   0.0045   0.0085   0.0108   0.0050  -0.0083  -0.0050   0.00   11.5
2173 236951.000  -1422328.9814  -4226311.5725   4546317.4452   1   8   0.0054   0.0085   0.0109   0.0048  -0.0083  -0.0054   0.00   11.6
2173 236952.000  -1422328.9825  -4226311.5750   4546317.4485   1   8   0.0036   0.0085   0.0109   0.0050  -0.0084  -0.0053   0.00   11.5
2173 236953.000  -1422328.9816  -4226311.5745   4546317.4467   1   8   0.0050   0.0086   0.0109   0.0049  -0.0083  -0.0050   0.00   11.5
2173 236954.000  -1422328.9823  -4226311.5768   4546317.4464   1   8   0.0042   0.0084   0.0108   0.0051  -0.0084  -0.0051   0.00   11.5
2173 236955.000  -1422328.9839  -4226311.5789   4546317.4550   1   8   0.0050   0.0086   0.0109   0.0050  -0.0082  -0.0052   0.00   11.5
2173 236956.000  -1422328.9815  -4226311.5814   4546317.4534   1   8   0.0048   0.0085   0.0109   0.0052  -0.0083  -0.0049   0.00   11.6
2173 236957.000  -1422328.9844  -4226311.5794   4546317.4549   1   8   0.0038   0.0085   0.0108   0.0052  -0.0084  -0.0050   0.00   11.6
2173 236958.000  -1422328.9818  -4226311.5788   4546317.4499   1   8   0.0050   0.0085   0.0109   0.0050  -0.0083  -0.0050   0.00   11.5
2173 236959.000  -1422328.9799  -4226311.5749   4546317.4438   1   8   0.0043   0.0087   0.0109   0.0050  -0.0082  -0.0050   0.00   11.5
2173 236960.000  -1422328.9862  -4226311.5849   4546317.4556   1   8   0.0060   0.0085   0.0108   0.0049  -0.0083  -0.0050   0.00   11.6
2173 236961.000  -1422328.9815  -4226311.5719   4546317.4475   1   8   0.0044   0.0087   0.0109   0.0048  -0.0082  -0.0051   0.00   11.6
2173 236962.000  -1422328.9855  -4226311.5783   4546317.4546   1   8   0.0049   0.0086   0.0109   0.0049  -0.0083  -0.0051   0.00   11.6
2173 236963.000  -1422328.9815  -4226311.5731   4546317.4487   1   8   0.0041   0.0086   0.0108   0.0050  -0.0083  -0.0051   0.00   11.7
2173 236964.000  -1422328.9814  -4226311.5787   4546317.4479   1   8   0.0053   0.0086   0.0109   0.0048  -0.0082  -0.0050   0.00   11.7
2173 236965.000  -1422328.9817  -4226311.5772   4546317.4479   1   8   0.0054   0.0085   0.0109   0.0049  -0.0083  -0.0052   0.00   11.6
2173 236966.000  -1422328.9834  -4226311.5873   4546317.4567   1   8   0.0054   0.0085   0.0109   0.0050  -0.0084  -0.0054   0.00   11.6
2173 236967.000  -1422328.9828  -4226311.5773   4546317.4486   1   8   0.0049   0.0085   0.0109   0.0052  -0.0084  -0.0050   0.00   11.5
2173 236968.000  -1422328.9819  -4226311.5743   4546317.4495   1   8   0.0052   0.0086   0.0109   0.0049  -0.0082  -0.0053   0.00   11.6
2173 236969.000  -1422328.9837  -4226311.5768   4546317.4480   1   8   0.0053   0.0085   0.0110   0.0051  -0.0083  -0.0052   0.00   11.7
2173 236970.000  -1422328.9847  -4226311.5802   4546317.4532   1   8   0.0044   0.0086   0.0109   0.0051  -0.0082  -0.0050   0.00   11.7
2173 236971.000  -1422328.9808  -4226311.5778   4546317.4429   1   8   0.0053   0.0086   0.0109   0.0050  -0.0083  -0.0051   0.00   11.7
2173 236972.000  -1422328.9825  -4226311.5778   4546317.4465   1   8   0.0041   0.0086   0.0110   0.0049  -0.0082  -0.0052   0.00   11.7
2173 236973.000  -1422328.9814  -4226311.5733   4546317.4469   1   8   0.0040   0.0084   0.0109   0.0053  -0.0083  -0.0048   0.00   11.7
2173 236974.000  -1422328.9817  -4226311.5775   4546317.4503   1   8   0.0054   0.0084   0.0109   0.0052  -0.0084  -0.0049   0.00   11.7
2173 236975.000  -1422328.9768  -4226311.5760   4546317.4440   1   8   0.0058   0.0086   0.0108   0.0049  -0.0082  -0.0051   0.00   11.7
2173 236976.000  -1422328.9824  -4226311.5819   4546317.4507   1   8   0.0042   0.0086   0.0109   0.0050  -0.0083  -0.0051   0.00   11.8
2173 236977.000  -1422328.9835  -4226311.5803   4546317.4526   1   8   0.0046   0.0087   0.0110   0.0048  -0.0081  -0.0052   0.00   11.8
2173 236978.000  -1422328.9815  -4226311.5727   4546317.4449   1   8   0.0054   0.0086   0.0110   0.0050  -0.0083  -0.0051   0.00   11.8
2173 236979.000  -1422328.9830  -4226311.5803   4546317.4468   1   8   0.0050   0.0085   0.0108   0.0052  -0.0083  -0.0047   0.00   11.9
2173 236980.000  -1422328.9818  -4226311.5755   4546317.4449   1   8   0.0039   0.0086   0.0109   0.0051  -0.0082  -0.0049   0.00   11.9
2173 236981.000  -1422328.9826  -4226311.5825   4546317.4514   1   8   0.0043   0.0083   0.0108   0.0053  -0.0085  -0.0049   0.00   12.0
2173 236982.000  -1422328.9803  -4226311.5732   4546317.4414   1   8   0.0050   0.0084   0.0109   0.0051  -0.0084  -0.0052   0.00   12.0
2173 236983.000  -1422328.9813  -4226311.5795   4546317.4479   1   8   0.0047   0.0087   0.0110   0.0048  -0.0082  -0.0051   0.00   12.1
2173 236984.000  -1422328.9807  -4226311.5766   4546317.4451   1   8   0.0052   0.0086   0.0109   0.0049  -0.0082  -0.0052   0.00   12.1
2173 236985.000  -1422328.9817  -4226311.5760   4546317.4439   1   8   0.0052   0.0086   0.0110   0.0047  -0.0082  -0.0055   0.00   12.2
2173 236986.000  -1422328.9820  -4226311.5778   4546317.4461   1   8   0.0045   0.0085   0.0110   0.0049  -0.0084  -0.0053   0.00   12.2
2173 236987.000  -1422328.9794  -4226311.5757   4546317.4478   1   8   0.0054   0.0086   0.0110   0.0048  -0.0083  -0.0054   0.00   12.3
2173 236988.000  -1422328.9812  -4226311.5733   4546317.4432   1   8   0.0048   0.0086   0.0109   0.0049  -0.0082  -0.0047   0.00   12.5
2173 236989.000  -1422328.9829  -4226311.5768   4546317.4461   1   8   0.0050   0.0085   0.0109   0.0051  -0.0084  -0.0051   0.00   12.6
2173 236990.000  -1422328.9835  -4226311.5766   4546317.4471   1   8   0.0037   0.0084   0.0109   0.0052  -0.0084  -0.0051   0.00   12.7
2173 236991.000  -1422328.9835  -4226311.5793   4546317.4510   1   8   0.0053   0.0086   0.0110   0.0048  -0.0083  -0.0054   0.00   12.9
2173 236992.000  -1422328.9827  -4226311.5800   4546317.4488   1   8   0.0045   0.0085   0.0109   0.0052  -0.0084  -0.0051   0.00   13.0
2173 236993.000  -1422328.9821  -4226311.5755   4546317.4437   1   8   0.0033   0.0086   0.0109   0.0050  -0.0082  -0.0049   0.00   13.1
2173 236994.000  -1422328.9836  -4226311.5762   4546317.4462   1   8   0.0054   0.0086   0.0109   0.0049  -0.0083  -0.0051   0.00   13.2
2173 236995.000  -1422328.9812  -4226311.5761   4546317.4473   1   8   0.0048   0.0085   0.0109   0.0050  -0.0084  -0.0052   0.00   13.3
2173 236996.000  -1422328.9798  -4226311.5741   4546317.4433   1   8   0.0044   0.0087   0.0110   0.0047  -0.0082  -0.0051   0.00   13.5
2173 236997.000  -1422328.9798  -4226311.5767   4546317.4470   1   8   0.0038   0.0084   0.0109   0.0050  -0.0084  -0.0051   0.00   13.5
2173 236998.000  -1422328.9804  -4226311.5695   4546317.4406   1   8   0.0042   0.0086   0.0110   0.0049  -0.0083  -0.0052   0.00   13.7
2173 236999.000  -1422328.9845  -4226311.5785   4546317.4421   1   8   0.0052   0.0085   0.0110   0.0049  -0.0083  -0.0052   0.00   13.8
2173 237000.000  -1422328.9833  -4226311.5771   4546317.4474   1   8   0.0049   0.0085   0.0109   0.0049  -0.0083  -0.0051   0.00   13.9
2173 237001.000  -1422328.9844  -4226311.5779   4546317.4457   1   8   0.0047   0.0086   0.0110   0.0046  -0.0083  -0.0054   0.00   14.1
2173 237002.000  -1422328.9830  -4226311.5782   4546317.4468   1   8   0.0050   0.0087   0.0110   0.0050  -0.0082  -0.0050   0.00   14.2
2173 237003.000  -1422328.9822  -4226311.5807   4546317.4498   1   8   0.0053   0.0086   0.0109   0.0049  -0.0083  -0.0051   0.00   14.3
2173 237004.000  -1422328.9816  -4226311.5777   4546317.4456   1   8   0.0055   0.0086   0.0110   0.0049  -0.0083  -0.0052   0.00   14.5
2173 237005.000  -1422328.9829  -4226311.5810   4546317.4465   1   8   0.0047   0.0085   0.0110   0.0050  -0.0083  -0.0055   0.00   14.7
2173 237006.000  -1422328.9809  -4226311.5760   4546317.4408   1   8   0.0046   0.0085   0.0110   0.0050  -0.0083  -0.0048   0.00   14.8
2173 237007.000  -1422328.9815  -4226311.5757   4546317.4418   1   8   0.0048   0.0086   0.0110   0.0048  -0.0082  -0.0054   0.00   15.0
2173 237008.000  -1422328.9817  -4226311.5742   4546317.4407   1   8   0.0043   0.0086   0.0110   0.0050  -0.0083  -0.0052   0.00   15.2
2173 237009.000  -1422328.9805  -4226311.5716   4546317.4425   1   8   0.0052   0.0085   0.0109   0.0050  -0.0084  -0.0049   0.00   15.4
2173 237010.000  -1422328.9796  -4226311.5750   4546317.4428   1   8   0.0046   0.0084   0.0110   0.0050  -0.0084  -0.0054   0.00   15.6
2173 237011.000  -1422328.9809  -4226311.5762   4546317.4479   1   8   0.0047   0.0085   0.0110   0.0049  -0.0083  -0.0052   0.00   15.8
2173 237012.000  -1422328.9813  -4226311.5757   4546317.4455   1   8   0.0047   0.0085   0.0110   0.0050  -0.0083  -0.0052   0.00   15.9
2173 237013.000  -1422328.9805  -4226311.5769   4546317.4444   1   8   0.0048   0.0086   0.0110   0.0049  -0.0083  -0.0051   0.00   16.0
2173 237014.000  -1422328.9812  -4226311.5752   4546317.4445   1   8   0.0045   0.0085   0.0111   0.0050  -0.0083  -0.0052   0.00   16.2
2173 237015.000  -1422328.9816  -4226311.5765   4546317.4448   1   8   0.0042   0.0086   0.0110   0.0050  -0.0083  -0.0053   0.00   16.4
2173 237016.000  -1422328.9845  -4226311.5809   4546317.4529   1   8   0.0039   0.0085   0.0110   0.0052  -0.0084  -0.0050   0.00   16.6
2173 237017.000  -1422328.9801  -4226311.5741   4546317.4389   1   8   0.0053   0.0085   0.0110   0.0050  -0.0083  -0.0052   0.00   16.6
2173 237018.000  -1422328.9785  -4226311.5712   4546317.4418   1   8   0.0048   0.0087   0.0110   0.0048  -0.0082  -0.0051   0.00   16.7
2173 237019.000  -1422328.9804  -4226311.5750   4546317.4451   1   8   0.0044   0.0085   0.0110   0.0050  -0.0083  -0.0054   0.00   16.8
2173 237020.000  -1422328.9799  -4226311.5717   4546317.4439   1   8   0.0043   0.0085   0.0109   0.0050  -0.0084  -0.0051   0.00   16.8
2173 237021.000  -1422328.9833  -4226311.5808   4546317.4452   1   8   0.0047   0.0086   0.0110   0.0049  -0.0083  -0.0050   0.00   16.9
2173 237022.000  -1422328.9824  -4226311.5834   4546317.4532   1   8   0.0039   0.0086   0.0110   0.0051  -0.0083  -0.0049   0.00   17.0
2173 237023.000  -1422328.9824  -4226311.5786   4546317.4476   1   8   0.0034   0.0086   0.0110   0.0049  -0.0083  -0.0051   0.00   17.0
2173 237024.000  -1422328.9789  -4226311.5764   4546317.4420   1   8   0.0049   0.0086   0.0110   0.0051  -0.0083  -0.0050   0.00   17.1
2173 237025.000  -1422328.9805  -4226311.5773   4546317.4447   1   8   0.0048   0.0086   0.0110   0.0050  -0.0083  -0.0051   0.00   17.2
2173 237026.000  -1422328.9793  -4226311.5758   4546317.4464   1   8   0.0045   0.0085   0.0110   0.0051  -0.0084  -0.0052   0.00   17.2
2173 237027.000  -1422328.9814  -4226311.5751   4546317.4423   1   8   0.0054   0.0086   0.0110   0.0048  -0.0083  -0.0052   0.00   17.3
2173 237028.000  -1422328.9813  -4226311.5805   4546317.4448   1   8   0.0041   0.0085   0.0110   0.0051  -0.0084  -0.0051   0.00   17.4
2173 237029.000  -1422328.9837  -4226311.5805   4546317.4501   1   8   0.0049   0.0086   0.0109   0.0050  -0.0083  -0.0051   0.00   17.5
2173 237030.000  -1422328.9813  -4226311.5754   4546317.4466   1   8   0.0039   0.0085   0.0109   0.0050  -0.0083  -0.0051   0.00   17.6
2173 237031.000  -1422328.9772  -4226311.5736   4546317.4416   1   8   0.0034   0.0085   0.0110   0.0051  -0.0083  -0.0052   0.00   17.7
2173 237032.000  -1422328.9810  -4226311.5817   4546317.4433   1   8   0.0041   0.0087   0.0110   0.0049  -0.0083  -0.0051   0.00   17.8
2173 237033.000  -1422328.9825  -4226311.5798   4546317.4424   1   8   0.0051   0.0086   0.0110   0.0051  -0.0083  -0.0050   0.00   17.8
2173 237034.000  -1422328.9800  -4226311.5715   4546317.4372   1   8   0.0047   0.0086   0.0110   0.0049  -0.0084  -0.0051   0.00   17.9
2173 237035.000  -1422328.9760  -4226311.5682   4546317.4377   1   8   0.0041   0.0086   0.0109   0.0050  -0.0083  -0.0049   0.00   17.9
2173 237036.000  -1422328.9785  -4226311.5732   4546317.4415   1   8   0.0048   0.0086   0.0110   0.0049  -0.0083  -0.0052   0.00   18.0
2173 237037.000  -1422328.9795  -4226311.5716   4546317.4399   1   8   0.0051   0.0087   0.0109   0.0048  -0.0083  -0.0050   0.00   18.0
2173 237038.000  -1422328.9800  -4226311.5725   4546317.4369   1   8   0.0044   0.0085   0.0110   0.0050  -0.0083  -0.0051   0.00   18.0
2173 237039.000  -1422328.9782  -4226311.5681   4546317.4392   1   8   0.0039   0.0085   0.0109   0.0051  -0.0084  -0.0049   0.00   18.1
2173 237040.000  -1422328.9774  -4226311.5721   4546317.4387   1   8   0.0055   0.0087   0.0110   0.0048  -0.0082  -0.0051   0.00   18.1
2173 237041.000  -1422328.9809  -4226311.5745   4546317.4420   1   8   0.0048   0.0087   0.0110   0.0049  -0.0083  -0.0051   0.00   18.2
2173 237042.000  -1422328.9838  -4226311.5810   4546317.4503   1   8   0.0058   0.0086   0.0111   0.0049  -0.0083  -0.0050   0.00   18.2
2173 237043.000  -1422328.9810  -4226311.5757   4546317.4424   1   8   0.0036   0.0085   0.0109   0.0051  -0.0083  -0.0051   0.00   18.2
2173 237044.000  -1422328.9805  -4226311.5797   4546317.4443   1   8   0.0044   0.0085   0.0110   0.0051  -0.0084  -0.0050   0.00   18.2
2173 237045.000  -1422328.9806  -4226311.5729   4546317.4379   1   8   0.0046   0.0085   0.0109   0.0050  -0.0084  -0.0052   0.00   18.2
2173 237046.000  -1422328.9784  -4226311.5760   4546317.4441   1   8   0.0047   0.0086   0.0109   0.0049  -0.0082  -0.0051   0.00   18.2
2173 237047.000  -1422328.9813  -4226311.5767   4546317.4441   1   8   0.0044   0.0086   0.0109   0.0050  -0.0084  -0.0049   0.00   18.3
2173 237048.000  -1422328.9795  -4226311.5728   4546317.4410   1   8   0.0040   0.0085   0.0110   0.0051  -0.0084  -0.0051   0.00   18.3
2173 237049.000  -1422328.9791  -4226311.5709   4546317.4364   1   8   0.0045   0.0085   0.0109   0.0050  -0.0084  -0.0052   0.00   18.4
2173 237050.000  -1422328.9805  -4226311.5739   4546317.4438   1   8   0.0053   0.0086   0.0110   0.0049  -0.0084  -0.0051   0.00   18.4
2173 237051.000  -1422328.9811  -4226311.5764   4546317.4438   1   8   0.0051   0.0085   0.0111   0.0050  -0.0083  -0.0054   0.00   18.4
2173 237052.000  -1422328.9826  -4226311.5786   4546317.4423   1   8   0.0055   0.0085   0.0111   0.0050  -0.0084  -0.0052   0.00   18.5
2173 237053.000  -1422328.9801  -4226311.5766   4546317.4395   1   8   0.0051   0.0084   0.0110   0.0052  -0.0085  -0.0051   0.00   18.5
2173 237054.000  -1422328.9791  -4226311.5771   4546317.4442   1   8   0.0046   0.0086   0.0110   0.0050  -0.0083  -0.0049   0.00   18.5
2173 237055.000  -1422328.9792  -4226311.5764   4546317.4411   1   8   0.0054   0.0086   0.0110   0.0049  -0.0083  -0.0050   0.00   18.5
2173 237056.000  -1422328.9790  -4226311.5723   4546317.4394   1   8   0.0042   0.0086   0.0110   0.0050  -0.0084  -0.0050   0.00   18.5
2173 237057.000  -1422328.9793  -4226311.5730   4546317.4390   1   8   0.0040   0.0087   0.0111   0.0047  -0.0083  -0.0054   0.00   18.5
2173 237058.000  -1422328.9793  -4226311.5752   4546317.4406   1   8   0.0049   0.0086   0.0110   0.0049  -0.0083  -0.0055   0.00   18.5
2173 237059.000  -1422328.9805  -4226311.5768   4546317.4417   1   8   0.0043   0.0085   0.0110   0.0050  -0.0083  -0.0052   0.00   18.5
2173 237060.000  -1422328.9818  -4226311.5778   4546317.4443   1   8   0.0047   0.0085   0.0111   0.0050  -0.0084  -0.0054   0.00   18.5
2173 237061.000  -1422328.9789  -4226311.5721   4546317.4368   1   8   0.0053   0.0086   0.0110   0.0051  -0.0084  -0.0049   0.00   18.5
2173 237062.000  -1422328.9786  -4226311.5722   4546317.4373   1   8   0.0050   0.0086   0.0110   0.0049  -0.0083  -0.0051   0.00   18.6
2173 237063.000  -1422328.9794  -4226311.5748   4546317.4386   1   8   0.0048   0.0086   0.0111   0.0049  -0.0084  -0.0053   0.00   18.6
2173 237064.000  -1422328.9809  -4226311.5751   4546317.4440   1   8   0.0055   0.0086   0.0111   0.0048  -0.0083  -0.0053   0.00   18.6
2173 237065.000  -1422328.9775  -4226311.5693   4546317.4338   1   8   0.0048   0.0085   0.0111   0.0051  -0.0084  -0.0049   0.00   18.6
2173 237066.000  -1422328.9815  -4226311.5750   4546317.4432   1   8   0.0052   0.0085   0.0110   0.0052  -0.0084  -0.0050   0.00   18.7
2173 237067.000  -1422328.9812  -4226311.5750   4546317.4424   1   8   0.0048   0.0086   0.0110   0.0048  -0.0083  -0.0050   0.00   18.7
2173 237068.000  -1422328.9815  -4226311.5758   4546317.4398   1   8   0.0044   0.0085   0.0111   0.0048  -0.0083  -0.0054   0.00   18.7
2173 237069.000  -1422328.9770  -4226311.5718   4546317.4355   1   8   0.0040   0.0086   0.0110   0.0049  -0.0083  -0.0052   0.00   18.8
2173 237070.000  -1422328.9823  -4226311.5789   4546317.4404   1   8   0.0048   0.0085   0.0109   0.0052  -0.0085  -0.0050   0.00   18.8
2173 237071.000  -1422328.9808  -4226311.5790   4546317.4447   1   8   0.0046   0.0085   0.0110   0.0050  -0.0084  -0.0053   0.00   18.8
2173 237072.000  -1422328.9794  -4226311.5743   4546317.4393   1   8   0.0040   0.0085   0.0111   0.0050  -0.0084  -0.0053   0.00   18.8
2173 237073.000  -1422328.9807  -4226311.5738   4546317.4410   1   8   0.0044   0.0086   0.0111   0.0047  -0.0083  -0.0052   0.00   18.8
2173 237074.000  -1422328.9799  -4226311.5741   4546317.4395   1   8   0.0046   0.0086   0.0110   0.0048  -0.0083  -0.0053   0.00   18.8
2173 237075.000  -1422328.9796  -4226311.5727   4546317.4396   1   8   0.0051   0.0086   0.0110   0.0049  -0.0083  -0.0052   0.00   18.8
2173 237076.000  -1422328.9807  -4226311.5755   4546317.4417   1   8   0.0048   0.0085   0.0111   0.0050  -0.0083  -0.0053   0.00   18.8
2173 237077.000  -1422328.9786  -4226311.5775   4546317.4439   1   8   0.0054   0.0086   0.0110   0.0048  -0.0083  -0.0052   0.00   18.9
2173 237078.000  -1422328.9788  -4226311.5718   4546317.4339   1   8   0.0042   0.0085   0.0110   0.0052  -0.0084  -0.0049   0.00   18.9
2173 237079.000  -1422328.9806  -4226311.5772   4546317.4408   1   8   0.0050   0.0085   0.0110   0.0050  -0.0084  -0.0051   0.00   18.9
2173 237080.000  -1422328.9805  -4226311.5730   4546317.4409   1   8   0.0047   0.0085   0.0111   0.0050  -0.0084  -0.0053   0.00   18.9
2173 237081.000  -1422328.9796  -4226311.5766   4546317.4381   1   8   0.0056   0.0085   0.0110   0.0050  -0.0084  -0.0052   0.00   18.8
2173 237082.000  -1422328.9809  -4226311.5759   4546317.4395   1   8   0.0045   0.0086   0.0110   0.0050  -0.0084  -0.0051   0.00   18.8
2173 237083.000  -1422328.9806  -4226311.5822   4546317.4474   1   8   0.0046   0.0085   0.0110   0.0048  -0.0084  -0.0052   0.00   18.8
2173 237084.000  -1422328.9818  -4226311.5817   4546317.4419   1   8   0.0056   0.0084   0.0110   0.0053  -0.0085  -0.0051   0.00   18.8
2173 237085.000  -1422328.9806  -4226311.5766   4546317.4370   1   8   0.0051   0.0086   0.0110   0.0049  -0.0084  -0.0051   0.00   18.9
2173 237086.000  -1422328.9801  -4226311.5764   4546317.4389   1   8   0.0049   0.0086   0.0110   0.0047  -0.0083  -0.0052   0.00   18.8
2173 237087.000  -1422328.9814  -4226311.5794   4546317.4451   1   8   0.0046   0.0085   0.0111   0.0051  -0.0084  -0.0054   0.00   18.9
2173 237088.000  -1422328.9813  -4226311.5813   4546317.4403   1   8   0.0049   0.0086   0.0111   0.0048  -0.0083  -0.0054   0.00   18.9
2173 237089.000  -1422328.9777  -4226311.5776   4546317.4398   1   8   0.0050   0.0086   0.0110   0.0048  -0.0083  -0.0052   0.00   18.9
2173 237090.000  -1422328.9790  -4226311.5835   4546317.4410   1   8   0.0046   0.0085   0.0110   0.0051  -0.0084  -0.0051   0.00   18.9
2173 237091.000  -1422328.9802  -4226311.5833   4546317.4455   1   8   0.0043   0.0086   0.0110   0.0050  -0.0083  -0.0049   0.00   18.9
2173 237092.000  -1422328.9823  -4226311.5837   4546317.4452   1   8   0.0057   0.0087   0.0111   0.0047  -0.0082  -0.0053   0.00   18.9
2173 237093.000  -1422328.9779  -4226311.5802   4546317.4395   1   8   0.0047   0.0086   0.0111   0.0048  -0.0084  -0.0053   0.00   18.9
2173 237094.000  -1422328.9801  -4226311.5740   4546317.4374   1   8   0.0040   0.0085   0.0110   0.0050  -0.0084  -0.0054   0.00   18.9
2173 237095.000  -1422328.9785  -4226311.5790   4546317.4439   1   8   0.0037   0.0085   0.0111   0.0050  -0.0084  -0.0051   0.00   18.9
2173 237096.000  -1422328.9786  -4226311.5741   4546317.4390   1   8   0.0039   0.0086   0.0110   0.0049  -0.0083  -0.0051   0.00   18.9
2173 237097.000  -1422328.9828  -4226311.5846   4546317.4464   1   8   0.0048   0.0085   0.0110   0.0051  -0.0085  -0.0051   0.00   18.9
2173 237098.000  -1422328.9811  -4226311.5825   4546317.4445   1   8   0.0047   0.0087   0.0111   0.0049  -0.0082  -0.0051   0.00   18.9
2173 237099.000  -1422328.9798  -4226311.5827   4546317.4435   1   8   0.0048   0.0087   0.0111   0.0046  -0.0084  -0.0055   0.00   18.9
2173 237100.000  -1422328.9792  -4226311.5753   4546317.4406   1   8   0.0042   0.0086   0.0110   0.0047  -0.0084  -0.0054   0.00   18.9
2173 237101.000  -1422328.9782  -4226311.5762   4546317.4409   1   8   0.0047   0.0087   0.0110   0.0048  -0.0083  -0.0052   0.00   18.9
2173 237102.000  -1422328.9796  -4226311.5783   4546317.4421   1   8   0.0047   0.0086   0.0110   0.0051  -0.0084  -0.0051   0.00   18.9
2173 237103.000  -1422328.9806  -4226311.5814   4546317.4448   1   8   0.0054   0.0085   0.0110   0.0050  -0.0084  -0.0052   0.00   18.9
2173 237104.000  -1422328.9805  -4226311.5822   4546317.4481   1   8   0.0039   0.0088   0.0112   0.0047  -0.0083  -0.0055   0.00   18.8
2173 237105.000  -1422328.9800  -4226311.5804   4546317.4467   1   8   0.0047   0.0085   0.0111   0.0051  -0.0084  -0.0052   0.00   18.8
2173 237106.000  -1422328.9808  -4226311.5798   4546317.4448   1   8   0.0051   0.0085   0.0110   0.0051  -0.0084  -0.0051   0.00   18.8
2173 237107.000  -1422328.9789  -4226311.5794   4546317.4404   1   8   0.0038   0.0085   0.0111   0.0050  -0.0084  -0.0053   0.00   18.8
2173 237108.000  -1422328.9801  -4226311.5784   4546317.4437   1   8   0.0052   0.0086   0.0111   0.0047  -0.0083  -0.0054   0.00   18.8
2173 237109.000  -1422328.9833  -4226311.5841   4546317.4477   1   8   0.0046   0.0085   0.0110   0.0049  -0.0084  -0.0053   0.00   18.8
2173 237110.000  -1422328.9806  -4226311.5818   4546317.4434   1   8   0.0048   0.0085   0.0110   0.0050  -0.0085  -0.0052   0.00   18.9
2173 237111.000  -1422328.9813  -4226311.5850   4546317.4462   1   8   0.0051   0.0086   0.0110   0.0050  -0.0083  -0.0050   0.00   18.9
2173 237112.000  -1422328.9809  -4226311.5776   4546317.4434   1   8   0.0052   0.0085   0.0112   0.0050  -0.0085  -0.0054   0.00   18.9
2173 237113.000  -1422328.9813  -4226311.5801   4546317.4450   1   8   0.0054   0.0087   0.0111   0.0048  -0.0083  -0.0054   0.00   18.9
2173 237114.000  -1422328.9794  -4226311.5790   4546317.4397   1   8   0.0049   0.0086   0.0111   0.0048  -0.0083  -0.0052   0.00   18.9
2173 237115.000  -1422328.9773  -4226311.5760   4546317.4427   1   8   0.0050   0.0086   0.0111   0.0049  -0.0085  -0.0053   0.00   18.9
2173 237116.000  -1422328.9804  -4226311.5774   4546317.4377   1   8   0.0052   0.0086   0.0111   0.0050  -0.0084  -0.0051   0.00   18.9
2173 237117.000  -1422328.9797  -4226311.5793   4546317.4449   1   8   0.0052   0.0085   0.0111   0.0050  -0.0084  -0.0051   0.00   18.9
2173 237118.000  -1422328.9805  -4226311.5741   4546317.4414   1   8   0.0040   0.0086   0.0111   0.0049  -0.0083  -0.0053   0.00   19.0
2173 237119.000  -1422328.9788  -4226311.5768   4546317.4367   1   8   0.0053   0.0085   0.0111   0.0048  -0.0084  -0.0051   0.00   19.0
2173 237120.000  -1422328.9784  -4226311.5733   4546317.4426   1   8   0.0051   0.0086   0.0111   0.0047  -0.0084  -0.0054   0.00   19.0
2173 237121.000  -1422328.9792  -4226311.5791   4546317.4424   1   8   0.0052   0.0087   0.0111   0.0047  -0.0083  -0.0054   0.00   19.0
2173 237122.000  -1422328.9783  -4226311.5792   4546317.4411   1   8   0.0043   0.0086   0.0110   0.0051  -0.0084  -0.0048   0.00   19.1
2173 237123.000  -1422328.9814  -4226311.5814   4546317.4471   1   8   0.0039   0.0086   0.0110   0.0051  -0.0084  -0.0051   0.00   19.0
2173 237124.000  -1422328.9802  -4226311.5792   4546317.4433   1   8   0.0049   0.0087   0.0112   0.0048  -0.0082  -0.0054   0.00   19.0
2173 237125.000  -1422328.9801  -4226311.5763   4546317.4392   1   8   0.0050   0.0087   0.0112   0.0044  -0.0083  -0.0055   0.00   19.0
2173 237126.000  -1422328.9788  -4226311.5775   4546317.4360   1   8   0.0041   0.0087   0.0110   0.0048  -0.0083  -0.0053   0.00   19.0
2173 237127.000  -1422328.9793  -4226311.5755   4546317.4363   1   8   0.0050   0.0086   0.0110   0.0048  -0.0084  -0.0052   0.00   19.0
2173 237128.000  -1422328.9786  -4226311.5770   4546317.4383   1   8   0.0050   0.0085   0.0111   0.0051  -0.0084  -0.0052   0.00   19.0
2173 237129.000  -1422328.9818  -4226311.5845   4546317.4447   1   8   0.0050   0.0087   0.0111   0.0049  -0.0082  -0.0050   0.00   19.0
2173 237130.000  -1422328.9811  -4226311.5824   4546317.4429   1   8   0.0049   0.0086   0.0110   0.0049  -0.0084  -0.0051   0.00   19.0
2173 237131.000  -1422328.9790  -4226311.5790   4546317.4401   1   8   0.0052   0.0086   0.0112   0.0050  -0.0084  -0.0050   0.00   18.9
2173 237132.000  -1422328.9809  -4226311.5839   4546317.4416   1   8   0.0046   0.0086   0.0110   0.0050  -0.0084  -0.0052   0.00   18.9
2173 237133.000  -1422328.9779  -4226311.5793   4546317.4398   1   8   0.0045   0.0085   0.0111   0.0051  -0.0084  -0.0051   0.00   18.9
2173 237134.000  -1422328.9796  -4226311.5807   4546317.4392   1   8   0.0042   0.0087   0.0111   0.0047  -0.0083  -0.0053   0.00   18.9
2173 237135.000  -1422328.9782  -4226311.5793   4546317.4373   1   8   0.0053   0.0086   0.0111   0.0049  -0.0084  -0.0050   0.00   18.9
2173 237136.000  -1422328.9804  -4226311.5800   4546317.4418   1   8   0.0044   0.0085   0.0111   0.0051  -0.0085  -0.0052   0.00   18.9
2173 237137.000  -1422328.9801  -4226311.5818   4546317.4416   1   8   0.0049   0.0086   0.0111   0.0048  -0.0084  -0.0051   0.00   18.9
2173 237138.000  -1422328.9787  -4226311.5772   4546317.4416   1   8   0.0048   0.0085   0.0111   0.0050  -0.0085  -0.0052   0.00   18.9
2173 237139.000  -1422328.9801  -4226311.5771   4546317.4405   1   8   0.0048   0.0086   0.0110   0.0050  -0.0084  -0.0050   0.00   18.8
2173 237140.000  -1422328.9793  -4226311.5803   4546317.4395   1   8   0.0045   0.0086   0.0111   0.0050  -0.0084  -0.0052   0.00   18.8
2173 237141.000  -1422328.9802  -4226311.5815   4546317.4417   1   8   0.0039   0.0086   0.0110   0.0051  -0.0085  -0.0050   0.00   18.8
2173 237142.000  -1422328.9803  -4226311.5812   4546317.4454   1   8   0.0044   0.0085   0.0111   0.0051  -0.0085  -0.0050   0.00   18.8
2173 237143.000  -1422328.9826  -4226311.5848   4546317.4463   1   8   0.0049   0.0086   0.0111   0.0050  -0.0084  -0.0052   0.00   18.7
2173 237144.000  -1422328.9810  -4226311.5833   4546317.4453   1   8   0.0048   0.0088   0.0112   0.0045  -0.0082  -0.0056   0.00   18.7
2173 237145.000  -1422328.9818  -4226311.5827   4546317.4456   1   8   0.0047   0.0085   0.0110   0.0049  -0.0084  -0.0051   0.00   18.7
2173 237146.000  -1422328.9810  -4226311.5812   4546317.4444   1   8   0.0049   0.0087   0.0111   0.0049  -0.0083  -0.0049   0.00   18.7
2173 237147.000  -1422328.9793  -4226311.5780   4546317.4429   1   8   0.0053   0.0086   0.0110   0.0050  -0.0085  -0.0048   0.00   18.7
2173 237148.000  -1422328.9827  -4226311.5820   4546317.4439   1   8   0.0054   0.0085   0.0112   0.0049  -0.0084  -0.0052   0.00   18.7
2173 237149.000  -1422328.9773  -4226311.5803   4546317.4468   1   8   0.0053   0.0085   0.0110   0.0049  -0.0084  -0.0051   0.00   18.7
2173 237150.000  -1422328.9801  -4226311.5839   4546317.4473   1   8   0.0040   0.0087   0.0111   0.0047  -0.0083  -0.0052   0.00   18.7
2173 237151.000  -1422328.9790  -4226311.5813   4546317.4453   1   8   0.0051   0.0086   0.0111   0.0050  -0.0084  -0.0051   0.00   18.7
2173 237152.000  -1422328.9794  -4226311.5789   4546317.4384   1   8   0.0045   0.0087   0.0111   0.0049  -0.0083  -0.0050   0.00   18.7
2173 237153.000  -1422328.9791  -4226311.5811   4546317.4471   1   8   0.0043   0.0087   0.0111   0.0048  -0.0083  -0.0054   0.00   18.7
2173 237154.000  -1422328.9775  -4226311.5828   4546317.4420   1   8   0.0052   0.0086   0.0111   0.0050  -0.0084  -0.0052   0.00   18.6
2173 237155.000  -1422328.9803  -4226311.5817   4546317.4438   1   8   0.0047   0.0086   0.0112   0.0050  -0.0084  -0.0050   0.00   18.6
2173 237156.000  -1422328.9801  -4226311.5827   4546317.4412   1   8   0.0048   0.0086   0.0113   0.0051  -0.0084  -0.0053   0.00   18.7
2173 237157.000  -1422328.9815  -4226311.5852   4546317.4473   1   8   0.0051   0.0087   0.0111   0.0048  -0.0083  -0.0052   0.00   18.7
2173 237158.000  -1422328.9817  -4226311.5816   4546317.4427   1   8   0.0040   0.0086   0.0112   0.0049  -0.0083  -0.0053   0.00   18.7
2173 237159.000  -1422328.9799  -4226311.5844   4546317.4458   1   8   0.0052   0.0086   0.0112   0.0049  -0.0083  -0.0052   0.00   18.7
2173 237160.000  -1422328.9798  -4226311.5811   4546317.4442   1   8   0.0053   0.0087   0.0113   0.0046  -0.0083  -0.0054   0.00   18.8
2173 237161.000  -1422328.9774  -4226311.5762   4546317.4410   1   8   0.0045   0.0086   0.0111   0.0048  -0.0083  -0.0052   0.00   18.7
2173 237162.000  -1422328.9764  -4226311.5795   4546317.4397   1   8   0.0055   0.0086   0.0111   0.0049  -0.0084  -0.0052   0.00   18.7
2173 237163.000  -1422328.9796  -4226311.5823   4546317.4433   1   8   0.0050   0.0086   0.0111   0.0050  -0.0084  -0.0051   0.00   18.8
2173 237164.000  -1422328.9747  -4226311.5757   4546317.4380   1   8   0.0050   0.0086   0.0111   0.0050  -0.0084  -0.0052   0.00   18.8
2173 237165.000  -1422328.9772  -4226311.5763   4546317.4368   1   8   0.0038   0.0086   0.0112   0.0050  -0.0084  -0.0051   0.00   18.8
2173 237166.000  -1422328.9792  -4226311.5774   4546317.4396   1   8   0.0056   0.0086   0.0112   0.0049  -0.0083  -0.0051   0.00   18.8
2173 237167.000  -1422328.9770  -4226311.5793   4546317.4402   1   8   0.0052   0.0085   0.0111   0.0050  -0.0084  -0.0051   0.00   18.9
2173 237168.000  -1422328.9778  -4226311.5779   4546317.4425   1   8   0.0050   0.0085   0.0110   0.0051  -0.0085  -0.0049   0.00   18.9
2173 237169.000  -1422328.9763  -4226311.5801   4546317.4440   1   8   0.0046   0.0085   0.0111   0.0049  -0.0085  -0.0052   0.00   18.9
2173 237170.000  -1422328.9805  -4226311.5807   4546317.4364   1   8   0.0046   0.0086   0.0111   0.0049  -0.0084  -0.0052   0.00   19.0
2173 237171.000  -1422328.9797  -4226311.5857   4546317.4471   1   8   0.0038   0.0085   0.0111   0.0051  -0.0084  -0.0052   0.00   19.0
2173 237172.000  -1422328.9770  -4226311.5807   4546317.4451   1   8   0.0045   0.0087   0.0112   0.0047  -0.0084  -0.0052   0.00   18.9
2173 237173.000  -1422328.9766  -4226311.5791   4546317.4394   1   8   0.0049   0.0084   0.0110   0.0052  -0.0085  -0.0051   0.00   19.0
2173 237174.000  -1422328.9794  -4226311.5815   4546317.4442   1   8   0.0049   0.0086   0.0112   0.0050  -0.0084  -0.0051   0.00   19.0
2173 237175.000  -1422328.9771  -4226311.5807   4546317.4429   1   8   0.0043   0.0086   0.0111   0.0050  -0.0084  -0.0054   0.00   19.0
2173 237176.000  -1422328.9799  -4226311.5864   4546317.4516   1   8   0.0042   0.0086   0.0112   0.0049  -0.0084  -0.0053   0.00   19.0
2173 237177.000  -1422328.9801  -4226311.5834   4546317.4471   1   8   0.0050   0.0085   0.0111   0.0050  -0.0085  -0.0050   0.00   19.0
2173 237178.000  -1422328.9784  -4226311.5802   4546317.4399   1   8   0.0054   0.0086   0.0111   0.0049  -0.0083  -0.0052   0.00   18.9
2173 237179.000  -1422328.9787  -4226311.5848   4546317.4449   1   8   0.0047   0.0085   0.0111   0.0050  -0.0085  -0.0052   0.00   18.9
2173 237180.000  -1422328.9790  -4226311.5858   4546317.4440   1   8   0.0043   0.0085   0.0111   0.0051  -0.0085  -0.0050   0.00   18.9
2173 237181.000  -1422328.9773  -4226311.5836   4546317.4463   1   8   0.0051   0.0085   0.0112   0.0049  -0.0085  -0.0054   0.00   18.9
2173 237182.000  -1422328.9816  -4226311.5866   4546317.4488   1   8   0.0044   0.0085   0.0111   0.0052  -0.0084  -0.0051   0.00   18.9
2173 237183.000  -1422328.9791  -4226311.5808   4546317.4415   1   8   0.0051   0.0086   0.0111   0.0051  -0.0084  -0.0053   0.00   18.9
2173 237184.000  -1422328.9769  -4226311.5797   4546317.4344   1   8   0.0046   0.0088   0.0111   0.0045  -0.0083  -0.0057   0.00   18.9
2173 237185.000  -1422328.9831  -4226311.5892   4546317.4523   1   8   0.0050   0.0086   0.0112   0.0049  -0.0085  -0.0054   0.00   18.9
2173 237186.000  -1422328.9778  -4226311.5825   4546317.4470   1   8   0.0050   0.0086   0.0111   0.0048  -0.0084  -0.0052   0.00   18.8
2173 237187.000  -1422328.9785  -4226311.5842   4546317.4458   1   8   0.0043   0.0086   0.0113   0.0050  -0.0084  -0.0052   0.00   18.8
2173 237188.000  -1422328.9800  -4226311.5789   4546317.4430   1   8   0.0049   0.0085   0.0111   0.0051  -0.0084  -0.0051   0.00   18.8
2173 237189.000  -1422328.9800  -4226311.5796   4546317.4419   1   8   0.0049   0.0085   0.0111   0.0051  -0.0084  -0.0050   0.00   18.8
2173 237190.000  -1422328.9766  -4226311.5792   4546317.4412   1   8   0.0049   0.0085   0.0111   0.0050  -0.0085  -0.0051   0.00   18.8
2173 237191.000  -1422328.9781  -4226311.5821   4546317.4395   1   8   0.0044   0.0085   0.0111   0.0050  -0.0084  -0.0050   0.00   18.7
2173 237192.000  -1422328.9782  -4226311.5882   4546317.4467   1   8   0.0048   0.0086   0.0112   0.0048  -0.0083  -0.0053   0.00   18.7
2173 237193.000  -1422328.9802  -4226311.5852   4546317.4489   1   8   0.0052   0.0085   0.0111   0.0051  -0.0084  -0.0050   0.00   18.6
2173 237194.000  -1422328.9769  -4226311.5803   4546317.4411   1   8   0.0053   0.0088   0.0112   0.0046  -0.0082  -0.0052   0.00   18.6
2173 237195.000  -1422328.9793  -4226311.5828   4546317.4414   1   8   0.0045   0.0086   0.0112   0.0049  -0.0084  -0.0053   0.00   18.6
2173 237196.000  -1422328.9750  -4226311.5783   4546317.4432   1   8   0.0053   0.0085   0.0112   0.0051  -0.0085  -0.0051   0.00   18.6
2173 237197.000  -1422328.9761  -4226311.5788   4546317.4433   1   8   0.0044   0.0086   0.0112   0.0047  -0.0083  -0.0054   0.00   18.5
2173 237198.000  -1422328.9804  -4226311.5835   4546317.4472   1   8   0.0048   0.0087   0.0112   0.0047  -0.0083  -0.0053   0.00   18.5
2173 237199.000  -1422328.9749  -4226311.5799   4546317.4446   1   8   0.0034   0.0086   0.0111   0.0050  -0.0084  -0.0053   0.00   18.5
2173 237200.000  -1422328.9746  -4226311.5789   4546317.4403   1   8   0.0037   0.0087   0.0112   0.0049  -0.0084  -0.0050   0.00   18.5
2173 237201.000  -1422328.9795  -4226311.5819   4546317.4454   1   8   0.0046   0.0087   0.0112   0.0047  -0.0083  -0.0055   0.00   18.4
2173 237202.000  -1422328.9793  -4226311.5828   4546317.4441   1   8   0.0051   0.0086   0.0112   0.0049  -0.0084  -0.0052   0.00   18.4
2173 237203.000  -1422328.9779  -4226311.5827   4546317.4464   1   8   0.0049   0.0087   0.0112   0.0048  -0.0083  -0.0051   0.00   18.4
2173 237204.000  -1422328.9794  -4226311.5835   4546317.4453   1   8   0.0051   0.0085   0.0111   0.0051  -0.0085  -0.0050   0.00   18.4
2173 237205.000  -1422328.9784  -4226311.5840   4546317.4523   1   8   0.0055   0.0086   0.0112   0.0047  -0.0085  -0.0054   0.00   18.4
2173 237206.000  -1422328.9776  -4226311.5759   4546317.4383   1   8   0.0053   0.0085   0.0111   0.0050  -0.0085  -0.0050   0.00   18.4
2173 237207.000  -1422328.9778  -4226311.5772   4546317.4444   1   8   0.0040   0.0086   0.0112   0.0050  -0.0084  -0.0051   0.00   18.4
2173 237208.000  -1422328.9768  -4226311.5832   4546317.4477   1   8   0.0049   0.0085   0.0112   0.0051  -0.0084  -0.0049   0.00   18.4
2173 237209.000  -1422328.9767  -4226311.5762   4546317.4467   1   8   0.0056   0.0085   0.0111   0.0052  -0.0085  -0.0051   0.00   18.4
2173 237210.000  -1422328.9796  -4226311.5836   4546317.4431   1   8   0.0049   0.0087   0.0112   0.0048  -0.0083  -0.0052   0.00   18.4
2173 237211.000  -1422328.9766  -4226311.5815   4546317.4426   1   8   0.0047   0.0085   0.0112   0.0050  -0.0084  -0.0052   0.00   18.3
2173 237212.000  -1422328.9801  -4226311.5787   4546317.4467   1   8   0.0051   0.0085   0.0111   0.0051  -0.0085  -0.0053   0.00   18.4
2173 237213.000  -1422328.9789  -4226311.5832   4546317.4447   1   8   0.0050   0.0087   0.0112   0.0046  -0.0083  -0.0054   0.00   18.3
2173 237214.000  -1422328.9813  -4226311.5856   4546317.4472   1   8   0.0047   0.0086   0.0112   0.0050  -0.0084  -0.0052   0.00   18.3
2173 237215.000  -1422328.9773  -4226311.5758   4546317.4412   1   8   0.0050   0.0086   0.0112   0.0048  -0.0084  -0.0052   0.00   18.3
2173 237216.000  -1422328.9783  -4226311.5764   4546317.4422   1   8   0.0043   0.0086   0.0112   0.0050  -0.0084  -0.0051   0.00   18.2
2173 237217.000  -1422328.9778  -4226311.5777   4546317.4427   1   8   0.0049   0.0086   0.0112   0.0049  -0.0084  -0.0053   0.00   18.2
2173 237218.000  -1422328.9784  -4226311.5763   4546317.4387   1   8   0.0050   0.0086   0.0112   0.0050  -0.0084  -0.0053   0.00   18.2
2173 237219.000  -1422328.9786  -4226311.5779   4546317.4407   1   8   0.0045   0.0085   0.0112   0.0049  -0.0084  -0.0052   0.00   18.2
2173 237220.000  -1422328.9802  -4226311.5849   4546317.4529   1   8   0.0044   0.0085   0.0112   0.0051  -0.0085  -0.0051   0.00   18.2
2173 237221.000  -1422328.9755  -4226311.5764   4546317.4431   1   8   0.0036   0.0086   0.0112   0.0049  -0.0084  -0.0052   0.00   18.1
2173 237222.000  -1422328.9756  -4226311.5753   4546317.4449   1   8   0.0049   0.0084   0.0112   0.0052  -0.0086  -0.0051   0.00   18.1
2173 237223.000  -1422328.9790  -4226311.5766   4546317.4428   1   8   0.0045   0.0087   0.0112   0.0047  -0.0083  -0.0053   0.00   18.1
2173 237224.000  -1422328.9775  -4226311.5796   4546317.4440   1   8   0.0048   0.0086   0.0112   0.0049  -0.0085  -0.0052   0.00   18.1
2173 237225.000  -1422328.9788  -4226311.5768   4546317.4433   1   8   0.0046   0.0086   0.0112   0.0048  -0.0084  -0.0053   0.00   18.1
2173 237226.000  -1422328.9790  -4226311.5779   4546317.4434   1   8   0.0052   0.0086   0.0112   0.0050  -0.0084  -0.0052   0.00   18.1
2173 237227.000  -1422328.9785  -4226311.5781   4546317.4420   1   8   0.0047   0.0086   0.0111   0.0048  -0.0084  -0.0054   0.00   18.0
2173 237228.000  -1422328.9778  -4226311.5765   4546317.4429   1   8   0.0052   0.0087   0.0113   0.0049  -0.0084  -0.0052   0.00   18.0
2173 237229.000  -1422328.9767  -4226311.5811   4546317.4480   1   8   0.0046   0.0085   0.0112   0.0052  -0.0085  -0.0051   0.00   18.0
2173 237230.000  -1422328.9783  -4226311.5748   4546317.4382   1   8   0.0045   0.0086   0.0111   0.0050  -0.0084  -0.0050   0.00   18.0
2173 237231.000  -1422328.9748  -4226311.5706   4546317.4390   1   8   0.0048   0.0087   0.0111   0.0049  -0.0084  -0.0051   0.00   18.0
2173 237232.000  -1422328.9775  -4226311.5767   4546317.4398   1   8   0.0051   0.0087   0.0112   0.0046  -0.0083  -0.0053   0.00   18.0
2173 237233.000  -1422328.9753  -4226311.5756   4546317.4410   1   8   0.0047   0.0087   0.0112   0.0048  -0.0083  -0.0052   0.00   18.0
2173 237234.000  -1422328.9800  -4226311.5849   4546317.4498   1   8   0.0038   0.0085   0.0111   0.0050  -0.0085  -0.0051   0.00   18.0
2173 237235.000  -1422328.9777  -4226311.5830   4546317.4442   1   8   0.0047   0.0086   0.0112   0.0051  -0.0084  -0.0051   0.00   17.9
2173 237236.000  -1422328.9772  -4226311.5791   4546317.4438   1   8   0.0056   0.0086   0.0112   0.0050  -0.0084  -0.0050   0.00   17.9
2173 237237.000  -1422328.9784  -4226311.5798   4546317.4417   1   8   0.0045   0.0086   0.0112   0.0048  -0.0084  -0.0053   0.00   17.9
2173 237238.000  -1422328.9774  -4226311.5774   4546317.4412   1   8   0.0046   0.0084   0.0112   0.0052  -0.0086  -0.0051   0.00   17.9
2173 237239.000  -1422328.9763  -4226311.5772   4546317.4412   1   8   0.0054   0.0086   0.0112   0.0048  -0.0084  -0.0052   0.00   17.9
2173 237240.000  -1422328.9779  -4226311.5784   4546317.4443   1   8   0.0047   0.0086   0.0111   0.0048  -0.0084  -0.0052   0.00   17.9
2173 237241.000  -1422328.9784  -4226311.5770   4546317.4401   1   8   0.0046   0.0087   0.0112   0.0049  -0.0084  -0.0052   0.00   17.9
2173 237242.000  -1422328.9795  -4226311.5780   4546317.4467   1   8   0.0050   0.0085   0.0111   0.0050  -0.0084  -0.0053   0.00   17.9
2173 237243.000  -1422328.9795  -4226311.5765   4546317.4482   1   8   0.0049   0.0086   0.0112   0.0051  -0.0084  -0.0050   0.00   17.9
2173 237244.000  -1422328.9768  -4226311.5770   4546317.4420   1   8   0.0048   0.0087   0.0112   0.0046  -0.0084  -0.0053   0.00   18.0
2173 237245.000  -1422328.9792  -4226311.5801   4546317.4442   1   8   0.0054   0.0087   0.0112   0.0049  -0.0084  -0.0052   0.00   18.0
2173 237246.000  -1422328.9821  -4226311.5796   4546317.4456   1   8   0.0048   0.0085   0.0112   0.0052  -0.0085  -0.0050   0.00   17.9
2173 237247.000  -1422328.9762  -4226311.5762   4546317.4392   1   8   0.0047   0.0087   0.0112   0.0048  -0.0083  -0.0053   0.00   18.0
2173 237248.000  -1422328.9786  -4226311.5758   4546317.4436   1   8   0.0048   0.0086   0.0112   0.0048  -0.0084  -0.0051   0.00   18.0
2173 237249.000  -1422328.9783  -4226311.5792   4546317.4453   1   8   0.0050   0.0085   0.0113   0.0049  -0.0085  -0.0052   0.00   18.0
2173 237250.000  -1422328.9784  -4226311.5734   4546317.4417   1   8   0.0052   0.0085   0.0112   0.0049  -0.0085  -0.0052   0.00   18.0
2173 237251.000  -1422328.9777  -4226311.5725   4546317.4387   1   8   0.0051   0.0087   0.0111   0.0048  -0.0083  -0.0052   0.00   18.0
2173 237252.000  -1422328.9789  -4226311.5824   4546317.4485   1   8   0.0048   0.0086   0.0112   0.0048  -0.0084  -0.0052   0.00   18.0
2173 237253.000  -1422328.9780  -4226311.5776   4546317.4450   1   8   0.0046   0.0087   0.0112   0.0049  -0.0084  -0.0051   0.00   18.0
2173 237254.000  -1422328.9787  -4226311.5778   4546317.4474   1   8   0.0052   0.0086   0.0111   0.0051  -0.0085  -0.0051   0.00   18.1
2173 237255.000  -1422328.9803  -4226311.5817   4546317.4488   1   8   0.0050   0.0086   0.0113   0.0046  -0.0084  -0.0052   0.00   18.1
2173 237256.000  -1422328.9788  -4226311.5756   4546317.4403   1   8   0.0055   0.0086   0.0112   0.0047  -0.0084  -0.0052   0.00   18.1
2173 237257.000  -1422328.9787  -4226311.5760   4546317.4429   1   8   0.0051   0.0085   0.0112   0.0050  -0.0085  -0.0054   0.00   18.2
2173 237258.000  -1422328.9782  -4226311.5756   4546317.4424   1   8   0.0046   0.0085   0.0112   0.0050  -0.0084  -0.0051   0.00   18.2
2173 237259.000  -1422328.9803  -4226311.5784   4546317.4464   1   8   0.0047   0.0085   0.0112   0.0051  -0.0085  -0.0054   0.00   18.3
2173 237260.000  -1422328.9763  -4226311.5738   4546317.4427   1   8   0.0042   0.0086   0.0112   0.0047  -0.0083  -0.0053   0.00   18.4
2173 237261.000  -1422328.9786  -4226311.5778   4546317.4410   1   8   0.0046   0.0086   0.0112   0.0047  -0.0083  -0.0053   0.00   18.4
2173 237262.000  -1422328.9792  -4226311.5789   4546317.4492   1   8   0.0052   0.0086   0.0112   0.0047  -0.0085  -0.0053   0.00   18.5
2173 237263.000  -1422328.9771  -4226311.5736   4546317.4416   1   8   0.0049   0.0085   0.0112   0.0049  -0.0085  -0.0050   0.00   18.6
2173 237264.000  -1422328.9800  -4226311.5818   4546317.4497   1   8   0.0049   0.0084   0.0111   0.0053  -0.0086  -0.0050   0.00   18.6
2173 237265.000  -1422328.9798  -4226311.5778   4546317.4418   1   8   0.0050   0.0086   0.0111   0.0049  -0.0084  -0.0050   0.00   18.7
2173 237266.000  -1422328.9794  -4226311.5822   4546317.4483   1   8   0.0047   0.0086   0.0113   0.0050  -0.0084  -0.0051   0.00   18.8
2173 237267.000  -1422328.9803  -4226311.5802   4546317.4453   1   8   0.0048   0.0085   0.0112   0.0049  -0.0085  -0.0052   0.00   18.8
2173 237268.000  -1422328.9792  -4226311.5782   4546317.4436   1   8   0.0051   0.0086   0.0112   0.0048  -0.0084  -0.0053   0.00   18.9
2173 237269.000  -1422328.9823  -4226311.5846   4546317.4526   1   8   0.0043   0.0086   0.0112   0.0049  -0.0083  -0.0053   0.00   19.0
2173 237270.000  -1422328.9780  -4226311.5786   4546317.4414   1   8   0.0040   0.0085   0.0112   0.0051  -0.0084  -0.0050   0.00   19.1
2173 237271.000  -1422328.9789  -4226311.5802   4546317.4484   1   8   0.0043   0.0088   0.0113   0.0048  -0.0083  -0.0054   0.00   19.1
2173 237272.000  -1422328.9792  -4226311.5781   4546317.4389   1   8   0.0038   0.0086   0.0112   0.0049  -0.0084  -0.0051   0.00   19.2
2173 237273.000  -1422328.9768  -4226311.5748   4546317.4452   1   8   0.0043   0.0087   0.0111   0.0047  -0.0084  -0.0052   0.00   19.3
2173 237274.000  -1422328.9785  -4226311.5825   4546317.4521   1   8   0.0042   0.0085   0.0111   0.0049  -0.0085  -0.0051   0.00   19.3
2173 237275.000  -1422328.9780  -4226311.5748   4546317.4405   1   8   0.0041   0.0087   0.0113   0.0048  -0.0083  -0.0053   0.00   19.4
2173 237276.000  -1422328.9807  -4226311.5820   4546317.4454   1   8   0.0045   0.0087   0.0112   0.0050  -0.0083  -0.0051   0.00   19.5
2173 237277.000  -1422328.9790  -4226311.5824   4546317.4492   1   8   0.0047   0.0086   0.0112   0.0049  -0.0085  -0.0052   0.00   19.6
2173 237278.000  -1422328.9799  -4226311.5784   4546317.4453   1   8   0.0051   0.0085   0.0111   0.0050  -0.0085  -0.0051   0.00   19.6
2173 237279.000  -1422328.9792  -4226311.5848   4546317.4480   1   8   0.0045   0.0086   0.0112   0.0049  -0.0085  -0.0052   0.00   19.7
2173 237280.000  -1422328.9792  -4226311.5827   4546317.4495   1   8   0.0050   0.0086   0.0111   0.0049  -0.0085  -0.0051   0.00   19.8
2173 237281.000  -1422328.9793  -4226311.5812   4546317.4467   1   8   0.0048   0.0084   0.0111   0.0050  -0.0086  -0.0049   0.00   19.9
2173 237282.000  -1422328.9793  -4226311.5795   4546317.4460   1   8   0.0055   0.0087   0.0112   0.0046  -0.0083  -0.0052   0.00   19.9
2173 237283.000  -1422328.9785  -4226311.5781   4546317.4413   1   8   0.0042   0.0086   0.0112   0.0048  -0.0084  -0.0053   0.00   20.0
2173 237284.000  -1422328.9783  -4226311.5800   4546317.4470   1   8   0.0048   0.0086   0.0113   0.0047  -0.0084  -0.0055   0.00   20.0
2173 237285.000  -1422328.9797  -4226311.5789   4546317.4454   1   8   0.0052   0.0085   0.0112   0.0049  -0.0084  -0.0050   0.00   20.1
2173 237286.000  -1422328.9775  -4226311.5765   4546317.4455   1   8   0.0050   0.0086   0.0113   0.0046  -0.0084  -0.0055   0.00   20.1
2173 237287.000  -1422328.9780  -4226311.5774   4546317.4470   1   8   0.0049   0.0087   0.0112   0.0048  -0.0084  -0.0051   0.00   20.1
2173 237288.000  -1422328.9800  -4226311.5815   4546317.4431   1   8   0.0044   0.0085   0.0113   0.0050  -0.0084  -0.0053   0.00   20.2
2173 237289.000  -1422328.9780  -4226311.5797   4546317.4433   1   8   0.0042   0.0087   0.0112   0.0046  -0.0083  -0.0054   0.00   20.2
2173 237290.000  -1422328.9774  -4226311.5756   4546317.4367   1   8   0.0052   0.0086   0.0112   0.0049  -0.0085  -0.0052   0.00   20.2
2173 237291.000  -1422328.9791  -4226311.5788   4546317.4440   1   8   0.0038   0.0087   0.0113   0.0047  -0.0084  -0.0055   0.00   20.3
2173 237292.000  -1422328.9784  -4226311.5765   4546317.4434   1   8   0.0046   0.0085   0.0112   0.0051  -0.0085  -0.0051   0.00   20.3
2173 237293.000  -1422328.9764  -4226311.5754   4546317.4397   1   8   0.0052   0.0086   0.0112   0.0049  -0.0085  -0.0052   0.00   20.3
2173 237294.000  -1422328.9794  -4226311.5792   4546317.4465   1   8   0.0040   0.0085   0.0112   0.0052  -0.0085  -0.0047   0.00   20.3
2173 237295.000  -1422328.9786  -4226311.5742   4546317.4396   1   8   0.0036   0.0085   0.0112   0.0051  -0.0085  -0.0053   0.00   20.4
2173 237296.000  -1422328.9764  -4226311.5763   4546317.4458   1   8   0.0045   0.0087   0.0113   0.0050  -0.0084  -0.0052   0.00   20.4
2173 237297.000  -1422328.9808  -4226311.5847   4546317.4523   1   8   0.0039   0.0086   0.0112   0.0048  -0.0085  -0.0052   0.00   20.4
2173 237298.000  -1422328.9806  -4226311.5819   4546317.4522   1   8   0.0041   0.0086   0.0112   0.0048  -0.0085  -0.0052   0.00   20.5
2173 237299.000  -1422328.9780  -4226311.5781   4546317.4449   1   8   0.0037   0.0085   0.0113   0.0048  -0.0085  -0.0052   0.00   20.4
2173 237300.000  -1422328.9770  -4226311.5792   4546317.4452   1   8   0.0057   0.0087   0.0113   0.0048  -0.0084  -0.0052   0.00   20.5
2173 237301.000  -1422328.9795  -4226311.5826   4546317.4513   1   8   0.0052   0.0086   0.0112   0.0049  -0.0084  -0.0051   0.00   20.5
2173 237302.000  -1422328.9783  -4226311.5793   4546317.4467   1   8   0.0048   0.0086   0.0113   0.0047  -0.0084  -0.0054   0.00   20.5
2173 237303.000  -1422328.9770  -4226311.5765   4546317.4427   1   8   0.0051   0.0086   0.0111   0.0049  -0.0084  -0.0049   0.00   20.5
2173 237304.000  -1422328.9779  -4226311.5788   4546317.4462   1   8   0.0043   0.0085   0.0112   0.0050  -0.0086  -0.0051   0.00   20.5
2173 237305.000  -1422328.9787  -4226311.5749   4546317.4409   1   8   0.0035   0.0086   0.0111   0.0051  -0.0085  -0.0049   0.00   20.6
2173 237306.000  -1422328.9790  -4226311.5797   4546317.4484   1   8   0.0052   0.0087   0.0112   0.0048  -0.0084  -0.0054   0.00   20.6
2173 237307.000  -1422328.9787  -4226311.5774   4546317.4466   1   8   0.0047   0.0085   0.0112   0.0051  -0.0085  -0.0049   0.00   20.6
2173 237308.000  -1422328.9775  -4226311.5793   4546317.4426   1   8   0.0049   0.0085   0.0112   0.0049  -0.0085  -0.0052   0.00   20.6
2173 237309.000  -1422328.9792  -4226311.5805   4546317.4516   1   8   0.0045   0.0085   0.0112   0.0051  -0.0085  -0.0051   0.00   20.7
2173 237310.000  -1422328.9782  -4226311.5806   4546317.4508   1   8   0.0050   0.0086   0.0112   0.0045  -0.0084  -0.0053   0.00   20.7
2173 237311.000  -1422328.9764  -4226311.5778   4546317.4446   1   8   0.0046   0.0084   0.0111   0.0049  -0.0086  -0.0051   0.00   20.7
2173 237312.000  -1422328.9793  -4226311.5783   4546317.4453   1   8   0.0047   0.0084   0.0112   0.0052  -0.0086  -0.0052   0.00   20.7
2173 237313.000  -1422328.9782  -4226311.5771   4546317.4432   1   8   0.0047   0.0086   0.0113   0.0049  -0.0085  -0.0055   0.00   20.8
2173 237314.000  -1422328.9772  -4226311.5799   4546317.4492   1   8   0.0043   0.0085   0.0112   0.0051  -0.0086  -0.0051   0.00   20.8
2173 237315.000  -1422328.9794  -4226311.5849   4546317.4537   1   8   0.0038   0.0086   0.0113   0.0048  -0.0085  -0.0054   0.00   20.9
2173 237316.000  -1422328.9781  -4226311.5800   4546317.4448   1   8   0.0049   0.0085   0.0112   0.0049  -0.0085  -0.0052   0.00   20.9
