% program   : rnx2rtkp ver.2.4.3 b31
% inp file  : ngs/21_08_29_15_04_24_njtw.obs
% inp file  : ngs/21_08_29_15_04_24_njtw_SW.obs
% inp file  : ngs/21_08_29_15_04_24_brdc.nav
% obs start : 2021/08/29 15:00:16.0 GPST (week2173  54016.0s)
% obs end   : 2021/08/29 15:59:59.0 GPST (week2173  57599.0s)
% ref pos   :  1288132.4895  -4790530.1772   3995623.5200
%
% (x/y/z-ecef=WGS84,Q=1:fix,2:float,3:sbas,4:dgps,5:single,6:ppp,ns=# of satellites)
%  GPST              x-ecef(m)      y-ecef(m)      z-ecef(m)   Q  ns   sdx(m)   sdy(m)   sdz(m)  sdxy(m)  sdyz(m)  sdzx(m) age(s)  ratio
2173  54239.000   1271651.6238  -4729241.5296   4072560.5146   2   7   0.5395   0.9079   0.7052  -0.5089  -0.5525   0.2751 -30.00    1.5
2173  54240.000   1271651.6490  -4729241.6585   4072560.4720   2   7   0.3839   0.6457   0.5013  -0.3618  -0.3925   0.1948 -29.00    1.5
2173  54241.000   1271651.6270  -4729241.6405   4072560.4616   2   7   0.3144   0.5286   0.4104  -0.2962  -0.3213   0.1594 -28.00    1.5
2173  54242.000   1271651.6013  -4729241.5991   4072560.4357   2   7   0.2728   0.4586   0.3561  -0.2570  -0.2788   0.1382 -27.00    1.6
2173  54243.000   1271651.5970  -4729241.5966   4072560.3944   2   7   0.2443   0.4107   0.3189  -0.2302  -0.2497   0.1238 -26.00    1.6
2173  54244.000   1271651.5887  -4729241.5824   4072560.3579   2   7   0.2232   0.3753   0.2914  -0.2103  -0.2282   0.1132 -25.00    1.5
2173  54245.000   1271651.6235  -4729241.6567   4072560.3738   2   7   0.2069   0.3477   0.2700  -0.1949  -0.2114   0.1048 -24.00    1.6
2173  54246.000   1271651.6641  -4729241.7038   4072560.4038   2   7   0.1936   0.3255   0.2527  -0.1824  -0.1979   0.0981 -23.00    1.6
2173  54247.000   1271651.6948  -4729241.7346   4072560.4139   2   7   0.1826   0.3070   0.2383  -0.1721  -0.1866   0.0925 -22.00    1.6
2173  54248.000   1271651.7256  -4729241.7687   4072560.4175   2   7   0.1733   0.2913   0.2262  -0.1633  -0.1771   0.0878 -21.00    1.5
2173  54249.000   1271651.7232  -4729241.7720   4072560.4135   2   7   0.1653   0.2778   0.2156  -0.1557  -0.1688   0.0837 -20.00    1.5
2173  54250.000   1271651.7195  -4729241.7656   4072560.3990   2   7   0.1583   0.2660   0.2064  -0.1491  -0.1616   0.0800 -19.00    1.5
2173  54251.000   1271651.7216  -4729241.7783   4072560.4067   2   7   0.1521   0.2555   0.1983  -0.1432  -0.1552   0.0768 -18.00    1.4
2173  54252.000   1271651.7197  -4729241.7728   4072560.3950   2   7   0.1465   0.2462   0.1910  -0.1380  -0.1495   0.0740 -17.00    1.4
2173  54253.000   1271651.7152  -4729241.7729   4072560.3992   2   7   0.1415   0.2378   0.1845  -0.1333  -0.1444   0.0714 -16.00    1.3
2173  54254.000   1271651.7082  -4729241.7563   4072560.3883   2   7   0.1370   0.2302   0.1785  -0.1290  -0.1397   0.0690 -15.00    1.3
2173  54255.000   1271651.7094  -4729241.7532   4072560.3815   2   7   0.1329   0.2232   0.1731  -0.1251  -0.1355   0.0669 -14.00    1.2
2173  54256.000   1271651.7185  -4729241.7715   4072560.3916   2   7   0.1291   0.2168   0.1681  -0.1215  -0.1315   0.0649 -13.00    1.1
2173  54257.000   1271651.7176  -4729241.7703   4072560.3852   2   7   0.1256   0.2110   0.1635  -0.1182  -0.1279   0.0631 -12.00    1.1
2173  54258.000   1271651.7166  -4729241.7615   4072560.3801   2   7   0.1224   0.2055   0.1593  -0.1152  -0.1246   0.0614 -11.00    1.1
2173  54259.000   1271651.7238  -4729241.7726   4072560.3764   2   7   0.1194   0.2005   0.1553  -0.1123  -0.1215   0.0598 -10.00    1.0
2173  54260.000   1271651.7245  -4729241.7774   4072560.3793   2   7   0.1166   0.1958   0.1516  -0.1097  -0.1186   0.0583  -9.00    1.0
2173  54261.000   1271651.7282  -4729241.7834   4072560.3875   2   7   0.1140   0.1914   0.1481  -0.1072  -0.1159   0.0570  -8.00    1.0
2173  54262.000   1271651.7269  -4729241.7833   4072560.3899   2   7   0.1116   0.1873   0.1449  -0.1049  -0.1133   0.0557  -7.00    1.0
2173  54263.000   1271651.7244  -4729241.7749   4072560.3819   2   7   0.1093   0.1834   0.1419  -0.1028  -0.1110   0.0545  -6.00    1.1
2173  54264.000   1271651.7274  -4729241.7711   4072560.3796   2   7   0.1072   0.1797   0.1390  -0.1007  -0.1087   0.0533  -5.00    1.1
2173  54265.000   1271651.7283  -4729241.7773   4072560.3862   2   7   0.1051   0.1763   0.1363  -0.0988  -0.1066   0.0523  -4.00    1.1
2173  54266.000   1271651.7233  -4729241.7607   4072560.3783   2   7   0.1032   0.1731   0.1337  -0.0970  -0.1046   0.0513  -3.00    1.0
2173  54267.000   1271651.7259  -4729241.7560   4072560.3700   2   7   0.1014   0.1700   0.1313  -0.0952  -0.1027   0.0503  -2.00    1.0
2173  54268.000   1271651.7195  -4729241.7430   4072560.3630   2   7   0.0997   0.1671   0.1290  -0.0936  -0.1009   0.0494  -1.00    1.1
2173  54269.000   1271651.7178  -4729241.7394   4072560.3606   2   7   0.0981   0.1644   0.1268  -0.0921  -0.0992   0.0486   0.00    1.1
2173  54270.000   1271651.7158  -4729241.7285   4072560.3608   2   7   0.0965   0.1618   0.1248  -0.0907  -0.0976   0.0478   0.00    1.2
2173  54271.000   1271651.7108  -4729241.7198   4072560.3593   2   7   0.0951   0.1593   0.1228  -0.0893  -0.0961   0.0470   0.00    1.2
2173  54272.000   1271651.7110  -4729241.7206   4072560.3659   2   7   0.0936   0.1569   0.1209  -0.0879  -0.0946   0.0463   0.00    1.2
2173  54273.000   1271651.7078  -4729241.7127   4072560.3694   2   7   0.0923   0.1547   0.1191  -0.0867  -0.0933   0.0456   0.00    1.2
2173  54274.000   1271651.7121  -4729241.7159   4072560.3759   2   7   0.0910   0.1525   0.1174  -0.0854  -0.0919   0.0449   0.00    1.2
2173  54275.000   1271651.7107  -4729241.7145   4072560.3810   2   7   0.0898   0.1504   0.1157  -0.0843  -0.0906   0.0443   0.00    1.2
2173  54276.000   1271651.7120  -4729241.7096   4072560.3857   2   7   0.0886   0.1484   0.1141  -0.0831  -0.0894   0.0437   0.00    1.2
2173  54277.000   1271651.7156  -4729241.7098   4072560.3923   2   7   0.0874   0.1465   0.1126  -0.0821  -0.0882   0.0431   0.00    1.2
2173  54278.000   1271651.7201  -4729241.7033   4072560.3942   2   7   0.0864   0.1446   0.1111  -0.0810  -0.0870   0.0426   0.00    1.2
2173  54279.000   1271651.7256  -4729241.7058   4072560.4022   2   7   0.0853   0.1429   0.1096  -0.0800  -0.0859   0.0420   0.00    1.2
2173  54280.000   1271651.7290  -4729241.7062   4072560.4047   2   7   0.0843   0.1411   0.1082  -0.0791  -0.0848   0.0415   0.00    1.2
2173  54281.000   1271651.7328  -4729241.7087   4072560.4089   2   7   0.0833   0.1394   0.1069  -0.0782  -0.0838   0.0410   0.00    1.2
2173  54282.000   1271651.7364  -4729241.7058   4072560.4180   2   7   0.0823   0.1378   0.1056  -0.0772  -0.0828   0.0405   0.00    1.2
2173  54283.000   1271651.7403  -4729241.7075   4072560.4192   2   7   0.0814   0.1363   0.1043  -0.0764  -0.0818   0.0400   0.00    1.2
2173  54284.000   1271651.7464  -4729241.7110   4072560.4203   2   8   0.0804   0.1347   0.1030  -0.0757  -0.0809   0.0395   0.00    1.2
2173  54285.000   1271651.7486  -4729241.7061   4072560.4183   2   8   0.0794   0.1332   0.1018  -0.0750  -0.0800   0.0390   0.00    1.3
2173  54286.000   1271651.7486  -4729241.7033   4072560.4130   2   8   0.0784   0.1317   0.1007  -0.0743  -0.0792   0.0385   0.00    1.3
2173  54287.000   1271651.7484  -4729241.6984   4072560.4108   2   8   0.0775   0.1303   0.0995  -0.0736  -0.0783   0.0380   0.00    1.3
2173  54288.000   1271651.7489  -4729241.7035   4072560.4165   2   8   0.0767   0.1289   0.0984  -0.0730  -0.0775   0.0375   0.00    1.3
2173  54289.000   1271651.7488  -4729241.7030   4072560.4156   2   8   0.0758   0.1275   0.0973  -0.0723  -0.0767   0.0371   0.00    1.3
2173  54290.000   1271651.7512  -4729241.7065   4072560.4175   2   8   0.0750   0.1262   0.0962  -0.0718  -0.0759   0.0367   0.00    1.4
2173  54291.000   1271651.7511  -4729241.7012   4072560.4206   2   8   0.0742   0.1249   0.0952  -0.0711  -0.0752   0.0363   0.00    1.4
2173  54292.000   1271651.7562  -4729241.7064   4072560.4234   2   8   0.0734   0.1237   0.0942  -0.0705  -0.0744   0.0358   0.00    1.4
2173  54293.000   1271651.7558  -4729241.7053   4072560.4217   2   8   0.0726   0.1225   0.0932  -0.0700  -0.0737   0.0355   0.00    1.4
2173  54294.000   1271651.7554  -4729241.7025   4072560.4240   2   8   0.0719   0.1213   0.0922  -0.0694  -0.0730   0.0351   0.00    1.4
2173  54295.000   1271651.7567  -4729241.6952   4072560.4168   2   8   0.0712   0.1202   0.0913  -0.0688  -0.0723   0.0347   0.00    1.4
2173  54296.000   1271651.7609  -4729241.7009   4072560.4141   2   8   0.0705   0.1191   0.0903  -0.0683  -0.0717   0.0344   0.00    1.3
2173  54297.000   1271651.7614  -4729241.6996   4072560.4152   2   8   0.0699   0.1180   0.0894  -0.0677  -0.0710   0.0341   0.00    1.3
2173  54298.000   1271651.7598  -4729241.6927   4072560.4095   2   8   0.0692   0.1170   0.0885  -0.0672  -0.0703   0.0337   0.00    1.3
2173  54299.000   1271651.7566  -4729241.6883   4072560.4075   2   8   0.0686   0.1159   0.0876  -0.0667  -0.0697   0.0334   0.00    1.3
2173  54300.000   1271651.7538  -4729241.6858   4072560.4046   2   8   0.0680   0.1150   0.0868  -0.0662  -0.0691   0.0331   0.00    1.3
2173  54301.000   1271651.7528  -4729241.6889   4072560.4100   2   8   0.0673   0.1140   0.0859  -0.0657  -0.0685   0.0328   0.00    1.3
2173  54302.000   1271651.7500  -4729241.6837   4072560.4027   2   8   0.0668   0.1130   0.0851  -0.0652  -0.0679   0.0325   0.00    1.3
2173  54303.000   1271651.7466  -4729241.6776   4072560.4010   2   8   0.0662   0.1121   0.0843  -0.0647  -0.0673   0.0322   0.00    1.3
2173  54304.000   1271651.7476  -4729241.6785   4072560.4022   2   8   0.0656   0.1112   0.0835  -0.0642  -0.0667   0.0319   0.00    1.3
2173  54305.000   1271651.7502  -4729241.6817   4072560.4048   2   8   0.0651   0.1103   0.0827  -0.0638  -0.0661   0.0317   0.00    1.3
2173  54306.000   1271651.7522  -4729241.6831   4072560.4097   2   8   0.0646   0.1094   0.0819  -0.0633  -0.0656   0.0314   0.00    1.3
2173  54307.000   1271651.7527  -4729241.6835   4072560.4073   2   8   0.0640   0.1086   0.0812  -0.0629  -0.0650   0.0312   0.00    1.3
2173  54308.000   1271651.7578  -4729241.6937   4072560.4139   2   8   0.0635   0.1077   0.0804  -0.0624  -0.0645   0.0309   0.00    1.3
2173  54309.000   1271651.7616  -4729241.6995   4072560.4180   2   8   0.0630   0.1069   0.0797  -0.0620  -0.0640   0.0307   0.00    1.3
2173  54310.000   1271651.7604  -4729241.7012   4072560.4236   2   8   0.0625   0.1061   0.0790  -0.0616  -0.0634   0.0305   0.00    1.3
2173  54311.000   1271651.7629  -4729241.7079   4072560.4313   2   8   0.0621   0.1053   0.0782  -0.0612  -0.0629   0.0302   0.00    1.3
2173  54312.000   1271651.7643  -4729241.7096   4072560.4364   2   8   0.0616   0.1046   0.0775  -0.0607  -0.0624   0.0300   0.00    1.3
2173  54313.000   1271651.7690  -4729241.7164   4072560.4398   2   8   0.0612   0.1038   0.0768  -0.0603  -0.0620   0.0297   0.00    1.3
2173  54314.000   1271651.7744  -4729241.7271   4072560.4503   2   8   0.0607   0.1030   0.0761  -0.0600  -0.0615   0.0295   0.00    1.3
2173  54315.000   1271651.7886  -4729241.7513   4072560.4631   2   8   0.0603   0.1023   0.0755  -0.0596  -0.0610   0.0294   0.00    1.3
2173  54316.000   1271651.7946  -4729241.7582   4072560.4706   2   8   0.0598   0.1016   0.0748  -0.0592  -0.0605   0.0292   0.00    1.3
2173  54317.000   1271651.7966  -4729241.7647   4072560.4765   2   8   0.0594   0.1009   0.0741  -0.0588  -0.0601   0.0289   0.00    1.3
2173  54318.000   1271651.8022  -4729241.7670   4072560.4803   2   8   0.0590   0.1002   0.0735  -0.0584  -0.0596   0.0288   0.00    1.4
2173  54319.000   1271651.8106  -4729241.7766   4072560.4832   2   8   0.0586   0.0995   0.0729  -0.0581  -0.0592   0.0285   0.00    1.4
2173  54320.000   1271651.8094  -4729241.7791   4072560.4886   2   8   0.0582   0.0989   0.0722  -0.0577  -0.0587   0.0283   0.00    1.4
2173  54321.000   1271651.8168  -4729241.7862   4072560.4907   2   8   0.0578   0.0982   0.0716  -0.0573  -0.0583   0.0281   0.00    1.4
2173  54322.000   1271651.8179  -4729241.7905   4072560.5013   2   8   0.0574   0.0976   0.0710  -0.0570  -0.0579   0.0280   0.00    1.4
2173  54323.000   1271651.8171  -4729241.7874   4072560.4993   2   8   0.0570   0.0969   0.0704  -0.0566  -0.0575   0.0278   0.00    1.4
2173  54324.000   1271651.8194  -4729241.7857   4072560.4994   2   8   0.0566   0.0963   0.0698  -0.0563  -0.0570   0.0277   0.00    1.4
2173  54325.000   1271651.8185  -4729241.7863   4072560.5029   2   8   0.0563   0.0957   0.0692  -0.0559  -0.0566   0.0275   0.00    1.4
2173  54326.000   1271651.8167  -4729241.7871   4072560.5097   2   8   0.0559   0.0951   0.0686  -0.0556  -0.0562   0.0273   0.00    1.4
2173  54327.000   1271651.8200  -4729241.7890   4072560.5089   2   8   0.0556   0.0945   0.0680  -0.0553  -0.0558   0.0271   0.00    1.4
2173  54328.000   1271651.8229  -4729241.7951   4072560.5104   2   8   0.0552   0.0939   0.0675  -0.0549  -0.0554   0.0270   0.00    1.4
2173  54329.000   1271651.8240  -4729241.7959   4072560.5140   2   8   0.0549   0.0934   0.0669  -0.0546  -0.0550   0.0268   0.00    1.4
2173  54330.000   1271651.8245  -4729241.7962   4072560.5196   2   8   0.0546   0.0928   0.0664  -0.0543  -0.0547   0.0267   0.00    1.4
2173  54331.000   1271651.8245  -4729241.7934   4072560.5165   2   8   0.0542   0.0922   0.0658  -0.0540  -0.0543   0.0266   0.00    1.3
2173  54332.000   1271651.8247  -4729241.7882   4072560.5135   2   8   0.0539   0.0917   0.0653  -0.0537  -0.0539   0.0264   0.00    1.3
2173  54333.000   1271651.8270  -4729241.7911   4072560.5171   2   8   0.0536   0.0911   0.0647  -0.0534  -0.0535   0.0262   0.00    1.3
2173  54334.000   1271651.8280  -4729241.7920   4072560.5203   2   8   0.0533   0.0906   0.0642  -0.0531  -0.0532   0.0261   0.00    1.3
2173  54335.000   1271651.8289  -4729241.7943   4072560.5215   2   8   0.0529   0.0901   0.0637  -0.0528  -0.0528   0.0260   0.00    1.3
2173  54336.000   1271651.8341  -4729241.8029   4072560.5270   2   8   0.0526   0.0895   0.0632  -0.0525  -0.0525   0.0259   0.00    1.3
2173  54337.000   1271651.8334  -4729241.8011   4072560.5284   2   8   0.0523   0.0890   0.0626  -0.0522  -0.0521   0.0257   0.00    1.3
2173  54338.000   1271651.8284  -4729241.7900   4072560.5223   2   8   0.0520   0.0885   0.0621  -0.0519  -0.0518   0.0256   0.00    1.3
2173  54339.000   1271651.8289  -4729241.7850   4072560.5161   2   8   0.0517   0.0880   0.0616  -0.0516  -0.0514   0.0254   0.00    1.3
2173  54340.000   1271651.8278  -4729241.7851   4072560.5126   2   8   0.0514   0.0875   0.0611  -0.0513  -0.0511   0.0253   0.00    1.3
2173  54341.000   1271651.8277  -4729241.7839   4072560.5066   2   8   0.0512   0.0871   0.0607  -0.0510  -0.0508   0.0252   0.00    1.3
2173  54342.000   1271651.8269  -4729241.7797   4072560.5044   2   8   0.0509   0.0865   0.0602  -0.0508  -0.0505   0.0251   0.00    1.3
2173  54343.000   1271651.8251  -4729241.7700   4072560.4949   2   8   0.0506   0.0861   0.0597  -0.0505  -0.0501   0.0250   0.00    1.3
2173  54344.000   1271651.8280  -4729241.7689   4072560.4838   2   8   0.0503   0.0856   0.0592  -0.0502  -0.0498   0.0249   0.00    1.3
2173  54345.000   1271651.8261  -4729241.7617   4072560.4754   2   8   0.0500   0.0851   0.0588  -0.0500  -0.0495   0.0247   0.00    1.3
2173  54346.000   1271651.8259  -4729241.7567   4072560.4662   2   8   0.0497   0.0847   0.0583  -0.0497  -0.0492   0.0246   0.00    1.3
2173  54347.000   1271651.8254  -4729241.7484   4072560.4562   2   8   0.0495   0.0842   0.0578  -0.0494  -0.0489   0.0245   0.00    1.3
2173  54348.000   1271651.8268  -4729241.7430   4072560.4454   2   8   0.0493   0.0838   0.0574  -0.0492  -0.0486   0.0243   0.00    1.3
2173  54349.000   1271651.8269  -4729241.7400   4072560.4373   2   8   0.0490   0.0833   0.0569  -0.0490  -0.0483   0.0242   0.00    1.3
2173  54350.000   1271651.8307  -4729241.7377   4072560.4314   2   8   0.0487   0.0829   0.0565  -0.0487  -0.0480   0.0242   0.00    1.3
2173  54351.000   1271651.8348  -4729241.7448   4072560.4305   2   8   0.0485   0.0825   0.0561  -0.0485  -0.0477   0.0240   0.00    1.3
2173  54352.000   1271651.8401  -4729241.7517   4072560.4298   2   8   0.0482   0.0821   0.0556  -0.0482  -0.0474   0.0239   0.00    1.3
2173  54353.000   1271651.8423  -4729241.7551   4072560.4261   2   8   0.0480   0.0817   0.0552  -0.0480  -0.0471   0.0238   0.00    1.3
2173  54354.000   1271651.8455  -4729241.7577   4072560.4266   2   8   0.0477   0.0812   0.0548  -0.0477  -0.0468   0.0237   0.00    1.3
2173  54355.000   1271651.8444  -4729241.7596   4072560.4266   2   8   0.0475   0.0808   0.0544  -0.0475  -0.0466   0.0237   0.00    1.3
2173  54356.000   1271651.8466  -4729241.7604   4072560.4269   2   8   0.0473   0.0804   0.0539  -0.0472  -0.0463   0.0235   0.00    1.3
2173  54357.000   1271651.8464  -4729241.7609   4072560.4292   2   8   0.0470   0.0800   0.0536  -0.0470  -0.0460   0.0234   0.00    1.3
2173  54358.000   1271651.8508  -4729241.7689   4072560.4320   2   8   0.0467   0.0796   0.0532  -0.0468  -0.0457   0.0233   0.00    1.3
2173  54359.000   1271651.8512  -4729241.7673   4072560.4302   2   8   0.0465   0.0792   0.0528  -0.0466  -0.0455   0.0232   0.00    1.3
2173  54360.000   1271651.8526  -4729241.7706   4072560.4351   2   8   0.0463   0.0789   0.0524  -0.0463  -0.0451   0.0231   0.00    1.3
2173  54361.000   1271651.8545  -4729241.7707   4072560.4383   2   8   0.0461   0.0785   0.0520  -0.0460  -0.0449   0.0230   0.00    1.3
2173  54362.000   1271651.8601  -4729241.7838   4072560.4441   2   8   0.0458   0.0781   0.0516  -0.0458  -0.0447   0.0229   0.00    1.3
2173  54363.000   1271651.8605  -4729241.7819   4072560.4423   2   8   0.0456   0.0777   0.0512  -0.0456  -0.0444   0.0228   0.00    1.3
2173  54364.000   1271651.8612  -4729241.7815   4072560.4402   2   8   0.0454   0.0773   0.0508  -0.0454  -0.0442   0.0227   0.00    1.3
2173  54365.000   1271651.8644  -4729241.7857   4072560.4435   2   8   0.0452   0.0770   0.0504  -0.0452  -0.0439   0.0226   0.00    1.3
2173  54366.000   1271651.8657  -4729241.7853   4072560.4410   2   8   0.0450   0.0766   0.0501  -0.0449  -0.0437   0.0225   0.00    1.3
2173  54367.000   1271651.8666  -4729241.7914   4072560.4424   2   8   0.0448   0.0763   0.0497  -0.0447  -0.0434   0.0224   0.00    1.3
2173  54368.000   1271651.8691  -4729241.8010   4072560.4477   2   8   0.0445   0.0759   0.0494  -0.0445  -0.0432   0.0223   0.00    1.3
2173  54369.000   1271651.8705  -4729241.8019   4072560.4495   2   8   0.0443   0.0755   0.0490  -0.0443  -0.0429   0.0223   0.00    1.3
2173  54370.000   1271651.8705  -4729241.8024   4072560.4500   2   8   0.0442   0.0752   0.0486  -0.0441  -0.0427   0.0221   0.00    1.3
2173  54371.000   1271651.8720  -4729241.8033   4072560.4516   2   8   0.0439   0.0748   0.0483  -0.0439  -0.0424   0.0221   0.00    1.3
2173  54372.000   1271651.8712  -4729241.8000   4072560.4515   2   8   0.0437   0.0745   0.0479  -0.0437  -0.0422   0.0220   0.00    1.3
2173  54373.000   1271651.8740  -4729241.8029   4072560.4502   2   8   0.0435   0.0741   0.0476  -0.0435  -0.0420   0.0220   0.00    1.3
2173  54374.000   1271651.8752  -4729241.8017   4072560.4487   2   8   0.0433   0.0738   0.0473  -0.0433  -0.0418   0.0218   0.00    1.3
2173  54375.000   1271651.8739  -4729241.8016   4072560.4501   2   8   0.0431   0.0735   0.0469  -0.0430  -0.0415   0.0218   0.00    1.3
2173  54376.000   1271651.8918  -4729241.8298   4072560.4749   2   8   0.0429   0.0731   0.0466  -0.0429  -0.0413   0.0216   0.00    1.3
2173  54377.000   1271651.8971  -4729241.8353   4072560.4820   2   8   0.0427   0.0728   0.0463  -0.0427  -0.0411   0.0216   0.00    1.3
2173  54378.000   1271651.8999  -4729241.8405   4072560.4918   2   8   0.0425   0.0725   0.0459  -0.0424  -0.0409   0.0215   0.00    1.3
2173  54379.000   1271651.9030  -4729241.8506   4072560.4998   2   8   0.0424   0.0722   0.0456  -0.0422  -0.0406   0.0213   0.00    1.3
2173  54380.000   1271651.9072  -4729241.8592   4072560.5078   2   8   0.0422   0.0719   0.0453  -0.0420  -0.0405   0.0213   0.00    1.3
2173  54381.000   1271651.9052  -4729241.8670   4072560.5239   2   8   0.0420   0.0716   0.0450  -0.0418  -0.0402   0.0212   0.00    1.3
2173  54382.000   1271651.9094  -4729241.8787   4072560.5371   2   8   0.0418   0.0712   0.0447  -0.0417  -0.0400   0.0212   0.00    1.3
2173  54383.000   1271651.9150  -4729241.8960   4072560.5528   2   8   0.0416   0.0709   0.0444  -0.0415  -0.0398   0.0211   0.00    1.3
2173  54384.000   1271651.9210  -4729241.9119   4072560.5673   2   8   0.0415   0.0706   0.0441  -0.0412  -0.0396   0.0211   0.00    1.3
2173  54385.000   1271651.9265  -4729241.9226   4072560.5789   2   8   0.0413   0.0703   0.0438  -0.0410  -0.0394   0.0209   0.00    1.3
2173  54386.000   1271651.9289  -4729241.9312   4072560.5866   2   8   0.0411   0.0700   0.0435  -0.0409  -0.0392   0.0209   0.00    1.3
2173  54387.000   1271651.9347  -4729241.9381   4072560.5923   2   8   0.0409   0.0697   0.0432  -0.0407  -0.0390   0.0208   0.00    1.3
2173  54388.000   1271651.9416  -4729241.9503   4072560.5999   2   8   0.0407   0.0694   0.0429  -0.0405  -0.0388   0.0207   0.00    1.3
2173  54389.000   1271651.9445  -4729241.9570   4072560.6096   2   8   0.0406   0.0691   0.0426  -0.0403  -0.0386   0.0207   0.00    1.3
2173  54390.000   1271651.9495  -4729241.9691   4072560.6186   2   8   0.0404   0.0688   0.0423  -0.0401  -0.0384   0.0205   0.00    1.3
2173  54391.000   1271651.9545  -4729241.9745   4072560.6225   2   8   0.0402   0.0685   0.0420  -0.0399  -0.0382   0.0205   0.00    1.3
2173  54392.000   1271651.9545  -4729241.9723   4072560.6202   2   8   0.0400   0.0682   0.0417  -0.0398  -0.0380   0.0204   0.00    1.3
2173  54393.000   1271651.9574  -4729241.9822   4072560.6280   2   8   0.0399   0.0680   0.0414  -0.0396  -0.0378   0.0203   0.00    1.3
2173  54394.000   1271651.9627  -4729241.9915   4072560.6323   2   8   0.0397   0.0676   0.0412  -0.0395  -0.0376   0.0203   0.00    1.3
2173  54395.000   1271651.9675  -4729241.9973   4072560.6365   2   8   0.0396   0.0673   0.0409  -0.0393  -0.0374   0.0201   0.00    1.3
2173  54396.000   1271651.9671  -4729241.9973   4072560.6407   2   8   0.0394   0.0671   0.0406  -0.0390  -0.0373   0.0200   0.00    1.3
2173  54397.000   1271651.9716  -4729242.0070   4072560.6495   2   8   0.0392   0.0668   0.0404  -0.0389  -0.0371   0.0200   0.00    1.3
2173  54398.000   1271651.9752  -4729242.0133   4072560.6541   2   8   0.0390   0.0665   0.0401  -0.0388  -0.0370   0.0199   0.00    1.3
2173  54399.000   1271651.9803  -4729242.0253   4072560.6624   2   8   0.0389   0.0663   0.0399  -0.0385  -0.0367   0.0199   0.00    1.3
2173  54400.000   1271651.9865  -4729242.0342   4072560.6673   2   8   0.0388   0.0660   0.0396  -0.0383  -0.0365   0.0198   0.00    1.3
2173  54401.000   1271651.9938  -4729242.0465   4072560.6758   2   8   0.0386   0.0657   0.0393  -0.0382  -0.0364   0.0198   0.00    1.3
2173  54402.000   1271652.0003  -4729242.0570   4072560.6807   2   8   0.0384   0.0655   0.0391  -0.0381  -0.0362   0.0196   0.00    1.3
2173  54403.000   1271652.0067  -4729242.0672   4072560.6870   2   8   0.0383   0.0652   0.0388  -0.0379  -0.0360   0.0196   0.00    1.3
2173  54404.000   1271652.0117  -4729242.0743   4072560.6905   2   8   0.0381   0.0649   0.0386  -0.0377  -0.0359   0.0195   0.00    1.3
2173  54405.000   1271652.0214  -4729242.0875   4072560.6928   2   8   0.0380   0.0647   0.0383  -0.0376  -0.0357   0.0195   0.00    1.3
2173  54406.000   1271652.0280  -4729242.0983   4072560.6965   2   8   0.0378   0.0644   0.0381  -0.0374  -0.0355   0.0193   0.00    1.2
2173  54407.000   1271652.0333  -4729242.1059   4072560.6974   2   8   0.0376   0.0642   0.0379  -0.0373  -0.0354   0.0193   0.00    1.2
2173  54408.000   1271652.0343  -4729242.1114   4072560.7040   2   8   0.0375   0.0639   0.0376  -0.0370  -0.0352   0.0192   0.00    1.2
2173  54409.000   1271652.0391  -4729242.1197   4072560.7076   2   8   0.0373   0.0637   0.0374  -0.0369  -0.0350   0.0192   0.00    1.2
2173  54410.000   1271652.0417  -4729242.1216   4072560.7100   2   8   0.0372   0.0634   0.0372  -0.0368  -0.0348   0.0191   0.00    1.2
2173  54411.000   1271652.0449  -4729242.1261   4072560.7119   2   8   0.0370   0.0632   0.0369  -0.0366  -0.0347   0.0190   0.00    1.2
2173  54412.000   1271652.0520  -4729242.1375   4072560.7141   2   8   0.0369   0.0629   0.0367  -0.0364  -0.0345   0.0189   0.00    1.2
2173  54413.000   1271652.0504  -4729242.1352   4072560.7084   2   8   0.0367   0.0627   0.0365  -0.0362  -0.0344   0.0189   0.00    1.2
2173  54414.000   1271652.0540  -4729242.1426   4072560.7117   2   8   0.0366   0.0624   0.0362  -0.0362  -0.0342   0.0189   0.00    1.2
2173  54415.000   1271652.0554  -4729242.1395   4072560.7061   2   8   0.0365   0.0622   0.0360  -0.0359  -0.0340   0.0188   0.00    1.2
2173  54416.000   1271652.0549  -4729242.1429   4072560.7046   2   8   0.0363   0.0620   0.0358  -0.0358  -0.0340   0.0186   0.00    1.2
2173  54417.000   1271652.0545  -4729242.1392   4072560.7036   2   8   0.0362   0.0618   0.0356  -0.0356  -0.0337   0.0186   0.00    1.2
2173  54418.000   1271652.0554  -4729242.1427   4072560.7010   2   8   0.0361   0.0615   0.0354  -0.0355  -0.0336   0.0186   0.00    1.2
2173  54419.000   1271652.0532  -4729242.1348   4072560.6948   2   8   0.0359   0.0613   0.0352  -0.0353  -0.0335   0.0186   0.00    1.2
2173  54420.000   1271652.0518  -4729242.1321   4072560.6939   2   8   0.0358   0.0611   0.0350  -0.0351  -0.0333   0.0184   0.00    1.2
2173  54421.000   1271652.0500  -4729242.1306   4072560.6929   2   8   0.0356   0.0608   0.0347  -0.0350  -0.0331   0.0183   0.00    1.2
2173  54422.000   1271652.0463  -4729242.1277   4072560.6897   2   8   0.0355   0.0605   0.0346  -0.0349  -0.0330   0.0183   0.00    1.2
2173  54423.000   1271652.0426  -4729242.1234   4072560.6858   2   8   0.0353   0.0603   0.0343  -0.0347  -0.0329   0.0183   0.00    1.2
2173  54424.000   1271652.0449  -4729242.1276   4072560.6866   2   8   0.0352   0.0601   0.0341  -0.0346  -0.0327   0.0182   0.00    1.2
2173  54425.000   1271652.0435  -4729242.1248   4072560.6845   2   8   0.0351   0.0599   0.0339  -0.0344  -0.0326   0.0181   0.00    1.2
2173  54426.000   1271652.0427  -4729242.1210   4072560.6843   2   8   0.0350   0.0597   0.0337  -0.0343  -0.0324   0.0180   0.00    1.2
2173  54427.000   1271652.0464  -4729242.1201   4072560.6830   2   8   0.0349   0.0594   0.0335  -0.0341  -0.0323   0.0179   0.00    1.2
2173  54428.000   1271652.0427  -4729242.1175   4072560.6851   2   8   0.0347   0.0593   0.0334  -0.0340  -0.0322   0.0179   0.00    1.2
2173  54429.000   1271652.0406  -4729242.1153   4072560.6819   2   8   0.0346   0.0590   0.0332  -0.0339  -0.0320   0.0179   0.00    1.2
2173  54430.000   1271652.0365  -4729242.1028   4072560.6745   2   8   0.0344   0.0588   0.0330  -0.0337  -0.0319   0.0178   0.00    1.3
2173  54431.000   1271652.0348  -4729242.0937   4072560.6661   2   8   0.0343   0.0586   0.0328  -0.0335  -0.0317   0.0177   0.00    1.3
2173  54432.000   1271652.0293  -4729242.0854   4072560.6598   2   8   0.0342   0.0584   0.0326  -0.0334  -0.0316   0.0176   0.00    1.3
2173  54433.000   1271652.0262  -4729242.0772   4072560.6478   2   8   0.0341   0.0582   0.0324  -0.0332  -0.0314   0.0175   0.00    1.3
2173  54434.000   1271652.0202  -4729242.0680   4072560.6381   2   8   0.0339   0.0579   0.0322  -0.0332  -0.0313   0.0176   0.00    1.3
2173  54435.000   1271652.0155  -4729242.0617   4072560.6332   2   8   0.0338   0.0578   0.0320  -0.0330  -0.0312   0.0174   0.00    1.3
2173  54436.000   1271652.0125  -4729242.0566   4072560.6275   2   8   0.0337   0.0575   0.0319  -0.0329  -0.0311   0.0174   0.00    1.3
2173  54437.000   1271652.0090  -4729242.0578   4072560.5854   2   8   0.0336   0.0574   0.0317  -0.0326  -0.0309   0.0173   0.00    1.3
2173  54438.000   1271652.0126  -4729242.0593   4072560.5753   2   8   0.0334   0.0571   0.0315  -0.0326  -0.0308   0.0173   0.00    1.3
2173  54439.000   1271652.0248  -4729242.0768   4072560.5663   2   8   0.0333   0.0569   0.0313  -0.0325  -0.0307   0.0173   0.00    1.3
2173  54440.000   1271652.0306  -4729242.0788   4072560.5585   2   8   0.0332   0.0567   0.0312  -0.0323  -0.0306   0.0172   0.00    1.3
2173  54441.000   1271652.0331  -4729242.0793   4072560.5536   2   8   0.0331   0.0565   0.0310  -0.0322  -0.0304   0.0172   0.00    1.2
2173  54442.000   1271652.0356  -4729242.0838   4072560.5493   2   8   0.0330   0.0564   0.0308  -0.0320  -0.0303   0.0171   0.00    1.2
2173  54443.000   1271652.0383  -4729242.0847   4072560.5430   2   8   0.0329   0.0561   0.0306  -0.0319  -0.0302   0.0169   0.00    1.2
2173  54444.000   1271652.0394  -4729242.0870   4072560.5404   2   8   0.0327   0.0559   0.0305  -0.0318  -0.0300   0.0170   0.00    1.2
2173  54445.000   1271652.0426  -4729242.0910   4072560.5362   2   8   0.0326   0.0557   0.0304  -0.0317  -0.0299   0.0169   0.00    1.2
2173  54446.000   1271652.0474  -4729242.0967   4072560.5333   2   8   0.0325   0.0555   0.0302  -0.0315  -0.0298   0.0169   0.00    1.2
2173  54447.000   1271652.0516  -4729242.1025   4072560.5340   2   8   0.0324   0.0553   0.0300  -0.0314  -0.0297   0.0168   0.00    1.2
2173  54448.000   1271652.0565  -4729242.1052   4072560.5320   2   8   0.0323   0.0551   0.0299  -0.0313  -0.0296   0.0167   0.00    1.2
2173  54449.000   1271652.0590  -4729242.1086   4072560.5274   2   8   0.0322   0.0549   0.0297  -0.0312  -0.0294   0.0166   0.00    1.2
2173  54450.000   1271652.0645  -4729242.1165   4072560.5262   2   8   0.0321   0.0548   0.0295  -0.0310  -0.0293   0.0166   0.00    1.2
2173  54451.000   1271652.0703  -4729242.1264   4072560.5239   2   8   0.0320   0.0546   0.0294  -0.0308  -0.0292   0.0165   0.00    1.2
2173  54452.000   1271652.0750  -4729242.1342   4072560.5245   2   8   0.0318   0.0544   0.0292  -0.0307  -0.0291   0.0165   0.00    1.2
2173  54453.000   1271652.0835  -4729242.1453   4072560.5240   2   8   0.0317   0.0542   0.0290  -0.0306  -0.0290   0.0165   0.00    1.1
2173  54454.000   1271652.0901  -4729242.1543   4072560.5238   2   8   0.0316   0.0540   0.0289  -0.0305  -0.0289   0.0164   0.00    1.1
2173  54455.000   1271652.0980  -4729242.1659   4072560.5263   2   8   0.0315   0.0539   0.0288  -0.0303  -0.0287   0.0162   0.00    1.1
2173  54456.000   1271652.1004  -4729242.1659   4072560.5226   2   8   0.0314   0.0537   0.0286  -0.0302  -0.0286   0.0162   0.00    1.1
2173  54457.000   1271652.1066  -4729242.1751   4072560.5226   2   8   0.0313   0.0535   0.0284  -0.0300  -0.0285   0.0161   0.00    1.1
2173  54458.000   1271652.1051  -4729242.1732   4072560.5212   2   8   0.0311   0.0533   0.0283  -0.0300  -0.0284   0.0161   0.00    1.1
2173  54459.000   1271652.1119  -4729242.1824   4072560.5216   2   8   0.0311   0.0531   0.0282  -0.0298  -0.0283   0.0161   0.00    1.1
2173  54460.000   1271652.1120  -4729242.1880   4072560.5221   2   8   0.0310   0.0529   0.0280  -0.0297  -0.0282   0.0160   0.00    1.1
2173  54461.000   1271652.1166  -4729242.1967   4072560.5228   2   8   0.0309   0.0527   0.0279  -0.0296  -0.0281   0.0160   0.00    1.1
2173  54462.000   1271652.1182  -4729242.1994   4072560.5258   2   8   0.0308   0.0526   0.0278  -0.0295  -0.0279   0.0159   0.00    1.1
2173  54463.000   1271652.1257  -4729242.2120   4072560.5279   2   8   0.0306   0.0524   0.0276  -0.0294  -0.0279   0.0159   0.00    1.1
2173  54464.000   1271652.1252  -4729242.2122   4072560.5277   2   8   0.0306   0.0522   0.0275  -0.0292  -0.0277   0.0158   0.00    1.1
2173  54465.000   1271652.1283  -4729242.2186   4072560.5292   2   8   0.0304   0.0520   0.0273  -0.0291  -0.0277   0.0158   0.00    1.1
2173  54466.000   1271652.1324  -4729242.2262   4072560.5307   2   8   0.0303   0.0519   0.0272  -0.0290  -0.0276   0.0158   0.00    1.1
2173  54467.000   1271652.1354  -4729242.2352   4072560.5337   2   8   0.0303   0.0517   0.0271  -0.0288  -0.0274   0.0157   0.00    1.0
2173  54468.000   1271652.1397  -4729242.2420   4072560.5372   2   8   0.0302   0.0516   0.0270  -0.0287  -0.0273   0.0156   0.00    1.0
2173  54469.000   1271652.1444  -4729242.2521   4072560.5418   2   8   0.0301   0.0514   0.0268  -0.0286  -0.0272   0.0155   0.00    1.0
2173  54470.000   1271652.1471  -4729242.2568   4072560.5454   2   8   0.0299   0.0512   0.0267  -0.0286  -0.0271   0.0155   0.00    1.0
2173  54471.000   1271652.1533  -4729242.2677   4072560.5477   2   8   0.0298   0.0510   0.0266  -0.0284  -0.0271   0.0155   0.00    1.0
2173  54472.000   1271652.1577  -4729242.2743   4072560.5542   2   8   0.0297   0.0509   0.0264  -0.0283  -0.0269   0.0153   0.00    1.0
2173  54473.000   1271652.1645  -4729242.2894   4072560.5636   2   8   0.0297   0.0507   0.0263  -0.0281  -0.0268   0.0154   0.00    1.0
2173  54474.000   1271652.1668  -4729242.2935   4072560.5654   2   8   0.0296   0.0505   0.0261  -0.0281  -0.0267   0.0153   0.00    1.0
2173  54475.000   1271652.1692  -4729242.2996   4072560.5679   2   8   0.0294   0.0503   0.0261  -0.0280  -0.0267   0.0152   0.00    1.0
2173  54476.000   1271652.1755  -4729242.3123   4072560.5719   2   8   0.0294   0.0502   0.0259  -0.0278  -0.0265   0.0152   0.00    1.0
2173  54477.000   1271652.1755  -4729242.3154   4072560.5772   2   8   0.0292   0.0500   0.0258  -0.0278  -0.0264   0.0153   0.00    1.0
2173  54478.000   1271652.1785  -4729242.3199   4072560.5782   2   8   0.0292   0.0499   0.0256  -0.0277  -0.0264   0.0151   0.00    1.0
2173  54479.000   1271652.1822  -4729242.3283   4072560.5816   2   8   0.0291   0.0497   0.0256  -0.0275  -0.0262   0.0149   0.00    1.0
2173  54480.000   1271652.1888  -4729242.3389   4072560.5872   2   8   0.0290   0.0496   0.0254  -0.0274  -0.0261   0.0150   0.00    1.0
2173  54481.000   1271652.1897  -4729242.3404   4072560.5895   2   8   0.0289   0.0494   0.0253  -0.0273  -0.0260   0.0149   0.00    1.1
2173  54482.000   1271652.1946  -4729242.3461   4072560.5870   2   8   0.0288   0.0493   0.0251  -0.0272  -0.0260   0.0148   0.00    1.1
2173  54483.000   1271652.1943  -4729242.3502   4072560.5947   2   8   0.0287   0.0491   0.0251  -0.0271  -0.0258   0.0149   0.00    1.1
2173  54484.000   1271652.1970  -4729242.3500   4072560.5925   2   8   0.0286   0.0489   0.0249  -0.0271  -0.0258   0.0148   0.00    1.1
2173  54485.000   1271652.1999  -4729242.3553   4072560.5991   2   8   0.0285   0.0487   0.0248  -0.0270  -0.0257   0.0147   0.00    1.1
2173  54486.000   1271652.2021  -4729242.3603   4072560.6014   2   8   0.0284   0.0487   0.0247  -0.0267  -0.0256   0.0147   0.00    1.1
2173  54487.000   1271652.2000  -4729242.3575   4072560.6038   2   8   0.0284   0.0485   0.0246  -0.0266  -0.0255   0.0147   0.00    1.1
2173  54488.000   1271652.2079  -4729242.3726   4072560.6128   2   8   0.0282   0.0483   0.0245  -0.0266  -0.0254   0.0147   0.00    1.1
2173  54489.000   1271652.2070  -4729242.3704   4072560.6132   2   8   0.0282   0.0481   0.0244  -0.0265  -0.0254   0.0146   0.00    1.1
2173  54490.000   1271652.2099  -4729242.3744   4072560.6189   2   8   0.0280   0.0480   0.0243  -0.0264  -0.0253   0.0145   0.00    1.1
2173  54491.000   1271652.2126  -4729242.3757   4072560.6208   2   8   0.0280   0.0479   0.0241  -0.0262  -0.0251   0.0144   0.00    1.1
2173  54492.000   1271652.2161  -4729242.3774   4072560.6230   2   8   0.0279   0.0477   0.0240  -0.0261  -0.0251   0.0143   0.00    1.1
2173  54493.000   1271652.2130  -4729242.3739   4072560.6237   2   8   0.0278   0.0476   0.0239  -0.0259  -0.0249   0.0142   0.00    1.1
2173  54494.000   1271652.2145  -4729242.3744   4072560.6252   2   8   0.0277   0.0475   0.0238  -0.0259  -0.0248   0.0143   0.00    1.1
2173  54495.000   1271652.2192  -4729242.3771   4072560.6234   2   8   0.0276   0.0473   0.0237  -0.0258  -0.0248   0.0143   0.00    1.2
2173  54496.000   1271652.2233  -4729242.3834   4072560.6272   2   8   0.0276   0.0472   0.0236  -0.0257  -0.0247   0.0142   0.00    1.2
2173  54497.000   1271652.2249  -4729242.3850   4072560.6266   2   8   0.0275   0.0470   0.0235  -0.0255  -0.0246   0.0143   0.00    1.2
2173  54498.000   1271652.2171  -4729242.3725   4072560.6036   2   8   0.0274   0.0469   0.0234  -0.0255  -0.0245   0.0141   0.00    1.2
2173  54499.000   1271652.2188  -4729242.3670   4072560.5941   2   8   0.0273   0.0467   0.0233  -0.0253  -0.0244   0.0141   0.00    1.2
2173  54500.000   1271652.2193  -4729242.3623   4072560.5908   2   8   0.0272   0.0465   0.0232  -0.0254  -0.0244   0.0140   0.00    1.2
2173  54501.000   1271652.2200  -4729242.3563   4072560.5895   2   8   0.0272   0.0464   0.0231  -0.0252  -0.0243   0.0139   0.00    1.2
2173  54502.000   1271652.2238  -4729242.3568   4072560.5913   2   8   0.0270   0.0463   0.0230  -0.0251  -0.0241   0.0139   0.00    1.2
2173  54503.000   1271652.2279  -4729242.3585   4072560.5882   2   8   0.0270   0.0462   0.0229  -0.0249  -0.0241   0.0138   0.00    1.2
2173  54504.000   1271652.2282  -4729242.3559   4072560.5903   2   8   0.0269   0.0460   0.0228  -0.0248  -0.0240   0.0138   0.00    1.2
2173  54505.000   1271652.2264  -4729242.3489   4072560.5886   2   8   0.0267   0.0459   0.0227  -0.0248  -0.0239   0.0138   0.00    1.3
2173  54506.000   1271652.2279  -4729242.3472   4072560.5873   2   8   0.0267   0.0457   0.0226  -0.0247  -0.0239   0.0137   0.00    1.3
2173  54507.000   1271652.2262  -4729242.3407   4072560.5880   2   8   0.0267   0.0457   0.0225  -0.0244  -0.0237   0.0136   0.00    1.3
2173  54508.000   1271652.2252  -4729242.3343   4072560.5836   2   8   0.0265   0.0455   0.0224  -0.0245  -0.0237   0.0136   0.00    1.3
2173  54509.000   1271652.2227  -4729242.3291   4072560.5816   2   8   0.0264   0.0453   0.0224  -0.0246  -0.0236   0.0137   0.00    1.3
2173  54510.000   1271652.2221  -4729242.3214   4072560.5782   2   8   0.0264   0.0452   0.0223  -0.0243  -0.0235   0.0136   0.00    1.3
2173  54511.000   1271652.2257  -4729242.3230   4072560.5761   2   8   0.0263   0.0451   0.0222  -0.0242  -0.0233   0.0135   0.00    1.3
2173  54512.000   1271652.2240  -4729242.3130   4072560.5693   2   8   0.0262   0.0450   0.0221  -0.0241  -0.0233   0.0135   0.00    1.3
2173  54513.000   1271652.2232  -4729242.3101   4072560.5645   2   8   0.0262   0.0448   0.0220  -0.0240  -0.0233   0.0134   0.00    1.3
2173  54514.000   1271652.2213  -4729242.3009   4072560.5604   2   8   0.0261   0.0446   0.0219  -0.0241  -0.0232   0.0134   0.00    1.3
2173  54515.000   1271652.2253  -4729242.3014   4072560.5597   2   8   0.0260   0.0445   0.0218  -0.0239  -0.0232   0.0133   0.00    1.4
2173  54516.000   1271652.2238  -4729242.3003   4072560.5598   2   8   0.0260   0.0444   0.0217  -0.0238  -0.0231   0.0132   0.00    1.4
2173  54517.000   1271652.2218  -4729242.2924   4072560.5560   2   8   0.0258   0.0443   0.0216  -0.0236  -0.0230   0.0132   0.00    1.4
2173  54518.000   1271652.2209  -4729242.2841   4072560.5528   2   8   0.0258   0.0441   0.0215  -0.0236  -0.0229   0.0132   0.00    1.4
2173  54519.000   1271652.2201  -4729242.2798   4072560.5495   2   8   0.0257   0.0440   0.0215  -0.0235  -0.0228   0.0132   0.00    1.4
2173  54520.000   1271652.2198  -4729242.2754   4072560.5465   2   8   0.0257   0.0440   0.0214  -0.0232  -0.0227   0.0131   0.00    1.4
2173  54521.000   1271652.2179  -4729242.2680   4072560.5380   2   8   0.0256   0.0438   0.0213  -0.0232  -0.0227   0.0130   0.00    1.4
2173  54522.000   1271652.2161  -4729242.2594   4072560.5411   2   8   0.0255   0.0437   0.0212  -0.0231  -0.0226   0.0131   0.00    1.4
2173  54523.000   1271652.2148  -4729242.2534   4072560.5381   2   8   0.0254   0.0435   0.0211  -0.0232  -0.0225   0.0131   0.00    1.4
2173  54524.000   1271652.2123  -4729242.2454   4072560.5386   2   8   0.0253   0.0434   0.0211  -0.0230  -0.0224   0.0129   0.00    1.5
2173  54525.000   1271652.2079  -4729242.2406   4072560.5385   2   8   0.0253   0.0433   0.0210  -0.0229  -0.0224   0.0129   0.00    1.5
2173  54526.000   1271652.2078  -4729242.2305   4072560.5363   2   8   0.0252   0.0431   0.0209  -0.0228  -0.0223   0.0129   0.00    1.5
2173  54527.000   1271652.2035  -4729242.2240   4072560.5347   2   8   0.0251   0.0430   0.0208  -0.0227  -0.0222   0.0127   0.00    1.5
2173  54528.000   1271652.2041  -4729242.2211   4072560.5355   2   8   0.0250   0.0429   0.0207  -0.0227  -0.0222   0.0128   0.00    1.5
2173  54529.000   1271652.2001  -4729242.2132   4072560.5347   2   8   0.0249   0.0428   0.0206  -0.0225  -0.0221   0.0127   0.00    1.5
2173  54530.000   1271652.2001  -4729242.2050   4072560.5312   2   8   0.0249   0.0427   0.0206  -0.0223  -0.0220   0.0126   0.00    1.5
2173  54531.000   1271652.1992  -4729242.2018   4072560.5356   2   8   0.0248   0.0425   0.0205  -0.0225  -0.0220   0.0127   0.00    1.5
2173  54532.000   1271652.2000  -4729242.1974   4072560.5341   2   8   0.0248   0.0425   0.0204  -0.0223  -0.0219   0.0126   0.00    1.5
2173  54533.000   1271652.1968  -4729242.1930   4072560.5305   2   8   0.0246   0.0423   0.0203  -0.0222  -0.0218   0.0127   0.00    1.6
2173  54534.000   1271652.1998  -4729242.1907   4072560.5317   2   8   0.0246   0.0422   0.0202  -0.0221  -0.0218   0.0125   0.00    1.6
2173  54535.000   1271652.1980  -4729242.1890   4072560.5304   2   8   0.0245   0.0420   0.0202  -0.0221  -0.0217   0.0125   0.00    1.6
2173  54536.000   1271652.1927  -4729242.1811   4072560.5257   2   8   0.0244   0.0419   0.0201  -0.0220  -0.0216   0.0125   0.00    1.6
2173  54537.000   1271652.1930  -4729242.1750   4072560.5237   2   8   0.0244   0.0419   0.0200  -0.0218  -0.0216   0.0124   0.00    1.6
2173  54538.000   1271652.1905  -4729242.1692   4072560.5229   2   8   0.0244   0.0418   0.0199  -0.0217  -0.0215   0.0123   0.00    1.6
2173  54539.000   1271652.1916  -4729242.1657   4072560.5250   2   8   0.0243   0.0416   0.0199  -0.0218  -0.0214   0.0123   0.00    1.6
2173  54540.000   1271652.1910  -4729242.1619   4072560.5246   2   8   0.0242   0.0415   0.0198  -0.0216  -0.0213   0.0123   0.00    1.6
2173  54541.000   1271652.1912  -4729242.1606   4072560.5238   2   8   0.0242   0.0414   0.0197  -0.0215  -0.0213   0.0122   0.00    1.6
2173  54542.000   1271652.1861  -4729242.1549   4072560.5234   2   8   0.0241   0.0413   0.0197  -0.0214  -0.0212   0.0122   0.00    1.6
2173  54543.000   1271652.1855  -4729242.1507   4072560.5240   2   8   0.0240   0.0412   0.0195  -0.0213  -0.0212   0.0121   0.00    1.6
2173  54544.000   1271652.1825  -4729242.1445   4072560.5221   2   8   0.0239   0.0410   0.0195  -0.0214  -0.0211   0.0123   0.00    1.7
2173  54545.000   1271652.1789  -4729242.1360   4072560.5174   2   8   0.0239   0.0410   0.0195  -0.0211  -0.0210   0.0121   0.00    1.7
2173  54546.000   1271652.1750  -4729242.1272   4072560.5165   2   8   0.0238   0.0408   0.0194  -0.0211  -0.0209   0.0121   0.00    1.7
2173  54547.000   1271652.1753  -4729242.1246   4072560.5142   2   8   0.0237   0.0407   0.0193  -0.0209  -0.0209   0.0120   0.00    1.7
2173  54548.000   1271652.1693  -4729242.1130   4072560.5128   2   8   0.0237   0.0406   0.0192  -0.0209  -0.0208   0.0120   0.00    1.7
2173  54549.000   1271652.1420  -4729242.0781   4072560.5014   2   8   0.0237   0.0405   0.0192  -0.0209  -0.0207   0.0118   0.00    1.7
2173  54550.000   1271652.1385  -4729242.0672   4072560.5008   2   8   0.0236   0.0404   0.0191  -0.0208  -0.0207   0.0118   0.00    1.7
2173  54551.000   1271652.1371  -4729242.0621   4072560.4934   2   8   0.0236   0.0403   0.0190  -0.0207  -0.0206   0.0116   0.00    1.7
2173  54552.000   1271652.1335  -4729242.0524   4072560.4919   2   8   0.0235   0.0402   0.0190  -0.0206  -0.0206   0.0118   0.00    1.7
2173  54553.000   1271652.1333  -4729242.0455   4072560.4866   2   8   0.0233   0.0401   0.0189  -0.0206  -0.0206   0.0118   0.00    1.7
2173  54554.000   1271652.1343  -4729242.0383   4072560.4829   2   8   0.0233   0.0400   0.0188  -0.0205  -0.0205   0.0117   0.00    1.7
2173  54555.000   1271652.1299  -4729242.0286   4072560.4732   2   8   0.0233   0.0399   0.0188  -0.0203  -0.0203   0.0117   0.00    1.7
2173  54556.000   1271652.1272  -4729242.0169   4072560.4698   2   8   0.0231   0.0398   0.0187  -0.0204  -0.0203   0.0118   0.00    1.7
2173  54557.000   1271652.1189  -4729242.0082   4072560.4471   2   8   0.0231   0.0396   0.0186  -0.0203  -0.0202   0.0117   0.00    1.7
2173  54558.000   1271652.1187  -4729242.0053   4072560.4411   2   8   0.0231   0.0396   0.0186  -0.0202  -0.0202   0.0116   0.00    1.7
2173  54559.000   1271652.1211  -4729242.0034   4072560.4320   2   8   0.0230   0.0395   0.0186  -0.0200  -0.0201   0.0115   0.00    1.7
2173  54560.000   1271652.1219  -4729241.9985   4072560.4246   2   8   0.0230   0.0394   0.0184  -0.0199  -0.0201   0.0114   0.00    1.7
2173  54561.000   1271652.1235  -4729242.0000   4072560.4220   2   8   0.0229   0.0392   0.0184  -0.0200  -0.0200   0.0116   0.00    1.6
2173  54562.000   1271652.1230  -4729241.9916   4072560.4136   2   8   0.0228   0.0391   0.0183  -0.0198  -0.0200   0.0115   0.00    1.6
2173  54563.000   1271652.1244  -4729241.9880   4072560.4074   2   8   0.0228   0.0390   0.0183  -0.0197  -0.0199   0.0114   0.00    1.6
2173  54564.000   1271652.1251  -4729241.9831   4072560.3990   2   8   0.0227   0.0389   0.0182  -0.0198  -0.0199   0.0114   0.00    1.6
2173  54565.000   1271652.1266  -4729241.9800   4072560.3924   2   8   0.0227   0.0389   0.0182  -0.0196  -0.0198   0.0114   0.00    1.6
2173  54566.000   1271652.1248  -4729241.9704   4072560.3825   2   8   0.0226   0.0387   0.0181  -0.0196  -0.0197   0.0114   0.00    1.6
2173  54567.000   1271652.1287  -4729241.9697   4072560.3764   2   8   0.0225   0.0386   0.0181  -0.0195  -0.0197   0.0113   0.00    1.5
2173  54568.000   1271652.1262  -4729241.9636   4072560.3704   2   8   0.0226   0.0386   0.0179  -0.0193  -0.0196   0.0112   0.00    1.5
2173  54569.000   1271652.1276  -4729241.9598   4072560.3623   2   8   0.0224   0.0384   0.0179  -0.0193  -0.0196   0.0112   0.00    1.5
2173  54570.000   1271652.1283  -4729241.9555   4072560.3541   2   8   0.0224   0.0383   0.0178  -0.0193  -0.0196   0.0112   0.00    1.5
2173  54571.000   1271652.1282  -4729241.9510   4072560.3475   2   8   0.0223   0.0383   0.0178  -0.0192  -0.0194   0.0111   0.00    1.5
2173  54572.000   1271652.1286  -4729241.9475   4072560.3401   2   8   0.0223   0.0382   0.0177  -0.0191  -0.0193   0.0111   0.00    1.5
2173  54573.000   1271652.1311  -4729241.9471   4072560.3345   2   8   0.0222   0.0380   0.0177  -0.0191  -0.0193   0.0110   0.00    1.5
2173  54574.000   1271652.1320  -4729241.9412   4072560.3281   2   8   0.0221   0.0379   0.0176  -0.0190  -0.0193   0.0111   0.00    1.5
2173  54575.000   1271652.1310  -4729241.9375   4072560.3258   2   8   0.0221   0.0379   0.0175  -0.0189  -0.0192   0.0110   0.00    1.4
2173  54576.000   1271652.1324  -4729241.9338   4072560.3225   2   8   0.0221   0.0378   0.0175  -0.0188  -0.0192   0.0108   0.00    1.4
2173  54577.000   1271652.1347  -4729241.9319   4072560.3153   2   8   0.0220   0.0376   0.0174  -0.0188  -0.0192   0.0109   0.00    1.4
2173  54578.000   1271652.1331  -4729241.9287   4072560.3110   2   8   0.0218   0.0376   0.0173  -0.0187  -0.0191   0.0108   0.00    1.4
2173  54579.000   1271652.1352  -4729241.9276   4072560.3037   2   8   0.0218   0.0375   0.0173  -0.0186  -0.0190   0.0108   0.00    1.4
2173  54580.000   1271652.1388  -4729241.9284   4072560.3031   2   8   0.0218   0.0374   0.0173  -0.0185  -0.0189   0.0109   0.00    1.4
2173  54581.000   1271652.1376  -4729241.9261   4072560.2993   2   8   0.0217   0.0373   0.0173  -0.0185  -0.0189   0.0108   0.00    1.4
2173  54582.000   1271652.1367  -4729241.9192   4072560.2906   2   8   0.0217   0.0373   0.0171  -0.0183  -0.0189   0.0107   0.00    1.4
2173  54583.000   1271652.1400  -4729241.9201   4072560.2869   2   8   0.0216   0.0371   0.0171  -0.0185  -0.0188   0.0107   0.00    1.4
2173  54584.000   1271652.1458  -4729241.9249   4072560.2864   2   8   0.0216   0.0370   0.0171  -0.0184  -0.0188   0.0108   0.00    1.4
2173  54585.000   1271652.1471  -4729241.9266   4072560.2823   2   8   0.0216   0.0369   0.0170  -0.0182  -0.0188   0.0106   0.00    1.3
2173  54586.000   1271652.1496  -4729241.9284   4072560.2774   2   8   0.0215   0.0369   0.0170  -0.0179  -0.0186   0.0105   0.00    1.3
2173  54587.000   1271652.1518  -4729241.9294   4072560.2757   2   8   0.0214   0.0367   0.0169  -0.0181  -0.0185   0.0105   0.00    1.3
2173  54588.000   1271652.1550  -4729241.9342   4072560.2796   2   8   0.0214   0.0367   0.0169  -0.0180  -0.0185   0.0106   0.00    1.3
2173  54589.000   1271652.1573  -4729241.9355   4072560.2790   2   8   0.0213   0.0366   0.0168  -0.0179  -0.0185   0.0106   0.00    1.3
2173  54590.000   1271652.1620  -4729241.9398   4072560.2799   2   8   0.0212   0.0365   0.0167  -0.0179  -0.0184   0.0105   0.00    1.3
2173  54591.000   1271652.1622  -4729241.9362   4072560.2797   2   8   0.0212   0.0364   0.0167  -0.0179  -0.0184   0.0105   0.00    1.3
2173  54592.000   1271652.1622  -4729241.9354   4072560.2781   2   8   0.0211   0.0363   0.0167  -0.0178  -0.0184   0.0104   0.00    1.3
2173  54593.000   1271652.1633  -4729241.9337   4072560.2747   2   8   0.0211   0.0363   0.0167  -0.0176  -0.0183   0.0104   0.00    1.3
2173  54594.000   1271652.1668  -4729241.9382   4072560.2755   2   8   0.0211   0.0362   0.0166  -0.0175  -0.0182   0.0102   0.00    1.3
2173  54595.000   1271652.1660  -4729241.9330   4072560.2698   2   8   0.0210   0.0361   0.0165  -0.0176  -0.0182   0.0103   0.00    1.3
2173  54596.000   1271652.1670  -4729241.9364   4072560.2676   2   8   0.0210   0.0360   0.0165  -0.0174  -0.0182   0.0103   0.00    1.3
2173  54597.000   1271652.1678  -4729241.9377   4072560.2730   2   8   0.0209   0.0359   0.0164  -0.0175  -0.0181   0.0104   0.00    1.3
2173  54598.000   1271652.1687  -4729241.9378   4072560.2722   2   8   0.0209   0.0358   0.0164  -0.0173  -0.0181   0.0102   0.00    1.3
2173  54599.000   1271652.1683  -4729241.9316   4072560.2638   2   8   0.0208   0.0357   0.0164  -0.0173  -0.0180   0.0104   0.00    1.3
2173  54600.000   1271652.1705  -4729241.9318   4072560.2636   2   8   0.0208   0.0356   0.0162  -0.0173  -0.0180   0.0101   0.00    1.3
2173  54601.000   1271652.1714  -4729241.9260   4072560.2620   2   8   0.0208   0.0356   0.0162  -0.0171  -0.0179   0.0100   0.00    1.2
2173  54602.000   1271652.1695  -4729241.9243   4072560.2563   2   8   0.0207   0.0355   0.0162  -0.0170  -0.0178   0.0101   0.00    1.2
2173  54603.000   1271652.1706  -4729241.9225   4072560.2563   2   8   0.0206   0.0354   0.0162  -0.0170  -0.0178   0.0101   0.00    1.2
2173  54604.000   1271652.1733  -4729241.9279   4072560.2523   2   8   0.0206   0.0353   0.0161  -0.0170  -0.0178   0.0100   0.00    1.2
2173  54605.000   1271652.1696  -4729241.9250   4072560.2508   2   8   0.0205   0.0352   0.0160  -0.0168  -0.0177   0.0100   0.00    1.2
2173  54606.000   1271652.1680  -4729241.9215   4072560.2471   2   8   0.0205   0.0351   0.0160  -0.0169  -0.0177   0.0100   0.00    1.2
2173  54607.000   1271652.1687  -4729241.9198   4072560.2415   2   8   0.0204   0.0351   0.0159  -0.0167  -0.0176   0.0098   0.00    1.2
2173  54608.000   1271652.1671  -4729241.9225   4072560.2434   2   8   0.0203   0.0349   0.0159  -0.0169  -0.0177   0.0099   0.00    1.2
2173  54609.000   1271652.1664  -4729241.9193   4072560.2463   2   8   0.0203   0.0349   0.0159  -0.0167  -0.0175   0.0098   0.00    1.2
2173  54610.000   1271652.1653  -4729241.9163   4072560.2453   2   8   0.0203   0.0348   0.0158  -0.0166  -0.0174   0.0100   0.00    1.2
2173  54611.000   1271652.1643  -4729241.9114   4072560.2457   2   8   0.0202   0.0348   0.0157  -0.0164  -0.0174   0.0098   0.00    1.2
2173  54612.000   1271652.1658  -4729241.9128   4072560.2494   2   8   0.0202   0.0347   0.0157  -0.0165  -0.0174   0.0098   0.00    1.2
2173  54613.000   1271652.1626  -4729241.9060   4072560.2460   2   8   0.0202   0.0346   0.0156  -0.0163  -0.0173   0.0096   0.00    1.2
2173  54614.000   1271652.1621  -4729241.9004   4072560.2429   2   8   0.0201   0.0345   0.0157  -0.0163  -0.0174   0.0097   0.00    1.2
2173  54615.000   1271652.1620  -4729241.9008   4072560.2449   2   8   0.0201   0.0344   0.0156  -0.0163  -0.0173   0.0097   0.00    1.2
2173  54616.000   1271652.1686  -4729241.9045   4072560.2522   2   8   0.0200   0.0344   0.0156  -0.0162  -0.0172   0.0097   0.00    1.2
2173  54617.000   1271652.1695  -4729241.9041   4072560.2518   2   8   0.0200   0.0342   0.0155  -0.0163  -0.0172   0.0097   0.00    1.2
2173  54618.000   1271652.1688  -4729241.9003   4072560.2492   2   8   0.0199   0.0342   0.0155  -0.0161  -0.0171   0.0097   0.00    1.2
2173  54619.000   1271652.1683  -4729241.8940   4072560.2433   2   8   0.0198   0.0341   0.0154  -0.0161  -0.0171   0.0096   0.00    1.2
2173  54620.000   1271652.1665  -4729241.8927   4072560.2441   2   8   0.0198   0.0340   0.0154  -0.0161  -0.0170   0.0097   0.00    1.2
2173  54621.000   1271652.1672  -4729241.8876   4072560.2406   2   8   0.0198   0.0340   0.0153  -0.0159  -0.0170   0.0095   0.00    1.2
2173  54622.000   1271652.1629  -4729241.8846   4072560.2412   2   8   0.0198   0.0339   0.0153  -0.0160  -0.0170   0.0093   0.00    1.2
2173  54623.000   1271652.1621  -4729241.8820   4072560.2428   2   8   0.0196   0.0338   0.0153  -0.0159  -0.0169   0.0096   0.00    1.2
2173  54624.000   1271652.1618  -4729241.8846   4072560.2447   2   8   0.0196   0.0337   0.0152  -0.0158  -0.0170   0.0095   0.00    1.2
2173  54625.000   1271652.1607  -4729241.8852   4072560.2510   2   8   0.0196   0.0336   0.0151  -0.0158  -0.0168   0.0094   0.00    1.2
2173  54626.000   1271652.1603  -4729241.8859   4072560.2512   2   8   0.0196   0.0336   0.0152  -0.0156  -0.0168   0.0094   0.00    1.2
2173  54627.000   1271652.1594  -4729241.8866   4072560.2511   2   8   0.0195   0.0335   0.0151  -0.0157  -0.0167   0.0093   0.00    1.2
2173  54628.000   1271652.1570  -4729241.8814   4072560.2560   2   8   0.0195   0.0334   0.0150  -0.0155  -0.0168   0.0093   0.00    1.2
2173  54629.000   1271652.1534  -4729241.8795   4072560.2569   2   8   0.0194   0.0333   0.0150  -0.0157  -0.0168   0.0094   0.00    1.2
2173  54630.000   1271652.1517  -4729241.8767   4072560.2587   2   8   0.0194   0.0333   0.0150  -0.0154  -0.0166   0.0092   0.00    1.2
2173  54631.000   1271652.1529  -4729241.8777   4072560.2628   2   8   0.0194   0.0332   0.0150  -0.0154  -0.0166   0.0095   0.00    1.2
2173  54632.000   1271652.1501  -4729241.8752   4072560.2611   2   8   0.0194   0.0331   0.0150  -0.0153  -0.0166   0.0093   0.00    1.2
2173  54633.000   1271652.1530  -4729241.8795   4072560.2634   2   8   0.0192   0.0330   0.0149  -0.0154  -0.0165   0.0092   0.00    1.2
2173  54634.000   1271652.1533  -4729241.8799   4072560.2661   2   8   0.0192   0.0330   0.0148  -0.0152  -0.0165   0.0092   0.00    1.2
2173  54635.000   1271652.1508  -4729241.8717   4072560.2646   2   8   0.0192   0.0330   0.0148  -0.0151  -0.0165   0.0091   0.00    1.2
2173  54636.000   1271652.1496  -4729241.8737   4072560.2662   2   8   0.0191   0.0329   0.0148  -0.0151  -0.0165   0.0091   0.00    1.2
2173  54637.000   1271652.1485  -4729241.8698   4072560.2646   2   8   0.0192   0.0328   0.0147  -0.0150  -0.0163   0.0091   0.00    1.2
2173  54638.000   1271652.1454  -4729241.8637   4072560.2615   2   8   0.0191   0.0327   0.0147  -0.0149  -0.0163   0.0092   0.00    1.2
2173  54639.000   1271652.1455  -4729241.8633   4072560.2631   2   8   0.0190   0.0327   0.0146  -0.0150  -0.0163   0.0091   0.00    1.2
2173  54640.000   1271652.1426  -4729241.8579   4072560.2639   2   8   0.0189   0.0326   0.0146  -0.0149  -0.0162   0.0091   0.00    1.2
2173  54641.000   1271652.1402  -4729241.8569   4072560.2638   2   8   0.0189   0.0326   0.0145  -0.0148  -0.0162   0.0090   0.00    1.2
2173  54642.000   1271652.1410  -4729241.8509   4072560.2639   2   8   0.0188   0.0324   0.0145  -0.0148  -0.0162   0.0090   0.00    1.2
2173  54643.000   1271652.1427  -4729241.8560   4072560.2665   2   8   0.0189   0.0324   0.0145  -0.0148  -0.0161   0.0090   0.00    1.2
2173  54644.000   1271652.1399  -4729241.8519   4072560.2673   2   8   0.0188   0.0323   0.0145  -0.0147  -0.0161   0.0089   0.00    1.2
2173  54645.000   1271652.1397  -4729241.8553   4072560.2688   2   8   0.0188   0.0322   0.0144  -0.0146  -0.0161   0.0089   0.00    1.2
2173  54646.000   1271652.1402  -4729241.8527   4072560.2692   2   8   0.0188   0.0322   0.0144  -0.0145  -0.0158   0.0089   0.00    1.2
2173  54647.000   1271652.1390  -4729241.8489   4072560.2711   2   8   0.0186   0.0321   0.0144  -0.0146  -0.0159   0.0091   0.00    1.2
2173  54648.000   1271652.1382  -4729241.8515   4072560.2703   2   8   0.0187   0.0321   0.0143  -0.0144  -0.0159   0.0089   0.00    1.2
2173  54649.000   1271652.1400  -4729241.8531   4072560.2695   2   8   0.0186   0.0320   0.0143  -0.0144  -0.0159   0.0088   0.00    1.2
2173  54650.000   1271652.1376  -4729241.8461   4072560.2738   2   8   0.0185   0.0320   0.0143  -0.0144  -0.0159   0.0088   0.00    1.2
2173  54651.000   1271652.1340  -4729241.8465   4072560.2739   2   8   0.0185   0.0318   0.0142  -0.0143  -0.0158   0.0088   0.00    1.2
2173  54652.000   1271652.1340  -4729241.8435   4072560.2710   2   8   0.0185   0.0318   0.0142  -0.0142  -0.0158   0.0088   0.00    1.2
2173  54653.000   1271652.1325  -4729241.8439   4072560.2743   2   8   0.0185   0.0317   0.0141  -0.0142  -0.0157   0.0087   0.00    1.2
2173  54654.000   1271652.1305  -4729241.8397   4072560.2705   2   8   0.0185   0.0317   0.0141  -0.0141  -0.0156   0.0086   0.00    1.2
2173  54655.000   1271652.1250  -4729241.8332   4072560.2688   2   8   0.0183   0.0316   0.0141  -0.0140  -0.0157   0.0088   0.00    1.2
2173  54656.000   1271652.1259  -4729241.8292   4072560.2670   2   8   0.0184   0.0315   0.0141  -0.0141  -0.0156   0.0086   0.00    1.2
2173  54657.000   1271652.1247  -4729241.8236   4072560.2688   2   8   0.0183   0.0314   0.0139  -0.0141  -0.0156   0.0085   0.00    1.2
2173  54658.000   1271652.1202  -4729241.8181   4072560.2647   2   8   0.0183   0.0314   0.0139  -0.0140  -0.0156   0.0084   0.00    1.2
2173  54659.000   1271652.1195  -4729241.8122   4072560.2650   2   8   0.0182   0.0313   0.0140  -0.0138  -0.0155   0.0085   0.00    1.2
2173  54660.000   1271652.1204  -4729241.8144   4072560.2637   2   8   0.0182   0.0312   0.0140  -0.0140  -0.0155   0.0087   0.00    1.2
2173  54661.000   1271652.1117  -4729241.8067   4072560.2603   2   8   0.0182   0.0312   0.0139  -0.0139  -0.0155   0.0084   0.00    1.2
2173  54662.000   1271652.1161  -4729241.8116   4072560.2600   2   8   0.0181   0.0311   0.0138  -0.0139  -0.0155   0.0085   0.00    1.2
2173  54663.000   1271652.1130  -4729241.8057   4072560.2583   2   8   0.0182   0.0311   0.0138  -0.0136  -0.0154   0.0084   0.00    1.2
2173  54664.000   1271652.1153  -4729241.8071   4072560.2599   2   8   0.0180   0.0310   0.0137  -0.0137  -0.0154   0.0084   0.00    1.2
2173  54665.000   1271652.1143  -4729241.8064   4072560.2633   2   8   0.0181   0.0309   0.0138  -0.0137  -0.0154   0.0082   0.00    1.2
2173  54666.000   1271652.1142  -4729241.8075   4072560.2663   2   8   0.0180   0.0309   0.0137  -0.0135  -0.0153   0.0083   0.00    1.2
2173  54667.000   1271652.1121  -4729241.8012   4072560.2660   2   8   0.0180   0.0308   0.0137  -0.0134  -0.0153   0.0082   0.00    1.2
2173  54668.000   1271652.1053  -4729241.7968   4072560.2676   2   8   0.0179   0.0308   0.0137  -0.0134  -0.0151   0.0084   0.00    1.2
2173  54669.000   1271652.1089  -4729241.7941   4072560.2677   2   8   0.0179   0.0307   0.0136  -0.0133  -0.0152   0.0083   0.00    1.2
2173  54670.000   1271652.1049  -4729241.7892   4072560.2663   2   8   0.0179   0.0307   0.0136  -0.0133  -0.0152   0.0083   0.00    1.2
2173  54671.000   1271652.0981  -4729241.7793   4072560.2612   2   8   0.0178   0.0305   0.0136  -0.0135  -0.0152   0.0083   0.00    1.2
