% program   : rnx2rtkp ver.2.4.3 b31
% inp file  : ngs/21_08_31_22_54_20_ingy.obs
% inp file  : ngs/21_08_31_22_54_20_ingy_P1.obs
% inp file  : ngs/21_08_31_22_54_20_brdc.nav
% obs start : 2021/08/31 22:00:00.0 GPST (week2173 252000.0s)
% obs end   : 2021/08/31 22:59:59.0 GPST (week2173 255599.0s)
% ref pos   :   199598.7880  -4766848.6530   4218990.4720
%
% (x/y/z-ecef=WGS84,Q=1:fix,2:float,3:sbas,4:dgps,5:single,6:ppp,ns=# of satellites)
%  GPST              x-ecef(m)      y-ecef(m)      z-ecef(m)   Q  ns   sdx(m)   sdy(m)   sdz(m)  sdxy(m)  sdyz(m)  sdzx(m) age(s)  ratio
2173 255235.000    229479.6880  -4771568.7188   4212190.1639   2   7   0.4792   0.9440   0.6955   0.1244  -0.4923   0.3426 -30.00    1.4
2173 255236.000    229479.6864  -4771568.7213   4212190.1665   2   7   0.3413   0.6719   0.4945   0.0908  -0.3497   0.2437 -29.00    1.4
2173 255237.000    229479.6810  -4771568.7189   4212190.1685   2   7   0.2795   0.5502   0.4048   0.0747  -0.2863   0.1995 -28.00    1.4
2173 255238.000    229479.6793  -4771568.7090   4212190.1697   2   7   0.2425   0.4774   0.3513   0.0648  -0.2485   0.1731 -27.00    1.4
2173 255239.000    229479.6763  -4771568.7015   4212190.1689   2   7   0.2172   0.4275   0.3146   0.0579  -0.2226   0.1550 -26.00    1.4
2173 255240.000    229479.6740  -4771568.6931   4212190.1662   2   7   0.1984   0.3907   0.2875   0.0528  -0.2035   0.1417 -25.00    1.4
2173 255241.000    229479.6716  -4771568.6830   4212190.1660   2   7   0.1838   0.3620   0.2664   0.0488  -0.1886   0.1313 -24.00    1.4
2173 255242.000    229479.6703  -4771568.6739   4212190.1659   2   7   0.1720   0.3388   0.2494   0.0455  -0.1766   0.1228 -23.00    1.4
2173 255243.000    229479.6677  -4771568.6666   4212190.1660   2   7   0.1622   0.3195   0.2353   0.0429  -0.1666   0.1159 -22.00    1.5
2173 255244.000    229479.6676  -4771568.6602   4212190.1675   2   7   0.1540   0.3032   0.2233   0.0406  -0.1581   0.1099 -21.00    1.5
2173 255245.000    229479.6662  -4771568.6509   4212190.1646   2   7   0.1468   0.2892   0.2129   0.0387  -0.1508   0.1048 -20.00    1.5
2173 255246.000    229479.6648  -4771568.6425   4212190.1633   2   7   0.1406   0.2769   0.2039   0.0370  -0.1444   0.1004 -19.00    1.5
2173 255247.000    229479.6617  -4771568.6376   4212190.1642   2   7   0.1350   0.2660   0.1959   0.0355  -0.1388   0.0964 -18.00    1.5
2173 255248.000    229479.6612  -4771568.6286   4212190.1632   2   7   0.1301   0.2563   0.1887   0.0342  -0.1337   0.0929 -17.00    1.5
2173 255249.000    229479.6581  -4771568.6291   4212190.1770   2   7   0.1257   0.2476   0.1823   0.0331  -0.1292   0.0897 -16.00    1.4
2173 255250.000    229479.6570  -4771568.6215   4212190.1777   2   7   0.1217   0.2397   0.1764   0.0320  -0.1251   0.0868 -15.00    1.4
2173 255251.000    229479.6567  -4771568.6118   4212190.1744   2   7   0.1180   0.2325   0.1711   0.0311  -0.1213   0.0842 -14.00    1.3
2173 255252.000    229479.6567  -4771568.6011   4212190.1737   2   7   0.1147   0.2259   0.1662   0.0302  -0.1178   0.0818 -13.00    1.3
2173 255253.000    229479.6562  -4771568.5961   4212190.1718   2   7   0.1116   0.2198   0.1617   0.0294  -0.1146   0.0795 -12.00    1.3
2173 255254.000    229479.6551  -4771568.5900   4212190.1698   2   7   0.1087   0.2141   0.1575   0.0287  -0.1117   0.0775 -11.00    1.2
2173 255255.000    229479.6521  -4771568.5871   4212190.1686   2   7   0.1060   0.2089   0.1536   0.0280  -0.1089   0.0755 -10.00    1.1
2173 255256.000    229479.6508  -4771568.5741   4212190.1620   2   7   0.1036   0.2040   0.1500   0.0274  -0.1064   0.0738  -9.00    1.1
2173 255257.000    229479.6511  -4771568.5717   4212190.1602   2   7   0.1012   0.1995   0.1466   0.0268  -0.1040   0.0721  -8.00    1.0
2173 255258.000    229479.6494  -4771568.5648   4212190.1537   2   7   0.0991   0.1952   0.1434   0.0262  -0.1018   0.0705  -7.00    1.1
2173 255259.000    229479.6510  -4771568.5587   4212190.1506   2   7   0.0970   0.1912   0.1404   0.0257  -0.0997   0.0690  -6.00    1.1
2173 255260.000    229479.6462  -4771568.5547   4212190.1428   2   7   0.0951   0.1874   0.1376   0.0252  -0.0977   0.0676  -5.00    1.2
2173 255261.000    229479.6445  -4771568.5478   4212190.1344   2   7   0.0933   0.1838   0.1349   0.0247  -0.0958   0.0663  -4.00    1.3
2173 255262.000    229479.6442  -4771568.5405   4212190.1274   2   7   0.0916   0.1805   0.1324   0.0243  -0.0941   0.0651  -3.00    1.4
2173 255263.000    229479.6400  -4771568.5382   4212190.1198   2   7   0.0900   0.1773   0.1300   0.0238  -0.0924   0.0639  -2.00    1.4
2173 255264.000    229479.6404  -4771568.5290   4212190.1107   2   7   0.0885   0.1743   0.1277   0.0234  -0.0909   0.0627  -1.00    1.3
2173 255265.000    229479.6366  -4771568.5259   4212190.1038   2   7   0.0870   0.1715   0.1256   0.0230  -0.0894   0.0617   0.00    1.2
2173 255266.000    229479.7093  -4771568.4701   4212190.1980   2   7   0.4774   0.9420   0.6947   0.1160  -0.4949   0.3409   0.00    2.0
2173 255267.000    229479.7581  -4771568.4316   4212190.2387   2   7   0.4774   0.9420   0.6947   0.1157  -0.4950   0.3408   0.00    1.8
2173 255268.000    229479.8171  -4771568.4372   4212190.2478   2   7   0.4773   0.9420   0.6947   0.1154  -0.4951   0.3408   0.00    1.9
2173 255269.000    229479.9460  -4771568.5831   4212190.3109   2   7   0.4773   0.9420   0.6948   0.1151  -0.4952   0.3407   0.00    1.7
2173 255270.000    229479.9361  -4771568.6162   4212190.2600   2   7   0.4773   0.9419   0.6948   0.1148  -0.4954   0.3407   0.00    1.9
2173 255271.000    229479.8923  -4771568.6121   4212190.2158   2   7   0.4772   0.9419   0.6948   0.1145  -0.4955   0.3407   0.00    2.4
2173 255272.000    229479.8460  -4771568.5152   4212190.1224   2   7   0.4772   0.9419   0.6948   0.1142  -0.4956   0.3406   0.00    2.4
2173 255273.000    229479.8274  -4771568.4832   4212190.1385   2   7   0.4771   0.9419   0.6948   0.1138  -0.4957   0.3406   0.00    2.6
2173 255274.000    229479.8277  -4771568.4818   4212190.1896   2   7   0.4771   0.9418   0.6948   0.1135  -0.4958   0.3405   0.00    2.4
2173 255275.000    229479.8317  -4771568.5740   4212190.2466   2   7   0.4771   0.9418   0.6948   0.1132  -0.4959   0.3405   0.00    2.2
2173 255276.000    229479.8020  -4771568.6084   4212190.2853   2   7   0.4770   0.9418   0.6949   0.1129  -0.4960   0.3405   0.00    1.8
2173 255277.000    229479.8141  -4771568.6868   4212190.3280   2   7   0.4770   0.9418   0.6949   0.1126  -0.4962   0.3404   0.00    1.7
2173 255278.000    229479.7736  -4771568.6440   4212190.3217   2   7   0.4769   0.9417   0.6949   0.1123  -0.4963   0.3404   0.00    1.9
2173 255279.000    229479.7440  -4771568.5028   4212190.2100   2   7   0.4769   0.9417   0.6949   0.1120  -0.4964   0.3404   0.00    1.9
2173 255280.000    229479.8295  -4771568.6310   4212190.2630   2   7   0.4769   0.9417   0.6949   0.1116  -0.4965   0.3403   0.00    1.7
2173 255281.000    229479.8337  -4771568.4841   4212190.2502   2   7   0.4768   0.9417   0.6949   0.1113  -0.4966   0.3403   0.00    2.0
2173 255282.000    229479.8077  -4771568.5785   4212190.1816   2   7   0.4768   0.9417   0.6949   0.1110  -0.4967   0.3402   0.00    2.0
2173 255283.000    229479.7678  -4771568.6342   4212190.1734   2   7   0.4767   0.9416   0.6949   0.1107  -0.4968   0.3402   0.00    2.0
2173 255284.000    229479.6646  -4771568.4263   4212190.1179   2   7   0.4767   0.9416   0.6950   0.1104  -0.4969   0.3402   0.00    1.8
2173 255285.000    229479.5796  -4771568.4441   4212190.0769   2   7   0.4766   0.9416   0.6950   0.1100  -0.4971   0.3401   0.00    1.9
2173 255286.000    229479.6250  -4771568.5362   4212190.0902   2   7   0.4766   0.9416   0.6950   0.1097  -0.4972   0.3401   0.00    1.4
2173 255287.000    229479.6969  -4771568.6769   4212190.1046   2   7   0.4766   0.9415   0.6950   0.1094  -0.4973   0.3400   0.00    1.6
2173 255288.000    229479.6520  -4771568.5205   4212190.0161   2   7   0.4765   0.9415   0.6950   0.1091  -0.4974   0.3400   0.00    1.8
2173 255289.000    229479.6852  -4771568.4911   4212189.9638   2   7   0.4765   0.9415   0.6950   0.1087  -0.4975   0.3400   0.00    2.3
2173 255290.000    229479.6865  -4771568.4315   4212189.9175   2   7   0.4764   0.9415   0.6950   0.1084  -0.4976   0.3399   0.00    1.8
2173 255291.000    229479.6807  -4771568.4192   4212189.9275   2   7   0.4764   0.9415   0.6951   0.1081  -0.4977   0.3399   0.00    2.1
2173 255292.000    229479.6122  -4771568.2867   4212189.9042   2   7   0.4764   0.9414   0.6951   0.1078  -0.4979   0.3398   0.00    1.9
2173 255293.000    229479.6041  -4771568.2750   4212189.9522   2   7   0.4763   0.9414   0.6951   0.1074  -0.4980   0.3398   0.00    2.0
2173 255294.000    229479.6473  -4771568.4592   4212189.9842   2   7   0.4763   0.9414   0.6951   0.1071  -0.4981   0.3398   0.00    1.8
2173 255295.000    229479.7897  -4771568.7133   4212190.1012   2   7   0.4762   0.9414   0.6951   0.1068  -0.4982   0.3397   0.00    2.0
2173 255296.000    229479.8290  -4771568.8166   4212190.1244   2   7   0.4762   0.9413   0.6951   0.1064  -0.4983   0.3397   0.00    1.9
2173 255297.000    229479.8163  -4771568.7953   4212190.1020   2   7   0.4762   0.9413   0.6952   0.1061  -0.4984   0.3396   0.00    1.6
2173 255298.000    229479.8844  -4771568.8604   4212190.0703   2   7   0.4761   0.9413   0.6952   0.1058  -0.4985   0.3396   0.00    2.1
2173 255299.000    229479.8585  -4771568.7409   4212190.0527   2   7   0.4761   0.9413   0.6952   0.1054  -0.4987   0.3396   0.00    2.4
2173 255300.000    229479.8480  -4771568.8103   4212190.0675   2   7   0.4760   0.9412   0.6952   0.1051  -0.4988   0.3395   0.00    2.4
2173 255301.000    229479.8463  -4771568.7921   4212189.9802   2   7   0.4760   0.9412   0.6952   0.1048  -0.4989   0.3395   0.00    2.3
2173 255302.000    229480.1160  -4771569.5935   4212189.5297   1   7   0.0048   0.0095   0.0070   0.0012  -0.0050   0.0034   0.00    3.0
2173 255303.000    229479.7477  -4771568.6868   4212189.8577   2   7   0.4759   0.9412   0.6952   0.1041  -0.4991   0.3394   0.00    2.3
2173 255304.000    229479.7988  -4771568.9316   4212189.9229   2   7   0.4759   0.9412   0.6953   0.1038  -0.4992   0.3394   0.00    2.8
2173 255305.000    229479.6785  -4771568.8862   4212189.9014   2   7   0.4758   0.9411   0.6953   0.1034  -0.4993   0.3393   0.00    2.8
2173 255306.000    229479.5943  -4771568.9051   4212189.9279   2   7   0.4758   0.9411   0.6953   0.1031  -0.4994   0.3393   0.00    2.7
2173 255307.000    229479.5305  -4771568.7641   4212189.9509   2   7   0.4758   0.9411   0.6953   0.1027  -0.4996   0.3393   0.00    2.1
2173 255308.000    229479.3997  -4771568.7062   4212189.9381   2   7   0.4757   0.9411   0.6953   0.1024  -0.4997   0.3392   0.00    2.3
2173 255309.000    229479.3374  -4771568.7057   4212189.8624   2   7   0.4757   0.9411   0.6953   0.1020  -0.4998   0.3392   0.00    2.5
2173 255310.000    229479.2927  -4771568.6331   4212189.8401   2   7   0.4756   0.9410   0.6954   0.1017  -0.4999   0.3391   0.00    2.1
2173 255311.000    229479.4042  -4771568.7288   4212189.8542   2   7   0.4756   0.9410   0.6954   0.1013  -0.5000   0.3391   0.00    1.7
2173 255312.000    229479.3025  -4771568.6734   4212189.8310   2   7   0.4756   0.9410   0.6954   0.1010  -0.5001   0.3391   0.00    2.4
2173 255313.000    229479.3542  -4771568.7170   4212189.9062   2   7   0.4755   0.9410   0.6954   0.1006  -0.5002   0.3390   0.00    2.1
2173 255314.000    229479.3524  -4771568.6281   4212189.9527   2   7   0.4755   0.9409   0.6954   0.1003  -0.5004   0.3390   0.00    2.1
2173 255315.000    229479.3282  -4771568.7297   4212190.0791   2   7   0.4754   0.9409   0.6954   0.0999  -0.5005   0.3390   0.00    2.2
2173 255316.000    229480.1167  -4771569.5949   4212189.5285   1   8   0.0047   0.0082   0.0069   0.0023  -0.0045   0.0033   0.00    3.2
2173 255317.000    229479.4047  -4771569.3032   4212190.1920   2   8   0.4670   0.8130   0.6885   0.2277  -0.4521   0.3259   0.00    2.6
2173 255318.000    229479.3081  -4771569.3837   4212190.2186   2   8   0.4669   0.8129   0.6885   0.2276  -0.4522   0.3259   0.00    2.5
2173 255319.000    229479.2794  -4771569.3251   4212190.1589   2   8   0.4669   0.8129   0.6885   0.2276  -0.4523   0.3258   0.00    2.3
2173 255320.000    229479.2454  -4771569.4536   4212190.1289   2   8   0.4668   0.8128   0.6885   0.2275  -0.4524   0.3257   0.00    2.2
2173 255321.000    229479.2034  -4771569.1941   4212190.0743   2   8   0.4668   0.8128   0.6885   0.2274  -0.4525   0.3257   0.00    2.4
2173 255322.000    229479.2694  -4771569.3110   4212190.1223   2   8   0.4667   0.8128   0.6886   0.2273  -0.4526   0.3256   0.00    2.3
2173 255323.000    229479.2750  -4771569.2836   4212190.1065   2   8   0.4667   0.8127   0.6886   0.2272  -0.4527   0.3256   0.00    2.9
2173 255324.000    229480.1160  -4771569.5969   4212189.5300   1   8   0.0047   0.0082   0.0069   0.0023  -0.0046   0.0033   0.00    3.1
2173 255325.000    229480.1167  -4771569.5976   4212189.5301   1   8   0.0047   0.0082   0.0069   0.0023  -0.0046   0.0033   0.00    3.7
2173 255326.000    229480.1173  -4771569.5948   4212189.5317   1   8   0.0047   0.0082   0.0069   0.0023  -0.0046   0.0033   0.00    4.1
2173 255327.000    229480.1165  -4771569.5961   4212189.5302   1   8   0.0047   0.0082   0.0069   0.0023  -0.0046   0.0033   0.00    3.8
2173 255328.000    229480.1172  -4771569.5977   4212189.5304   1   8   0.0047   0.0082   0.0069   0.0023  -0.0046   0.0033   0.00    4.3
2173 255329.000    229480.1175  -4771569.5953   4212189.5306   1   8   0.0047   0.0082   0.0069   0.0023  -0.0046   0.0033   0.00    3.5
2173 255330.000    229480.1148  -4771569.5979   4212189.5311   1   8   0.0047   0.0082   0.0069   0.0023  -0.0046   0.0033   0.00    3.7
2173 255331.000    229480.1171  -4771569.6000   4212189.5327   1   8   0.0047   0.0082   0.0069   0.0023  -0.0046   0.0033   0.00    3.1
2173 255332.000    229480.1180  -4771569.5986   4212189.5310   1   8   0.0047   0.0082   0.0069   0.0023  -0.0046   0.0033   0.00    3.7
2173 255333.000    229480.1160  -4771569.6016   4212189.5340   1   8   0.0047   0.0082   0.0069   0.0023  -0.0046   0.0033   0.00    4.1
2173 255334.000    229480.1158  -4771569.6025   4212189.5321   1   8   0.0047   0.0082   0.0069   0.0023  -0.0046   0.0033   0.00    3.7
2173 255335.000    229480.1150  -4771569.6016   4212189.5343   1   8   0.0047   0.0082   0.0069   0.0023  -0.0046   0.0033   0.00    4.3
2173 255336.000    229480.1135  -4771569.6001   4212189.5315   1   8   0.0047   0.0082   0.0069   0.0023  -0.0046   0.0033   0.00    4.2
2173 255337.000    229480.1155  -4771569.6041   4212189.5350   1   8   0.0047   0.0082   0.0069   0.0023  -0.0046   0.0033   0.00    5.3
2173 255338.000    229480.1132  -4771569.6008   4212189.5315   1   8   0.0047   0.0082   0.0069   0.0023  -0.0046   0.0033   0.00    5.1
2173 255339.000    229480.1145  -4771569.6020   4212189.5334   1   8   0.0047   0.0082   0.0069   0.0023  -0.0046   0.0033   0.00    5.0
2173 255340.000    229480.1171  -4771569.6035   4212189.5333   1   8   0.0047   0.0082   0.0069   0.0023  -0.0046   0.0033   0.00    4.8
2173 255341.000    229480.1179  -4771569.6016   4212189.5326   1   8   0.0047   0.0082   0.0069   0.0023  -0.0046   0.0033   0.00    4.5
2173 255342.000    229480.1141  -4771569.6038   4212189.5319   1   8   0.0047   0.0082   0.0069   0.0023  -0.0046   0.0033   0.00    4.4
2173 255343.000    229480.1154  -4771569.6017   4212189.5334   1   8   0.0047   0.0082   0.0069   0.0023  -0.0046   0.0033   0.00    3.4
2173 255344.000    229480.1139  -4771569.6051   4212189.5322   1   8   0.0047   0.0082   0.0069   0.0023  -0.0046   0.0033   0.00    3.8
2173 255345.000    229480.1168  -4771569.6041   4212189.5326   1   8   0.0047   0.0082   0.0069   0.0023  -0.0046   0.0033   0.00    3.8
2173 255346.000    229480.1161  -4771569.6028   4212189.5336   1   8   0.0047   0.0082   0.0069   0.0023  -0.0046   0.0033   0.00    4.3
2173 255347.000    229480.1174  -4771569.6023   4212189.5324   1   8   0.0047   0.0082   0.0069   0.0023  -0.0046   0.0033   0.00    3.2
2173 255348.000    229480.1170  -4771569.6033   4212189.5327   1   8   0.0047   0.0082   0.0069   0.0023  -0.0046   0.0033   0.00    3.6
2173 255349.000    229480.1149  -4771569.6025   4212189.5341   1   8   0.0047   0.0082   0.0069   0.0023  -0.0046   0.0033   0.00    3.3
2173 255350.000    229480.1168  -4771569.6004   4212189.5318   1   8   0.0047   0.0082   0.0069   0.0023  -0.0046   0.0033   0.00    3.5
2173 255351.000    229480.1168  -4771569.6058   4212189.5341   1   8   0.0047   0.0082   0.0069   0.0023  -0.0046   0.0033   0.00    3.2
2173 255352.000    229480.1182  -4771569.6026   4212189.5344   1   8   0.0047   0.0082   0.0069   0.0023  -0.0046   0.0033   0.00    3.1
2173 255353.000    229480.1182  -4771569.6024   4212189.5324   1   8   0.0047   0.0082   0.0069   0.0023  -0.0046   0.0033   0.00    3.2
2173 255354.000    229480.1183  -4771569.6023   4212189.5308   1   8   0.0047   0.0082   0.0069   0.0023  -0.0046   0.0033   0.00    3.2
2173 255355.000    229480.1179  -4771569.6029   4212189.5318   1   8   0.0047   0.0082   0.0069   0.0023  -0.0046   0.0033   0.00    3.3
2173 255356.000    229480.1164  -4771569.6048   4212189.5355   1   8   0.0047   0.0082   0.0069   0.0023  -0.0046   0.0033   0.00    3.5
2173 255357.000    229480.1165  -4771569.6075   4212189.5330   1   8   0.0047   0.0082   0.0069   0.0023  -0.0046   0.0033   0.00    3.5
2173 255358.000    229480.1180  -4771569.6078   4212189.5363   1   8   0.0047   0.0082   0.0069   0.0023  -0.0046   0.0033   0.00    3.8
2173 255359.000    229480.1175  -4771569.6075   4212189.5326   1   8   0.0047   0.0082   0.0069   0.0023  -0.0046   0.0033   0.00    3.7
2173 255360.000    229480.1166  -4771569.6093   4212189.5354   1   8   0.0047   0.0082   0.0069   0.0023  -0.0046   0.0033   0.00    4.4
2173 255361.000    229480.1167  -4771569.6059   4212189.5333   1   8   0.0047   0.0082   0.0069   0.0023  -0.0046   0.0033   0.00    4.0
2173 255362.000    229480.1171  -4771569.6093   4212189.5343   1   8   0.0047   0.0082   0.0069   0.0023  -0.0046   0.0033   0.00    3.4
2173 255363.000    229480.1165  -4771569.6084   4212189.5343   1   8   0.0047   0.0082   0.0069   0.0023  -0.0046   0.0033   0.00    4.4
2173 255364.000    229480.1165  -4771569.6068   4212189.5328   1   8   0.0047   0.0082   0.0069   0.0023  -0.0046   0.0033   0.00    4.1
2173 255365.000    229480.1157  -4771569.6077   4212189.5360   1   8   0.0047   0.0082   0.0069   0.0023  -0.0046   0.0033   0.00    4.3
2173 255366.000    229480.1166  -4771569.6086   4212189.5344   1   8   0.0047   0.0082   0.0069   0.0023  -0.0046   0.0033   0.00    4.2
2173 255367.000    229480.1164  -4771569.6109   4212189.5342   1   8   0.0047   0.0082   0.0069   0.0023  -0.0046   0.0033   0.00    3.9
2173 255368.000    229480.1167  -4771569.6071   4212189.5359   1   8   0.0047   0.0082   0.0069   0.0023  -0.0046   0.0033   0.00    4.0
2173 255369.000    229480.1176  -4771569.6106   4212189.5375   1   8   0.0047   0.0082   0.0069   0.0023  -0.0046   0.0033   0.00    3.6
2173 255370.000    229480.1181  -4771569.6059   4212189.5381   1   8   0.0047   0.0082   0.0069   0.0023  -0.0046   0.0033   0.00    4.1
2173 255371.000    229480.1188  -4771569.6115   4212189.5375   1   8   0.0047   0.0082   0.0069   0.0023  -0.0046   0.0033   0.00    3.8
2173 255372.000    229480.1184  -4771569.6102   4212189.5389   1   8   0.0047   0.0082   0.0069   0.0023  -0.0046   0.0033   0.00    4.0
2173 255373.000    229480.1168  -4771569.6148   4212189.5369   1   8   0.0047   0.0082   0.0069   0.0023  -0.0046   0.0033   0.00    4.7
2173 255374.000    229480.1169  -4771569.6119   4212189.5375   1   8   0.0047   0.0082   0.0069   0.0023  -0.0046   0.0033   0.00    3.7
2173 255375.000    229480.1158  -4771569.6082   4212189.5357   1   8   0.0047   0.0082   0.0069   0.0023  -0.0046   0.0033   0.00    3.9
2173 255376.000    229480.1122  -4771569.6068   4212189.5347   1   8   0.0047   0.0082   0.0069   0.0023  -0.0046   0.0033   0.00    4.5
2173 255377.000    229480.1160  -4771569.6101   4212189.5353   1   8   0.0047   0.0082   0.0069   0.0023  -0.0046   0.0033   0.00    4.0
2173 255378.000    229480.1169  -4771569.6095   4212189.5374   1   8   0.0047   0.0082   0.0069   0.0023  -0.0046   0.0033   0.00    4.4
2173 255379.000    229480.1192  -4771569.6053   4212189.5352   1   8   0.0047   0.0082   0.0069   0.0023  -0.0046   0.0033   0.00    4.6
2173 255380.000    229480.1162  -4771569.6052   4212189.5337   1   8   0.0047   0.0082   0.0069   0.0023  -0.0046   0.0033   0.00    4.1
2173 255381.000    229480.1179  -4771569.6068   4212189.5361   1   8   0.0047   0.0082   0.0069   0.0023  -0.0046   0.0033   0.00    4.1
2173 255382.000    229480.1181  -4771569.6114   4212189.5376   1   8   0.0047   0.0082   0.0069   0.0023  -0.0046   0.0033   0.00    4.0
2173 255383.000    229480.1195  -4771569.6106   4212189.5374   1   8   0.0047   0.0082   0.0069   0.0023  -0.0046   0.0033   0.00    3.6
2173 255384.000    229480.1170  -4771569.6094   4212189.5371   1   8   0.0047   0.0082   0.0069   0.0023  -0.0046   0.0033   0.00    3.7
2173 255385.000    229480.1152  -4771569.6085   4212189.5366   1   8   0.0047   0.0082   0.0069   0.0023  -0.0046   0.0033   0.00    4.6
2173 255386.000    229480.1162  -4771569.6091   4212189.5344   1   8   0.0047   0.0082   0.0069   0.0023  -0.0046   0.0033   0.00    4.8
2173 255387.000    229480.1183  -4771569.6080   4212189.5363   1   8   0.0047   0.0082   0.0069   0.0023  -0.0046   0.0033   0.00    3.6
2173 255388.000    229480.1193  -4771569.6109   4212189.5380   1   8   0.0047   0.0082   0.0069   0.0022  -0.0046   0.0033   0.00    3.5
2173 255389.000    229480.1185  -4771569.6106   4212189.5366   1   8   0.0047   0.0082   0.0069   0.0022  -0.0046   0.0033   0.00    3.6
2173 255390.000    229480.1169  -4771569.6067   4212189.5345   1   8   0.0047   0.0082   0.0069   0.0022  -0.0046   0.0033   0.00    4.1
2173 255391.000    229480.1166  -4771569.6111   4212189.5364   1   8   0.0047   0.0082   0.0069   0.0022  -0.0046   0.0033   0.00    3.9
2173 255392.000    229480.1167  -4771569.6117   4212189.5339   1   8   0.0047   0.0082   0.0069   0.0022  -0.0046   0.0033   0.00    3.6
2173 255393.000    229480.1156  -4771569.6096   4212189.5335   1   8   0.0047   0.0082   0.0069   0.0022  -0.0046   0.0032   0.00    3.7
2173 255394.000    229479.8155  -4771569.2071   4212189.2149   2   8   0.4631   0.8101   0.6894   0.2207  -0.4596   0.3218   0.00    3.0
2173 255395.000    229480.1162  -4771569.6085   4212189.5334   1   8   0.0047   0.0082   0.0069   0.0022  -0.0046   0.0032   0.00    3.5
2173 255396.000    229480.1188  -4771569.6089   4212189.5334   1   8   0.0047   0.0082   0.0069   0.0022  -0.0046   0.0032   0.00    3.9
2173 255397.000    229480.1196  -4771569.6107   4212189.5349   1   8   0.0047   0.0082   0.0069   0.0022  -0.0046   0.0032   0.00    3.8
2173 255398.000    229480.1192  -4771569.6107   4212189.5325   1   8   0.0047   0.0082   0.0069   0.0022  -0.0046   0.0032   0.00    3.5
2173 255399.000    229480.1164  -4771569.6118   4212189.5334   1   8   0.0047   0.0082   0.0069   0.0022  -0.0046   0.0032   0.00    3.8
2173 255400.000    229480.1186  -4771569.6093   4212189.5338   1   8   0.0047   0.0082   0.0069   0.0022  -0.0046   0.0032   0.00    3.6
2173 255401.000    229480.1197  -4771569.6127   4212189.5337   1   8   0.0047   0.0082   0.0069   0.0022  -0.0046   0.0032   0.00    3.2
2173 255402.000    229480.1166  -4771569.6078   4212189.5309   1   8   0.0047   0.0082   0.0069   0.0022  -0.0046   0.0032   0.00    3.2
2173 255403.000    229480.1183  -4771569.6149   4212189.5375   1   8   0.0047   0.0082   0.0069   0.0022  -0.0046   0.0032   0.00    3.2
2173 255404.000    229480.1176  -4771569.6104   4212189.5358   1   8   0.0047   0.0082   0.0069   0.0022  -0.0046   0.0032   0.00    4.4
2173 255405.000    229480.1199  -4771569.6118   4212189.5350   1   8   0.0047   0.0082   0.0069   0.0022  -0.0046   0.0032   0.00    3.4
2173 255406.000    229480.1186  -4771569.6132   4212189.5348   1   8   0.0047   0.0082   0.0069   0.0022  -0.0046   0.0032   0.00    4.0
2173 255407.000    229480.1186  -4771569.6116   4212189.5349   1   8   0.0047   0.0082   0.0069   0.0022  -0.0046   0.0032   0.00    3.7
2173 255408.000    229480.1191  -4771569.6170   4212189.5370   1   8   0.0047   0.0082   0.0069   0.0022  -0.0046   0.0032   0.00    3.6
2173 255409.000    229480.1173  -4771569.6140   4212189.5352   1   8   0.0047   0.0082   0.0069   0.0022  -0.0046   0.0032   0.00    3.6
2173 255410.000    229480.1165  -4771569.6107   4212189.5349   1   8   0.0047   0.0082   0.0069   0.0022  -0.0046   0.0032   0.00    4.2
2173 255411.000    229480.1174  -4771569.6138   4212189.5346   1   8   0.0047   0.0082   0.0069   0.0022  -0.0046   0.0032   0.00    4.0
2173 255412.000    229480.1170  -4771569.6139   4212189.5330   1   8   0.0047   0.0082   0.0069   0.0022  -0.0046   0.0032   0.00    4.2
2173 255413.000    229480.1179  -4771569.6164   4212189.5373   1   8   0.0047   0.0082   0.0069   0.0022  -0.0046   0.0032   0.00    3.4
2173 255414.000    229480.1172  -4771569.6133   4212189.5364   1   8   0.0047   0.0082   0.0069   0.0022  -0.0046   0.0032   0.00    3.4
2173 255415.000    229480.1188  -4771569.6145   4212189.5353   1   8   0.0047   0.0082   0.0069   0.0022  -0.0046   0.0032   0.00    3.4
2173 255416.000    229480.1172  -4771569.6151   4212189.5338   1   8   0.0047   0.0082   0.0069   0.0022  -0.0046   0.0032   0.00    3.6
2173 255417.000    229480.1182  -4771569.6182   4212189.5345   1   8   0.0047   0.0082   0.0069   0.0022  -0.0046   0.0032   0.00    3.3
2173 255418.000    229480.1203  -4771569.6109   4212189.5341   1   8   0.0047   0.0082   0.0069   0.0022  -0.0046   0.0032   0.00    3.3
2173 255419.000    229480.1172  -4771569.6130   4212189.5347   1   8   0.0047   0.0082   0.0069   0.0022  -0.0046   0.0032   0.00    3.9
2173 255420.000    229480.1185  -4771569.6139   4212189.5359   1   8   0.0047   0.0082   0.0070   0.0022  -0.0046   0.0032   0.00    3.8
2173 255421.000    229480.1189  -4771569.6109   4212189.5341   1   8   0.0047   0.0082   0.0070   0.0022  -0.0046   0.0032   0.00    3.7
2173 255422.000    229480.1192  -4771569.6149   4212189.5332   1   8   0.0047   0.0082   0.0070   0.0022  -0.0046   0.0032   0.00    3.3
2173 255423.000    229480.1177  -4771569.6147   4212189.5347   1   8   0.0047   0.0082   0.0070   0.0022  -0.0047   0.0032   0.00    4.0
2173 255424.000    229480.1185  -4771569.6118   4212189.5320   1   8   0.0047   0.0082   0.0070   0.0022  -0.0047   0.0032   0.00    3.2
2173 255425.000    229480.2338  -4771569.5833   4212189.3292   2   8   0.4615   0.8091   0.6899   0.2178  -0.4625   0.3201   0.00    2.9
2173 255426.000    229480.1187  -4771569.6148   4212189.5351   1   8   0.0047   0.0082   0.0070   0.0022  -0.0047   0.0032   0.00    3.5
2173 255427.000    229480.1162  -4771569.6112   4212189.5309   1   8   0.0047   0.0082   0.0070   0.0022  -0.0047   0.0032   0.00    3.1
2173 255428.000    229480.2461  -4771569.5237   4212189.2290   2   8   0.4614   0.8090   0.6899   0.2176  -0.4628   0.3200   0.00    2.9
2173 255429.000    229480.1177  -4771569.6114   4212189.5331   1   8   0.0047   0.0082   0.0070   0.0022  -0.0047   0.0032   0.00    3.3
2173 255430.000    229480.1184  -4771569.6111   4212189.5344   1   8   0.0047   0.0082   0.0070   0.0022  -0.0047   0.0032   0.00    3.5
2173 255431.000    229480.1172  -4771569.6108   4212189.5331   1   8   0.0047   0.0082   0.0070   0.0022  -0.0047   0.0032   0.00    4.2
2173 255432.000    229480.1193  -4771569.6103   4212189.5345   1   8   0.0047   0.0082   0.0070   0.0022  -0.0047   0.0032   0.00    3.9
2173 255433.000    229480.1181  -4771569.6080   4212189.5339   1   8   0.0047   0.0082   0.0070   0.0022  -0.0047   0.0032   0.00    3.6
2173 255434.000    229480.1187  -4771569.6129   4212189.5326   1   8   0.0047   0.0082   0.0070   0.0022  -0.0047   0.0032   0.00    3.9
2173 255435.000    229480.1184  -4771569.6099   4212189.5339   1   8   0.0047   0.0082   0.0070   0.0022  -0.0047   0.0032   0.00    3.5
2173 255436.000    229480.1188  -4771569.6080   4212189.5330   1   8   0.0047   0.0082   0.0070   0.0022  -0.0047   0.0032   0.00    3.4
2173 255437.000    229480.1158  -4771569.6094   4212189.5312   1   8   0.0047   0.0082   0.0070   0.0022  -0.0047   0.0032   0.00    3.9
2173 255438.000    229480.1181  -4771569.6111   4212189.5347   1   8   0.0047   0.0082   0.0070   0.0022  -0.0047   0.0032   0.00    3.7
2173 255439.000    229480.1173  -4771569.6108   4212189.5339   1   8   0.0047   0.0082   0.0070   0.0022  -0.0047   0.0032   0.00    3.5
2173 255440.000    229480.1172  -4771569.6089   4212189.5344   1   8   0.0047   0.0082   0.0070   0.0022  -0.0047   0.0032   0.00    4.1
2173 255441.000    229480.1174  -4771569.6141   4212189.5353   1   8   0.0047   0.0082   0.0070   0.0022  -0.0047   0.0032   0.00    3.6
2173 255442.000    229480.1139  -4771569.6145   4212189.5341   1   8   0.0047   0.0082   0.0070   0.0022  -0.0047   0.0032   0.00    3.9
2173 255443.000    229480.1167  -4771569.6178   4212189.5358   1   8   0.0047   0.0082   0.0070   0.0022  -0.0047   0.0032   0.00    4.1
2173 255444.000    229480.1195  -4771569.6158   4212189.5359   1   8   0.0047   0.0082   0.0070   0.0022  -0.0047   0.0032   0.00    3.6
2173 255445.000    229480.1194  -4771569.6095   4212189.5354   1   8   0.0047   0.0082   0.0070   0.0022  -0.0047   0.0032   0.00    3.6
2173 255446.000    229480.1177  -4771569.6160   4212189.5358   1   8   0.0047   0.0082   0.0070   0.0022  -0.0047   0.0032   0.00    3.8
2173 255447.000    229480.1155  -4771569.6103   4212189.5336   1   8   0.0047   0.0082   0.0070   0.0022  -0.0047   0.0032   0.00    3.9
2173 255448.000    229480.1165  -4771569.6110   4212189.5339   1   8   0.0047   0.0082   0.0070   0.0022  -0.0047   0.0032   0.00    3.5
2173 255449.000    229480.1162  -4771569.6075   4212189.5339   1   8   0.0047   0.0082   0.0070   0.0022  -0.0047   0.0032   0.00    3.6
2173 255450.000    229480.1162  -4771569.6104   4212189.5364   1   8   0.0047   0.0082   0.0070   0.0022  -0.0047   0.0032   0.00    4.2
2173 255451.000    229480.1178  -4771569.6082   4212189.5335   1   8   0.0047   0.0082   0.0070   0.0022  -0.0047   0.0032   0.00    3.8
2173 255452.000    229480.1177  -4771569.6068   4212189.5323   1   8   0.0047   0.0082   0.0070   0.0022  -0.0047   0.0032   0.00    3.4
2173 255453.000    229480.1175  -4771569.6084   4212189.5353   1   8   0.0047   0.0082   0.0070   0.0022  -0.0047   0.0032   0.00    3.6
2173 255454.000    229480.1183  -4771569.6128   4212189.5385   1   8   0.0047   0.0082   0.0070   0.0022  -0.0047   0.0032   0.00    3.8
2173 255455.000    229480.1166  -4771569.6095   4212189.5357   1   8   0.0047   0.0082   0.0070   0.0022  -0.0047   0.0032   0.00    3.7
2173 255456.000    229480.1165  -4771569.6091   4212189.5367   1   8   0.0047   0.0082   0.0070   0.0022  -0.0047   0.0032   0.00    3.6
2173 255457.000    229480.1180  -4771569.6079   4212189.5361   1   8   0.0047   0.0082   0.0070   0.0022  -0.0047   0.0032   0.00    3.6
2173 255458.000    229480.1170  -4771569.6083   4212189.5345   1   8   0.0047   0.0082   0.0070   0.0022  -0.0047   0.0032   0.00    3.5
2173 255459.000    229480.1170  -4771569.6064   4212189.5352   1   8   0.0047   0.0082   0.0070   0.0022  -0.0047   0.0032   0.00    3.4
2173 255460.000    229480.1180  -4771569.6091   4212189.5369   1   8   0.0047   0.0082   0.0070   0.0022  -0.0047   0.0032   0.00    3.8
2173 255461.000    229480.1190  -4771569.6078   4212189.5376   1   8   0.0047   0.0082   0.0070   0.0022  -0.0047   0.0032   0.00    3.5
2173 255462.000    229480.1192  -4771569.6098   4212189.5383   1   8   0.0047   0.0082   0.0070   0.0022  -0.0047   0.0032   0.00    3.1
2173 255463.000    229480.1186  -4771569.6081   4212189.5372   1   8   0.0047   0.0082   0.0070   0.0022  -0.0047   0.0032   0.00    3.2
2173 255464.000    229480.2847  -4771569.9031   4212189.8513   2   8   0.4596   0.8079   0.6906   0.2143  -0.4663   0.3181   0.00    2.6
2173 255465.000    229480.1181  -4771569.6085   4212189.5394   1   8   0.0047   0.0082   0.0070   0.0022  -0.0047   0.0032   0.00    3.3
2173 255466.000    229480.1167  -4771569.6110   4212189.5407   1   8   0.0047   0.0082   0.0070   0.0022  -0.0047   0.0032   0.00    3.1
2173 255467.000    229480.3900  -4771570.0918   4212189.9265   2   8   0.4595   0.8078   0.6906   0.2140  -0.4665   0.3180   0.00    3.0
2173 255468.000    229480.1170  -4771569.6075   4212189.5375   1   8   0.0047   0.0082   0.0070   0.0022  -0.0047   0.0032   0.00    3.4
2173 255469.000    229480.2925  -4771570.1091   4212189.9399   2   8   0.4594   0.8077   0.6907   0.2138  -0.4667   0.3179   0.00    2.7
2173 255470.000    229480.1160  -4771569.6119   4212189.5391   1   8   0.0047   0.0082   0.0070   0.0022  -0.0047   0.0032   0.00    3.5
2173 255471.000    229480.1176  -4771569.6102   4212189.5386   1   8   0.0047   0.0082   0.0070   0.0022  -0.0047   0.0032   0.00    4.1
2173 255472.000    229480.1179  -4771569.6131   4212189.5418   1   8   0.0047   0.0082   0.0070   0.0022  -0.0047   0.0032   0.00    3.2
2173 255473.000    229480.2304  -4771570.2777   4212189.9493   2   8   0.4592   0.8076   0.6907   0.2135  -0.4671   0.3177   0.00    2.6
2173 255474.000    229480.1161  -4771569.6113   4212189.5405   1   8   0.0047   0.0082   0.0070   0.0022  -0.0047   0.0032   0.00    3.2
2173 255475.000    229480.1186  -4771569.6072   4212189.5426   1   8   0.0047   0.0082   0.0070   0.0022  -0.0047   0.0032   0.00    3.6
2173 255476.000    229480.2487  -4771570.0019   4212189.9961   2   8   0.4590   0.8075   0.6908   0.2132  -0.4674   0.3175   0.00    2.9
2173 255477.000    229480.2440  -4771569.9905   4212189.8895   2   8   0.4590   0.8075   0.6908   0.2131  -0.4675   0.3174   0.00    2.9
2173 255478.000    229480.1845  -4771569.8303   4212189.8978   2   8   0.4589   0.8074   0.6908   0.2130  -0.4676   0.3174   0.00    3.0
2173 255479.000    229480.1451  -4771569.7767   4212189.8511   2   8   0.4589   0.8074   0.6908   0.2129  -0.4677   0.3173   0.00    3.0
2173 255480.000    229480.1649  -4771569.8098   4212189.8578   2   8   0.4588   0.8074   0.6909   0.2128  -0.4678   0.3173   0.00    2.4
2173 255481.000    229480.1493  -4771569.7951   4212189.7406   2   8   0.4588   0.8073   0.6909   0.2127  -0.4679   0.3172   0.00    2.8
2173 255482.000    229480.1169  -4771569.6121   4212189.5383   1   8   0.0046   0.0082   0.0070   0.0022  -0.0047   0.0032   0.00    3.3
2173 255483.000    229480.1192  -4771569.6111   4212189.5405   1   8   0.0046   0.0082   0.0070   0.0022  -0.0047   0.0032   0.00    3.2
2173 255484.000    229480.2415  -4771569.7719   4212189.6482   2   8   0.4586   0.8073   0.6909   0.2124  -0.4682   0.3171   0.00    3.0
2173 255485.000    229480.1197  -4771569.6082   4212189.5409   1   8   0.0046   0.0082   0.0070   0.0022  -0.0047   0.0032   0.00    3.2
2173 255486.000    229480.1215  -4771569.6063   4212189.5418   1   8   0.0046   0.0082   0.0070   0.0022  -0.0047   0.0032   0.00    3.1
2173 255487.000    229480.1202  -4771569.6103   4212189.5410   1   8   0.0046   0.0082   0.0070   0.0022  -0.0047   0.0032   0.00    3.0
2173 255488.000    229480.2244  -4771569.7688   4212189.5584   2   8   0.4585   0.8071   0.6910   0.2121  -0.4685   0.3169   0.00    2.9
2173 255489.000    229480.1185  -4771569.6120   4212189.5434   1   8   0.0046   0.0082   0.0070   0.0022  -0.0047   0.0032   0.00    3.4
2173 255490.000    229480.1192  -4771569.6108   4212189.5422   1   8   0.0046   0.0082   0.0070   0.0022  -0.0047   0.0032   0.00    3.2
2173 255491.000    229480.1203  -4771569.6108   4212189.5448   1   8   0.0046   0.0082   0.0070   0.0022  -0.0047   0.0032   0.00    3.5
2173 255492.000    229480.2975  -4771569.8126   4212189.5694   2   8   0.4583   0.8070   0.6911   0.2117  -0.4689   0.3167   0.00    2.7
2173 255493.000    229480.2204  -4771569.8376   4212189.6799   2   8   0.4582   0.8070   0.6911   0.2116  -0.4690   0.3166   0.00    2.8
2173 255494.000    229480.1732  -4771569.8385   4212189.5984   2   8   0.4582   0.8070   0.6911   0.2115  -0.4691   0.3166   0.00    3.0
2173 255495.000    229480.1199  -4771569.6077   4212189.5414   1   8   0.0046   0.0082   0.0070   0.0021  -0.0047   0.0032   0.00    3.1
2173 255496.000    229480.1345  -4771569.9873   4212189.7415   2   8   0.4581   0.8069   0.6912   0.2113  -0.4693   0.3165   0.00    2.6
2173 255497.000    229480.0518  -4771570.0138   4212189.7201   2   8   0.4580   0.8069   0.6912   0.2113  -0.4694   0.3164   0.00    2.6
2173 255498.000    229480.0649  -4771570.1764   4212189.7428   2   8   0.4580   0.8069   0.6912   0.2112  -0.4695   0.3164   0.00    2.8
2173 255499.000    229480.0351  -4771570.1628   4212189.6872   2   8   0.4579   0.8068   0.6912   0.2111  -0.4696   0.3163   0.00    2.7
2173 255500.000    229480.0052  -4771569.9881   4212189.5087   2   8   0.4579   0.8068   0.6913   0.2110  -0.4697   0.3163   0.00    2.2
2173 255501.000    229479.9932  -4771569.9203   4212189.4095   2   8   0.4578   0.8068   0.6913   0.2109  -0.4698   0.3162   0.00    2.7
2173 255502.000    229479.9781  -4771569.8524   4212189.3646   2   8   0.4578   0.8067   0.6913   0.2108  -0.4699   0.3162   0.00    2.7
2173 255503.000    229480.0038  -4771569.8463   4212189.3257   2   8   0.4577   0.8067   0.6913   0.2107  -0.4700   0.3161   0.00    2.8
2173 255504.000    229479.9332  -4771569.7385   4212189.2603   2   8   0.4577   0.8067   0.6913   0.2106  -0.4701   0.3161   0.00    2.6
2173 255505.000    229479.8581  -4771569.7408   4212189.2546   2   8   0.4576   0.8067   0.6914   0.2105  -0.4701   0.3160   0.00    2.3
2173 255506.000    229479.8516  -4771569.7186   4212189.2785   2   8   0.4576   0.8066   0.6914   0.2104  -0.4702   0.3160   0.00    2.6
2173 255507.000    229479.9224  -4771569.5003   4212189.2495   2   8   0.4575   0.8066   0.6914   0.2103  -0.4703   0.3159   0.00    2.9
2173 255508.000    229479.8809  -4771569.3774   4212189.2419   2   8   0.4575   0.8066   0.6914   0.2103  -0.4704   0.3159   0.00    2.9
2173 255509.000    229479.9275  -4771569.4072   4212189.2710   2   8   0.4574   0.8065   0.6914   0.2102  -0.4705   0.3158   0.00    2.8
2173 255510.000    229480.1188  -4771569.6084   4212189.5431   1   8   0.0046   0.0082   0.0070   0.0021  -0.0047   0.0032   0.00    3.0
2173 255511.000    229480.1186  -4771569.6059   4212189.5403   1   8   0.0046   0.0082   0.0070   0.0021  -0.0047   0.0032   0.00    3.3
2173 255512.000    229480.1181  -4771569.6091   4212189.5424   1   8   0.0046   0.0082   0.0070   0.0021  -0.0047   0.0032   0.00    3.4
2173 255513.000    229480.0619  -4771569.4516   4212189.4829   2   8   0.4572   0.8064   0.6915   0.2098  -0.4709   0.3156   0.00    2.8
2173 255514.000    229480.0459  -4771569.4515   4212189.3889   2   8   0.4572   0.8064   0.6915   0.2097  -0.4710   0.3156   0.00    2.7
2173 255515.000    229480.1180  -4771569.6060   4212189.5410   1   8   0.0046   0.0082   0.0070   0.0021  -0.0047   0.0032   0.00    3.4
2173 255516.000    229480.1193  -4771569.6058   4212189.5427   1   8   0.0046   0.0082   0.0070   0.0021  -0.0047   0.0032   0.00    3.2
2173 255517.000    229480.1201  -4771569.6038   4212189.5435   1   8   0.0046   0.0082   0.0070   0.0021  -0.0047   0.0032   0.00    3.4
2173 255518.000    229480.1216  -4771569.6014   4212189.5428   1   8   0.0046   0.0082   0.0070   0.0021  -0.0047   0.0032   0.00    3.1
2173 255519.000    229480.1189  -4771569.6047   4212189.5454   1   8   0.0046   0.0082   0.0070   0.0021  -0.0047   0.0032   0.00    3.4
2173 255520.000    229480.1192  -4771569.6075   4212189.5450   1   8   0.0046   0.0082   0.0070   0.0021  -0.0047   0.0032   0.00    3.2
2173 255521.000    229480.1775  -4771569.7981   4212189.3883   2   8   0.4569   0.8062   0.6917   0.2091  -0.4717   0.3152   0.00    2.5
2173 255522.000    229480.1636  -4771569.9033   4212189.4685   2   8   0.4568   0.8062   0.6917   0.2090  -0.4718   0.3152   0.00    2.5
2173 255523.000    229480.1755  -4771569.9775   4212189.4299   2   8   0.4568   0.8062   0.6917   0.2089  -0.4719   0.3151   0.00    2.7
2173 255524.000    229480.2275  -4771570.0563   4212189.4485   2   8   0.4567   0.8061   0.6918   0.2088  -0.4719   0.3151   0.00    2.3
2173 255525.000    229480.1445  -4771570.0889   4212189.5082   2   8   0.4567   0.8061   0.6918   0.2087  -0.4720   0.3150   0.00    2.2
2173 255526.000    229480.1508  -4771570.0442   4212189.4529   2   8   0.4566   0.8061   0.6918   0.2086  -0.4721   0.3150   0.00    2.3
2173 255527.000    229480.1050  -4771569.9091   4212189.3846   2   8   0.4566   0.8060   0.6918   0.2085  -0.4722   0.3149   0.00    2.1
2173 255528.000    229480.0772  -4771569.8192   4212189.3753   2   8   0.4565   0.8060   0.6918   0.2084  -0.4723   0.3149   0.00    2.3
2173 255529.000    229480.0934  -4771569.8130   4212189.3751   2   8   0.4565   0.8060   0.6919   0.2083  -0.4724   0.3148   0.00    2.4
2173 255530.000    229480.0842  -4771569.7004   4212189.3513   2   8   0.4564   0.8060   0.6919   0.2082  -0.4725   0.3148   0.00    2.5
2173 255531.000    229480.0960  -4771569.7726   4212189.4141   2   8   0.4564   0.8059   0.6919   0.2081  -0.4726   0.3147   0.00    2.2
2173 255532.000    229480.0915  -4771569.8312   4212189.5025   2   8   0.4563   0.8059   0.6919   0.2081  -0.4727   0.3147   0.00    2.3
2173 255533.000    229480.0625  -4771569.8858   4212189.4486   2   8   0.4563   0.8059   0.6920   0.2080  -0.4728   0.3146   0.00    2.3
2173 255534.000    229480.1234  -4771569.9146   4212189.5116   2   8   0.4562   0.8059   0.6920   0.2079  -0.4729   0.3146   0.00    2.6
2173 255535.000    229480.0913  -4771569.9698   4212189.5365   2   8   0.4562   0.8058   0.6920   0.2078  -0.4730   0.3145   0.00    2.6
2173 255536.000    229480.1226  -4771570.0973   4212189.5926   2   8   0.4561   0.8058   0.6920   0.2077  -0.4731   0.3145   0.00    2.6
2173 255537.000    229480.1586  -4771570.1942   4212189.5783   2   8   0.4561   0.8058   0.6920   0.2076  -0.4732   0.3144   0.00    2.4
2173 255538.000    229480.0924  -4771570.1787   4212189.6037   2   8   0.4560   0.8058   0.6921   0.2075  -0.4733   0.3144   0.00    2.7
2173 255539.000    229480.0393  -4771570.0430   4212189.5281   2   8   0.4560   0.8057   0.6921   0.2074  -0.4734   0.3143   0.00    2.5
2173 255540.000    229480.0584  -4771570.0906   4212189.5730   2   8   0.4559   0.8057   0.6921   0.2073  -0.4735   0.3143   0.00    2.9
2173 255541.000    229479.9769  -4771570.0837   4212189.5035   2   8   0.4559   0.8057   0.6921   0.2072  -0.4735   0.3142   0.00    2.8
2173 255542.000    229480.0432  -4771570.0539   4212189.4694   2   8   0.4558   0.8056   0.6922   0.2071  -0.4736   0.3142   0.00    2.5
2173 255543.000    229480.0292  -4771570.0467   4212189.5125   2   8   0.4558   0.8056   0.6922   0.2071  -0.4737   0.3141   0.00    2.3
2173 255544.000    229480.0386  -4771570.0538   4212189.4863   2   8   0.4558   0.8056   0.6922   0.2070  -0.4738   0.3141   0.00    2.8
2173 255545.000    229479.9627  -4771570.0858   4212189.4555   2   8   0.4557   0.8056   0.6922   0.2069  -0.4739   0.3140   0.00    2.6
2173 255546.000    229479.9603  -4771570.1178   4212189.5408   2   8   0.4557   0.8055   0.6922   0.2068  -0.4740   0.3140   0.00    2.5
2173 255547.000    229479.8962  -4771570.1281   4212189.6369   2   8   0.4556   0.8055   0.6923   0.2067  -0.4741   0.3139   0.00    2.5
2173 255548.000    229479.8375  -4771570.1619   4212189.6995   2   8   0.4556   0.8055   0.6923   0.2066  -0.4742   0.3139   0.00    2.3
2173 255549.000    229479.8624  -4771570.2622   4212189.7887   2   8   0.4555   0.8055   0.6923   0.2065  -0.4743   0.3138   0.00    2.5
2173 255550.000    229479.8799  -4771570.2420   4212189.8084   2   8   0.4555   0.8054   0.6923   0.2064  -0.4744   0.3138   0.00    2.2
2173 255551.000    229479.8786  -4771570.1857   4212189.6982   2   8   0.4554   0.8054   0.6924   0.2063  -0.4745   0.3137   0.00    2.4
2173 255552.000    229479.8106  -4771570.1283   4212189.6348   2   8   0.4554   0.8054   0.6924   0.2062  -0.4746   0.3137   0.00    2.3
2173 255553.000    229479.8474  -4771570.1092   4212189.5944   2   8   0.4553   0.8054   0.6924   0.2061  -0.4747   0.3136   0.00    2.1
2173 255554.000    229479.9092  -4771570.1761   4212189.5809   2   8   0.4553   0.8053   0.6924   0.2060  -0.4748   0.3136   0.00    2.7
2173 255555.000    229479.9212  -4771570.0696   4212189.5134   2   8   0.4552   0.8053   0.6925   0.2060  -0.4749   0.3135   0.00    2.5
2173 255556.000    229479.9342  -4771570.1377   4212189.4624   2   8   0.4552   0.8053   0.6925   0.2059  -0.4750   0.3135   0.00    2.3
2173 255557.000    229479.9614  -4771570.0798   4212189.3260   2   8   0.4551   0.8053   0.6925   0.2058  -0.4751   0.3134   0.00    2.5
2173 255558.000    229480.0344  -4771570.1926   4212189.4268   2   8   0.4551   0.8052   0.6925   0.2057  -0.4751   0.3134   0.00    2.8
2173 255559.000    229480.0607  -4771570.4424   4212189.4832   2   8   0.4550   0.8052   0.6925   0.2056  -0.4752   0.3133   0.00    2.6
2173 255560.000    229480.0776  -4771570.5933   4212189.5404   2   8   0.4550   0.8052   0.6926   0.2055  -0.4753   0.3133   0.00    2.5
2173 255561.000    229480.0177  -4771570.5560   4212189.4644   2   8   0.4549   0.8052   0.6926   0.2054  -0.4754   0.3132   0.00    2.4
2173 255562.000    229479.9887  -4771570.4449   4212189.4345   2   8   0.4549   0.8051   0.6926   0.2053  -0.4755   0.3132   0.00    2.5
2173 255563.000    229480.0094  -4771570.3044   4212189.4299   2   8   0.4548   0.8051   0.6926   0.2052  -0.4756   0.3131   0.00    2.8
2173 255564.000    229480.1194  -4771569.6093   4212189.5421   1   8   0.0046   0.0082   0.0070   0.0021  -0.0048   0.0032   0.00    3.0
2173 255565.000    229480.0902  -4771570.0425   4212189.2800   2   8   0.4548   0.8051   0.6927   0.2050  -0.4758   0.3130   0.00    2.9
2173 255566.000    229480.0417  -4771569.9406   4212189.2047   2   8   0.4547   0.8050   0.6927   0.2049  -0.4759   0.3130   0.00    3.0
2173 255567.000    229480.1186  -4771569.6070   4212189.5416   1   8   0.0046   0.0082   0.0070   0.0021  -0.0048   0.0032   0.00    3.1
2173 255568.000    229479.9723  -4771570.0414   4212189.3432   2   8   0.4546   0.8050   0.6928   0.2048  -0.4761   0.3129   0.00    2.9
2173 255569.000    229479.8645  -4771569.9880   4212189.3724   2   8   0.4546   0.8050   0.6928   0.2047  -0.4762   0.3128   0.00    2.8
2173 255570.000    229480.1181  -4771569.6070   4212189.5433   1   8   0.0046   0.0082   0.0070   0.0021  -0.0048   0.0032   0.00    3.1
2173 255571.000    229480.1175  -4771569.6084   4212189.5449   1   8   0.0046   0.0082   0.0070   0.0021  -0.0048   0.0032   0.00    3.1
2173 255572.000    229479.9148  -4771570.1071   4212189.3250   2   8   0.4544   0.8049   0.6929   0.2044  -0.4765   0.3127   0.00    2.3
2173 255573.000    229480.1185  -4771569.6069   4212189.5445   1   8   0.0046   0.0082   0.0070   0.0021  -0.0048   0.0032   0.00    3.0
2173 255574.000    229479.9388  -4771570.0820   4212189.3089   2   8   0.4543   0.8048   0.6929   0.2042  -0.4766   0.3126   0.00    2.7
2173 255575.000    229479.8747  -4771570.1608   4212189.2780   2   8   0.4543   0.8048   0.6929   0.2041  -0.4767   0.3125   0.00    2.9
2173 255576.000    229480.1181  -4771569.6054   4212189.5440   1   8   0.0046   0.0082   0.0070   0.0021  -0.0048   0.0032   0.00    3.0
2173 255577.000    229480.1179  -4771569.6041   4212189.5444   1   8   0.0046   0.0082   0.0070   0.0021  -0.0048   0.0032   0.00    3.1
2173 255578.000    229479.7629  -4771569.9639   4212189.1274   2   8   0.4541   0.8047   0.6930   0.2038  -0.4770   0.3124   0.00    2.9
2173 255579.000    229479.6946  -4771569.9771   4212189.0425   2   8   0.4541   0.8047   0.6930   0.2038  -0.4771   0.3123   0.00    2.6
2173 255580.000    229479.6911  -4771570.0213   4212189.0869   2   8   0.4540   0.8047   0.6931   0.2037  -0.4772   0.3123   0.00    2.3
2173 255581.000    229480.1165  -4771569.6031   4212189.5439   1   8   0.0046   0.0082   0.0070   0.0021  -0.0048   0.0031   0.00    3.1
2173 255582.000    229479.7796  -4771569.7974   4212188.9714   2   8   0.4539   0.8046   0.6931   0.2035  -0.4774   0.3122   0.00    2.9
2173 255583.000    229480.1159  -4771569.6062   4212189.5435   1   8   0.0046   0.0082   0.0070   0.0021  -0.0048   0.0031   0.00    3.2
2173 255584.000    229479.8252  -4771569.4601   4212188.9315   2   8   0.4539   0.8046   0.6932   0.2033  -0.4776   0.3121   0.00    3.0
2173 255585.000    229480.1178  -4771569.6087   4212189.5463   1   8   0.0046   0.0081   0.0070   0.0021  -0.0048   0.0031   0.00    3.2
2173 255586.000    229480.1169  -4771569.6015   4212189.5417   1   8   0.0046   0.0081   0.0070   0.0021  -0.0048   0.0031   0.00    3.3
2173 255587.000    229479.9091  -4771569.3947   4212188.9679   2   8   0.4537   0.8045   0.6932   0.2030  -0.4779   0.3119   0.00    2.8
2173 255588.000    229480.0087  -4771569.4747   4212189.0281   2   8   0.4537   0.8045   0.6933   0.2029  -0.4780   0.3119   0.00    2.8
2173 255589.000    229479.9737  -4771569.6428   4212189.0797   2   8   0.4536   0.8045   0.6933   0.2028  -0.4781   0.3118   0.00    2.5
2173 255590.000    229479.9698  -4771569.6454   4212189.0456   2   8   0.4536   0.8045   0.6933   0.2028  -0.4781   0.3118   0.00    2.9
2173 255591.000    229479.8521  -4771569.5921   4212189.0178   2   8   0.4535   0.8044   0.6933   0.2027  -0.4782   0.3117   0.00    2.9
2173 255592.000    229480.1152  -4771569.6060   4212189.5421   1   8   0.0046   0.0081   0.0070   0.0021  -0.0048   0.0031   0.00    3.3
2173 255593.000    229480.1171  -4771569.6054   4212189.5429   1   8   0.0046   0.0081   0.0070   0.0021  -0.0048   0.0031   0.00    3.3
2173 255594.000    229480.1161  -4771569.6078   4212189.5413   1   8   0.0046   0.0081   0.0070   0.0021  -0.0048   0.0031   0.00    3.2
2173 255595.000    229480.1158  -4771569.6065   4212189.5448   1   8   0.0046   0.0081   0.0070   0.0021  -0.0048   0.0031   0.00    3.7
2173 255596.000    229480.1155  -4771569.6053   4212189.5450   1   8   0.0046   0.0081   0.0070   0.0021  -0.0048   0.0031   0.00    3.4
2173 255597.000    229479.9060  -4771569.3805   4212188.9994   2   8   0.4532   0.8043   0.6935   0.2021  -0.4788   0.3114   0.00    2.7
2173 255598.000    229480.1162  -4771569.6037   4212189.5450   1   8   0.0046   0.0081   0.0070   0.0021  -0.0048   0.0031   0.00    3.1
2173 255599.000    229480.1163  -4771569.6039   4212189.5456   1   8   0.0046   0.0081   0.0070   0.0021  -0.0048   0.0031   0.00    3.0
