     2.11           OBSERVATION DATA    M (MIXED)           RINEX VERSION / TYPE
CONVBIN 2.4.3                           20210902 202015 UTC PGM / RUN BY / DATE 
log: logs/21_09_02_07_16_56_scwt_VZ.rtcm                    COMMENT             
format: RTCM 3, station ID: 862                             COMMENT             
0862                                                        MARKER NAME         
                                                            MARKER NUMBER       
                                                            OBSERVER / AGENCY   
                    TRIMBLE ALLOY                           REC # / TYPE / VERS 
                    GPPNULLANTENNA                          ANT # / TYPE        
   861394.5452 -5290252.0636  3445541.4149                  APPROX POSITION XYZ 
        0.0000        0.0000        0.0000                  ANTENNA: DELTA H/E/N
     1     1                                                WAVELENGTH FACT L1/2
     7    C1    L1    P2    L2    C2    C5    L5            # / TYPES OF OBSERV 
  2021     9     2     7    17   15.0000000     GPS         TIME OF FIRST OBS   
  2021     9     2     7    47    0.0000000     GPS         TIME OF LAST OBS    
                                                            END OF HEADER       
 21  9  2  7 17 15.0000000  0 19G 1G 7G 8G 9G14G21G27G30R12R13R14R24
                                E 2E 3E 8E11E24E25E36
  22635456.828   118950131.013                    92688422.115    22635458.043  
  22635453.040    88826385.305  
  20323094.504   106798594.671                    83219686.274    20323091.270  
                                
  21132429.710   111051684.435                    86533792.473    21132429.871  
  21132424.618    82928198.128  
  22996922.360   120849648.017                    94168560.420    22996922.324  
  22996919.108    90244857.474  
  23761799.795   124869104.012                    97300599.415    23761798.347  
  23761798.848    93246408.513  
  21603893.732   113529236.323    21603891.748    88464329.549                  
                                
  23441326.319   123185018.264                    95988335.778    23441325.837  
  23441321.977    91988801.660  
  22230338.934   116821220.804                    91029525.057    22230339.631  
  22230335.074    87236612.249  
  23003844.784   122882455.929    23003842.658    95575266.566                  
                                
  20159344.064   107649782.819    20159339.454    83727593.771                  
                                
  21112110.469   112539438.171    21112107.145    87530668.942                  
                                
  19943541.821   106647088.085    19943537.068    82947726.774                  
                                
  24632434.006   129444331.118                                                  
                                
  26370796.817   138579481.318                                                  
                                
  24542554.035   128971997.141                                                  
                                
  23132531.573   121562275.615                                                  
                                
  27839069.649   146295371.481                                                  
                                
  24264808.539   127512464.346                                                  
                                
  25056608.069   131673380.245                                                  
                                
 21  9  2  7 17 16.0000000  0 19G 1G 7G 8G 9G14G21G27G30R12R13R14R24
                                E 2E 3E 8E11E24E25E36
  22634823.943   118946805.558                    92685830.854    22634825.140  
  22634820.262    88823902.006  
  20322877.824   106797458.053                    83218800.607    20322875.233  
                                
  21132859.389   111053943.511                    86535552.785    21132859.782  
  21132854.421    82929885.109  
  22997478.623   120852571.350                    94170838.337    22997478.337  
  22997475.335    90247040.484  
  23761372.636   124866857.483                    97298848.869    23761371.010  
  23761371.367    93244730.906  
  21603644.405   113527924.906    21603642.279    88463307.655                  
                                
  23441980.558   123188457.370                    95991015.573    23441980.201  
  23441976.269    91991369.819  
  22229816.122   116818472.986                    91027383.894    22229816.908  
  22229812.191    87234560.312  
  23004296.477   122884870.786    23004294.815    95577144.781                  
                                
  20159405.533   107650112.950    20159401.263    83727850.548                  
                                
  21111667.514   112537077.313    21111664.172    87528832.722                  
                                
  19943061.859   106644520.453    19943057.017    82945729.729                  
                                
  24632213.788   129443173.577                                                  
                                
  26371255.014   138581889.629                                                  
                                
  24542666.074   128972586.314                                                  
                                
  23132528.303   121562258.745                                                  
                                
  27839387.307   146297042.133                                                  
                                
  24264890.003   127512892.083                                                  
                                
  25056142.384   131670932.832                                                  
                                
 21  9  2  7 17 17.0000000  0 19G 1G 7G 8G 9G14G21G27G30R12R13R14R24
                                E 2E 3E 8E11E24E25E36
  22634191.058   118943480.317                    92683239.746    22634191.987  
  22634187.395    88821418.870  
  20322661.752   106796321.938                    83217915.311    20322658.839  
                                
  21133289.675   111056202.946                    86537313.383    21133289.550  
  21133284.404    82931572.349  
  22998034.635   120855494.885                    94173116.426    22998034.778  
  22998031.598    90249223.646  
  23760944.851   124864611.010                    97297098.366    23760943.779  
  23760943.761    93243053.352  
  21603395.311   113526614.024    21603392.738    88462286.199                  
                                
  23442634.779   123191896.553                    95993695.478    23442634.546  
  23442630.812    91993938.046  
  22229292.828   116815725.415                    91025242.927    22229294.114  
  22229289.343    87232508.550  
  23004747.813   122887285.908    23004746.973    95579023.207                  
                                
  20159467.664   107650443.472    20159463.250    83728107.611                  
                                
  21111224.916   112534716.535    21111221.360    87526996.566                  
                                
  19942581.844   106641953.531    19942576.948    82943733.237                  
                                
  24631993.624   129442016.058                                                  
                                
  26371713.372   138584298.081                                                  
                                
  24542778.131   128973175.897                                                  
                                
  23132524.979   121562242.332                                                  
                                
  27839705.179   146298712.806                                                  
                                
  24264971.290   127513319.890                                                  
                                
  25055676.539   131668485.679                                                  
                                
 21  9  2  7 17 18.0000000  0 19G 1G 7G 8G 9G14G21G27G30R12R13R14R24
                                E 2E 3E 8E11E24E25E36
  22633558.637   118940155.341                    92680648.871    22633559.834  
  22633554.706    88818935.948  
  20322445.876   106795186.356                    83217030.447    20322442.642  
                                
  21133719.514   111058462.797                    86539074.311    21133719.514  
  21133714.439    82933259.896  
  22998590.970   120858418.696                    94175394.720    22998590.987  
  22998587.950    90251407.005  
  23760517.335   124862364.649                    97295347.952    23760516.281  
  23760516.334    93241375.868  
  21603146.127   113525303.728    21603143.376    88461265.189                  
                                
  23443289.053   123195335.926                    95996375.496    23443289.267  
  23443285.247    91996506.407  
  22228769.909   116812978.126                    91023102.189    22228771.410  
  22228766.567    87230457.011  
  23005200.650   122889701.331    23005198.988    95580901.869                  
                                
  20159529.169   107650774.417    20159525.131    83728365.013                  
                                
  21110782.354   112532355.947    21110778.548    87525160.551                  
                                
  19942101.828   106639387.365    19942096.986    82941737.337                  
                                
  24631773.352   129440858.609                                                  
                                
  26372171.802   138586706.717                                                  
                                
  24542890.634   128973765.965                                                  
                                
  23132522.156   121562226.489                                                  
                                
  27840023.480   146300383.575                                                  
                                
  24265052.754   127513747.832                                                  
                                
  25055210.997   131666038.859                                                  
                                
 21  9  2  7 17 19.0000000  0 19G 1G 7G 8G 9G14G21G27G30R12R13R14R24
                                E 2E 3E 8E11E24E25E36
  22632926.235   118936830.525                    92678058.081    22632927.503  
  22632922.018    88816453.123  
  20322229.518   106794051.188                    83216145.891    20322227.052  
                                
  21134149.514   111060722.938                    86540835.448    21134149.586  
  21134144.511    82934947.662  
  22999147.339   120861342.628                    94177673.106    22999147.911  
  22999144.427    90253590.462  
  23760089.479   124860118.261                    97293597.524    23760088.639  
  23760088.675    93239698.370  
  21602896.533   113523993.913    21602894.031    88460244.555                  
                                
  23443944.221   123198775.325                    95999055.538    23443944.381  
  23443939.843    91999074.777  
  22228247.472   116810231.019                    91020961.593    22228248.955  
  22228243.791    87228405.595  
  23005652.754   122892116.927    23005651.235    95582780.659                  
                                
  20159591.336   107651105.615    20159587.261    83728622.610                  
                                
  21110339.327   112529995.372    21110335.664    87523324.557                  
                                
  19941622.099   106636821.850    19941617.310    82939741.936                  
                                
  24631552.991   129439701.110                                                  
                                
  26372630.053   138589115.430                                                  
                                
  24543002.905   128974356.361                                                  
                                
  23132519.118   121562211.060                                                  
                                
  27840340.995   146302054.356                                                  
                                
  24265134.041   127514175.784                                                  
                                
  25054745.616   131663592.233                                                  
                                
 21  9  2  7 17 20.0000000  0 19G 1G 7G 8G 9G14G21G27G30R12R13R14R24
                                E 2E 3E 8E11E24E25E36
  22632293.421   118933505.980                    92675467.535    22632294.600  
  22632289.383    88813970.504  
  20322013.553   106792916.575                    83215261.775    20322010.873  
                                
  21134579.890   111062983.532                    86542596.943    21134579.908  
  21134574.672    82936635.765  
  22999703.888   120864266.841                    94179951.720    22999704.085  
  22999700.761    90255774.132  
  23759662.427   124857872.017                    97291847.198    23759660.783  
  23759661.248    93238020.976  
  21602647.475   113522684.721    21602644.901    88459224.409                  
                                
  23444598.137   123202214.898                    96001735.750    23444597.709  
  23444594.367    92001643.302  
  22227724.839   116807484.240                    91018821.241    22227726.411  
  22227721.229    87226354.430  
  23006106.252   122894532.911    23006103.482    95584659.765                  
                                
  20159653.913   107651437.279    20159649.320    83728880.577                  
                                
  21109897.087   112527634.969    21109892.780    87521488.686                  
                                
  19941142.208   106634257.150    19941137.705    82937747.170                  
                                
  24631332.791   129438543.728                                                  
                                
  26373088.322   138591524.324                                                  
                                
  24543115.659   128974947.265                                                  
                                
  23132516.205   121562196.197                                                  
                                
  27840658.831   146303725.231                                                  
                                
  24265215.595   127514603.884                                                  
                                
  25054280.021   131661145.966                                                  
                                
 21  9  2  7 17 21.0000000  0 19G 1G 7G 8G 9G14G21G27G30R12R13R14R24
                                E 2E 3E 8E11E24E25E36
  22631660.822   118930181.605                    92672877.113    22631661.429  
  22631656.748    88811488.011  
  20321797.266   106791782.396                    83214378.003    20321794.783  
                                
  21135009.926   111065244.416                    86544358.684    21135010.426  
  21135004.958    82938324.094  
  23000260.562   120867191.224                    94182230.449    23000260.258  
  23000257.292    90257957.918  
  23759234.875   124855625.764                    97290096.875    23759233.803  
  23759233.750    93236343.586  
  21602398.863   113521376.016    21602395.736    88458204.639                  
                                
  23445253.395   123205654.556                    96004415.991    23445253.055  
  23445248.999    92004211.866  
  22227202.492   116804737.658                    91016681.056    22227203.457  
  22227198.471    87224303.406  
  23006558.910   122896949.050    23006555.658    95586538.977                  
                                
  20159715.382   107651769.232    20159711.469    83729138.763                  
                                
  21109453.864   112525274.557    21109450.075    87519652.806                  
                                
  19940663.050   106631693.130    19940658.208    82935752.937                  
                                
  24631112.752   129437386.308                                                  
                                
  26373546.913   138593933.295                                                  
                                
  24543228.019   128975538.527                                                  
                                
  23132513.507   121562181.768                                                  
                                
  27840976.953   146305396.132                                                  
                                
  24265297.131   127515032.029                                                  
                                
  25053814.390   131658699.903                                                  
                                
 21  9  2  7 17 22.0000000  0 19G 1G 7G 8G 9G14G21G27G30R12R13R14R24
                                E 2E 3E 8E11E24E25E36
  22631027.937   118926857.512                    92670286.904    22631029.313  
  22631024.184    88809005.743  
  20321582.177   106790648.774                    83213494.671    20321579.175  
                                
  21135440.391   111067505.746                    86546120.755    21135440.265  
  21135435.208    82940012.752  
  23000817.146   120870115.892                    94184509.404    23000816.824  
  23000813.840    90260141.930  
  23758807.287   124853379.641                    97288346.658    23758805.912  
  23758806.376    93234666.293  
  21602149.786   113520067.909    21602146.713    88457185.330                  
                                
  23445907.633   123209094.375                    96007096.363    23445907.454  
  23445903.452    92006780.573  
  22226679.662   116801991.387                    91014541.107    22226680.752  
  22226675.945    87222252.630  
  23007011.157   122899365.517    23007008.030    95588418.454                  
                                
  20159777.709   107652101.647    20159773.689    83729397.298                  
                                
  21109011.016   112522914.265    21109007.263    87517817.027                  
                                
  19940183.446   106629129.926    19940178.889    82933759.332                  
                                
  24630892.213   129436228.976                                                  
                                
  26374005.146   138596342.492                                                  
                                
  24543341.130   128976130.279                                                  
                                
  23132510.809   121562167.906                                                  
                                
  27841295.111   146307067.119                                                  
                                
  24265378.542   127515460.306                                                  
                                
  25053349.098   131656254.202                                                  
                                
 21  9  2  7 17 23.0000000  0 19G 1G 7G 8G 9G14G21G27G30R12R13R14R24
                                E 2E 3E 8E11E24E25E36
  22630395.070   118923533.545                    92667696.809    22630396.410  
  22630391.603    88806523.553  
  20321366.641   106789515.558                    83212611.638    20321363.639  
                                
  21135870.712   111069767.340                    86547883.034    21135870.659  
  21135865.638    82941701.598  
  23001373.677   120873040.668                    94186788.448    23001374.123  
  23001370.353    90262326.012  
  23758379.753   124851133.493                    97286596.405    23758378.949  
  23758378.896    93232988.973  
  21601901.050   113518760.263    21601897.762    88456166.379                  
                                
  23446562.158   123212534.214                    96009776.760    23446561.443  
  23446557.994    92009349.278  
  22226157.243   116799245.298                    91012401.293    22226158.172  
  22226153.312    87220201.968  
  23007462.796   122901782.160    23007460.438    95590298.065                  
                                
  20159840.555   107652434.306    20159836.105    83729656.033                  
                                
  21108568.114   112520553.987    21108564.361    87515981.244                  
                                
  19939704.627   106626567.338    19939699.660    82931766.209                  
                                
  24630671.977   129435071.580                                                  
                                
  26374463.701   138598751.715                                                  
                                
  24543453.455   128976722.375                                                  
                                
  23132508.146   121562154.443                                                  
                                
  27841612.751   146308738.079                                                  
                                
  24265460.132   127515888.577                                                  
                                
  25052883.771   131653808.686                                                  
                                
 21  9  2  7 17 24.0000000  0 19G 1G 7G 8G 9G14G21G27G30R12R13R14R24
                                E 2E 3E 8E11E24E25E36
  22629763.042   118920209.895                    92665106.942    22629763.310  
  22629759.236    88804041.600  
  20321151.176   106788382.922                    83211729.061    20321148.049  
                                
  21136301.213   111072029.377                    86549645.660    21136301.177  
  21136296.156    82943390.784  
  23001930.350   120875965.779                    94189067.749    23001930.082  
  23001926.884    90264510.339  
  23757952.362   124848887.490                    97284846.274    23757951.111  
  23757951.361    93231311.776  
  21601651.866   113517453.242    21601649.275    88455147.941                  
                                
  23447217.236   123215974.262                    96012457.326    23447216.736  
  23447212.679    92011918.150  
  22225634.449   116796499.549                    91010261.744    22225635.646  
  22225630.858    87218151.572  
  23007915.169   122904199.179    23007912.756    95592177.978                  
                                
  20159903.329   107652767.440    20159898.379    83729915.137                  
                                
  21108125.409   112518193.915    21108121.764    87514145.637                  
                                
  19939225.344   106624005.603    19939220.502    82929773.749                  
                                
  24630451.884   129433914.310                                                  
                                
  26374922.077   138601161.179                                                  
                                
  24543566.440   128977314.995                                                  
                                
  23132505.698   121562141.566                                                  
                                
  27841930.802   146310409.186                                                  
                                
  24265541.597   127516317.033                                                  
                                
  25052418.462   131651363.527                                                  
                                
 21  9  2  7 17 25.0000000  0 19G 1G 7G 8G 9G14G21G27G30R12R13R14R24
                                E 2E 3E 8E11E24E25E36
  22629130.997   118916886.397                    92662517.213    22629131.444  
  22629126.762    88801559.780  
  20320935.658   106787250.715                    83210846.826    20320932.709  
                                
  21136731.570   111074291.722                    86551408.534    21136731.463  
  21136726.603    82945080.193  
  23002486.863   120878891.025                    94191347.168    23002486.828  
  23002483.593    90266694.770  
  23757524.738   124846641.516                    97283096.151    23757523.648  
  23757523.845    93229634.563  
  21601403.576   113516146.723    21601400.842    88454129.870                  
                                
  23447871.510   123219414.363                    96015137.919    23447871.510  
  23447867.472    92014487.056  
  22225111.941   116793753.982                    91008122.343    22225113.174  
  22225108.457    87216101.324  
  23008367.880   122906616.413    23008365.361    95594058.058                  
                                
  20159965.852   107653100.875    20159960.849    83730174.476                  
                                
  21107682.579   112515833.899    21107678.916    87512310.076                  
                                
  19938746.204   106621444.564    19938741.701    82927781.834                  
                                
  24630231.738   129432757.002                                                  
                                
  26375380.614   138603570.716                                                  
                                
  24543679.265   128977907.948                                                  
                                
  23132503.215   121562129.112                                                  
                                
  27842248.549   146312080.304                                                  
                                
  24265623.152   127516745.521                                                  
                                
  25051953.117   131648918.592                                                  
                                
 21  9  2  7 17 26.0000000  0 19G 1G 7G 8G 9G14G21G27G30R12R13R14R24
                                E 2E 3E 8E11E24E25E36
  22628498.094   118913563.143                    92659927.653    22628499.095  
  22628494.360    88799078.119  
  20320720.318   106786119.025                    83209964.980    20320717.316  
                                
  21137162.357   111076554.443                    86553171.688    21137162.053  
  21137157.210    82946769.887  
  23003043.662   120881816.488                    94193626.748    23003043.716  
  23003040.160    90268879.384  
  23757097.526   124844395.592                    97281346.090    23757096.239  
  23757096.471    93227957.432  
  21601154.678   113514840.782    21601152.373    88453112.242                  
                                
  23448526.303   123222854.596                    96017818.629    23448525.338  
  23448521.907    92017056.059  
  22224589.647   116791008.694                    91005983.158    22224590.702  
  22224586.002    87214051.262  
  23008819.734   122909033.909    23008817.840    95595938.338                  
                                
  20160027.661   107653434.718    20160023.337    83730434.134                  
                                
  21107239.945   112513474.002    21107236.103    87510474.600                  
                                
  19938267.601   106618884.283    19938262.919    82925790.505                  
                                
  24630011.395   129431599.740                                                  
                                
  26375839.187   138605980.403                                                  
                                
  24543791.805   128978501.372                                                  
                                
  23132501.052   121562117.169                                                  
                                
  27842566.742   146313751.461                                                  
                                
  24265704.581   127517174.091                                                  
                                
  25051487.986   131646473.952                                                  
                                
 21  9  2  7 17 27.0000000  0 19G 1G 7G 8G 9G14G21G27G30R12R13R14R24
                                E 2E 3E 8E11E24E25E36
  22627865.602   118910240.080                    92657338.244    22627866.549  
  22627861.939    88796596.615  
  20320504.693   106784987.795                    83209083.509    20320502.173  
                                
  21137592.714   111078817.504                    86554935.110    21137593.107  
  21137587.782    82948459.842  
  23003600.514   120884742.163                    94195906.501    23003600.193  
  23003597.048    90271064.139  
  23756670.117   124842149.721                    97279596.055    23756668.598  
  23756669.116    93226280.313  
  21600906.621   113513535.360    21600903.940    88452095.037                  
                                
  23449181.238   123226294.926                    96020499.396    23449180.684  
  23449176.610    92019625.145  
  22224067.658   116788263.647                    91003844.151    22224068.265  
  22224063.655    87212001.385  
  23009272.660   122911451.629    23009270.480    95597818.782                  
                                
  20160089.935   107653768.931    20160086.022    83730694.077                  
                                
  21106797.419   112511114.168    21106793.327    87508639.169                  
                                
  19937788.603   106616324.692    19937784.422    82923799.710                  
                                
  24629791.159   129430442.491                                                  
                                
  26376297.617   138608390.201                                                  
                                
  24543905.076   128979095.181                                                  
                                
  23132498.783   121562105.707                                                  
                                
  27842884.918   146315422.659                                                  
                                
  24265786.081   127517602.735                                                  
                                
  25051022.873   131644029.575                                                  
                                
 21  9  2  7 17 28.0000000  0 19G 1G 7G 8G 9G14G21G27G30R12R13R14R24
                                E 2E 3E 8E11E24E25E36
  22627233.432   118906917.216                    92654749.022    22627234.075  
  22627229.519    88794115.262  
  20320289.532   106783857.029                    83208202.397    20320286.709  
                                
  21138023.572   111081080.944                    86556698.827    21138023.572  
  21138018.569    82950150.069  
  23004157.188   120887668.025                    94198186.387    23004157.402  
  23004153.614    90273249.034  
  23756242.332   124839903.888                    97277846.035    23756241.689  
  23756241.796    93224603.219  
  21600658.259   113512230.470    21600655.722    88451078.235                  
                                
  23449835.602   123229735.332                    96023180.255    23449835.048  
  23449831.170    92022194.282  
  22223545.096   116785518.813                    91001705.320    22223545.954  
  22223541.272    87209951.674  
  23009725.068   122913869.600    23009723.174    95599699.423                  
                                
  20160152.530   107654103.451    20160148.652    83730954.260                  
                                
  21106354.356   112508754.378    21106350.800    87506803.779                  
                                
  19937310.268   106613765.770    19937305.765    82921809.439                  
                                
  24629571.049   129429285.244                                                  
                                
  26376756.154   138610800.132                                                  
                                
  24544018.348   128979689.410                                                  
                                
  23132496.764   121562094.712                                                  
                                
  27843202.772   146317093.891                                                  
                                
  24265867.618   127518031.440                                                  
                                
  25050557.760   131641585.452                                                  
                                
 21  9  2  7 17 29.0000000  0 19G 1G 7G 8G 9G14G21G27G30R12R13R14R24
                                E 2E 3E 8E11E24E25E36
  22626600.869   118903594.616                    92652159.965    22626601.744  
  22626597.384    88791634.091  
  20320074.693   106782726.820                    83207321.704    20320071.780  
                                
  21138454.073   111083344.801                    86558462.869    21138454.877  
  21138449.320    82951840.600  
  23004713.772   120890594.160                    94200466.492    23004713.612  
  23004710.538    90275434.124  
  23755815.245   124837658.148                    97276096.131    23755814.512  
  23755814.369    93222926.213  
  21600410.041   113510926.184    21600407.450    88450061.908                  
                                
  23450490.233   123233175.908                    96025861.221    23450489.751  
  23450485.927    92024763.539  
  22223022.623   116782774.291                    90999566.727    22223024.017  
  22223019.139    87207902.184  
  23010177.869   122916287.910    23010175.797    95601580.332                  
                                
  20160215.018   107654438.442    20160211.337    83731214.811                  
                                
  21105911.759   112506394.723    21105908.113    87504968.489                  
                                
  19936831.271   106611207.645    19936827.464    82919819.784                  
                                
  24629350.616   129428128.068                                                  
                                
  26377214.959   138613210.227                                                  
                                
  24544131.620   128980284.091                                                  
                                
  23132495.031   121562084.268                                                  
                                
  27843520.734   146318765.221                                                  
                                
  24265949.368   127518460.266                                                  
                                
  25050092.701   131639141.646                                                  
                                
 21  9  2  7 17 30.0000000  0 19G 1G 7G 8G 9G14G21G27G30R12R13R14R24
                                E 2E 3E 8E11E24E25E36
  22625969.073   118900272.222                    92649571.089    22625969.842  
  22625965.053    88789153.087  
  20319859.478   106781597.081                    83206441.397    20319856.673  
                                
  21138884.984   111085608.998                    86560227.183    21138885.377  
  21138880.213    82953531.405  
  23005270.911   120893520.480                    94202746.743    23005270.696  
  23005267.408    90277619.380  
  23755387.567   124835412.456                    97274346.243    23755387.156  
  23755386.978    93221249.235  
  21600162.197   113509622.429    21600159.410    88449046.002                  
                                
  23451145.276   123236616.593                    96028542.261    23451143.900  
  23451140.737    92027332.873  
  22222500.401   116780030.001                    90997428.312    22222501.420  
  22222496.917    87205852.883  
  23010631.028   122918706.441    23010628.526    95603461.412                  
                                
  20160278.221   107654773.765    20160274.111    83731475.615                  
                                
  21105469.607   112504035.135    21105465.444    87503133.257                  
                                
  19936353.203   106608650.261    19936349.254    82917830.710                  
                                
  24629130.613   129426970.921                                                  
                                
  26377673.621   138615620.448                                                  
                                
  24544244.874   128980879.191                                                  
                                
  23132492.743   121562074.306                                                  
                                
  27843838.606   146320436.583                                                  
                                
  24266031.030   127518889.177                                                  
                                
  25049627.803   131636698.110                                                  
                                
 21  9  2  7 17 31.0000000  0 19G 1G 7G 8G 9G14G21G27G30R12R13R14R24
                                E 2E 3E 8E11E24E25E36
  22625336.885   118896950.001                    92646982.348    22625337.368  
  22625332.740    88786672.205  
  20319644.996   106780467.794                    83205561.419    20319641.869  
                                
  21139315.824   111087873.511                    86561991.739    21139316.414  
  21139311.214    82955222.438  
  23005827.763   120896446.973                    94205027.125    23005827.638  
  23005824.207    90279804.729  
  23754960.158   124833166.802                    97272596.371    23754959.712  
  23754959.712    93219572.285  
  21599913.943   113508319.152    21599911.405    88448030.457                  
                                
  23451799.675   123240057.328                    96031223.353    23451799.479  
  23451795.333    92029902.263  
  22221978.411   116777285.916                    90995290.075    22221979.376  
  22221974.695    87203803.733  
  23011084.097   122921125.202    23011081.238    95605342.659                  
                                
  20160341.674   107655109.427    20160336.956    83731736.685                  
                                
  21105026.813   112501675.605    21105022.775    87501298.060                  
                                
  19935875.439   106606093.591    19935871.096    82915842.191                  
                                
  24628910.288   129425813.733                                                  
                                
  26378132.211   138618030.742                                                  
                                
  24544358.270   128981474.649                                                  
                                
  23132491.135   121562064.772                                                  
                                
  27844157.014   146322107.954                                                  
                                
  24266112.620   127519318.117                                                  
                                
  25049162.672   131634254.798                                                  
                                
 21  9  2  7 17 32.0000000  0 19G 1G 7G 8G 9G14G21G27G30R12R13R14R24
                                E 2E 3E 8E11E24E25E36
  22624704.554   118893628.023                    92644393.794    22624705.394  
  22624700.641    88784191.508  
  20319430.121   106779339.005                    83204681.848    20319427.280  
                                
  21139747.075   111090138.416                    86563756.604    21139747.504  
  21139742.179    82956913.767  
  23006385.026   120899373.713                    94207307.695    23006384.419  
  23006381.095    90281990.288  
  23754533.178   124830921.198                    97270846.561    23754532.606  
  23754532.338    93217895.386  
  21599665.814   113507016.483    21599663.455    88447015.397                  
                                
  23452454.629   123243498.221                    96033904.575    23452454.236  
  23452450.197    92032471.766  
  22221456.207   116774542.125                    90993152.049    22221457.494  
  22221452.651    87201754.785  
  23011536.523   122923544.259    23011534.146    95607224.149                  
                                
  20160404.537   107655445.465    20160399.891    83731998.044                  
                                
  21104583.733   112499316.217    21104580.123    87499462.987                  
                                
  19935397.907   106603537.705    19935393.225    82913854.280                  
                                
  24628690.249   129424656.627                                                  
                                
  26378590.802   138620441.215                                                  
                                
  24544471.578   128982070.589                                                  
                                
  23132489.402   121562055.757                                                  
                                
  27844474.707   146323779.425                                                  
                                
  24266194.228   127519747.168                                                  
                                
  25048697.970   131631811.811                                                  
                                
 21  9  2  7 17 33.0000000  0 19G 1G 7G 8G 9G14G21G27G30R12R13R14R24
                                E 2E 3E 8E11E24E25E36
  22624072.366   118890306.222                    92641805.386    22624073.367  
  22624068.560    88781710.944  
  20319215.175   106778210.672                    83203802.627    20319212.244  
                                
  21140178.112   111092403.640                    86565521.711    21140178.469  
  21140173.198    82958605.326  
  23006941.807   120902300.602                    94209588.395    23006941.396  
  23006938.216    90284175.963  
  23754106.090   124828675.631                    97269096.756    23754105.447  
  23754104.893    93216218.491  
  21599418.203   113505714.295    21599415.683    88446000.698                  
                                
  23453109.278   123246939.161                    96036585.825    23453109.493  
  23453105.061    92035041.297  
  22220934.217   116771798.533                    90991014.178    22220934.950  
  22220930.572    87199705.995  
  23011989.234   122925963.494    23011987.072    95609105.779                  
                                
  20160466.953   107655781.807    20160462.879    83732259.643                  
                                
  21104141.421   112496956.868    21104137.543    87497627.936                  
                                
  19934920.125   106600982.498    19934915.390    82911866.894                  
                                
  24628470.049   129423499.471                                                  
                                
  26379049.696   138622851.779                                                  
                                
  24544584.975   128982666.883                                                  
                                
  23132487.811   121562047.191                                                  
                                
  27844793.044   146325450.860                                                  
                                
  24266275.853   127520176.246                                                  
                                
  25048233.108   131629369.038                                                  
                                
 21  9  2  7 17 34.0000000  0 19G 1G 7G 8G 9G14G21G27G30R12R13R14R24
                                E 2E 3E 8E11E24E25E36
  22623440.267   118886984.740                    92639217.219    22623440.964  
  22623436.461    88779230.619  
  20319000.300   106777082.925                    83202923.870    20318997.923  
                                
  21140608.952   111094669.339                    86567287.191    21140609.309  
  21140604.395    82960297.244  
  23007498.552   120905227.817                    94211869.344    23007498.463  
  23007495.139    90286361.861  
  23753678.967   124826430.218                    97267347.092    23753677.984  
  23753677.609    93214541.730  
  21599170.574   113504412.767    21599168.054    88444986.528                  
                                
  23453763.856   123250380.333                    96039267.241    23453763.874  
  23453759.818    92037610.994  
  22220412.531   116769055.296                    90988876.584    22220412.817  
  22220408.600    87197657.478  
  23012442.000   122928383.159    23012440.106    95610987.736                  
                                
  20160530.102   107656118.665    20160525.975    83732521.641                  
                                
  21103698.680   112494597.706    21103694.892    87495793.035                  
                                
  19934441.950   106598428.133    19934437.697    82909880.166                  
                                
  24628249.902   129422342.462                                                  
                                
  26379508.430   138625262.576                                                  
                                
  24544698.479   128983263.721                                                  
                                
  23132486.346   121562039.230                                                  
                                
  27845111.220   146327122.486                                                  
                                
  24266357.533   127520605.524                                                  
                                
  25047768.352   131626926.647                                                  
                                
 21  9  2  7 17 35.0000000  0 19G 1G 7G 8G 9G14G21G27G30R12R13R14R24
                                E 2E 3E 8E11E24E25E36
  22622808.472   118883663.441                    92636629.184    22622809.133  
  22622804.505    88776750.421  
  20318785.621   106775955.654                    83202045.461    20318782.977  
                                
  21141040.471   111096935.358                    86569052.912    21141040.989  
  21141035.539    82961989.391  
  23008055.709   120908155.217                    94214150.425    23008055.423  
  23008052.242    90288547.904  
  23753251.665   124824184.860                    97265597.449    23753251.076  
  23753250.450    93212864.978  
  21598923.088   113503111.753    21598920.389    88443972.748                  
                                
  23454418.988   123253821.575                    96041948.727    23454418.559  
  23454414.700    92040180.740  
  22219890.541   116766312.273                    90986739.169    22219891.113  
  22219886.592    87195609.115  
  23012895.855   122930803.036    23012893.157    95612869.871                  
                                
  20160593.395   107656455.833    20160589.142    83732783.885                  
                                
  21103255.814   112492238.566    21103252.187    87493958.154                  
                                
  19933964.597   106595874.406    19933960.165    82907893.937                  
                                
  24628029.631   129421185.433                                                  
                                
  26379967.271   138627673.474                                                  
                                
  24544812.519   128983860.913                                                  
                                
  23132484.935   121562031.718                                                  
                                
  27845429.056   146328794.118                                                  
                                
  24266439.283   127521034.840                                                  
                                
  25047303.543   131624484.505                                                  
                                
 21  9  2  7 17 36.0000000  0 19G 1G 7G 8G 9G14G21G27G30R12R13R14R24
                                E 2E 3E 8E11E24E25E36
  22622176.373   118880342.355                    92634041.313    22622177.106  
  22622172.335    88774270.396  
  20318571.711   106774828.834                    83201167.418    20318568.602  
                                
  21141471.793   111099201.718                    86570818.908    21141471.668  
  21141466.915    82963681.807  
  23008612.740   120911082.790                    94216431.665    23008613.079  
  23008609.309    90290734.081  
  23752824.810   124821939.520                    97263847.842    23752823.666  
  23752823.041    93211188.280  
  21598675.137   113501811.259    21598672.868    88442959.385                  
                                
  23455073.924   123257262.902                    96044630.294    23455073.691  
  23455069.492    92042750.576  
  22219368.283   116763569.489                    90984601.931    22219368.980  
  22219364.763    87193560.931  
  23013349.657   122933223.139    23013346.119    95614752.169                  
                                
  20160656.597   107656793.356    20160652.327    83733046.399                  
                                
  21102814.056   112489879.487    21102809.678    87492123.314                  
                                
  19933487.458   106593321.376    19933482.526    82905908.246                  
                                
  24627809.556   129420028.432                                                  
                                
  26380426.058   138630084.491                                                  
                                
  24544926.237   128984458.549                                                  
                                
  23132483.666   121562024.690                                                  
                                
  27845747.250   146330465.791                                                  
                                
  24266520.927   127521464.237                                                  
                                
  25046838.824   131622042.618                                                  
                                
 21  9  2  7 17 37.0000000  0 19G 1G 7G 8G 9G14G21G27G30R12R13R14R24
                                E 2E 3E 8E11E24E25E36
  22621544.364   118877021.431                    92631453.592    22621545.418  
  22621540.468    88771790.485  
  20318357.229   106773702.464                    83200289.726    20318354.281  
                                
  21141902.848   111101468.394                    86572585.157    21141903.420  
  21141898.166    82965374.455  
  23009169.914   120914010.545                    94218713.019    23009169.520  
  23009166.572    90292920.385  
  23752396.847   124819694.189                    97262098.231    23752396.061  
  23752395.882    93209511.568  
  21598428.044   113500511.263    21598425.525    88441946.410                  
                                
  23455729.485   123260704.300                    96047311.887    23455728.805  
  23455724.463    92045320.451  
  22218846.686   116760826.918                    90982464.861    22218847.151  
  22218842.880    87191512.903  
  23013801.779   122935643.418    23013799.349    95616634.611                  
                                
  20160719.836   107657131.189    20160715.601    83733309.165                  
                                
  21102370.887   112487520.472    21102367.170    87490288.528                  
                                
  19933009.766   106590769.032    19933005.352    82903923.088                  
                                
  24627589.302   129418871.400                                                  
                                
  26380884.720   138632495.583                                                  
                                
  24545039.831   128985056.540                                                  
                                
  23132482.111   121562018.102                                                  
                                
  27846065.497   146332137.465                                                  
                                
  24266602.553   127521893.650                                                  
                                
  25046374.015   131619600.966                                                  
                                
 21  9  2  7 17 38.0000000  0 19G 1G 7G 8G 9G14G21G27G30R12R13R14R24
                                E 2E 3E 8E11E24E25E36
  22620912.551   118873700.795                    92628866.083    22620913.498  
  22620908.459    88769310.785  
  20318143.248   106772576.633                    83199412.463    20318140.156  
                                
  21142334.635   111103735.508                    86574351.736    21142334.760  
  21142329.649    82967067.429  
  23009727.248   120916938.561                    94220994.613    23009726.945  
  23009723.710    90295106.913  
  23751970.010   124817448.981                    97260348.723    23751968.669  
  23751968.526    93207834.953  
  21598181.041   113499211.901    21598178.307    88440933.914                  
                                
  23456383.705   123264145.892                    96049993.642    23456383.598  
  23456379.292    92047890.459  
  22218324.697   116758084.667                    90980328.033    22218325.286  
  22218321.123    87189465.118  
  23014253.704   122938064.073    23014252.561    95618517.347                  
                                
  20160783.110   107657469.466    20160778.964    83733572.265                  
                                
  21101928.450   112485161.632    21101924.554    87488453.868                  
                                
  19932532.413   106588217.533    19932528.088    82901938.591                  
                                
  24627369.156   129417714.456                                                  
                                
  26381343.507   138634906.887                                                  
                                
  24545153.871   128985655.021                                                  
                                
  23132481.003   121562012.078                                                  
                                
  27846383.726   146333809.252                                                  
                                
  24266684.500   127522323.221                                                  
                                
  25045909.509   131617159.658                                                  
                                
 21  9  2  7 17 39.0000000  0 19G 1G 7G 8G 9G14G21G27G30R12R13R14R24
                                E 2E 3E 8E11E24E25E36
  22620280.827   118870380.311                    92626278.716    22620281.435  
  22620276.557    88766831.214  
  20317928.712   106771451.261                    83198535.544    20317925.996  
                                
  21142765.993   111106002.921                    86576118.552    21142766.243  
  21142761.097    82968760.625  
  23010284.208   120919866.745                    94223276.309    23010284.637  
  23010280.920    90297293.537  
  23751542.886   124815203.787                    97258599.231    23751541.725  
  23751541.367    93206158.352  
  21597933.876   113497913.032    21597931.196    88439921.806                  
                                
  23457038.355   123267587.519                    96052675.438    23457038.122  
  23457034.263    92050460.521  
  22217802.885   116755342.589                    90978191.356    22217803.779  
  22217799.258    87187417.456  
  23014707.220   122940484.946    23014705.648    95620400.249                  
                                
  20160846.813   107657808.069    20160842.346    83733835.624                  
                                
  21101485.941   112482802.848    21101482.010    87486619.263                  
                                
  19932055.453   106585666.754    19932051.182    82899954.647                  
                                
  24627149.028   129416557.505                                                  
                                
  26381802.384   138637318.279                                                  
                                
  24545267.696   128986253.865                                                  
                                
  23132479.913   121562006.491                                                  
                                
  27846702.260   146335481.040                                                  
                                
  24266766.108   127522752.833                                                  
                                
  25045445.076   131614718.581                                                  
                                
 21  9  2  7 17 40.0000000  0 19G 1G 7G 8G 9G14G21G27G30R12R13R14R24
                                E 2E 3E 8E11E24E25E36
  22619648.943   118867060.079                    92623691.504    22619649.586  
  22619644.708    88764351.820  
  20317714.802   106770326.398                    83197659.026    20317711.997  
                                
  21143197.852   111108270.698                    86577885.653    21143197.959  
  21143192.670    82970454.101  
  23010841.436   120922795.174                    94225558.198    23010841.614  
  23010838.166    90299480.353  
  23751115.567   124812958.679                    97256849.789    23751114.637  
  23751114.155    93204481.804  
  21597686.962   113496614.729    21597684.157    88438910.155                  
                                
  23457693.397   123271029.283                    96055357.337    23457693.147  
  23457689.037    92053030.663  
  22217281.217   116752600.808                    90976054.898    22217282.182  
  22217277.536    87185370.029  
  23015160.825   122942906.103    23015158.860    95622283.375                  
                                
  20160910.230   107658147.059    20160905.745    83734099.288                  
                                
  21101043.540   112480444.181    21101039.412    87484784.739                  
                                
  19931579.189   106583116.677    19931574.258    82897971.258                  
