% program   : rnx2rtkp ver.2.4.3 b31
% inp file  : ngs/21_08_29_06_17_05_wihu.obs
% inp file  : ngs/21_08_29_06_17_05_wihu_SNWI.obs
% inp file  : ngs/21_08_29_06_17_05_brdc.nav
% obs start : 2021/08/29 06:00:00.0 GPST (week2173  21600.0s)
% obs end   : 2021/08/29 06:59:59.0 GPST (week2173  25199.0s)
% ref pos   :  -205913.0411  -4516097.6335   4484147.4790
%
% (x/y/z-ecef=WGS84,Q=1:fix,2:float,3:sbas,4:dgps,5:single,6:ppp,ns=# of satellites)
%  GPST              x-ecef(m)      y-ecef(m)      z-ecef(m)   Q  ns   sdx(m)   sdy(m)   sdz(m)  sdxy(m)  sdyz(m)  sdzx(m) age(s)  ratio
2173  22602.000   -205921.8402  -4516300.8787   4484350.1507   2   7   0.4197   0.9211   0.9725   0.1128  -0.8172  -0.1195 -30.00    1.2
2173  22603.000   -205921.9056  -4516300.9736   4484350.3949   2   7   0.2985   0.6553   0.6915   0.0796  -0.5812  -0.0844 -29.00    1.1
2173  22604.000   -205921.9517  -4516300.9874   4484350.3362   2   7   0.2443   0.5365   0.5660   0.0650  -0.4757  -0.0690 -28.00    1.1
2173  22605.000   -205921.9987  -4516300.9130   4484350.3062   2   7   0.2120   0.4654   0.4909   0.0563  -0.4126  -0.0598 -27.00    1.1
2173  22606.000   -205921.9831  -4516300.9115   4484350.3801   2   7   0.1899   0.4167   0.4395   0.0503  -0.3695  -0.0535 -26.00    1.0
2173  22607.000   -205921.9572  -4516300.9409   4484350.4019   2   7   0.1735   0.3808   0.4016   0.0459  -0.3376  -0.0489 -25.00    1.0
2173  22608.000   -205921.9372  -4516300.9168   4484350.4155   2   7   0.1607   0.3527   0.3720   0.0424  -0.3127  -0.0453 -24.00    1.1
2173  22609.000   -205921.9803  -4516300.9156   4484350.4239   2   7   0.1505   0.3301   0.3481   0.0396  -0.2926  -0.0423 -23.00    1.2
2173  22610.000   -205921.9757  -4516300.9032   4484350.4289   2   7   0.1419   0.3113   0.3282   0.0373  -0.2759  -0.0399 -22.00    1.3
2173  22611.000   -205921.9837  -4516300.8828   4484350.4666   2   7   0.1347   0.2954   0.3114   0.0353  -0.2618  -0.0378 -21.00    1.4
2173  22612.000   -205921.9818  -4516300.8703   4484350.4655   2   7   0.1284   0.2817   0.2969   0.0336  -0.2496  -0.0360 -20.00    1.4
2173  22613.000   -205921.9959  -4516300.8590   4484350.4722   2   7   0.1230   0.2697   0.2842   0.0321  -0.2389  -0.0344 -19.00    1.5
2173  22614.000   -205922.0161  -4516300.8746   4484350.5087   2   7   0.1181   0.2591   0.2729   0.0308  -0.2295  -0.0330 -18.00    1.7
2173  22615.000   -205922.0164  -4516300.8442   4484350.5271   2   7   0.1138   0.2496   0.2629   0.0296  -0.2211  -0.0318 -17.00    1.8
2173  22616.000   -205922.0252  -4516300.8204   4484350.5323   2   7   0.1100   0.2411   0.2539   0.0285  -0.2135  -0.0306 -16.00    1.9
2173  22617.000   -205922.0271  -4516300.8530   4484350.5795   2   7   0.1064   0.2334   0.2457   0.0275  -0.2066  -0.0296 -15.00    1.9
2173  22618.000   -205922.0234  -4516300.8651   4484350.5926   2   7   0.1032   0.2263   0.2382   0.0266  -0.2003  -0.0286 -14.00    1.9
2173  22619.000   -205922.0206  -4516300.8675   4484350.6066   2   7   0.1003   0.2198   0.2313   0.0257  -0.1946  -0.0278 -13.00    2.0
2173  22620.000   -205922.0200  -4516300.8788   4484350.6257   2   7   0.0976   0.2139   0.2250   0.0249  -0.1892  -0.0270 -12.00    2.0
2173  22621.000   -205922.0155  -4516300.8898   4484350.6548   2   7   0.0951   0.2084   0.2191   0.0242  -0.1843  -0.0262 -11.00    2.1
2173  22622.000   -205922.0094  -4516300.8977   4484350.6618   2   7   0.0927   0.2032   0.2136   0.0236  -0.1797  -0.0255 -10.00    2.0
2173  22623.000   -205922.0147  -4516300.9059   4484350.6759   2   7   0.0906   0.1984   0.2085   0.0229  -0.1755  -0.0249  -9.00    2.0
2173  22624.000   -205922.0140  -4516300.8962   4484350.6736   2   7   0.0886   0.1940   0.2038   0.0223  -0.1715  -0.0243  -8.00    1.9
2173  22625.000   -205922.0139  -4516300.8911   4484350.6864   2   7   0.0867   0.1898   0.1993   0.0218  -0.1677  -0.0237  -7.00    1.8
2173  22626.000   -205922.0168  -4516300.8903   4484350.6874   2   7   0.0849   0.1858   0.1951   0.0213  -0.1642  -0.0232  -6.00    1.8
2173  22627.000   -205922.0177  -4516300.8950   4484350.6951   2   7   0.0832   0.1821   0.1911   0.0208  -0.1609  -0.0227  -5.00    1.6
2173  22628.000   -205922.0194  -4516300.9003   4484350.7036   2   7   0.0816   0.1786   0.1873   0.0203  -0.1577  -0.0222  -4.00    1.4
2173  22629.000   -205922.0214  -4516300.9053   4484350.6989   2   7   0.0801   0.1753   0.1838   0.0199  -0.1547  -0.0218  -3.00    1.3
2173  22630.000   -205922.0288  -4516300.9153   4484350.7005   2   7   0.0787   0.1722   0.1804   0.0195  -0.1519  -0.0214  -2.00    1.2
2173  22631.000   -205922.0389  -4516300.9284   4484350.7010   2   7   0.0774   0.1692   0.1772   0.0191  -0.1492  -0.0209  -1.00    1.2
2173  22632.000   -205922.0402  -4516300.9273   4484350.6998   2   7   0.0761   0.1664   0.1742   0.0188  -0.1467  -0.0206   0.00    1.2
2173  22633.000   -205922.0500  -4516300.9388   4484350.7075   2   7   0.0749   0.1637   0.1713   0.0184  -0.1443  -0.0203   0.00    1.3
2173  22634.000   -205922.0576  -4516300.9248   4484350.6852   2   7   0.0738   0.1612   0.1685   0.0181  -0.1420  -0.0198   0.00    1.3
2173  22635.000   -205922.0621  -4516300.9352   4484350.6949   2   7   0.0727   0.1587   0.1659   0.0177  -0.1398  -0.0195   0.00    1.3
2173  22636.000   -205922.0662  -4516300.9476   4484350.7046   2   7   0.0717   0.1564   0.1634   0.0175  -0.1376  -0.0192   0.00    1.3
2173  22637.000   -205922.0658  -4516300.9442   4484350.6978   2   7   0.0706   0.1541   0.1609   0.0172  -0.1356  -0.0189   0.00    1.3
2173  22638.000   -205922.0722  -4516300.9415   4484350.6958   2   7   0.0697   0.1520   0.1586   0.0169  -0.1336  -0.0186   0.00    1.3
2173  22639.000   -205922.0777  -4516300.9399   4484350.6888   2   7   0.0688   0.1499   0.1563   0.0166  -0.1318  -0.0184   0.00    1.3
2173  22640.000   -205922.0792  -4516300.9413   4484350.6868   2   7   0.0679   0.1479   0.1541   0.0163  -0.1299  -0.0181   0.00    1.3
2173  22641.000   -205922.0839  -4516300.9403   4484350.6895   2   7   0.0670   0.1460   0.1520   0.0161  -0.1282  -0.0178   0.00    1.3
2173  22642.000   -205922.0921  -4516300.9502   4484350.6945   2   7   0.0663   0.1441   0.1500   0.0158  -0.1265  -0.0176   0.00    1.3
2173  22643.000   -205922.0934  -4516300.9490   4484350.6940   2   7   0.0654   0.1423   0.1480   0.0157  -0.1248  -0.0173   0.00    1.3
2173  22644.000   -205922.1000  -4516300.9487   4484350.6926   2   7   0.0646   0.1406   0.1460   0.0154  -0.1232  -0.0170   0.00    1.3
2173  22645.000   -205922.1051  -4516300.9590   4484350.7003   2   7   0.0639   0.1389   0.1442   0.0152  -0.1216  -0.0169   0.00    1.3
2173  22646.000   -205922.1055  -4516300.9561   4484350.7041   2   7   0.0632   0.1372   0.1424   0.0149  -0.1201  -0.0167   0.00    1.3
2173  22647.000   -205922.1106  -4516300.9611   4484350.7103   2   7   0.0626   0.1357   0.1406   0.0148  -0.1186  -0.0162   0.00    1.3
2173  22648.000   -205922.1142  -4516300.9604   4484350.7102   2   7   0.0618   0.1341   0.1389   0.0145  -0.1172  -0.0162   0.00    1.4
2173  22649.000   -205922.1087  -4516300.9507   4484350.7023   2   7   0.0612   0.1326   0.1372   0.0144  -0.1158  -0.0159   0.00    1.4
2173  22650.000   -205922.1094  -4516300.9607   4484350.7068   2   7   0.0606   0.1311   0.1355   0.0141  -0.1144  -0.0157   0.00    1.4
2173  22651.000   -205922.1097  -4516300.9570   4484350.7025   2   7   0.0600   0.1297   0.1339   0.0140  -0.1131  -0.0155   0.00    1.4
2173  22652.000   -205922.1052  -4516300.9616   4484350.7074   2   7   0.0594   0.1283   0.1323   0.0138  -0.1118  -0.0154   0.00    1.4
2173  22653.000   -205922.1088  -4516300.9648   4484350.7090   2   7   0.0588   0.1270   0.1308   0.0136  -0.1105  -0.0151   0.00    1.4
2173  22654.000   -205922.1085  -4516300.9698   4484350.7159   2   7   0.0583   0.1257   0.1293   0.0135  -0.1093  -0.0149   0.00    1.4
2173  22655.000   -205922.1090  -4516300.9707   4484350.7148   2   7   0.0577   0.1244   0.1278   0.0133  -0.1080  -0.0149   0.00    1.4
2173  22656.000   -205922.1096  -4516300.9807   4484350.7241   2   7   0.0572   0.1231   0.1264   0.0131  -0.1068  -0.0147   0.00    1.4
2173  22657.000   -205922.1068  -4516300.9798   4484350.7223   2   7   0.0567   0.1219   0.1250   0.0130  -0.1057  -0.0145   0.00    1.4
2173  22658.000   -205922.1054  -4516300.9870   4484350.7306   2   7   0.0562   0.1207   0.1235   0.0127  -0.1045  -0.0142   0.00    1.4
2173  22659.000   -205922.1090  -4516300.9962   4484350.7378   2   7   0.0557   0.1196   0.1222   0.0127  -0.1034  -0.0141   0.00    1.4
2173  22660.000   -205922.1103  -4516301.0089   4484350.7504   2   7   0.0552   0.1184   0.1208   0.0126  -0.1023  -0.0138   0.00    1.4
2173  22661.000   -205922.1138  -4516301.0184   4484350.7606   2   7   0.0548   0.1173   0.1195   0.0124  -0.1012  -0.0138   0.00    1.4
2173  22662.000   -205922.1130  -4516301.0080   4484350.7514   2   7   0.0543   0.1162   0.1182   0.0123  -0.1001  -0.0137   0.00    1.4
2173  22663.000   -205922.1155  -4516301.0160   4484350.7582   2   7   0.0539   0.1151   0.1170   0.0120  -0.0991  -0.0135   0.00    1.4
2173  22664.000   -205922.1186  -4516301.0148   4484350.7523   2   7   0.0535   0.1141   0.1157   0.0120  -0.0981  -0.0132   0.00    1.4
2173  22665.000   -205922.1145  -4516301.0096   4484350.7421   2   7   0.0530   0.1130   0.1145   0.0118  -0.0970  -0.0131   0.00    1.4
2173  22666.000   -205922.1156  -4516300.9986   4484350.7368   2   7   0.0527   0.1120   0.1133   0.0117  -0.0960  -0.0130   0.00    1.4
2173  22667.000   -205922.1182  -4516300.9946   4484350.7325   2   7   0.0522   0.1110   0.1121   0.0115  -0.0951  -0.0128   0.00    1.4
2173  22668.000   -205922.1183  -4516300.9939   4484350.7355   2   7   0.0518   0.1101   0.1109   0.0114  -0.0941  -0.0127   0.00    1.4
2173  22669.000   -205922.1198  -4516301.0042   4484350.7482   2   7   0.0515   0.1091   0.1098   0.0114  -0.0931  -0.0126   0.00    1.4
2173  22670.000   -205922.1191  -4516300.9949   4484350.7458   2   7   0.0511   0.1082   0.1086   0.0111  -0.0922  -0.0125   0.00    1.4
2173  22671.000   -205922.1184  -4516300.9998   4484350.7513   2   7   0.0507   0.1073   0.1075   0.0111  -0.0913  -0.0123   0.00    1.4
2173  22672.000   -205922.1179  -4516300.9977   4484350.7452   2   7   0.0504   0.1064   0.1064   0.0109  -0.0904  -0.0121   0.00    1.4
2173  22673.000   -205922.1246  -4516301.0011   4484350.7567   2   7   0.0500   0.1055   0.1053   0.0109  -0.0895  -0.0119   0.00    1.4
2173  22674.000   -205922.1277  -4516300.9908   4484350.7498   2   7   0.0496   0.1046   0.1042   0.0108  -0.0886  -0.0118   0.00    1.4
2173  22675.000   -205922.1285  -4516300.9846   4484350.7490   2   7   0.0493   0.1037   0.1032   0.0107  -0.0877  -0.0117   0.00    1.4
2173  22676.000   -205922.1278  -4516300.9762   4484350.7390   2   7   0.0490   0.1029   0.1021   0.0106  -0.0869  -0.0116   0.00    1.4
2173  22677.000   -205922.1301  -4516300.9823   4484350.7473   2   7   0.0487   0.1021   0.1011   0.0105  -0.0861  -0.0114   0.00    1.4
2173  22678.000   -205922.1290  -4516300.9709   4484350.7332   2   7   0.0483   0.1013   0.1001   0.0103  -0.0852  -0.0113   0.00    1.5
2173  22679.000   -205922.1282  -4516300.9560   4484350.7298   2   7   0.0480   0.1005   0.0991   0.0101  -0.0844  -0.0113   0.00    1.5
2173  22680.000   -205922.1269  -4516300.9527   4484350.7238   2   7   0.0477   0.0997   0.0981   0.0101  -0.0836  -0.0111   0.00    1.5
2173  22681.000   -205922.1276  -4516300.9437   4484350.7182   2   7   0.0474   0.0989   0.0971   0.0100  -0.0828  -0.0109   0.00    1.5
2173  22682.000   -205922.1290  -4516300.9332   4484350.7068   2   7   0.0472   0.0981   0.0961   0.0099  -0.0820  -0.0108   0.00    1.5
2173  22683.000   -205922.1304  -4516300.9239   4484350.6970   2   7   0.0468   0.0974   0.0952   0.0098  -0.0812  -0.0108   0.00    1.5
2173  22684.000   -205922.1334  -4516300.9068   4484350.6786   2   7   0.0466   0.0967   0.0943   0.0098  -0.0805  -0.0106   0.00    1.5
2173  22685.000   -205922.1378  -4516300.9034   4484350.6759   2   7   0.0463   0.0959   0.0933   0.0096  -0.0797  -0.0104   0.00    1.6
2173  22686.000   -205922.1367  -4516300.9063   4484350.6784   2   7   0.0460   0.0952   0.0924   0.0096  -0.0790  -0.0105   0.00    1.6
2173  22687.000   -205922.1359  -4516300.8892   4484350.6593   2   7   0.0458   0.0945   0.0915   0.0094  -0.0783  -0.0103   0.00    1.6
2173  22688.000   -205922.1375  -4516300.8889   4484350.6516   2   7   0.0455   0.0938   0.0906   0.0095  -0.0775  -0.0101   0.00    1.6
2173  22689.000   -205922.1345  -4516300.8882   4484350.6519   2   7   0.0452   0.0931   0.0897   0.0095  -0.0768  -0.0100   0.00    1.6
2173  22690.000   -205922.1371  -4516300.8824   4484350.6433   2   7   0.0450   0.0924   0.0889   0.0093  -0.0761  -0.0097   0.00    1.6
2173  22691.000   -205922.1392  -4516300.8799   4484350.6457   2   7   0.0448   0.0918   0.0880   0.0092  -0.0754  -0.0096   0.00    1.6
2173  22692.000   -205922.1398  -4516300.8724   4484350.6428   2   7   0.0445   0.0911   0.0872   0.0091  -0.0747  -0.0098   0.00    1.6
2173  22693.000   -205922.1409  -4516300.8742   4484350.6465   2   7   0.0443   0.0905   0.0863   0.0091  -0.0741  -0.0095   0.00    1.7
2173  22694.000   -205922.1403  -4516300.8716   4484350.6456   2   7   0.0440   0.0898   0.0855   0.0090  -0.0734  -0.0094   0.00    1.7
2173  22695.000   -205922.1413  -4516300.8684   4484350.6435   2   7   0.0438   0.0892   0.0847   0.0088  -0.0727  -0.0093   0.00    1.7
2173  22696.000   -205922.1413  -4516300.8646   4484350.6448   2   7   0.0436   0.0886   0.0839   0.0088  -0.0721  -0.0093   0.00    1.7
2173  22697.000   -205922.1417  -4516300.8594   4484350.6332   2   7   0.0434   0.0880   0.0831   0.0087  -0.0714  -0.0091   0.00    1.7
2173  22698.000   -205922.1419  -4516300.8624   4484350.6330   2   7   0.0431   0.0874   0.0823   0.0088  -0.0708  -0.0091   0.00    1.7
2173  22699.000   -205922.1454  -4516300.8610   4484350.6288   2   7   0.0429   0.0868   0.0815   0.0086  -0.0702  -0.0088   0.00    1.7
2173  22700.000   -205922.1457  -4516300.8495   4484350.6144   2   7   0.0427   0.0862   0.0808   0.0087  -0.0695  -0.0088   0.00    1.7
2173  22701.000   -205922.1509  -4516300.8460   4484350.6092   2   7   0.0424   0.0857   0.0800   0.0087  -0.0689  -0.0087   0.00    1.7
2173  22702.000   -205922.1515  -4516300.8440   4484350.6055   2   7   0.0422   0.0851   0.0792   0.0086  -0.0683  -0.0083   0.00    1.8
2173  22703.000   -205922.1522  -4516300.8345   4484350.5954   2   7   0.0420   0.0845   0.0785   0.0085  -0.0678  -0.0085   0.00    1.8
2173  22704.000   -205922.1541  -4516300.8322   4484350.5954   2   7   0.0417   0.0840   0.0778   0.0083  -0.0671  -0.0085   0.00    1.8
2173  22705.000   -205922.1559  -4516300.8317   4484350.5941   2   7   0.0416   0.0834   0.0771   0.0083  -0.0666  -0.0084   0.00    1.8
2173  22706.000   -205922.1572  -4516300.8259   4484350.5853   2   7   0.0414   0.0829   0.0764   0.0083  -0.0660  -0.0083   0.00    1.8
2173  22707.000   -205922.1576  -4516300.8190   4484350.5791   2   7   0.0412   0.0824   0.0757   0.0083  -0.0654  -0.0082   0.00    1.8
2173  22708.000   -205922.1559  -4516300.8161   4484350.5759   2   7   0.0409   0.0818   0.0750   0.0083  -0.0649  -0.0079   0.00    1.8
2173  22709.000   -205922.1583  -4516300.8211   4484350.5759   2   7   0.0408   0.0813   0.0743   0.0081  -0.0643  -0.0080   0.00    1.8
2173  22710.000   -205922.1564  -4516300.8103   4484350.5695   2   7   0.0406   0.0808   0.0736   0.0082  -0.0638  -0.0079   0.00    1.9
2173  22711.000   -205922.1571  -4516300.8146   4484350.5726   2   7   0.0404   0.0803   0.0730   0.0082  -0.0633  -0.0079   0.00    1.9
2173  22712.000   -205922.1583  -4516300.8096   4484350.5634   2   7   0.0403   0.0798   0.0723   0.0080  -0.0627  -0.0077   0.00    1.9
2173  22713.000   -205922.1555  -4516300.8066   4484350.5569   2   7   0.0401   0.0793   0.0717   0.0080  -0.0622  -0.0076   0.00    1.9
2173  22714.000   -205922.1581  -4516300.8045   4484350.5529   2   7   0.0398   0.0789   0.0710   0.0081  -0.0617  -0.0075   0.00    1.9
2173  22715.000   -205922.1546  -4516300.8012   4484350.5458   2   7   0.0397   0.0784   0.0704   0.0080  -0.0612  -0.0075   0.00    1.9
2173  22716.000   -205922.1520  -4516300.7978   4484350.5371   2   7   0.0395   0.0779   0.0698   0.0080  -0.0607  -0.0075   0.00    1.9
2173  22717.000   -205922.1573  -4516300.7934   4484350.5331   2   7   0.0393   0.0774   0.0691   0.0080  -0.0602  -0.0073   0.00    1.9
2173  22718.000   -205922.1554  -4516300.7824   4484350.5143   2   7   0.0391   0.0770   0.0685   0.0080  -0.0597  -0.0068   0.00    2.0
2173  22719.000   -205922.1508  -4516300.7863   4484350.5124   2   7   0.0390   0.0765   0.0679   0.0079  -0.0592  -0.0071   0.00    2.0
2173  22720.000   -205922.1529  -4516300.7803   4484350.5045   2   7   0.0388   0.0761   0.0673   0.0078  -0.0587  -0.0069   0.00    2.0
2173  22721.000   -205922.1516  -4516300.7784   4484350.4994   2   7   0.0387   0.0756   0.0667   0.0077  -0.0582  -0.0071   0.00    2.0
2173  22722.000   -205922.1511  -4516300.7756   4484350.4914   2   7   0.0385   0.0752   0.0662   0.0080  -0.0578  -0.0071   0.00    2.0
2173  22723.000   -205922.1472  -4516300.7767   4484350.4872   2   7   0.0384   0.0748   0.0656   0.0078  -0.0573  -0.0069   0.00    2.1
2173  22724.000   -205922.1491  -4516300.7701   4484350.4822   2   7   0.0382   0.0744   0.0650   0.0076  -0.0569  -0.0069   0.00    2.1
2173  22725.000   -205922.1500  -4516300.7733   4484350.4830   2   7   0.0380   0.0740   0.0645   0.0077  -0.0564  -0.0068   0.00    2.1
2173  22726.000   -205922.1483  -4516300.7799   4484350.4836   2   7   0.0379   0.0735   0.0639   0.0076  -0.0560  -0.0067   0.00    2.1
2173  22727.000   -205922.1460  -4516300.7855   4484350.4841   2   7   0.0377   0.0731   0.0634   0.0076  -0.0555  -0.0067   0.00    2.1
2173  22728.000   -205922.1445  -4516300.7816   4484350.4788   2   7   0.0376   0.0727   0.0628   0.0077  -0.0551  -0.0064   0.00    2.1
2173  22729.000   -205922.1453  -4516300.7840   4484350.4732   2   7   0.0375   0.0723   0.0623   0.0076  -0.0547  -0.0066   0.00    2.1
2173  22730.000   -205922.1421  -4516300.7845   4484350.4698   2   7   0.0373   0.0719   0.0618   0.0077  -0.0543  -0.0065   0.00    2.2
2173  22731.000   -205922.1410  -4516300.7829   4484350.4672   2   7   0.0371   0.0715   0.0612   0.0076  -0.0538  -0.0065   0.00    2.2
2173  22732.000   -205922.1399  -4516300.7778   4484350.4600   2   7   0.0370   0.0712   0.0607   0.0076  -0.0534  -0.0062   0.00    2.2
2173  22733.000   -205922.1401  -4516300.7765   4484350.4502   2   7   0.0369   0.0708   0.0602   0.0076  -0.0530  -0.0062   0.00    2.2
2173  22734.000   -205922.1364  -4516300.7789   4484350.4496   2   7   0.0367   0.0704   0.0597   0.0074  -0.0526  -0.0063   0.00    2.2
2173  22735.000   -205922.1376  -4516300.7836   4484350.4496   2   7   0.0366   0.0700   0.0592   0.0077  -0.0522  -0.0061   0.00    2.2
2173  22736.000   -205922.1341  -4516300.7855   4484350.4440   2   7   0.0365   0.0697   0.0588   0.0075  -0.0518  -0.0060   0.00    2.2
2173  22737.000   -205922.1330  -4516300.7818   4484350.4345   2   7   0.0363   0.0693   0.0583   0.0076  -0.0514  -0.0061   0.00    2.2
2173  22738.000   -205922.1312  -4516300.7885   4484350.4311   2   7   0.0361   0.0689   0.0578   0.0075  -0.0510  -0.0060   0.00    2.3
2173  22739.000   -205922.1297  -4516300.7792   4484350.4224   2   7   0.0361   0.0686   0.0573   0.0076  -0.0507  -0.0057   0.00    2.3
2173  22740.000   -205922.1256  -4516300.7787   4484350.4142   2   7   0.0359   0.0682   0.0568   0.0074  -0.0503  -0.0059   0.00    2.3
2173  22741.000   -205922.1258  -4516300.7795   4484350.4129   2   7   0.0358   0.0679   0.0564   0.0074  -0.0499  -0.0059   0.00    2.3
2173  22742.000   -205922.1241  -4516300.7769   4484350.4081   2   7   0.0357   0.0676   0.0559   0.0074  -0.0496  -0.0057   0.00    2.3
2173  22743.000   -205922.1216  -4516300.7735   4484350.3993   2   7   0.0355   0.0672   0.0555   0.0074  -0.0492  -0.0058   0.00    2.3
2173  22744.000   -205922.1203  -4516300.7735   4484350.3940   2   7   0.0354   0.0669   0.0550   0.0075  -0.0488  -0.0056   0.00    2.4
2173  22745.000   -205922.1195  -4516300.7739   4484350.3888   2   7   0.0352   0.0666   0.0546   0.0075  -0.0485  -0.0056   0.00    2.4
2173  22746.000   -205922.1195  -4516300.7762   4484350.3848   2   7   0.0351   0.0662   0.0542   0.0075  -0.0482  -0.0056   0.00    2.4
2173  22747.000   -205922.1143  -4516300.7683   4484350.3711   2   7   0.0350   0.0659   0.0538   0.0073  -0.0478  -0.0055   0.00    2.4
2173  22748.000   -205922.1133  -4516300.7653   4484350.3634   2   7   0.0349   0.0656   0.0533   0.0073  -0.0475  -0.0054   0.00    2.4
2173  22749.000   -205922.1136  -4516300.7644   4484350.3540   2   7   0.0348   0.0653   0.0529   0.0074  -0.0471  -0.0055   0.00    2.5
2173  22750.000   -205922.1099  -4516300.7573   4484350.3397   2   7   0.0346   0.0650   0.0525   0.0076  -0.0468  -0.0054   0.00    2.5
2173  22751.000   -205922.1093  -4516300.7448   4484350.3208   2   7   0.0345   0.0647   0.0521   0.0074  -0.0465  -0.0051   0.00    2.5
2173  22752.000   -205922.1058  -4516300.7399   4484350.3128   2   7   0.0344   0.0643   0.0517   0.0074  -0.0462  -0.0050   0.00    2.5
2173  22753.000   -205922.1059  -4516300.7380   4484350.3005   2   7   0.0343   0.0640   0.0513   0.0073  -0.0459  -0.0052   0.00    2.6
2173  22754.000   -205922.0994  -4516300.7352   4484350.2963   2   7   0.0342   0.0638   0.0509   0.0075  -0.0455  -0.0050   0.00    2.6
2173  22755.000   -205922.1009  -4516300.7299   4484350.2847   2   7   0.0340   0.0635   0.0506   0.0076  -0.0452  -0.0054   0.00    2.6
2173  22756.000   -205922.0968  -4516300.7286   4484350.2763   2   7   0.0339   0.0632   0.0501   0.0075  -0.0449  -0.0054   0.00    2.6
2173  22757.000   -205922.0966  -4516300.7247   4484350.2669   2   7   0.0338   0.0629   0.0497   0.0074  -0.0446  -0.0052   0.00    2.7
2173  22758.000   -205922.0958  -4516300.7182   4484350.2558   2   7   0.0337   0.0626   0.0494   0.0073  -0.0443  -0.0049   0.00    2.7
2173  22759.000   -205922.0964  -4516300.7110   4484350.2439   2   7   0.0336   0.0623   0.0490   0.0075  -0.0440  -0.0049   0.00    2.7
2173  22760.000   -205922.0956  -4516300.7040   4484350.2329   2   7   0.0335   0.0620   0.0487   0.0072  -0.0437  -0.0050   0.00    2.7
2173  22761.000   -205922.0921  -4516300.7021   4484350.2261   2   7   0.0334   0.0618   0.0483   0.0074  -0.0434  -0.0048   0.00    2.7
2173  22762.000   -205922.0940  -4516300.6960   4484350.2133   2   7   0.0333   0.0615   0.0479   0.0075  -0.0432  -0.0049   0.00    2.8
2173  22763.000   -205922.0926  -4516300.6977   4484350.2077   2   7   0.0332   0.0612   0.0476   0.0075  -0.0429  -0.0046   0.00    2.8
2173  22764.000   -205922.0928  -4516300.6854   4484350.1919   2   7   0.0331   0.0609   0.0472   0.0074  -0.0426  -0.0048   0.00    2.8
2173  22765.000   -205922.0908  -4516300.6794   4484350.1827   2   7   0.0330   0.0607   0.0469   0.0076  -0.0423  -0.0047   0.00    2.8
2173  22766.000   -205922.0882  -4516300.6742   4484350.1757   2   7   0.0329   0.0604   0.0466   0.0073  -0.0420  -0.0048   0.00    2.8
2173  22767.000   -205922.0909  -4516300.6700   4484350.1648   2   7   0.0328   0.0602   0.0462   0.0075  -0.0418  -0.0047   0.00    2.8
2173  22768.000   -205922.0891  -4516300.6660   4484350.1563   2   7   0.0326   0.0599   0.0459   0.0075  -0.0415  -0.0044   0.00    2.8
2173  22769.000   -205922.0863  -4516300.6580   4484350.1458   2   7   0.0325   0.0596   0.0455   0.0076  -0.0413  -0.0043   0.00    2.8
2173  22770.000   -205922.0879  -4516300.6527   4484350.1369   2   7   0.0325   0.0594   0.0452   0.0076  -0.0410  -0.0045   0.00    2.8
2173  22771.000   -205922.0878  -4516300.6520   4484350.1276   2   7   0.0323   0.0591   0.0449   0.0075  -0.0407  -0.0046   0.00    2.9
2173  22772.000   -205922.0883  -4516300.6478   4484350.1223   2   7   0.0322   0.0589   0.0445   0.0076  -0.0405  -0.0037   0.00    2.9
2173  22773.000   -205922.0869  -4516300.6438   4484350.1130   2   7   0.0322   0.0587   0.0443   0.0075  -0.0402  -0.0045   0.00    2.9
2173  22774.000   -205922.0879  -4516300.6425   4484350.1025   2   7   0.0321   0.0584   0.0440   0.0076  -0.0400  -0.0045   0.00    2.9
2173  22775.000   -205922.0866  -4516300.6420   4484350.0994   2   7   0.0321   0.0582   0.0436   0.0076  -0.0397  -0.0046   0.00    2.9
2173  22776.000   -205922.0855  -4516300.6375   4484350.0912   2   7   0.0319   0.0579   0.0433   0.0076  -0.0395  -0.0048   0.00    2.9
2173  22777.000   -205922.0870  -4516300.6332   4484350.0865   2   7   0.0318   0.0577   0.0431   0.0076  -0.0392  -0.0047   0.00    3.0
2173  22778.000   -205922.0872  -4516300.6385   4484350.0855   2   7   0.0316   0.0574   0.0427   0.0079  -0.0390  -0.0037   0.00    3.0
2173  22779.000   -205922.0837  -4516300.6364   4484350.0798   2   7   0.0316   0.0572   0.0425   0.0076  -0.0388  -0.0041   0.00    3.0
2173  22780.000   -205922.2941  -4516301.0266   4484350.8050   1   7   0.0045   0.0092   0.0095   0.0017  -0.0081  -0.0009   0.00    3.0
2173  22781.000   -205922.2925  -4516301.0234   4484350.8019   1   7   0.0046   0.0092   0.0092   0.0016  -0.0082   0.0008   0.00    3.0
2173  22782.000   -205922.2939  -4516301.0269   4484350.8022   1   7   0.0042   0.0092   0.0096   0.0015  -0.0080  -0.0011   0.00    3.1
2173  22783.000   -205922.2943  -4516301.0268   4484350.8025   1   7   0.0044   0.0092   0.0095   0.0009  -0.0080  -0.0020   0.00    3.1
2173  22784.000   -205922.2936  -4516301.0291   4484350.8052   1   7   0.0042   0.0092   0.0095  -0.0006  -0.0081  -0.0028   0.00    3.1
2173  22785.000   -205922.2947  -4516301.0283   4484350.8088   1   7   0.0048   0.0093   0.0098  -0.0006  -0.0078  -0.0016   0.00    3.1
2173  22786.000   -205922.2954  -4516301.0290   4484350.8063   1   7   0.0039   0.0092   0.0095   0.0015  -0.0080  -0.0011   0.00    3.1
2173  22787.000   -205922.2945  -4516301.0256   4484350.8044   1   7   0.0040   0.0092   0.0094   0.0014  -0.0080  -0.0016   0.00    3.2
2173  22788.000   -205922.2954  -4516301.0285   4484350.8054   1   7   0.0034   0.0091   0.0095   0.0014  -0.0080  -0.0019   0.00    3.2
2173  22789.000   -205922.2938  -4516301.0291   4484350.8017   1   7   0.0042   0.0092   0.0096   0.0006  -0.0079  -0.0011   0.00    3.2
2173  22790.000   -205922.2944  -4516301.0263   4484350.8030   1   7   0.0040   0.0092   0.0092   0.0017  -0.0081   0.0006   0.00    3.2
2173  22791.000   -205922.2953  -4516301.0309   4484350.8081   1   7   0.0040   0.0092   0.0097   0.0014  -0.0079  -0.0019   0.00    3.3
2173  22792.000   -205922.2952  -4516301.0252   4484350.8011   1   7   0.0036   0.0092   0.0094   0.0015  -0.0080  -0.0016   0.00    3.3
2173  22793.000   -205922.2934  -4516301.0269   4484350.8027   1   7   0.0042   0.0092   0.0093   0.0014  -0.0080   0.0001   0.00    3.3
2173  22794.000   -205922.2948  -4516301.0296   4484350.8061   1   7   0.0045   0.0092   0.0096  -0.0011  -0.0079  -0.0016   0.00    3.3
2173  22795.000   -205922.2936  -4516301.0248   4484350.8043   1   7   0.0045   0.0092   0.0095   0.0011  -0.0080  -0.0017   0.00    3.3
2173  22796.000   -205922.2950  -4516301.0248   4484350.8065   1   7   0.0045   0.0092   0.0096   0.0007  -0.0079  -0.0016   0.00    3.3
2173  22797.000   -205922.2936  -4516301.0277   4484350.8064   1   7   0.0049   0.0093   0.0095  -0.0014  -0.0078  -0.0008   0.00    3.3
2173  22798.000   -205922.2954  -4516301.0263   4484350.8075   1   7   0.0041   0.0092   0.0095   0.0010  -0.0079  -0.0016   0.00    3.3
2173  22799.000   -205922.2953  -4516301.0180   4484350.8032   1   7   0.0045   0.0092   0.0096   0.0011  -0.0080  -0.0013   0.00    3.3
2173  22800.000   -205922.2955  -4516301.0210   4484350.8044   1   7   0.0040   0.0091   0.0095   0.0011  -0.0081  -0.0009   0.00    3.3
2173  22801.000   -205922.2984  -4516301.0250   4484350.8080   1   7   0.0043   0.0092   0.0094   0.0017  -0.0080   0.0012   0.00    3.4
2173  22802.000   -205922.3009  -4516301.0243   4484350.8078   1   7   0.0041   0.0092   0.0096   0.0014  -0.0079  -0.0008   0.00    3.4
2173  22803.000   -205922.2999  -4516301.0241   4484350.8047   1   7   0.0043   0.0091   0.0094   0.0005  -0.0080   0.0001   0.00    3.4
2173  22804.000   -205922.2985  -4516301.0267   4484350.8069   1   7   0.0045   0.0092   0.0095  -0.0011  -0.0079  -0.0020   0.00    3.4
2173  22805.000   -205922.2995  -4516301.0228   4484350.8044   1   7   0.0042   0.0091   0.0095   0.0014  -0.0081  -0.0012   0.00    3.4
2173  22806.000   -205922.3014  -4516301.0296   4484350.8087   1   7   0.0034   0.0091   0.0094   0.0017  -0.0080  -0.0019   0.00    3.4
2173  22807.000   -205922.3020  -4516301.0245   4484350.8056   1   7   0.0045   0.0092   0.0096   0.0005  -0.0078  -0.0012   0.00    3.4
2173  22808.000   -205922.2998  -4516301.0295   4484350.8101   1   7   0.0042   0.0092   0.0094   0.0013  -0.0080  -0.0009   0.00    3.4
2173  22809.000   -205922.2980  -4516301.0231   4484350.8005   1   7   0.0046   0.0093   0.0095   0.0006  -0.0078  -0.0010   0.00    3.4
2173  22810.000   -205922.3000  -4516301.0241   4484350.8032   1   7   0.0040   0.0090   0.0092   0.0017  -0.0081   0.0008   0.00    3.4
2173  22811.000   -205922.3017  -4516301.0240   4484350.8024   1   7   0.0046   0.0091   0.0092   0.0009  -0.0080   0.0014   0.00    3.4
2173  22812.000   -205922.2977  -4516301.0203   4484350.7990   1   7   0.0041   0.0093   0.0097   0.0013  -0.0077  -0.0014   0.00    3.4
2173  22813.000   -205922.2985  -4516301.0233   4484350.8027   1   7   0.0038   0.0092   0.0094   0.0015  -0.0081  -0.0017   0.00    3.4
2173  22814.000   -205922.2964  -4516301.0221   4484350.8012   1   7   0.0043   0.0092   0.0095  -0.0006  -0.0078  -0.0015   0.00    3.4
2173  22815.000   -205922.2991  -4516301.0194   4484350.7967   1   7   0.0038   0.0093   0.0096   0.0008  -0.0077  -0.0022   0.00    3.4
2173  22816.000   -205922.2982  -4516301.0216   4484350.8005   1   7   0.0041   0.0092   0.0097   0.0009  -0.0078  -0.0020   0.00    3.4
2173  22817.000   -205922.2968  -4516301.0206   4484350.7983   1   7   0.0044   0.0092   0.0094   0.0007  -0.0079  -0.0014   0.00    3.4
2173  22818.000   -205922.2964  -4516301.0173   4484350.7961   1   7   0.0046   0.0092   0.0096   0.0018  -0.0079  -0.0016   0.00    3.4
2173  22819.000   -205922.2970  -4516301.0176   4484350.7939   1   7   0.0047   0.0092   0.0096   0.0004  -0.0079  -0.0019   0.00    3.4
2173  22820.000   -205922.2978  -4516301.0140   4484350.7902   1   7   0.0039   0.0091   0.0093   0.0015  -0.0080   0.0004   0.00    3.4
2173  22821.000   -205922.2958  -4516301.0172   4484350.7958   1   7   0.0044   0.0092   0.0095   0.0003  -0.0078  -0.0016   0.00    3.4
2173  22822.000   -205922.2975  -4516301.0150   4484350.7934   1   7   0.0039   0.0091   0.0091   0.0012  -0.0081  -0.0004   0.00    3.4
2173  22823.000   -205922.2960  -4516301.0092   4484350.7881   1   7   0.0044   0.0091   0.0092   0.0015  -0.0081  -0.0012   0.00    3.4
2173  22824.000   -205922.2946  -4516301.0127   4484350.7925   1   7   0.0040   0.0092   0.0094   0.0007  -0.0080  -0.0020   0.00    3.4
2173  22825.000   -205922.2961  -4516301.0144   4484350.7919   1   7   0.0038   0.0092   0.0096  -0.0010  -0.0079  -0.0016   0.00    3.4
2173  22826.000   -205922.2950  -4516301.0138   4484350.7937   1   7   0.0038   0.0091   0.0094   0.0010  -0.0080  -0.0008   0.00    3.4
2173  22827.000   -205922.2927  -4516301.0141   4484350.7943   1   7   0.0049   0.0091   0.0092   0.0015  -0.0080   0.0007   0.00    3.4
2173  22828.000   -205922.2940  -4516301.0186   4484350.7954   1   7   0.0047   0.0093   0.0094   0.0007  -0.0078  -0.0014   0.00    3.4
2173  22829.000   -205922.2912  -4516301.0157   4484350.7951   1   7   0.0046   0.0092   0.0095   0.0008  -0.0079  -0.0018   0.00    3.4
2173  22830.000   -205922.2925  -4516301.0139   4484350.7922   1   7   0.0042   0.0091   0.0092   0.0013  -0.0081  -0.0011   0.00    3.4
2173  22831.000   -205922.2932  -4516301.0186   4484350.7951   1   7   0.0044   0.0091   0.0094   0.0011  -0.0080  -0.0010   0.00    3.4
2173  22832.000   -205922.2924  -4516301.0157   4484350.7950   1   7   0.0039   0.0092   0.0095   0.0009  -0.0079  -0.0015   0.00    3.5
2173  22833.000   -205922.2947  -4516301.0176   4484350.7941   1   7   0.0040   0.0092   0.0094   0.0008  -0.0079  -0.0012   0.00    3.5
2173  22834.000   -205922.2921  -4516301.0206   4484350.7958   1   7   0.0042   0.0091   0.0094   0.0014  -0.0081  -0.0011   0.00    3.5
2173  22835.000   -205922.2948  -4516301.0206   4484350.7962   1   7   0.0044   0.0090   0.0093   0.0017  -0.0081   0.0009   0.00    3.5
2173  22836.000   -205922.2945  -4516301.0243   4484350.8031   1   7   0.0047   0.0091   0.0093   0.0013  -0.0080  -0.0016   0.00    3.5
2173  22837.000   -205922.2976  -4516301.0213   4484350.7985   1   7   0.0042   0.0092   0.0095   0.0010  -0.0080  -0.0021   0.00    3.5
2173  22838.000   -205922.2965  -4516301.0268   4484350.8037   1   7   0.0039   0.0092   0.0094   0.0017  -0.0080   0.0014   0.00    3.5
2173  22839.000   -205922.2951  -4516301.0152   4484350.7934   1   7   0.0046   0.0092   0.0096  -0.0008  -0.0078  -0.0008   0.00    3.5
2173  22840.000   -205922.2943  -4516301.0205   4484350.7987   1   7   0.0038   0.0091   0.0093   0.0017  -0.0080  -0.0008   0.00    3.5
2173  22841.000   -205922.2964  -4516301.0218   4484350.7994   1   7   0.0039   0.0091   0.0095   0.0015  -0.0080  -0.0013   0.00    3.5
2173  22842.000   -205922.2952  -4516301.0165   4484350.7954   1   7   0.0039   0.0092   0.0093   0.0012  -0.0079  -0.0012   0.00    3.5
2173  22843.000   -205922.2941  -4516301.0216   4484350.8000   1   7   0.0041   0.0092   0.0095   0.0006  -0.0078  -0.0016   0.00    3.5
2173  22844.000   -205922.2934  -4516301.0236   4484350.8026   1   7   0.0041   0.0091   0.0095   0.0016  -0.0080  -0.0020   0.00    3.5
2173  22845.000   -205922.2943  -4516301.0240   4484350.8038   1   7   0.0043   0.0091   0.0095   0.0004  -0.0079  -0.0017   0.00    3.5
2173  22846.000   -205922.2929  -4516301.0184   4484350.7987   1   7   0.0044   0.0092   0.0097  -0.0010  -0.0078  -0.0017   0.00    3.5
2173  22847.000   -205922.2909  -4516301.0231   4484350.8032   1   7   0.0044   0.0091   0.0091   0.0015  -0.0081  -0.0007   0.00    3.6
2173  22848.000   -205922.2937  -4516301.0256   4484350.8038   1   7   0.0043   0.0092   0.0094   0.0012  -0.0079  -0.0016   0.00    3.6
2173  22849.000   -205922.2903  -4516301.0207   4484350.7947   1   7   0.0044   0.0092   0.0092   0.0006  -0.0079   0.0009   0.00    3.6
2173  22850.000   -205922.2925  -4516301.0151   4484350.7944   1   7   0.0045   0.0091   0.0094   0.0011  -0.0079  -0.0011   0.00    3.6
2173  22851.000   -205922.2934  -4516301.0246   4484350.7948   1   7   0.0046   0.0092   0.0095   0.0005  -0.0079  -0.0014   0.00    3.6
2173  22852.000   -205922.2926  -4516301.0169   4484350.7937   1   7   0.0039   0.0092   0.0094   0.0016  -0.0079  -0.0009   0.00    3.6
2173  22853.000   -205922.2947  -4516301.0195   4484350.7973   1   7   0.0048   0.0091   0.0092   0.0008  -0.0079   0.0007   0.00    3.6
2173  22854.000   -205922.2914  -4516301.0184   4484350.7971   1   7   0.0049   0.0091   0.0093   0.0002  -0.0080  -0.0010   0.00    3.6
2173  22855.000   -205922.2926  -4516301.0237   4484350.8044   1   7   0.0044   0.0092   0.0096  -0.0008  -0.0078  -0.0018   0.00    3.6
2173  22856.000   -205922.2918  -4516301.0211   4484350.7990   1   7   0.0037   0.0091   0.0093   0.0021  -0.0081  -0.0014   0.00    3.6
2173  22857.000   -205922.2913  -4516301.0220   4484350.7997   1   7   0.0041   0.0091   0.0093  -0.0006  -0.0080  -0.0009   0.00    3.6
2173  22858.000   -205922.2915  -4516301.0230   4484350.8014   1   7   0.0045   0.0091   0.0093   0.0013  -0.0080  -0.0011   0.00    3.6
2173  22859.000   -205922.2927  -4516301.0252   4484350.8016   1   7   0.0039   0.0091   0.0094   0.0017  -0.0080  -0.0013   0.00    3.6
2173  22860.000   -205922.2878  -4516301.0192   4484350.7982   1   7   0.0043   0.0092   0.0094   0.0006  -0.0078  -0.0007   0.00    3.6
2173  22861.000   -205922.2894  -4516301.0208   4484350.8003   1   7   0.0040   0.0092   0.0095   0.0006  -0.0078  -0.0022   0.00    3.6
2173  22862.000   -205922.2899  -4516301.0161   4484350.7971   1   7   0.0041   0.0091   0.0093   0.0013  -0.0080   0.0012   0.00    3.6
2173  22863.000   -205922.2923  -4516301.0113   4484350.7928   1   7   0.0039   0.0091   0.0093   0.0010  -0.0080  -0.0007   0.00    3.6
2173  22864.000   -205922.2912  -4516301.0248   4484350.8007   1   7   0.0043   0.0091   0.0093   0.0013  -0.0080   0.0004   0.00    3.6
2173  22865.000   -205922.2905  -4516301.0268   4484350.8026   1   7   0.0044   0.0092   0.0093   0.0015  -0.0079   0.0006   0.00    3.6
2173  22866.000   -205922.2889  -4516301.0222   4484350.8002   1   7   0.0040   0.0091   0.0094   0.0009  -0.0079  -0.0010   0.00    3.6
2173  22867.000   -205922.2890  -4516301.0162   4484350.7959   1   7   0.0042   0.0090   0.0094   0.0012  -0.0079  -0.0010   0.00    3.6
2173  22868.000   -205922.2875  -4516301.0190   4484350.7974   1   7   0.0041   0.0092   0.0093   0.0007  -0.0078  -0.0010   0.00    3.6
2173  22869.000   -205922.2929  -4516301.0118   4484350.7941   1   7   0.0041   0.0091   0.0093   0.0009  -0.0079   0.0010   0.00    3.6
2173  22870.000   -205922.2890  -4516301.0166   4484350.7992   1   7   0.0035   0.0091   0.0093   0.0021  -0.0080  -0.0018   0.00    3.6
2173  22871.000   -205922.2898  -4516301.0104   4484350.7913   1   7   0.0043   0.0092   0.0093   0.0010  -0.0079  -0.0009   0.00    3.6
2173  22872.000   -205922.2909  -4516301.0119   4484350.7982   1   7   0.0039   0.0092   0.0094   0.0010  -0.0078  -0.0011   0.00    3.6
2173  22873.000   -205922.2930  -4516301.0073   4484350.7937   1   7   0.0041   0.0092   0.0094   0.0012  -0.0079  -0.0020   0.00    3.6
2173  22874.000   -205922.2887  -4516301.0147   4484350.7914   1   7   0.0042   0.0091   0.0092   0.0004  -0.0080  -0.0006   0.00    3.6
2173  22875.000   -205922.2879  -4516301.0210   4484350.7934   1   7   0.0038   0.0091   0.0093   0.0015  -0.0080  -0.0014   0.00    3.7
2173  22876.000   -205922.2907  -4516301.0163   4484350.7947   1   7   0.0046   0.0092   0.0093   0.0012  -0.0078  -0.0016   0.00    3.7
2173  22877.000   -205922.2886  -4516301.0145   4484350.7901   1   7   0.0041   0.0091   0.0094   0.0012  -0.0079  -0.0017   0.00    3.7
2173  22878.000   -205922.2895  -4516301.0119   4484350.7886   1   7   0.0045   0.0092   0.0094  -0.0006  -0.0078  -0.0020   0.00    3.7
2173  22879.000   -205922.2906  -4516301.0123   4484350.7887   1   7   0.0044   0.0092   0.0095  -0.0014  -0.0078  -0.0022   0.00    3.7
2173  22880.000   -205922.2902  -4516301.0158   4484350.7893   1   7   0.0041   0.0092   0.0094   0.0006  -0.0078  -0.0014   0.00    3.7
2173  22881.000   -205922.2878  -4516301.0169   4484350.7927   1   7   0.0045   0.0092   0.0094   0.0012  -0.0078  -0.0014   0.00    3.7
2173  22882.000   -205922.2916  -4516301.0121   4484350.7913   1   7   0.0041   0.0092   0.0094   0.0014  -0.0079  -0.0012   0.00    3.7
2173  22883.000   -205922.2903  -4516301.0172   4484350.7940   1   7   0.0046   0.0092   0.0093   0.0005  -0.0078   0.0007   0.00    3.7
2173  22884.000   -205922.2898  -4516301.0250   4484350.7987   1   7   0.0045   0.0092   0.0095   0.0003  -0.0078  -0.0021   0.00    3.7
2173  22885.000   -205922.2911  -4516301.0205   4484350.7970   1   7   0.0042   0.0092   0.0095   0.0012  -0.0078  -0.0020   0.00    3.7
2173  22886.000   -205922.2906  -4516301.0145   4484350.7898   1   7   0.0041   0.0092   0.0095   0.0007  -0.0078  -0.0017   0.00    3.7
2173  22887.000   -205922.2923  -4516301.0184   4484350.7918   1   7   0.0040   0.0090   0.0093   0.0013  -0.0080   0.0005   0.00    3.7
2173  22888.000   -205922.2908  -4516301.0185   4484350.7979   1   7   0.0044   0.0092   0.0093   0.0006  -0.0077  -0.0017   0.00    3.7
2173  22889.000   -205922.2930  -4516301.0105   4484350.7890   1   7   0.0045   0.0090   0.0093   0.0019  -0.0079   0.0018   0.00    3.7
2173  22890.000   -205922.2931  -4516301.0075   4484350.7870   1   7   0.0042   0.0092   0.0094  -0.0009  -0.0078  -0.0020   0.00    3.7
2173  22891.000   -205922.2930  -4516301.0082   4484350.7898   1   7   0.0038   0.0092   0.0094   0.0011  -0.0077  -0.0018   0.00    3.7
2173  22892.000   -205922.2924  -4516301.0141   4484350.7950   1   7   0.0039   0.0091   0.0095   0.0013  -0.0079  -0.0013   0.00    3.7
2173  22893.000   -205922.2926  -4516301.0031   4484350.7845   1   7   0.0043   0.0091   0.0093   0.0010  -0.0079  -0.0010   0.00    3.7
2173  22894.000   -205922.2938  -4516301.0064   4484350.7893   1   7   0.0039   0.0092   0.0094   0.0012  -0.0079  -0.0013   0.00    3.7
2173  22895.000   -205922.2930  -4516301.0031   4484350.7847   1   7   0.0043   0.0092   0.0095   0.0004  -0.0078  -0.0020   0.00    3.7
2173  22896.000   -205922.2945  -4516301.0037   4484350.7850   1   7   0.0042   0.0091   0.0093   0.0010  -0.0079  -0.0005   0.00    3.7
2173  22897.000   -205922.2927  -4516300.9949   4484350.7778   1   7   0.0042   0.0091   0.0093   0.0010  -0.0079  -0.0011   0.00    3.7
2173  22898.000   -205922.2935  -4516301.0006   4484350.7828   1   7   0.0045   0.0091   0.0092   0.0009  -0.0079   0.0010   0.00    3.7
2173  22899.000   -205922.2944  -4516301.0043   4484350.7848   1   7   0.0043   0.0091   0.0092   0.0015  -0.0079   0.0016   0.00    3.7
2173  22900.000   -205922.2941  -4516301.0029   4484350.7858   1   7   0.0047   0.0092   0.0093   0.0012  -0.0078  -0.0014   0.00    3.7
2173  22901.000   -205922.2954  -4516300.9998   4484350.7855   1   7   0.0044   0.0091   0.0095  -0.0010  -0.0078  -0.0014   0.00    3.7
2173  22902.000   -205922.2926  -4516301.0065   4484350.7918   1   7   0.0045   0.0091   0.0092   0.0010  -0.0078  -0.0015   0.00    3.7
2173  22903.000   -205922.2943  -4516301.0003   4484350.7879   1   7   0.0046   0.0092   0.0095   0.0007  -0.0077  -0.0019   0.00    3.7
2173  22904.000   -205922.2960  -4516301.0056   4484350.7878   1   7   0.0046   0.0092   0.0094  -0.0007  -0.0078  -0.0011   0.00    3.7
2173  22905.000   -205922.2946  -4516301.0069   4484350.7906   1   7   0.0045   0.0091   0.0091   0.0016  -0.0079  -0.0002   0.00    3.7
2173  22906.000   -205922.2942  -4516301.0063   4484350.7870   1   7   0.0042   0.0091   0.0092   0.0017  -0.0079  -0.0009   0.00    3.7
2173  22907.000   -205922.2962  -4516301.0059   4484350.7920   1   7   0.0045   0.0091   0.0092   0.0009  -0.0079  -0.0010   0.00    3.7
2173  22908.000   -205922.2937  -4516301.0021   4484350.7903   1   7   0.0040   0.0091   0.0092  -0.0007  -0.0079  -0.0012   0.00    3.7
2173  22909.000   -205922.2944  -4516301.0036   4484350.7876   1   7   0.0042   0.0092   0.0095  -0.0007  -0.0077  -0.0013   0.00    3.7
2173  22910.000   -205922.2925  -4516301.0051   4484350.7864   1   7   0.0046   0.0092   0.0093  -0.0007  -0.0078  -0.0005   0.00    3.7
2173  22911.000   -205922.2935  -4516300.9996   4484350.7885   1   7   0.0042   0.0091   0.0095   0.0010  -0.0078   0.0006   0.00    3.6
2173  22912.000   -205922.2924  -4516300.9998   4484350.7838   1   7   0.0038   0.0090   0.0092   0.0016  -0.0080  -0.0011   0.00    3.6
2173  22913.000   -205922.2934  -4516301.0036   4484350.7869   1   7   0.0044   0.0092   0.0094  -0.0011  -0.0078  -0.0015   0.00    3.6
2173  22914.000   -205922.2952  -4516300.9972   4484350.7821   1   7   0.0044   0.0091   0.0092   0.0016  -0.0080  -0.0008   0.00    3.6
2173  22915.000   -205922.2969  -4516301.0031   4484350.7892   1   7   0.0041   0.0091   0.0091   0.0016  -0.0080  -0.0006   0.00    3.6
2173  22916.000   -205922.2978  -4516300.9943   4484350.7788   1   7   0.0043   0.0091   0.0093   0.0013  -0.0079  -0.0015   0.00    3.6
2173  22917.000   -205922.2950  -4516300.9959   4484350.7796   1   7   0.0040   0.0091   0.0094  -0.0008  -0.0078  -0.0022   0.00    3.6
2173  22918.000   -205922.2961  -4516300.9948   4484350.7842   1   7   0.0039   0.0091   0.0095   0.0004  -0.0078  -0.0018   0.00    3.6
2173  22919.000   -205922.2983  -4516300.9943   4484350.7838   1   7   0.0040   0.0091   0.0092   0.0019  -0.0079  -0.0004   0.00    3.6
2173  22920.000   -205922.2997  -4516300.9939   4484350.7821   1   7   0.0048   0.0091   0.0091  -0.0004  -0.0078   0.0001   0.00    3.6
2173  22921.000   -205922.2978  -4516300.9991   4484350.7876   1   7   0.0038   0.0092   0.0095   0.0013  -0.0078  -0.0013   0.00    3.6
2173  22922.000   -205922.2950  -4516300.9958   4484350.7889   1   7   0.0042   0.0091   0.0094   0.0012  -0.0078  -0.0012   0.00    3.6
2173  22923.000   -205922.2961  -4516300.9915   4484350.7839   1   7   0.0042   0.0092   0.0093  -0.0005  -0.0078  -0.0020   0.00    3.6
2173  22924.000   -205922.2957  -4516301.0001   4484350.7924   1   7   0.0046   0.0091   0.0094   0.0013  -0.0079  -0.0018   0.00    3.6
2173  22925.000   -205922.2998  -4516301.0023   4484350.7938   1   7   0.0042   0.0092   0.0094   0.0011  -0.0078  -0.0021   0.00    3.5
2173  22926.000   -205922.2974  -4516300.9949   4484350.7900   1   7   0.0044   0.0091   0.0092  -0.0009  -0.0080  -0.0013   0.00    3.5
2173  22927.000   -205922.2957  -4516300.9956   4484350.7906   1   7   0.0047   0.0092   0.0094   0.0010  -0.0078  -0.0013   0.00    3.5
2173  22928.000   -205922.2985  -4516300.9999   4484350.7877   1   7   0.0041   0.0091   0.0094   0.0003  -0.0078  -0.0014   0.00    3.5
2173  22929.000   -205922.2956  -4516300.9896   4484350.7767   1   7   0.0042   0.0091   0.0092   0.0010  -0.0078  -0.0009   0.00    3.5
2173  22930.000   -205922.2996  -4516300.9868   4484350.7775   1   7   0.0043   0.0091   0.0093   0.0010  -0.0079  -0.0020   0.00    3.5
2173  22931.000   -205922.3009  -4516300.9914   4484350.7813   1   7   0.0037   0.0090   0.0092   0.0014  -0.0080  -0.0011   0.00    3.5
2173  22932.000   -205922.3007  -4516300.9902   4484350.7816   1   7   0.0045   0.0092   0.0093   0.0005  -0.0078  -0.0019   0.00    3.5
2173  22933.000   -205922.3013  -4516300.9879   4484350.7806   1   7   0.0047   0.0091   0.0092  -0.0008  -0.0077  -0.0014   0.00    3.5
2173  22934.000   -205922.3026  -4516300.9951   4484350.7848   1   7   0.0047   0.0092   0.0092  -0.0006  -0.0078  -0.0009   0.00    3.5
2173  22935.000   -205922.3034  -4516300.9875   4484350.7790   1   7   0.0043   0.0091   0.0091   0.0012  -0.0079  -0.0010   0.00    3.5
2173  22936.000   -205922.3041  -4516300.9909   4484350.7799   1   7   0.0036   0.0091   0.0092   0.0016  -0.0078  -0.0010   0.00    3.5
2173  22937.000   -205922.3037  -4516300.9932   4484350.7889   1   7   0.0045   0.0091   0.0094   0.0007  -0.0077  -0.0013   0.00    3.5
2173  22938.000   -205922.3051  -4516300.9932   4484350.7889   1   7   0.0044   0.0090   0.0092   0.0006  -0.0080   0.0006   0.00    3.5
2173  22939.000   -205922.3047  -4516300.9821   4484350.7770   1   7   0.0047   0.0090   0.0093   0.0014  -0.0081  -0.0018   0.00    3.5
2173  22940.000   -205922.3046  -4516300.9876   4484350.7847   1   7   0.0046   0.0091   0.0091   0.0016  -0.0080  -0.0006   0.00    3.5
2173  22941.000   -205922.3045  -4516300.9860   4484350.7813   1   7   0.0044   0.0091   0.0094  -0.0010  -0.0077  -0.0015   0.00    3.5
2173  22942.000   -205922.3068  -4516300.9886   4484350.7829   1   7   0.0045   0.0091   0.0091   0.0017  -0.0078  -0.0013   0.00    3.5
2173  22943.000   -205922.3066  -4516300.9813   4484350.7796   1   7   0.0038   0.0091   0.0091   0.0015  -0.0080  -0.0016   0.00    3.5
2173  22944.000   -205922.3059  -4516300.9840   4484350.7822   1   7   0.0039   0.0091   0.0094   0.0014  -0.0078  -0.0022   0.00    3.5
2173  22945.000   -205922.3058  -4516300.9881   4484350.7815   1   7   0.0039   0.0091   0.0093   0.0016  -0.0079  -0.0011   0.00    3.5
2173  22946.000   -205922.3037  -4516300.9827   4484350.7765   1   7   0.0035   0.0091   0.0091   0.0017  -0.0079  -0.0014   0.00    3.5
2173  22947.000   -205922.3073  -4516300.9814   4484350.7799   1   7   0.0044   0.0091   0.0093   0.0005  -0.0078  -0.0005   0.00    3.5
2173  22948.000   -205922.3051  -4516300.9772   4484350.7748   1   7   0.0042   0.0091   0.0093   0.0018  -0.0078  -0.0019   0.00    3.5
2173  22949.000   -205922.3073  -4516300.9699   4484350.7664   1   7   0.0043   0.0090   0.0094   0.0016  -0.0079  -0.0014   0.00    3.5
2173  22950.000   -205922.3064  -4516300.9774   4484350.7711   1   7   0.0046   0.0092   0.0096  -0.0010  -0.0077  -0.0030   0.00    3.5
2173  22951.000   -205922.3078  -4516300.9788   4484350.7730   1   7   0.0038   0.0091   0.0091   0.0004  -0.0078  -0.0014   0.00    3.5
2173  22952.000   -205922.3072  -4516300.9803   4484350.7736   1   7   0.0040   0.0091   0.0092   0.0014  -0.0078  -0.0014   0.00    3.5
2173  22953.000   -205922.3063  -4516300.9788   4484350.7731   1   7   0.0043   0.0091   0.0094   0.0008  -0.0078  -0.0018   0.00    3.5
2173  22954.000   -205922.3068  -4516300.9783   4484350.7716   1   7   0.0046   0.0091   0.0095   0.0015  -0.0077  -0.0014   0.00    3.4
2173  22955.000   -205922.3082  -4516300.9756   4484350.7770   1   7   0.0040   0.0091   0.0092   0.0013  -0.0079  -0.0020   0.00    3.4
2173  22956.000   -205922.3048  -4516300.9765   4484350.7713   1   7   0.0041   0.0091   0.0092   0.0016  -0.0078   0.0010   0.00    3.4
2173  22957.000   -205922.3076  -4516300.9764   4484350.7722   1   7   0.0042   0.0091   0.0094   0.0009  -0.0078  -0.0009   0.00    3.4
2173  22958.000   -205922.3080  -4516300.9774   4484350.7737   1   7   0.0044   0.0091   0.0092  -0.0010  -0.0077  -0.0015   0.00    3.4
2173  22959.000   -205922.3073  -4516300.9770   4484350.7696   1   7   0.0046   0.0091   0.0094  -0.0012  -0.0078  -0.0024   0.00    3.4
2173  22960.000   -205922.3081  -4516300.9718   4484350.7648   1   7   0.0044   0.0091   0.0094   0.0014  -0.0078  -0.0012   0.00    3.4
2173  22961.000   -205922.3063  -4516300.9706   4484350.7646   1   7   0.0046   0.0091   0.0094   0.0010  -0.0078  -0.0011   0.00    3.4
2173  22962.000   -205922.3077  -4516300.9688   4484350.7624   1   7   0.0035   0.0090   0.0090   0.0019  -0.0080   0.0009   0.00    3.4
2173  22963.000   -205922.3103  -4516300.9715   4484350.7622   1   7   0.0047   0.0091   0.0091  -0.0005  -0.0079  -0.0004   0.00    3.4
2173  22964.000   -205922.3063  -4516300.9748   4484350.7634   1   7   0.0043   0.0091   0.0090   0.0013  -0.0079   0.0004   0.00    3.4
2173  22965.000   -205922.3050  -4516300.9731   4484350.7646   1   7   0.0044   0.0090   0.0090   0.0012  -0.0079   0.0016   0.00    3.4
2173  22966.000   -205922.3042  -4516300.9778   4484350.7677   1   7   0.0051   0.0092   0.0094  -0.0003  -0.0076  -0.0019   0.00    3.4
2173  22967.000   -205922.3060  -4516300.9746   4484350.7647   1   7   0.0048   0.0091   0.0091  -0.0010  -0.0077  -0.0016   0.00    3.4
2173  22968.000   -205922.3045  -4516300.9806   4484350.7687   1   7   0.0043   0.0091   0.0090   0.0007  -0.0078  -0.0008   0.00    3.4
2173  22969.000   -205922.3066  -4516300.9714   4484350.7640   1   7   0.0043   0.0091   0.0093   0.0014  -0.0079  -0.0016   0.00    3.4
2173  22970.000   -205922.3061  -4516300.9798   4484350.7683   1   7   0.0045   0.0091   0.0093   0.0004  -0.0077  -0.0010   0.00    3.4
2173  22971.000   -205922.3072  -4516300.9769   4484350.7668   1   7   0.0042   0.0091   0.0092  -0.0006  -0.0078  -0.0011   0.00    3.4
2173  22972.000   -205922.3058  -4516300.9780   4484350.7656   1   7   0.0046   0.0091   0.0092   0.0011  -0.0078   0.0011   0.00    3.4
2173  22973.000   -205922.3049  -4516300.9787   4484350.7655   1   7   0.0043   0.0091   0.0090  -0.0007  -0.0078  -0.0004   0.00    3.4
2173  22974.000   -205922.3048  -4516300.9835   4484350.7672   1   7   0.0042   0.0091   0.0089   0.0013  -0.0079   0.0008   0.00    3.4
2173  22975.000   -205922.3065  -4516300.9850   4484350.7698   1   7   0.0037   0.0091   0.0093   0.0014  -0.0077  -0.0018   0.00    3.4
2173  22976.000   -205922.3059  -4516300.9879   4484350.7709   1   7   0.0040   0.0092   0.0094   0.0010  -0.0077  -0.0029   0.00    3.4
2173  22977.000   -205922.3047  -4516300.9880   4484350.7690   1   7   0.0049   0.0091   0.0091   0.0005  -0.0078  -0.0005   0.00    3.4
2173  22978.000   -205922.3078  -4516300.9927   4484350.7753   1   7   0.0045   0.0091   0.0094  -0.0005  -0.0077  -0.0018   0.00    3.4
2173  22979.000   -205922.3062  -4516300.9852   4484350.7667   1   7   0.0048   0.0090   0.0090   0.0008  -0.0078   0.0008   0.00    3.4
2173  22980.000   -205922.3050  -4516300.9883   4484350.7709   1   7   0.0041   0.0091   0.0092  -0.0015  -0.0077  -0.0025   0.00    3.4
2173  22981.000   -205922.3083  -4516300.9872   4484350.7705   1   7   0.0044   0.0091   0.0094   0.0014  -0.0078  -0.0022   0.00    3.4
2173  22982.000   -205922.3068  -4516300.9873   4484350.7708   1   7   0.0043   0.0091   0.0092   0.0009  -0.0078   0.0009   0.00    3.4
2173  22983.000   -205922.3085  -4516300.9851   4484350.7684   1   7   0.0041   0.0091   0.0093   0.0017  -0.0078  -0.0020   0.00    3.4
2173  22984.000   -205922.3064  -4516300.9868   4484350.7718   1   7   0.0045   0.0091   0.0093   0.0018  -0.0077  -0.0008   0.00    3.4
2173  22985.000   -205922.3070  -4516300.9861   4484350.7721   1   7   0.0045   0.0090   0.0091   0.0012  -0.0078   0.0006   0.00    3.4
2173  22986.000   -205922.3084  -4516300.9886   4484350.7728   1   7   0.0039   0.0090   0.0092   0.0013  -0.0078  -0.0014   0.00    3.4
2173  22987.000   -205922.3077  -4516300.9874   4484350.7756   1   7   0.0040   0.0091   0.0092   0.0004  -0.0077  -0.0014   0.00    3.4
2173  22988.000   -205922.3059  -4516300.9824   4484350.7704   1   7   0.0044   0.0091   0.0092   0.0012  -0.0078  -0.0016   0.00    3.4
2173  22989.000   -205922.3086  -4516300.9897   4484350.7715   1   7   0.0045   0.0091   0.0093   0.0016  -0.0077  -0.0017   0.00    3.4
2173  22990.000   -205922.3099  -4516300.9849   4484350.7682   1   7   0.0043   0.0091   0.0090   0.0009  -0.0078   0.0005   0.00    3.4
2173  22991.000   -205922.3085  -4516300.9892   4484350.7725   1   7   0.0045   0.0091   0.0093  -0.0003  -0.0077  -0.0024   0.00    3.4
2173  22992.000   -205922.3070  -4516300.9873   4484350.7698   1   7   0.0047   0.0090   0.0092   0.0014  -0.0079  -0.0008   0.00    3.4
2173  22993.000   -205922.3089  -4516300.9782   4484350.7648   1   7   0.0041   0.0090   0.0091   0.0015  -0.0079  -0.0009   0.00    3.4
2173  22994.000   -205922.3089  -4516300.9878   4484350.7729   1   7   0.0041   0.0090   0.0092   0.0008  -0.0078  -0.0015   0.00    3.4
2173  22995.000   -205922.3067  -4516300.9877   4484350.7738   1   7   0.0046   0.0091   0.0091   0.0007  -0.0078  -0.0015   0.00    3.4
2173  22996.000   -205922.3071  -4516300.9908   4484350.7736   1   7   0.0042   0.0091   0.0091   0.0014  -0.0078  -0.0011   0.00    3.4
2173  22997.000   -205922.3062  -4516300.9895   4484350.7700   1   7   0.0040   0.0091   0.0090   0.0018  -0.0078  -0.0008   0.00    3.4
2173  22998.000   -205922.3073  -4516300.9857   4484350.7727   1   7   0.0048   0.0090   0.0091   0.0008  -0.0078   0.0018   0.00    3.4
2173  22999.000   -205922.3083  -4516300.9866   4484350.7697   1   7   0.0038   0.0091   0.0089   0.0021  -0.0079   0.0009   0.00    3.4
2173  23000.000   -205922.3079  -4516300.9931   4484350.7750   1   7   0.0041   0.0091   0.0095   0.0008  -0.0077  -0.0022   0.00    3.4
2173  23001.000   -205922.3091  -4516300.9943   4484350.7781   1   7   0.0047   0.0092   0.0091   0.0009  -0.0077  -0.0010   0.00    3.4
2173  23002.000   -205922.3076  -4516300.9881   4484350.7729   1   7   0.0043   0.0092   0.0093   0.0011  -0.0076  -0.0018   0.00    3.4
2173  23003.000   -205922.3091  -4516300.9885   4484350.7727   1   7   0.0046   0.0091   0.0090   0.0011  -0.0076  -0.0013   0.00    3.4
2173  23004.000   -205922.3056  -4516300.9846   4484350.7702   1   7   0.0035   0.0091   0.0091  -0.0002  -0.0078  -0.0017   0.00    3.4
2173  23005.000   -205922.3087  -4516300.9819   4484350.7693   1   7   0.0037   0.0091   0.0088   0.0012  -0.0079   0.0003   0.00    3.4
2173  23006.000   -205922.3118  -4516300.9874   4484350.7722   1   7   0.0042   0.0091   0.0091   0.0007  -0.0078  -0.0011   0.00    3.4
2173  23007.000   -205922.3065  -4516300.9843   4484350.7699   1   7   0.0043   0.0092   0.0093   0.0015  -0.0076  -0.0014   0.00    3.4
2173  23008.000   -205922.3108  -4516300.9858   4484350.7710   1   7   0.0048   0.0092   0.0095   0.0009  -0.0075  -0.0017   0.00    3.4
2173  23009.000   -205922.3088  -4516300.9842   4484350.7713   1   7   0.0043   0.0091   0.0091   0.0013  -0.0077  -0.0009   0.00    3.4
2173  23010.000   -205922.3067  -4516300.9864   4484350.7741   1   7   0.0048   0.0091   0.0091   0.0000  -0.0078  -0.0013   0.00    3.4
2173  23011.000   -205922.3049  -4516300.9913   4484350.7797   1   7   0.0044   0.0090   0.0093   0.0016  -0.0078  -0.0015   0.00    3.4
2173  23012.000   -205922.3033  -4516300.9891   4484350.7776   1   7   0.0043   0.0091   0.0090   0.0012  -0.0078   0.0009   0.00    3.4
2173  23013.000   -205922.3047  -4516300.9879   4484350.7744   1   7   0.0045   0.0091   0.0092   0.0005  -0.0077  -0.0014   0.00    3.4
2173  23014.000   -205922.3069  -4516300.9869   4484350.7750   1   7   0.0044   0.0090   0.0090   0.0021  -0.0079   0.0011   0.00    3.4
2173  23015.000   -205922.3099  -4516300.9876   4484350.7771   1   7   0.0045   0.0091   0.0093   0.0010  -0.0077  -0.0015   0.00    3.4
2173  23016.000   -205922.3057  -4516300.9910   4484350.7761   1   7   0.0044   0.0091   0.0092  -0.0013  -0.0076  -0.0025   0.00    3.4
2173  23017.000   -205922.3099  -4516300.9875   4484350.7738   1   7   0.0051   0.0092   0.0092   0.0004  -0.0076  -0.0021   0.00    3.4
2173  23018.000   -205922.3071  -4516300.9912   4484350.7781   1   7   0.0044   0.0091   0.0096   0.0012  -0.0076  -0.0023   0.00    3.4
2173  23019.000   -205922.3097  -4516300.9870   4484350.7783   1   7   0.0041   0.0091   0.0091  -0.0002  -0.0077  -0.0016   0.00    3.4
2173  23020.000   -205922.3081  -4516300.9806   4484350.7707   1   7   0.0039   0.0091   0.0093  -0.0004  -0.0077  -0.0010   0.00    3.4
2173  23021.000   -205922.3123  -4516300.9852   4484350.7718   1   7   0.0040   0.0091   0.0089   0.0010  -0.0078  -0.0008   0.00    3.4
2173  23022.000   -205922.3089  -4516300.9906   4484350.7770   1   7   0.0042   0.0091   0.0091   0.0016  -0.0078  -0.0010   0.00    3.4
2173  23023.000   -205922.3107  -4516300.9858   4484350.7763   1   7   0.0044   0.0091   0.0093   0.0001  -0.0076  -0.0023   0.00    3.4
2173  23024.000   -205922.3073  -4516300.9952   4484350.7764   1   7   0.0047   0.0091   0.0090   0.0016  -0.0077   0.0002   0.00    3.5
2173  23025.000   -205922.3108  -4516300.9922   4484350.7752   1   7   0.0041   0.0090   0.0091   0.0009  -0.0078  -0.0012   0.00    3.5
2173  23026.000   -205922.3093  -4516300.9942   4484350.7748   1   7   0.0043   0.0092   0.0093  -0.0005  -0.0076  -0.0018   0.00    3.5
2173  23027.000   -205922.3060  -4516300.9891   4484350.7720   1   7   0.0041   0.0091   0.0093   0.0006  -0.0077  -0.0019   0.00    3.5
2173  23028.000   -205922.3076  -4516300.9932   4484350.7763   1   7   0.0043   0.0091   0.0091   0.0014  -0.0077  -0.0012   0.00    3.5
2173  23029.000   -205922.3082  -4516300.9929   4484350.7763   1   7   0.0041   0.0091   0.0092   0.0017  -0.0077  -0.0015   0.00    3.5
2173  23030.000   -205922.3098  -4516300.9927   4484350.7759   1   7   0.0042   0.0091   0.0094   0.0018  -0.0077  -0.0018   0.00    3.5
2173  23031.000   -205922.3080  -4516300.9903   4484350.7772   1   7   0.0042   0.0091   0.0092   0.0006  -0.0076  -0.0012   0.00    3.5
2173  23032.000   -205922.3062  -4516300.9903   4484350.7785   1   7   0.0041   0.0090   0.0090   0.0019  -0.0079  -0.0002   0.00    3.5
2173  23033.000   -205922.3073  -4516300.9904   4484350.7729   1   7   0.0048   0.0091   0.0093   0.0012  -0.0076  -0.0020   0.00    3.5
2173  23034.000   -205922.3047  -4516300.9919   4484350.7732   1   7   0.0046   0.0090   0.0091   0.0009  -0.0077  -0.0018   0.00    3.6
