% program   : rnx2rtkp ver.2.4.3 b31
% inp file  : ngs/21_08_31_22_24_12_kybo.obs
% inp file  : ngs/21_08_31_22_24_12_kybo_P1.obs
% inp file  : ngs/21_08_31_22_24_12_brdc.nav
% obs start : 2021/08/31 22:00:00.0 GPST (week2173 252000.0s)
% obs end   : 2021/08/31 22:59:59.0 GPST (week2173 255599.0s)
% ref pos   :   495425.7010  -4931892.1650   4000830.6630
%
% (x/y/z-ecef=WGS84,Q=1:fix,2:float,3:sbas,4:dgps,5:single,6:ppp,ns=# of satellites)
%  GPST              x-ecef(m)      y-ecef(m)      z-ecef(m)   Q  ns   sdx(m)   sdy(m)   sdz(m)  sdxy(m)  sdyz(m)  sdzx(m) age(s)  ratio
2173 253427.000    456195.9470  -4939807.3573   3995771.4558   2   8   0.4973   0.8221   0.7238  -0.2767  -0.4288   0.3795 -30.00    1.4
2173 253428.000    456196.0021  -4939807.3764   3995771.4357   2   8   0.3547   0.5856   0.5164  -0.1971  -0.3042   0.2712 -29.00    1.3
2173 253429.000    456195.9674  -4939807.4546   3995771.4451   2   8   0.2906   0.4795   0.4231  -0.1613  -0.2489   0.2223 -28.00    1.3
2173 253430.000    456195.9122  -4939807.4107   3995771.3690   2   8   0.2521   0.4160   0.3672  -0.1400  -0.2159   0.1930 -27.00    1.3
2173 253431.000    456195.9089  -4939807.3870   3995771.3583   2   8   0.2258   0.3726   0.3289  -0.1253  -0.1933   0.1729 -26.00    1.3
2173 253432.000    456195.8814  -4939807.4292   3995771.3748   2   8   0.2063   0.3404   0.3005  -0.1145  -0.1767   0.1580 -25.00    1.2
2173 253433.000    456195.8975  -4939807.4453   3995771.3782   2   8   0.1912   0.3154   0.2784  -0.1061  -0.1637   0.1464 -24.00    1.2
2173 253434.000    456195.8884  -4939807.4541   3995771.3544   2   8   0.1789   0.2951   0.2606  -0.0993  -0.1532   0.1370 -23.00    1.2
2173 253435.000    456195.8851  -4939807.5037   3995771.3814   2   8   0.1688   0.2784   0.2458  -0.0936  -0.1445   0.1292 -22.00    1.2
2173 253436.000    456195.8875  -4939807.5263   3995771.3865   2   8   0.1601   0.2642   0.2333  -0.0889  -0.1371   0.1226 -21.00    1.2
2173 253437.000    456195.8846  -4939807.5556   3995771.3927   2   8   0.1527   0.2519   0.2225  -0.0847  -0.1308   0.1169 -20.00    1.1
2173 253438.000    456195.8892  -4939807.5826   3995771.4003   2   8   0.1462   0.2412   0.2130  -0.0811  -0.1252   0.1120 -19.00    1.1
2173 253439.000    456195.8810  -4939807.5990   3995771.4087   2   8   0.1405   0.2317   0.2047  -0.0780  -0.1203   0.1076 -18.00    1.1
2173 253440.000    456195.8765  -4939807.6303   3995771.4098   2   8   0.1354   0.2233   0.1972  -0.0751  -0.1159   0.1037 -17.00    1.0
2173 253441.000    456195.8679  -4939807.6369   3995771.4288   2   8   0.1308   0.2157   0.1905  -0.0726  -0.1120   0.1002 -16.00    1.0
2173 253442.000    456195.8723  -4939807.6368   3995771.4289   2   8   0.1266   0.2088   0.1844  -0.0703  -0.1084   0.0970 -15.00    1.0
2173 253443.000    456195.8665  -4939807.6534   3995771.4323   2   8   0.1229   0.2025   0.1789  -0.0681  -0.1051   0.0941 -14.00    1.0
2173 253444.000    456195.8774  -4939807.6572   3995771.4533   2   8   0.1194   0.1967   0.1738  -0.0662  -0.1021   0.0914 -13.00    1.0
2173 253445.000    456195.8844  -4939807.6816   3995771.4534   2   8   0.1162   0.1914   0.1692  -0.0644  -0.0994   0.0890 -12.00    1.0
2173 253446.000    456195.8808  -4939807.6900   3995771.4710   2   8   0.1132   0.1865   0.1648  -0.0628  -0.0968   0.0867 -11.00    1.0
2173 253447.000    456195.8744  -4939807.6784   3995771.4674   2   8   0.1105   0.1819   0.1608  -0.0613  -0.0945   0.0846 -10.00    1.0
2173 253448.000    456195.8755  -4939807.6884   3995771.4707   2   8   0.1079   0.1777   0.1571  -0.0598  -0.0923   0.0826  -9.00    1.0
2173 253449.000    456195.8746  -4939807.6887   3995771.4669   2   8   0.1055   0.1737   0.1535  -0.0585  -0.0902   0.0808  -8.00    1.0
2173 253450.000    456195.8821  -4939807.6968   3995771.4750   2   8   0.1032   0.1700   0.1503  -0.0572  -0.0883   0.0791  -7.00    1.0
2173 253451.000    456195.8826  -4939807.7112   3995771.4740   2   8   0.1011   0.1665   0.1472  -0.0561  -0.0864   0.0775  -6.00    1.1
2173 253452.000    456195.8754  -4939807.7319   3995771.4744   2   8   0.0992   0.1632   0.1443  -0.0550  -0.0847   0.0759  -5.00    1.0
2173 253453.000    456195.8650  -4939807.7308   3995771.4797   2   8   0.0973   0.1601   0.1415  -0.0539  -0.0831   0.0745  -4.00    1.0
2173 253454.000    456195.8655  -4939807.7331   3995771.4717   2   8   0.0955   0.1571   0.1389  -0.0529  -0.0816   0.0732  -3.00    1.0
2173 253455.000    456195.8589  -4939807.7340   3995771.4738   2   8   0.0938   0.1544   0.1364  -0.0520  -0.0802   0.0719  -2.00    1.0
2173 253456.000    456195.8604  -4939807.7505   3995771.4676   2   8   0.0923   0.1517   0.1341  -0.0511  -0.0788   0.0706  -1.00    1.0
2173 253457.000    456195.8595  -4939807.7453   3995771.4633   2   8   0.0907   0.1492   0.1319  -0.0503  -0.0775   0.0695   0.00    1.0
2173 253458.000    456195.8545  -4939808.1598   3995771.4427   2   8   0.4962   0.8195   0.7207  -0.2746  -0.4279   0.3788   0.00    1.4
2173 253459.000    456195.8543  -4939807.9179   3995771.8442   2   8   0.4962   0.8195   0.7207  -0.2746  -0.4278   0.3788   0.00    1.4
2173 253460.000    456195.7546  -4939807.6527   3995771.4989   2   8   0.4962   0.8194   0.7206  -0.2745  -0.4278   0.3788   0.00    1.3
2173 253461.000    456195.8596  -4939807.7637   3995771.4725   2   8   0.4961   0.8194   0.7205  -0.2745  -0.4278   0.3788   0.00    1.2
2173 253462.000    456195.6218  -4939807.7606   3995771.6589   2   8   0.4961   0.8193   0.7204  -0.2744  -0.4278   0.3788   0.00    1.5
2173 253463.000    456195.6809  -4939807.7569   3995771.2001   2   8   0.4961   0.8193   0.7204  -0.2743  -0.4278   0.3788   0.00    1.3
2173 253464.000    456195.5966  -4939808.0505   3995771.1919   2   8   0.4961   0.8192   0.7203  -0.2743  -0.4278   0.3787   0.00    1.1
2173 253465.000    456195.9188  -4939808.2214   3995771.2332   2   8   0.4961   0.8192   0.7202  -0.2742  -0.4278   0.3787   0.00    1.2
2173 253466.000    456195.8643  -4939808.0622   3995771.1590   2   8   0.4961   0.8191   0.7201  -0.2742  -0.4278   0.3787   0.00    1.0
2173 253467.000    456195.6296  -4939807.7990   3995771.4195   2   8   0.4961   0.8191   0.7201  -0.2741  -0.4278   0.3787   0.00    1.3
2173 253468.000    456195.4434  -4939807.8806   3995771.1478   2   8   0.4960   0.8190   0.7200  -0.2741  -0.4278   0.3787   0.00    1.3
2173 253469.000    456195.9073  -4939808.4425   3995771.7777   2   8   0.4960   0.8190   0.7199  -0.2740  -0.4278   0.3787   0.00    1.3
2173 253470.000    456195.9345  -4939808.1754   3995771.5683   2   8   0.4960   0.8189   0.7198  -0.2740  -0.4278   0.3786   0.00    1.2
2173 253471.000    456195.4744  -4939807.5688   3995771.3999   2   8   0.4960   0.8189   0.7198  -0.2739  -0.4278   0.3786   0.00    1.3
2173 253472.000    456195.5612  -4939807.4300   3995771.0956   2   8   0.4960   0.8188   0.7197  -0.2739  -0.4278   0.3786   0.00    1.1
2173 253473.000    456195.4653  -4939807.7985   3995771.1474   2   8   0.4960   0.8188   0.7196  -0.2738  -0.4278   0.3786   0.00    1.4
2173 253474.000    456195.4038  -4939807.8086   3995771.4360   2   8   0.4959   0.8187   0.7196  -0.2738  -0.4278   0.3786   0.00    1.4
2173 253475.000    456195.5930  -4939807.8692   3995771.3582   2   8   0.4959   0.8187   0.7195  -0.2737  -0.4278   0.3786   0.00    1.2
2173 253476.000    456195.5017  -4939808.0029   3995771.3932   2   8   0.4959   0.8186   0.7194  -0.2737  -0.4278   0.3786   0.00    1.2
2173 253477.000    456195.4767  -4939808.0875   3995771.3560   2   8   0.4959   0.8186   0.7193  -0.2736  -0.4278   0.3785   0.00    1.1
2173 253478.000    456195.6976  -4939808.1542   3995771.4052   2   8   0.4959   0.8185   0.7193  -0.2736  -0.4278   0.3785   0.00    1.2
2173 253479.000    456195.9300  -4939807.7681   3995771.5189   2   8   0.4959   0.8185   0.7192  -0.2735  -0.4278   0.3785   0.00    1.4
2173 253480.000    456195.9438  -4939807.7454   3995771.2819   2   8   0.4959   0.8184   0.7191  -0.2734  -0.4278   0.3785   0.00    1.1
2173 253481.000    456195.6719  -4939807.3485   3995771.0088   2   8   0.4958   0.8184   0.7190  -0.2734  -0.4278   0.3785   0.00    1.2
2173 253482.000    456195.7141  -4939807.6143   3995771.2435   2   8   0.4958   0.8183   0.7190  -0.2733  -0.4277   0.3785   0.00    1.4
2173 253483.000    456195.5523  -4939807.3728   3995770.9388   2   8   0.4958   0.8183   0.7189  -0.2733  -0.4277   0.3785   0.00    1.5
2173 253484.000    456195.8394  -4939807.4136   3995771.1478   2   8   0.4958   0.8182   0.7188  -0.2732  -0.4277   0.3784   0.00    1.4
2173 253485.000    456195.4720  -4939807.4528   3995771.2596   2   8   0.4958   0.8181   0.7188  -0.2732  -0.4277   0.3784   0.00    1.4
2173 253486.000    456195.3842  -4939807.4214   3995771.2725   2   8   0.4958   0.8181   0.7187  -0.2731  -0.4277   0.3784   0.00    1.5
2173 253487.000    456195.5550  -4939807.5611   3995771.3375   2   8   0.4957   0.8180   0.7186  -0.2731  -0.4277   0.3784   0.00    1.7
2173 253488.000    456195.4794  -4939807.5575   3995771.3451   2   8   0.4957   0.8180   0.7185  -0.2730  -0.4277   0.3784   0.00    1.6
2173 253489.000    456195.7517  -4939807.3849   3995771.4441   2   8   0.4957   0.8179   0.7185  -0.2730  -0.4277   0.3784   0.00    1.4
2173 253490.000    456195.7155  -4939807.5121   3995771.4296   2   8   0.4957   0.8179   0.7184  -0.2729  -0.4277   0.3784   0.00    1.4
2173 253491.000    456195.7123  -4939807.6740   3995771.3861   2   8   0.4957   0.8179   0.7183  -0.2729  -0.4277   0.3783   0.00    1.4
2173 253492.000    456195.6498  -4939807.6487   3995771.5558   2   8   0.4957   0.8178   0.7182  -0.2728  -0.4277   0.3783   0.00    1.4
2173 253493.000    456195.6111  -4939807.5750   3995771.5224   2   8   0.3533   0.5819   0.5119  -0.1940  -0.3030   0.2702   1.00    1.5
2173 253494.000    456195.5771  -4939807.4973   3995771.4347   2   8   0.2892   0.4761   0.4191  -0.1587  -0.2476   0.2213   2.00    1.5
2173 253495.000    456195.5496  -4939807.4955   3995771.3862   2   8   0.2508   0.4127   0.3634  -0.1376  -0.2145   0.1920   3.00    1.6
2173 253496.000    456195.5557  -4939807.4818   3995771.3738   2   8   0.2245   0.3694   0.3253  -0.1232  -0.1919   0.1719   4.00    1.7
2173 253497.000    456195.5863  -4939807.5535   3995771.4020   2   8   0.2051   0.3374   0.2971  -0.1125  -0.1753   0.1570   5.00    1.7
2173 253498.000    456195.5773  -4939807.5883   3995771.3989   2   8   0.1900   0.3125   0.2752  -0.1042  -0.1623   0.1454   6.00    1.8
2173 253499.000    456195.5620  -4939807.6233   3995771.4198   2   8   0.1778   0.2924   0.2575  -0.0975  -0.1519   0.1361   7.00    1.9
2173 253500.000    456195.5549  -4939807.6075   3995771.4169   2   8   0.1677   0.2757   0.2428  -0.0920  -0.1433   0.1283   8.00    1.9
2173 253501.000    456195.5495  -4939807.5874   3995771.3998   2   8   0.1591   0.2617   0.2304  -0.0873  -0.1360   0.1218   9.00    2.0
2173 253502.000    456195.5476  -4939807.6021   3995771.4319   2   8   0.1518   0.2496   0.2198  -0.0832  -0.1298   0.1162  10.00    2.0
2173 253503.000    456195.5512  -4939807.5964   3995771.4499   2   8   0.1454   0.2391   0.2105  -0.0797  -0.1243   0.1112  11.00    2.1
2173 253504.000    456195.5349  -4939807.5843   3995771.4397   2   8   0.1398   0.2298   0.2023  -0.0767  -0.1196   0.1069  12.00    2.2
2173 253505.000    456195.5391  -4939807.5775   3995771.4231   2   8   0.1347   0.2216   0.1951  -0.0739  -0.1153   0.1030  13.00    2.2
2173 253506.000    456195.5346  -4939807.5835   3995771.4222   2   8   0.1303   0.2142   0.1886  -0.0715  -0.1115   0.0996  14.00    2.2
2173 253507.000    456195.5214  -4939807.5806   3995771.4026   2   8   0.1262   0.2075   0.1827  -0.0692  -0.1081   0.0965  15.00    2.2
2173 253508.000    456195.5146  -4939807.5682   3995771.4092   2   8   0.1225   0.2015   0.1774  -0.0672  -0.1050   0.0936  16.00    2.2
2173 253509.000    456195.5114  -4939807.5553   3995771.3976   2   8   0.1192   0.1960   0.1725  -0.0654  -0.1022   0.0910  17.00    2.3
2173 253510.000    456195.5099  -4939807.5580   3995771.4100   2   8   0.1161   0.1910   0.1680  -0.0637  -0.0997   0.0887  18.00    2.3
2173 253511.000    456195.5068  -4939807.5702   3995771.4084   2   8   0.1132   0.1864   0.1639  -0.0622  -0.0973   0.0865  19.00    2.3
2173 253512.000    456195.5126  -4939807.5673   3995771.4116   2   8   0.1106   0.1821   0.1602  -0.0607  -0.0952   0.0845  20.00    2.3
