% program   : rnx2rtkp ver.2.4.3 b31
% inp file  : ngs/21_08_29_19_40_15_ict5.obs
% inp file  : ngs/21_08_29_19_40_15_ict5_SNKS.obs
% inp file  : ngs/21_08_29_19_40_15_brdc.nav
% obs start : 2021/08/29 19:00:00.0 GPST (week2173  68400.0s)
% obs end   : 2021/08/29 19:59:59.0 GPST (week2173  71999.0s)
% ref pos   :  -669742.3736  -5002336.9278   3886758.1830
%
% (x/y/z-ecef=WGS84,Q=1:fix,2:float,3:sbas,4:dgps,5:single,6:ppp,ns=# of satellites)
%  GPST              x-ecef(m)      y-ecef(m)      z-ecef(m)   Q  ns   sdx(m)   sdy(m)   sdz(m)  sdxy(m)  sdyz(m)  sdzx(m) age(s)  ratio
2173  70792.000   -669785.8573  -5002659.6831   3887010.9265   2   8   0.4392   0.8545   0.6401   0.2818  -0.4721  -0.0170 -30.00    1.6
2173  70793.000   -669785.8651  -5002659.6881   3887010.9283   2   8   0.3126   0.6086   0.4558   0.2008  -0.3350  -0.0092 -29.00    1.6
2173  70794.000   -669785.8606  -5002659.6739   3887010.9223   2   8   0.2559   0.4984   0.3732   0.1645  -0.2741  -0.0063 -28.00    1.6
2173  70795.000   -669785.8638  -5002659.6731   3887010.9192   2   8   0.2220   0.4324   0.3238   0.1427  -0.2377  -0.0047 -27.00    1.7
2173  70796.000   -669785.8652  -5002659.6725   3887010.9171   2   8   0.1988   0.3872   0.2900   0.1278  -0.2129  -0.0036 -26.00    1.7
2173  70797.000   -669785.8630  -5002659.6628   3887010.9142   2   8   0.1817   0.3538   0.2650   0.1167  -0.1945  -0.0027 -25.00    1.7
2173  70798.000   -669785.8629  -5002659.6542   3887010.9108   2   8   0.1683   0.3278   0.2455   0.1082  -0.1802  -0.0017 -24.00    1.7
2173  70799.000   -669785.8634  -5002659.6477   3887010.9071   2   8   0.1576   0.3067   0.2298   0.1012  -0.1687   0.0003 -23.00    1.8
2173  70800.000   -669785.8622  -5002659.6403   3887010.9068   2   8   0.1486   0.2893   0.2168   0.0955  -0.1591   0.0016 -22.00    1.7
2173  70801.000   -669785.8601  -5002659.6400   3887010.9048   2   8   0.1410   0.2745   0.2057   0.0906  -0.1509   0.0021 -21.00    1.7
2173  70802.000   -669785.8592  -5002659.6336   3887010.9018   2   8   0.1345   0.2618   0.1962   0.0864  -0.1439   0.0025 -20.00    1.7
2173  70803.000   -669785.8579  -5002659.6286   3887010.9031   2   8   0.1288   0.2506   0.1878   0.0827  -0.1378   0.0028 -19.00    1.7
2173  70804.000   -669785.8558  -5002659.6145   3887010.9006   2   8   0.1237   0.2408   0.1805   0.0794  -0.1323   0.0030 -18.00    1.7
2173  70805.000   -669785.8515  -5002659.6091   3887010.9011   2   8   0.1192   0.2320   0.1739   0.0765  -0.1275   0.0032 -17.00    1.7
2173  70806.000   -669785.8485  -5002659.6036   3887010.9007   2   8   0.1151   0.2241   0.1680   0.0739  -0.1231   0.0034 -16.00    1.7
2173  70807.000   -669785.8456  -5002659.5973   3887010.9014   2   8   0.1115   0.2169   0.1626   0.0716  -0.1191   0.0035 -15.00    1.7
2173  70808.000   -669785.8419  -5002659.5920   3887010.9008   2   8   0.1081   0.2104   0.1577   0.0694  -0.1155   0.0036 -14.00    1.7
2173  70809.000   -669785.8401  -5002659.5794   3887010.8997   2   8   0.1050   0.2044   0.1532   0.0674  -0.1122   0.0037 -13.00    1.7
2173  70810.000   -669785.8378  -5002659.5751   3887010.9017   2   8   0.1022   0.1988   0.1491   0.0656  -0.1091   0.0039 -12.00    1.7
2173  70811.000   -669785.8346  -5002659.5675   3887010.8984   2   8   0.0996   0.1937   0.1453   0.0639  -0.1063   0.0039 -11.00    1.7
2173  70812.000   -669785.8306  -5002659.5570   3887010.8963   2   8   0.0972   0.1889   0.1417   0.0623  -0.1036   0.0039 -10.00    1.7
2173  70813.000   -669785.8289  -5002659.5526   3887010.8947   2   8   0.0949   0.1845   0.1384   0.0609  -0.1012   0.0041  -9.00    1.8
2173  70814.000   -669785.8257  -5002659.5403   3887010.8936   2   8   0.0928   0.1803   0.1353   0.0595  -0.0989   0.0041  -8.00    1.8
2173  70815.000   -669785.8210  -5002659.5338   3887010.8899   2   8   0.0908   0.1764   0.1324   0.0582  -0.0967   0.0041  -7.00    1.8
2173  70816.000   -669785.8175  -5002659.5239   3887010.8885   2   8   0.0889   0.1728   0.1296   0.0570  -0.0947   0.0043  -6.00    1.8
2173  70817.000   -669785.8133  -5002659.5143   3887010.8845   2   8   0.0872   0.1693   0.1271   0.0558  -0.0928   0.0043  -5.00    1.8
2173  70818.000   -669785.8098  -5002659.5028   3887010.8775   2   8   0.0855   0.1661   0.1246   0.0548  -0.0910   0.0044  -4.00    1.8
2173  70819.000   -669785.8059  -5002659.4948   3887010.8741   2   8   0.0840   0.1630   0.1223   0.0537  -0.0893   0.0045  -3.00    1.8
2173  70820.000   -669785.8018  -5002659.4853   3887010.8704   2   8   0.0825   0.1601   0.1202   0.0528  -0.0876   0.0045  -2.00    1.7
2173  70821.000   -669785.7994  -5002659.4757   3887010.8612   2   8   0.0811   0.1573   0.1181   0.0518  -0.0861   0.0045  -1.00    1.6
2173  70822.000   -669785.7968  -5002659.4685   3887010.8574   2   8   0.0798   0.1547   0.1162   0.0510  -0.0847   0.0045   0.00    1.6
2173  70823.000   -669785.7935  -5002659.4566   3887010.8528   2   8   0.0785   0.1522   0.1143   0.0502  -0.0833   0.0043   0.00    1.5
2173  70824.000   -669785.7896  -5002659.4458   3887010.8466   2   8   0.0773   0.1498   0.1125   0.0494  -0.0820   0.0045   0.00    1.4
2173  70825.000   -669785.7866  -5002659.4369   3887010.8414   2   8   0.0762   0.1475   0.1108   0.0486  -0.0807   0.0043   0.00    1.4
2173  70826.000   -669785.7833  -5002659.4274   3887010.8372   2   8   0.0751   0.1453   0.1092   0.0479  -0.0795   0.0044   0.00    1.3
2173  70827.000   -669785.7822  -5002659.4181   3887010.8324   2   8   0.0740   0.1432   0.1077   0.0472  -0.0784   0.0044   0.00    1.3
2173  70828.000   -669785.7804  -5002659.4153   3887010.8360   2   8   0.0730   0.1412   0.1062   0.0465  -0.0773   0.0045   0.00    1.3
2173  70829.000   -669785.7774  -5002659.4072   3887010.8295   2   8   0.0720   0.1393   0.1047   0.0459  -0.0762   0.0043   0.00    1.3
2173  70830.000   -669785.7778  -5002659.4062   3887010.8272   2   8   0.0711   0.1374   0.1033   0.0452  -0.0752   0.0043   0.00    1.2
2173  70831.000   -669785.7771  -5002659.4043   3887010.8237   2   8   0.0702   0.1356   0.1020   0.0446  -0.0742   0.0042   0.00    1.2
2173  70832.000   -669785.7750  -5002659.4038   3887010.8198   2   8   0.0694   0.1339   0.1007   0.0440  -0.0732   0.0045   0.00    1.2
2173  70833.000   -669785.7761  -5002659.4008   3887010.8185   2   8   0.0685   0.1322   0.0995   0.0434  -0.0723   0.0044   0.00    1.2
2173  70834.000   -669785.7761  -5002659.4004   3887010.8163   2   8   0.0677   0.1306   0.0982   0.0429  -0.0714   0.0041   0.00    1.2
2173  70835.000   -669785.7760  -5002659.3975   3887010.8132   2   8   0.0669   0.1290   0.0971   0.0423  -0.0705   0.0042   0.00    1.2
2173  70836.000   -669785.7746  -5002659.4002   3887010.8128   2   8   0.0662   0.1275   0.0959   0.0418  -0.0697   0.0043   0.00    1.2
2173  70837.000   -669785.7750  -5002659.3945   3887010.8054   2   8   0.0654   0.1260   0.0948   0.0413  -0.0689   0.0044   0.00    1.2
2173  70838.000   -669785.7773  -5002659.3924   3887010.8009   2   8   0.0647   0.1245   0.0938   0.0408  -0.0681   0.0041   0.00    1.1
2173  70839.000   -669785.7772  -5002659.3923   3887010.7995   2   8   0.0641   0.1231   0.0927   0.0404  -0.0673   0.0042   0.00    1.1
2173  70840.000   -669785.7750  -5002659.3896   3887010.7987   2   8   0.0634   0.1218   0.0917   0.0399  -0.0666   0.0042   0.00    1.1
2173  70841.000   -669785.7750  -5002659.3896   3887010.7998   2   8   0.0628   0.1204   0.0907   0.0394  -0.0658   0.0041   0.00    1.1
2173  70842.000   -669785.7758  -5002659.3875   3887010.7960   2   8   0.0621   0.1191   0.0898   0.0390  -0.0651   0.0040   0.00    1.1
2173  70843.000   -669785.7757  -5002659.3837   3887010.7909   2   8   0.0615   0.1179   0.0889   0.0386  -0.0644   0.0040   0.00    1.1
2173  70844.000   -669785.7765  -5002659.3819   3887010.7882   2   8   0.0609   0.1167   0.0879   0.0381  -0.0638   0.0042   0.00    1.1
2173  70845.000   -669785.7761  -5002659.3851   3887010.7879   2   8   0.0604   0.1155   0.0871   0.0377  -0.0631   0.0038   0.00    1.1
2173  70846.000   -669785.7778  -5002659.3856   3887010.7845   2   8   0.0598   0.1143   0.0862   0.0373  -0.0625   0.0041   0.00    1.1
2173  70847.000   -669785.7783  -5002659.3854   3887010.7816   2   8   0.0593   0.1131   0.0853   0.0369  -0.0618   0.0040   0.00    1.1
2173  70848.000   -669785.7790  -5002659.3856   3887010.7789   2   8   0.0587   0.1120   0.0845   0.0365  -0.0612   0.0037   0.00    1.1
2173  70849.000   -669785.7827  -5002659.3906   3887010.7722   2   8   0.0583   0.1110   0.0837   0.0361  -0.0606   0.0038   0.00    1.1
2173  70850.000   -669785.7834  -5002659.3974   3887010.7711   2   8   0.0577   0.1099   0.0829   0.0358  -0.0600   0.0034   0.00    1.1
2173  70851.000   -669785.7859  -5002659.4024   3887010.7700   2   8   0.0572   0.1088   0.0821   0.0354  -0.0594   0.0036   0.00    1.1
2173  70852.000   -669785.7862  -5002659.4078   3887010.7663   2   8   0.0567   0.1078   0.0814   0.0350  -0.0589   0.0035   0.00    1.1
2173  70853.000   -669785.7881  -5002659.4079   3887010.7640   2   8   0.0563   0.1068   0.0806   0.0347  -0.0583   0.0035   0.00    1.1
2173  70854.000   -669785.7874  -5002659.4090   3887010.7614   2   8   0.0558   0.1058   0.0799   0.0343  -0.0578   0.0032   0.00    1.1
2173  70855.000   -669785.7900  -5002659.4103   3887010.7593   2   8   0.0553   0.1048   0.0792   0.0340  -0.0573   0.0032   0.00    1.0
2173  70856.000   -669785.7900  -5002659.4170   3887010.7542   2   8   0.0549   0.1039   0.0785   0.0336  -0.0567   0.0034   0.00    1.0
2173  70857.000   -669785.7913  -5002659.4179   3887010.7488   2   8   0.0545   0.1029   0.0778   0.0333  -0.0562   0.0035   0.00    1.0
2173  70858.000   -669785.7912  -5002659.4212   3887010.7485   2   8   0.0541   0.1020   0.0771   0.0330  -0.0557   0.0033   0.00    1.0
2173  70859.000   -669785.7936  -5002659.4167   3887010.7449   2   8   0.0537   0.1011   0.0765   0.0326  -0.0552   0.0029   0.00    1.0
2173  70860.000   -669785.7932  -5002659.4166   3887010.7424   2   8   0.0532   0.1002   0.0758   0.0323  -0.0547   0.0028   0.00    1.0
2173  70861.000   -669785.7938  -5002659.4136   3887010.7380   2   8   0.0529   0.0994   0.0752   0.0320  -0.0543   0.0028   0.00    1.0
2173  70862.000   -669785.7954  -5002659.4163   3887010.7345   2   8   0.0525   0.0985   0.0746   0.0317  -0.0538   0.0027   0.00    1.0
2173  70863.000   -669785.7983  -5002659.4218   3887010.7288   2   8   0.0521   0.0977   0.0739   0.0314  -0.0534   0.0026   0.00    1.0
2173  70864.000   -669785.7939  -5002659.4226   3887010.7260   2   8   0.0517   0.0968   0.0733   0.0311  -0.0529   0.0026   0.00    1.0
2173  70865.000   -669785.7947  -5002659.4234   3887010.7284   2   8   0.0514   0.0960   0.0727   0.0307  -0.0524   0.0025   0.00    1.0
2173  70866.000   -669785.7932  -5002659.4257   3887010.7269   2   8   0.0510   0.0952   0.0722   0.0304  -0.0520   0.0022   0.00    1.0
2173  70867.000   -669785.7940  -5002659.4296   3887010.7285   2   8   0.0507   0.0944   0.0716   0.0302  -0.0516   0.0017   0.00    1.0
2173  70868.000   -669785.7933  -5002659.4313   3887010.7248   2   8   0.0503   0.0937   0.0710   0.0299  -0.0512   0.0018   0.00    1.0
2173  70869.000   -669785.7984  -5002659.4335   3887010.7223   2   8   0.0500   0.0929   0.0704   0.0296  -0.0507   0.0013   0.00    1.0
2173  70870.000   -669785.7979  -5002659.4371   3887010.7226   2   8   0.0497   0.0921   0.0699   0.0293  -0.0503   0.0015   0.00    1.0
2173  70871.000   -669785.7988  -5002659.4396   3887010.7220   2   8   0.0493   0.0914   0.0693   0.0290  -0.0499   0.0016   0.00    1.0
2173  70872.000   -669785.8017  -5002659.4408   3887010.7181   2   8   0.0490   0.0906   0.0688   0.0288  -0.0495   0.0012   0.00    1.0
2173  70873.000   -669785.8012  -5002659.4474   3887010.7160   2   8   0.0487   0.0899   0.0683   0.0285  -0.0491  -0.0009   0.00    1.0
2173  70874.000   -669785.7994  -5002659.4419   3887010.7141   2   8   0.0484   0.0892   0.0677   0.0282  -0.0487  -0.0002   0.00    1.0
2173  70875.000   -669785.7983  -5002659.4390   3887010.7095   2   8   0.0481   0.0885   0.0672   0.0280  -0.0483   0.0010   0.00    1.0
2173  70876.000   -669785.7969  -5002659.4394   3887010.7084   2   8   0.0478   0.0878   0.0667   0.0277  -0.0480  -0.0003   0.00    1.0
2173  70877.000   -669785.7962  -5002659.4328   3887010.7054   2   8   0.0475   0.0871   0.0662   0.0275  -0.0476  -0.0016   0.00    1.0
2173  70878.000   -669785.7962  -5002659.4365   3887010.7022   2   8   0.0471   0.0864   0.0657   0.0272  -0.0472  -0.0015   0.00    1.0
2173  70879.000   -669785.7975  -5002659.4248   3887010.6968   2   7   0.0470   0.0860   0.0653   0.0267  -0.0470   0.0016   0.00    2.4
2173  70880.000   -669785.7965  -5002659.4291   3887010.6968   2   7   0.0467   0.0855   0.0648   0.0266  -0.0466   0.0016   0.00    2.3
2173  70881.000   -669785.7963  -5002659.4300   3887010.6940   2   7   0.0465   0.0851   0.0643   0.0263  -0.0463   0.0022   0.00    2.3
2173  70882.000   -669785.7973  -5002659.4255   3887010.6924   2   7   0.0462   0.0846   0.0639   0.0260  -0.0459   0.0023   0.00    2.3
2173  70883.000   -669785.7949  -5002659.4265   3887010.6897   2   7   0.0460   0.0842   0.0634   0.0258  -0.0456   0.0025   0.00    2.3
2173  70884.000   -669785.7934  -5002659.4315   3887010.6964   2   7   0.0457   0.0838   0.0629   0.0256  -0.0453   0.0025   0.00    2.3
2173  70885.000   -669785.7927  -5002659.4309   3887010.6937   2   7   0.0455   0.0833   0.0625   0.0253  -0.0449   0.0031   0.00    2.3
2173  70886.000   -669785.7929  -5002659.4335   3887010.6934   2   7   0.0453   0.0829   0.0621   0.0251  -0.0446   0.0029   0.00    2.3
2173  70887.000   -669785.7910  -5002659.4395   3887010.6909   2   7   0.0450   0.0825   0.0616   0.0249  -0.0443   0.0033   0.00    2.3
2173  70888.000   -669785.7906  -5002659.4451   3887010.6926   2   7   0.0448   0.0821   0.0612   0.0246  -0.0440   0.0031   0.00    2.3
2173  70889.000   -669785.7920  -5002659.4520   3887010.6931   2   7   0.0445   0.0816   0.0608   0.0245  -0.0436   0.0032   0.00    2.3
2173  70890.000   -669785.7916  -5002659.4526   3887010.6926   2   7   0.0444   0.0812   0.0604   0.0243  -0.0433   0.0033   0.00    2.3
2173  70891.000   -669785.7914  -5002659.4568   3887010.6900   2   7   0.0441   0.0808   0.0600   0.0240  -0.0430   0.0035   0.00    2.3
2173  70892.000   -669785.7902  -5002659.4631   3887010.6890   2   7   0.0440   0.0804   0.0595   0.0238  -0.0427   0.0036   0.00    2.3
2173  70893.000   -669785.7903  -5002659.4657   3887010.6903   2   7   0.0437   0.0800   0.0591   0.0236  -0.0424   0.0037   0.00    2.3
2173  70894.000   -669785.7891  -5002659.4717   3887010.6908   2   7   0.0435   0.0796   0.0587   0.0234  -0.0421   0.0038   0.00    2.3
2173  70895.000   -669785.7877  -5002659.4763   3887010.6909   2   7   0.0433   0.0792   0.0583   0.0232  -0.0418   0.0037   0.00    2.3
2173  70896.000   -669785.7848  -5002659.4822   3887010.6911   2   7   0.0431   0.0788   0.0579   0.0229  -0.0415   0.0040   0.00    2.3
2173  70897.000   -669785.7847  -5002659.4861   3887010.6893   2   7   0.0429   0.0784   0.0575   0.0228  -0.0411   0.0039   0.00    2.3
2173  70898.000   -669785.7828  -5002659.4951   3887010.6925   2   7   0.0427   0.0780   0.0571   0.0226  -0.0408   0.0040   0.00    2.3
2173  70899.000   -669785.7819  -5002659.4909   3887010.6958   2   7   0.0425   0.0776   0.0568   0.0224  -0.0406   0.0042   0.00    2.3
2173  70900.000   -669785.7818  -5002659.4969   3887010.6962   2   7   0.0424   0.0772   0.0564   0.0222  -0.0403   0.0041   0.00    2.3
2173  70901.000   -669785.7793  -5002659.5029   3887010.6996   2   7   0.0422   0.0768   0.0560   0.0220  -0.0400   0.0041   0.00    2.3
2173  70902.000   -669785.7764  -5002659.5070   3887010.7046   2   7   0.0420   0.0764   0.0557   0.0218  -0.0397   0.0041   0.00    2.3
2173  70903.000   -669785.7725  -5002659.5106   3887010.7055   2   7   0.0418   0.0760   0.0553   0.0217  -0.0394   0.0040   0.00    2.4
2173  70904.000   -669785.7770  -5002659.5146   3887010.7077   2   7   0.0416   0.0756   0.0549   0.0214  -0.0391   0.0041   0.00    2.4
2173  70905.000   -669785.7760  -5002659.5148   3887010.7087   2   7   0.0414   0.0753   0.0546   0.0213  -0.0388   0.0041   0.00    2.4
2173  70906.000   -669785.7735  -5002659.5150   3887010.7097   2   7   0.0413   0.0749   0.0542   0.0211  -0.0385   0.0043   0.00    2.4
2173  70907.000   -669785.7722  -5002659.5268   3887010.7155   2   7   0.0411   0.0745   0.0538   0.0209  -0.0383   0.0045   0.00    2.4
2173  70908.000   -669785.7732  -5002659.5355   3887010.7189   2   7   0.0409   0.0741   0.0535   0.0207  -0.0380   0.0042   0.00    2.4
2173  70909.000   -669785.7708  -5002659.5409   3887010.7221   2   7   0.0407   0.0737   0.0532   0.0206  -0.0377   0.0041   0.00    2.4
2173  70910.000   -669785.7656  -5002659.5373   3887010.7216   2   7   0.0406   0.0734   0.0528   0.0204  -0.0374   0.0044   0.00    2.4
2173  70911.000   -669785.7648  -5002659.5446   3887010.7262   2   7   0.0404   0.0730   0.0525   0.0202  -0.0372   0.0041   0.00    2.4
2173  70912.000   -669785.7627  -5002659.5515   3887010.7304   2   7   0.0402   0.0726   0.0521   0.0200  -0.0369   0.0042   0.00    2.4
2173  70913.000   -669785.7609  -5002659.5527   3887010.7311   2   7   0.0401   0.0723   0.0518   0.0199  -0.0366   0.0040   0.00    2.4
2173  70914.000   -669785.7581  -5002659.5552   3887010.7327   2   7   0.0399   0.0719   0.0515   0.0197  -0.0364   0.0043   0.00    2.4
2173  70915.000   -669785.7580  -5002659.5594   3887010.7362   2   7   0.0398   0.0716   0.0511   0.0195  -0.0361   0.0043   0.00    2.4
2173  70916.000   -669785.7553  -5002659.5673   3887010.7398   2   7   0.0396   0.0712   0.0508   0.0194  -0.0358   0.0041   0.00    2.4
2173  70917.000   -669785.7549  -5002659.5723   3887010.7438   2   7   0.0394   0.0709   0.0505   0.0192  -0.0356   0.0043   0.00    2.5
2173  70918.000   -669785.7514  -5002659.5785   3887010.7489   2   7   0.0393   0.0705   0.0502   0.0191  -0.0353   0.0042   0.00    2.5
2173  70919.000   -669785.7548  -5002659.5777   3887010.7481   2   7   0.0391   0.0701   0.0499   0.0189  -0.0351   0.0041   0.00    2.5
2173  70920.000   -669785.7529  -5002659.5791   3887010.7486   2   7   0.0390   0.0698   0.0496   0.0188  -0.0348   0.0041   0.00    2.5
2173  70921.000   -669785.7515  -5002659.5826   3887010.7497   2   7   0.0388   0.0694   0.0492   0.0186  -0.0346   0.0041   0.00    2.5
2173  70922.000   -669785.7496  -5002659.5894   3887010.7528   2   7   0.0386   0.0691   0.0489   0.0185  -0.0343   0.0041   0.00    2.5
2173  70923.000   -669785.7496  -5002659.5928   3887010.7558   2   7   0.0386   0.0688   0.0486   0.0182  -0.0341   0.0042   0.00    2.5
2173  70924.000   -669785.7487  -5002659.5930   3887010.7587   2   7   0.0384   0.0684   0.0483   0.0181  -0.0338   0.0041   0.00    2.5
2173  70925.000   -669785.7479  -5002659.5949   3887010.7590   2   7   0.0382   0.0681   0.0480   0.0179  -0.0336   0.0042   0.00    2.5
2173  70926.000   -669785.7428  -5002659.6039   3887010.7643   2   7   0.0381   0.0677   0.0477   0.0178  -0.0333   0.0040   0.00    2.5
2173  70927.000   -669785.7414  -5002659.6046   3887010.7661   2   7   0.0379   0.0674   0.0474   0.0177  -0.0331   0.0040   0.00    2.6
2173  70928.000   -669785.7401  -5002659.6103   3887010.7738   2   7   0.0379   0.0671   0.0471   0.0175  -0.0329   0.0039   0.00    2.6
2173  70929.000   -669785.7403  -5002659.6122   3887010.7762   2   7   0.0377   0.0667   0.0468   0.0174  -0.0326   0.0039   0.00    2.6
2173  70930.000   -669785.7383  -5002659.6207   3887010.7769   2   7   0.0376   0.0664   0.0466   0.0172  -0.0324   0.0042   0.00    2.6
2173  70931.000   -669785.7373  -5002659.6246   3887010.7838   2   7   0.0374   0.0661   0.0463   0.0171  -0.0322   0.0040   0.00    2.6
2173  70932.000   -669785.7350  -5002659.6213   3887010.7870   2   7   0.0373   0.0658   0.0460   0.0169  -0.0319   0.0040   0.00    2.6
2173  70933.000   -669785.7340  -5002659.6266   3887010.7881   2   7   0.0372   0.0654   0.0457   0.0168  -0.0317   0.0041   0.00    2.6
2173  70934.000   -669785.7315  -5002659.6255   3887010.7927   2   7   0.0370   0.0651   0.0455   0.0166  -0.0315   0.0038   0.00    2.7
2173  70935.000   -669785.7288  -5002659.6270   3887010.7952   2   7   0.0369   0.0648   0.0452   0.0166  -0.0312   0.0038   0.00    2.7
2173  70936.000   -669785.7287  -5002659.6311   3887010.7970   2   7   0.0368   0.0645   0.0449   0.0163  -0.0310   0.0039   0.00    2.7
2173  70937.000   -669785.7309  -5002659.6308   3887010.7974   2   7   0.0366   0.0642   0.0447   0.0163  -0.0308   0.0036   0.00    2.7
2173  70938.000   -669785.7259  -5002659.6379   3887010.8025   2   7   0.0365   0.0638   0.0444   0.0161  -0.0306   0.0037   0.00    2.7
2173  70939.000   -669785.7257  -5002659.6373   3887010.8051   2   7   0.0364   0.0635   0.0441   0.0160  -0.0304   0.0037   0.00    2.7
2173  70940.000   -669785.7239  -5002659.6436   3887010.8125   2   7   0.0363   0.0632   0.0439   0.0158  -0.0302   0.0038   0.00    2.7
2173  70941.000   -669785.7221  -5002659.6578   3887010.8210   2   7   0.0362   0.0629   0.0436   0.0157  -0.0300   0.0036   0.00    2.8
2173  70942.000   -669785.7208  -5002659.6525   3887010.8241   2   7   0.0361   0.0626   0.0433   0.0155  -0.0297   0.0037   0.00    2.8
2173  70943.000   -669785.7186  -5002659.6646   3887010.8330   2   7   0.0359   0.0623   0.0431   0.0154  -0.0295   0.0035   0.00    2.8
2173  70944.000   -669785.7180  -5002659.6671   3887010.8341   2   7   0.0358   0.0620   0.0428   0.0153  -0.0293   0.0038   0.00    2.9
2173  70945.000   -669785.7188  -5002659.6718   3887010.8373   2   7   0.0358   0.0617   0.0426   0.0151  -0.0291   0.0038   0.00    2.9
2173  70946.000   -669785.7166  -5002659.6798   3887010.8420   2   7   0.0356   0.0614   0.0423   0.0150  -0.0289   0.0036   0.00    2.9
2173  70947.000   -669785.7152  -5002659.6757   3887010.8422   2   7   0.0355   0.0611   0.0421   0.0149  -0.0287   0.0034   0.00    2.9
2173  70948.000   -669785.7146  -5002659.6759   3887010.8460   2   7   0.0353   0.0608   0.0419   0.0148  -0.0285   0.0032   0.00    2.9
2173  70949.000   -669785.7108  -5002659.6822   3887010.8570   2   7   0.0353   0.0605   0.0416   0.0146  -0.0283   0.0037   0.00    2.9
2173  70950.000   -669785.7108  -5002659.6848   3887010.8570   2   7   0.0351   0.0602   0.0414   0.0145  -0.0281   0.0035   0.00    3.0
2173  70951.000   -669785.7106  -5002659.6927   3887010.8644   2   7   0.0350   0.0600   0.0411   0.0144  -0.0279   0.0033   0.00    3.0
2173  70952.000   -669785.6064  -5002659.9017   3887010.7995   1   7   0.0048   0.0106   0.0068   0.0015  -0.0055   0.0014   0.00    3.0
2173  70953.000   -669785.6089  -5002659.8994   3887010.8012   1   7   0.0044   0.0106   0.0067   0.0016  -0.0055   0.0015   0.00    3.1
2173  70954.000   -669785.6068  -5002659.8958   3887010.8030   1   7   0.0045   0.0106   0.0067   0.0018  -0.0055   0.0014   0.00    3.1
2173  70955.000   -669785.6050  -5002659.9000   3887010.8052   1   7   0.0046   0.0106   0.0067   0.0020  -0.0055   0.0010   0.00    3.1
2173  70956.000   -669785.6060  -5002659.8970   3887010.8005   1   7   0.0047   0.0106   0.0068   0.0018  -0.0055   0.0012   0.00    3.1
2173  70957.000   -669785.6051  -5002659.9002   3887010.8048   1   7   0.0047   0.0106   0.0067   0.0011  -0.0055   0.0015   0.00    3.2
2173  70958.000   -669785.6051  -5002659.8996   3887010.8023   1   7   0.0043   0.0105   0.0069   0.0021  -0.0054   0.0010   0.00    3.2
2173  70959.000   -669785.6066  -5002659.8998   3887010.8032   1   7   0.0041   0.0105   0.0066   0.0020  -0.0054   0.0005   0.00    3.2
2173  70960.000   -669785.6087  -5002659.8993   3887010.8042   1   7   0.0048   0.0106   0.0068   0.0019  -0.0055   0.0015   0.00    3.2
2173  70961.000   -669785.6058  -5002659.9018   3887010.8058   1   7   0.0049   0.0106   0.0066   0.0011  -0.0055   0.0014   0.00    3.3
2173  70962.000   -669785.6062  -5002659.8963   3887010.8021   1   7   0.0044   0.0106   0.0067   0.0019  -0.0054   0.0014   0.00    3.3
2173  70963.000   -669785.6061  -5002659.8956   3887010.8021   1   7   0.0043   0.0106   0.0069   0.0022  -0.0055   0.0011   0.00    3.3
2173  70964.000   -669785.6045  -5002659.8906   3887010.7976   1   7   0.0044   0.0105   0.0067   0.0017  -0.0054   0.0012   0.00    3.4
2173  70965.000   -669785.6055  -5002659.8991   3887010.8003   1   7   0.0045   0.0106   0.0067   0.0019  -0.0055   0.0011   0.00    3.4
2173  70966.000   -669785.6059  -5002659.8905   3887010.7990   1   7   0.0042   0.0105   0.0067   0.0020  -0.0055   0.0009   0.00    3.5
2173  70967.000   -669785.6064  -5002659.8983   3887010.8018   1   7   0.0043   0.0106   0.0068   0.0021  -0.0056   0.0013   0.00    3.5
2173  70968.000   -669785.6082  -5002659.8995   3887010.8023   1   7   0.0047   0.0106   0.0068   0.0016  -0.0054   0.0006   0.00    3.5
2173  70969.000   -669785.6048  -5002659.8966   3887010.7972   1   7   0.0045   0.0105   0.0066   0.0015  -0.0055   0.0013   0.00    3.6
2173  70970.000   -669785.6047  -5002659.8978   3887010.8007   1   7   0.0047   0.0106   0.0067   0.0017  -0.0055   0.0012   0.00    3.6
2173  70971.000   -669785.6065  -5002659.8997   3887010.8014   1   7   0.0045   0.0105   0.0067   0.0011  -0.0055   0.0014   0.00    3.7
2173  70972.000   -669785.6056  -5002659.9001   3887010.8012   1   7   0.0045   0.0106   0.0068   0.0021  -0.0055   0.0011   0.00    3.7
2173  70973.000   -669785.6045  -5002659.9011   3887010.8030   1   7   0.0046   0.0106   0.0067   0.0018  -0.0054   0.0014   0.00    3.7
2173  70974.000   -669785.6064  -5002659.8981   3887010.8003   1   7   0.0043   0.0106   0.0068   0.0019  -0.0055   0.0010   0.00    3.8
2173  70975.000   -669785.6043  -5002659.8970   3887010.8021   1   7   0.0045   0.0106   0.0067   0.0021  -0.0054   0.0012   0.00    3.8
2173  70976.000   -669785.6066  -5002659.8954   3887010.8015   1   7   0.0046   0.0106   0.0070   0.0013  -0.0055   0.0008   0.00    3.8
2173  70977.000   -669785.6049  -5002659.8998   3887010.8044   1   7   0.0046   0.0106   0.0069   0.0019  -0.0055   0.0014   0.00    3.9
2173  70978.000   -669785.6062  -5002659.8958   3887010.7996   1   7   0.0045   0.0105   0.0068   0.0022  -0.0055   0.0009   0.00    3.9
2173  70979.000   -669785.6033  -5002659.8957   3887010.8041   1   7   0.0044   0.0106   0.0067   0.0018  -0.0055   0.0019   0.00    3.9
2173  70980.000   -669785.6055  -5002659.8935   3887010.7990   1   7   0.0046   0.0106   0.0068   0.0013  -0.0055   0.0018   0.00    4.0
2173  70981.000   -669785.6049  -5002659.8938   3887010.8001   1   7   0.0047   0.0106   0.0069   0.0018  -0.0055   0.0014   0.00    4.0
2173  70982.000   -669785.6036  -5002659.8958   3887010.8002   1   7   0.0045   0.0105   0.0067   0.0014  -0.0055   0.0013   0.00    4.0
2173  70983.000   -669785.6057  -5002659.8945   3887010.7982   1   7   0.0044   0.0105   0.0068   0.0024  -0.0054   0.0004   0.00    4.1
2173  70984.000   -669785.6034  -5002659.8912   3887010.7975   1   7   0.0044   0.0105   0.0069   0.0019  -0.0057   0.0013   0.00    4.1
2173  70985.000   -669785.6046  -5002659.8968   3887010.7961   1   7   0.0046   0.0105   0.0068   0.0020  -0.0056   0.0006   0.00    4.1
2173  70986.000   -669785.6050  -5002659.8948   3887010.7983   1   7   0.0049   0.0105   0.0068   0.0015  -0.0055   0.0007   0.00    4.2
2173  70987.000   -669785.6054  -5002659.8899   3887010.7956   1   7   0.0046   0.0105   0.0069   0.0017  -0.0056   0.0013   0.00    4.3
2173  70988.000   -669785.6056  -5002659.8892   3887010.7957   1   7   0.0048   0.0106   0.0068   0.0016  -0.0055   0.0011   0.00    4.3
2173  70989.000   -669785.6043  -5002659.8947   3887010.7967   1   7   0.0045   0.0105   0.0068   0.0018  -0.0054   0.0016   0.00    4.3
2173  70990.000   -669785.6044  -5002659.8954   3887010.8006   1   7   0.0041   0.0105   0.0068   0.0021  -0.0055   0.0013   0.00    4.4
2173  70991.000   -669785.6035  -5002659.8918   3887010.7998   1   7   0.0046   0.0106   0.0069   0.0020  -0.0055   0.0014   0.00    4.4
2173  70992.000   -669785.6031  -5002659.8914   3887010.7970   1   7   0.0047   0.0105   0.0068   0.0016  -0.0055   0.0010   0.00    4.5
2173  70993.000   -669785.6030  -5002659.8879   3887010.7955   1   7   0.0047   0.0106   0.0068   0.0010  -0.0055   0.0018   0.00    4.5
2173  70994.000   -669785.6046  -5002659.8890   3887010.7950   1   7   0.0045   0.0106   0.0068   0.0017  -0.0055   0.0012   0.00    4.6
2173  70995.000   -669785.6035  -5002659.8918   3887010.7943   1   7   0.0046   0.0106   0.0068   0.0022  -0.0054   0.0012   0.00    4.6
2173  70996.000   -669785.6022  -5002659.8919   3887010.7997   1   7   0.0048   0.0105   0.0067   0.0017  -0.0055   0.0014   0.00    4.7
2173  70997.000   -669785.6038  -5002659.8914   3887010.7974   1   7   0.0045   0.0106   0.0067   0.0023  -0.0055   0.0014   0.00    4.7
2173  70998.000   -669785.6040  -5002659.8916   3887010.7952   1   7   0.0046   0.0106   0.0067   0.0019  -0.0055   0.0017   0.00    4.8
2173  70999.000   -669785.6019  -5002659.8866   3887010.7955   1   7   0.0043   0.0105   0.0069   0.0017  -0.0055   0.0012   0.00    4.8
2173  71000.000   -669785.6032  -5002659.8915   3887010.7962   1   7   0.0047   0.0106   0.0069   0.0019  -0.0055   0.0012   0.00    4.8
2173  71001.000   -669785.6017  -5002659.8926   3887010.7988   1   7   0.0045   0.0105   0.0068   0.0018  -0.0054   0.0008   0.00    4.9
2173  71002.000   -669785.6007  -5002659.8942   3887010.7982   1   7   0.0043   0.0105   0.0066   0.0018  -0.0054   0.0011   0.00    4.9
2173  71003.000   -669785.6015  -5002659.8937   3887010.7979   1   7   0.0046   0.0105   0.0068   0.0018  -0.0054   0.0013   0.00    5.0
2173  71004.000   -669785.6007  -5002659.8932   3887010.7987   1   7   0.0044   0.0105   0.0070   0.0019  -0.0055   0.0010   0.00    5.0
2173  71005.000   -669785.6013  -5002659.8949   3887010.7970   1   7   0.0048   0.0106   0.0068   0.0017  -0.0054   0.0014   0.00    5.1
2173  71006.000   -669785.6014  -5002659.8954   3887010.7971   1   7   0.0046   0.0105   0.0067   0.0015  -0.0055   0.0017   0.00    5.1
2173  71007.000   -669785.5996  -5002659.8926   3887010.7969   1   7   0.0045   0.0105   0.0067   0.0021  -0.0056   0.0013   0.00    5.1
2173  71008.000   -669785.5994  -5002659.8976   3887010.7978   1   7   0.0047   0.0105   0.0068   0.0020  -0.0055   0.0012   0.00    5.2
2173  71009.000   -669785.6008  -5002659.8946   3887010.7958   1   7   0.0047   0.0106   0.0068   0.0016  -0.0054   0.0017   0.00    5.2
2173  71010.000   -669785.6015  -5002659.8893   3887010.7956   1   7   0.0046   0.0106   0.0067   0.0017  -0.0054   0.0003   0.00    5.2
2173  71011.000   -669785.6001  -5002659.8937   3887010.7962   1   7   0.0047   0.0105   0.0068   0.0017  -0.0054   0.0009   0.00    5.3
2173  71012.000   -669785.6026  -5002659.8946   3887010.7937   1   7   0.0052   0.0106   0.0068   0.0014  -0.0055   0.0016   0.00    5.3
2173  71013.000   -669785.6048  -5002659.8947   3887010.7935   1   7   0.0046   0.0105   0.0069   0.0019  -0.0055   0.0013   0.00    5.3
2173  71014.000   -669785.6029  -5002659.8933   3887010.7957   1   7   0.0047   0.0105   0.0069   0.0015  -0.0055   0.0014   0.00    5.3
2173  71015.000   -669785.6015  -5002659.8903   3887010.7943   1   7   0.0048   0.0105   0.0068   0.0019  -0.0054   0.0015   0.00    5.4
2173  71016.000   -669785.6036  -5002659.8867   3887010.7922   1   7   0.0046   0.0105   0.0067   0.0017  -0.0055   0.0019   0.00    5.4
2173  71017.000   -669785.6025  -5002659.8852   3887010.7921   1   7   0.0048   0.0105   0.0068   0.0015  -0.0055   0.0014   0.00    5.4
2173  71018.000   -669785.6013  -5002659.8891   3887010.7885   1   7   0.0044   0.0105   0.0068   0.0019  -0.0055   0.0014   0.00    5.4
2173  71019.000   -669785.6039  -5002659.8874   3887010.7918   1   7   0.0048   0.0106   0.0068   0.0017  -0.0055   0.0014   0.00    5.4
2173  71020.000   -669785.6042  -5002659.8853   3887010.7899   1   7   0.0041   0.0105   0.0068   0.0021  -0.0055   0.0009   0.00    5.5
2173  71021.000   -669785.6035  -5002659.8873   3887010.7954   1   7   0.0045   0.0106   0.0068   0.0019  -0.0054   0.0008   0.00    5.5
2173  71022.000   -669785.6027  -5002659.8916   3887010.7924   1   7   0.0047   0.0106   0.0068   0.0020  -0.0055   0.0012   0.00    5.5
2173  71023.000   -669785.6046  -5002659.8865   3887010.7922   1   7   0.0045   0.0106   0.0068   0.0022  -0.0054   0.0013   0.00    5.6
2173  71024.000   -669785.6035  -5002659.8970   3887010.7919   1   7   0.0048   0.0105   0.0067   0.0019  -0.0054   0.0016   0.00    5.6
2173  71025.000   -669785.6012  -5002659.8959   3887010.7902   1   7   0.0046   0.0105   0.0067   0.0017  -0.0056   0.0014   0.00    5.6
2173  71026.000   -669785.6025  -5002659.8921   3887010.7889   1   7   0.0042   0.0104   0.0068   0.0014  -0.0055   0.0011   0.00    5.6
2173  71027.000   -669785.6024  -5002659.8892   3887010.7878   1   7   0.0046   0.0105   0.0067   0.0015  -0.0055   0.0018   0.00    5.6
2173  71028.000   -669785.6026  -5002659.8899   3887010.7878   1   7   0.0047   0.0105   0.0068   0.0017  -0.0055   0.0012   0.00    5.6
2173  71029.000   -669785.6031  -5002659.8911   3887010.7935   1   7   0.0047   0.0105   0.0067   0.0017  -0.0055   0.0012   0.00    5.7
2173  71030.000   -669785.6017  -5002659.8861   3887010.7943   1   7   0.0046   0.0105   0.0067   0.0019  -0.0054   0.0015   0.00    5.7
2173  71031.000   -669785.6040  -5002659.8857   3887010.7939   1   7   0.0047   0.0105   0.0068   0.0018  -0.0055   0.0015   0.00    5.7
2173  71032.000   -669785.6034  -5002659.8858   3887010.7964   1   7   0.0039   0.0105   0.0069   0.0020  -0.0055   0.0008   0.00    5.8
2173  71033.000   -669785.6028  -5002659.8884   3887010.7930   1   7   0.0044   0.0105   0.0068   0.0019  -0.0055   0.0008   0.00    5.8
2173  71034.000   -669785.6024  -5002659.8858   3887010.7932   1   7   0.0045   0.0105   0.0069   0.0017  -0.0055   0.0018   0.00    5.8
2173  71035.000   -669785.6032  -5002659.8903   3887010.7948   1   7   0.0044   0.0105   0.0067   0.0022  -0.0053   0.0015   0.00    5.8
2173  71036.000   -669785.6018  -5002659.8876   3887010.7951   1   7   0.0042   0.0105   0.0067   0.0019  -0.0055   0.0011   0.00    5.8
2173  71037.000   -669785.6017  -5002659.8811   3887010.7897   1   7   0.0046   0.0105   0.0068   0.0019  -0.0054   0.0015   0.00    5.8
2173  71038.000   -669785.6038  -5002659.8845   3887010.7898   1   7   0.0045   0.0105   0.0068   0.0021  -0.0055   0.0014   0.00    5.9
2173  71039.000   -669785.6038  -5002659.8822   3887010.7898   1   7   0.0044   0.0105   0.0067   0.0018  -0.0055   0.0017   0.00    5.9
2173  71040.000   -669785.6038  -5002659.8836   3887010.7916   1   7   0.0046   0.0106   0.0067   0.0021  -0.0055   0.0016   0.00    5.9
2173  71041.000   -669785.6039  -5002659.8827   3887010.7916   1   7   0.0042   0.0105   0.0068   0.0022  -0.0055   0.0012   0.00    5.9
2173  71042.000   -669785.6039  -5002659.8790   3887010.7905   1   7   0.0043   0.0105   0.0069   0.0022  -0.0054   0.0011   0.00    5.9
2173  71043.000   -669785.6058  -5002659.8858   3887010.7953   1   7   0.0048   0.0105   0.0068   0.0016  -0.0055   0.0015   0.00    5.9
2173  71044.000   -669785.6021  -5002659.8830   3887010.7893   1   7   0.0048   0.0105   0.0068   0.0016  -0.0054   0.0017   0.00    5.9
2173  71045.000   -669785.6042  -5002659.8820   3887010.7900   1   7   0.0045   0.0105   0.0067   0.0016  -0.0055   0.0012   0.00    5.9
2173  71046.000   -669785.6036  -5002659.8837   3887010.7897   1   7   0.0043   0.0105   0.0067   0.0020  -0.0055   0.0014   0.00    5.9
2173  71047.000   -669785.6028  -5002659.8824   3887010.7896   1   7   0.0047   0.0105   0.0068   0.0017  -0.0055   0.0013   0.00    5.9
2173  71048.000   -669785.6034  -5002659.8873   3887010.7932   1   7   0.0044   0.0105   0.0068   0.0018  -0.0055   0.0015   0.00    5.9
2173  71049.000   -669785.6020  -5002659.8825   3887010.7903   1   7   0.0045   0.0105   0.0068   0.0023  -0.0054   0.0012   0.00    5.8
2173  71050.000   -669785.6020  -5002659.8865   3887010.7903   1   7   0.0048   0.0105   0.0069   0.0016  -0.0056   0.0015   0.00    5.8
2173  71051.000   -669785.6021  -5002659.8835   3887010.7933   1   7   0.0040   0.0104   0.0068   0.0024  -0.0054   0.0011   0.00    5.8
2173  71052.000   -669785.6043  -5002659.8840   3887010.7939   1   7   0.0048   0.0105   0.0068   0.0019  -0.0055   0.0014   0.00    5.8
2173  71053.000   -669785.6020  -5002659.8834   3887010.7920   1   7   0.0049   0.0105   0.0068   0.0014  -0.0055   0.0016   0.00    5.8
2173  71054.000   -669785.6048  -5002659.8803   3887010.7896   1   7   0.0045   0.0105   0.0070   0.0019  -0.0056   0.0008   0.00    5.8
2173  71055.000   -669785.6055  -5002659.8878   3887010.7948   1   7   0.0044   0.0105   0.0069   0.0019  -0.0054   0.0016   0.00    5.8
2173  71056.000   -669785.6065  -5002659.8849   3887010.7913   1   7   0.0045   0.0105   0.0067   0.0016  -0.0055   0.0015   0.00    5.8
2173  71057.000   -669785.6048  -5002659.8888   3887010.7948   1   7   0.0046   0.0105   0.0068   0.0016  -0.0055   0.0012   0.00    5.8
2173  71058.000   -669785.6048  -5002659.8853   3887010.7933   1   7   0.0049   0.0105   0.0071   0.0013  -0.0056   0.0015   0.00    5.8
2173  71059.000   -669785.6034  -5002659.8844   3887010.7925   1   7   0.0045   0.0105   0.0067   0.0019  -0.0054   0.0012   0.00    5.8
2173  71060.000   -669785.6039  -5002659.8866   3887010.7932   1   7   0.0045   0.0105   0.0070   0.0014  -0.0055   0.0016   0.00    5.8
2173  71061.000   -669785.6030  -5002659.8851   3887010.7899   1   7   0.0049   0.0105   0.0068   0.0014  -0.0056   0.0018   0.00    5.8
2173  71062.000   -669785.6031  -5002659.8822   3887010.7888   1   7   0.0046   0.0105   0.0069   0.0013  -0.0056   0.0019   0.00    5.8
2173  71063.000   -669785.6029  -5002659.8795   3887010.7865   1   7   0.0048   0.0105   0.0069   0.0015  -0.0055   0.0016   0.00    5.8
2173  71064.000   -669785.6006  -5002659.8905   3887010.7951   1   7   0.0044   0.0105   0.0069   0.0018  -0.0054   0.0015   0.00    5.8
2173  71065.000   -669785.6035  -5002659.8808   3887010.7914   1   7   0.0045   0.0104   0.0070   0.0014  -0.0056   0.0013   0.00    5.8
2173  71066.000   -669785.6029  -5002659.8846   3887010.7926   1   7   0.0046   0.0105   0.0068   0.0018  -0.0055   0.0015   0.00    5.8
2173  71067.000   -669785.6032  -5002659.8849   3887010.7899   1   7   0.0048   0.0105   0.0069   0.0015  -0.0054   0.0012   0.00    5.8
2173  71068.000   -669785.6035  -5002659.8842   3887010.7894   1   7   0.0040   0.0104   0.0068   0.0022  -0.0054   0.0011   0.00    5.8
2173  71069.000   -669785.6034  -5002659.8765   3887010.7841   1   7   0.0048   0.0105   0.0069   0.0018  -0.0054   0.0016   0.00    5.8
2173  71070.000   -669785.6023  -5002659.8758   3887010.7894   1   7   0.0046   0.0105   0.0067   0.0018  -0.0055   0.0017   0.00    5.8
2173  71071.000   -669785.6037  -5002659.8701   3887010.7875   1   7   0.0048   0.0105   0.0068   0.0016  -0.0054   0.0017   0.00    5.8
2173  71072.000   -669785.6032  -5002659.8794   3887010.7908   1   7   0.0046   0.0105   0.0069   0.0019  -0.0054   0.0018   0.00    5.8
2173  71073.000   -669785.6019  -5002659.8756   3887010.7875   1   7   0.0043   0.0105   0.0068   0.0021  -0.0055   0.0012   0.00    5.8
2173  71074.000   -669785.6045  -5002659.8776   3887010.7908   1   7   0.0048   0.0105   0.0067   0.0018  -0.0055   0.0016   0.00    5.8
2173  71075.000   -669785.6030  -5002659.8831   3887010.7931   1   7   0.0044   0.0105   0.0067   0.0021  -0.0054   0.0016   0.00    5.8
2173  71076.000   -669785.6039  -5002659.8765   3887010.7874   1   7   0.0046   0.0105   0.0068   0.0013  -0.0054   0.0018   0.00    5.8
2173  71077.000   -669785.6030  -5002659.8799   3887010.7897   1   7   0.0047   0.0104   0.0069   0.0017  -0.0055   0.0015   0.00    5.8
2173  71078.000   -669785.6056  -5002659.8841   3887010.7907   1   7   0.0046   0.0105   0.0069   0.0018  -0.0055   0.0011   0.00    5.8
2173  71079.000   -669785.6037  -5002659.8717   3887010.7905   1   7   0.0044   0.0105   0.0068   0.0019  -0.0054   0.0014   0.00    5.7
2173  71080.000   -669785.6038  -5002659.8710   3887010.7898   1   7   0.0046   0.0105   0.0068   0.0017  -0.0055   0.0015   0.00    5.7
2173  71081.000   -669785.6038  -5002659.8710   3887010.7868   1   7   0.0046   0.0106   0.0069   0.0020  -0.0055   0.0013   0.00    5.7
2173  71082.000   -669785.6045  -5002659.8751   3887010.7892   1   7   0.0045   0.0105   0.0068   0.0013  -0.0055   0.0015   0.00    5.7
2173  71083.000   -669785.6048  -5002659.8688   3887010.7847   1   7   0.0043   0.0104   0.0067   0.0024  -0.0054   0.0013   0.00    5.7
2173  71084.000   -669785.6075  -5002659.8790   3887010.7892   1   7   0.0042   0.0105   0.0070   0.0023  -0.0055   0.0011   0.00    5.7
2173  71085.000   -669785.6084  -5002659.8792   3887010.7870   1   7   0.0046   0.0104   0.0069   0.0018  -0.0054   0.0012   0.00    5.7
2173  71086.000   -669785.6051  -5002659.8800   3887010.7869   1   7   0.0052   0.0106   0.0068   0.0015  -0.0054   0.0019   0.00    5.7
2173  71087.000   -669785.6087  -5002659.8809   3887010.7862   1   7   0.0046   0.0105   0.0068   0.0019  -0.0055   0.0015   0.00    5.7
2173  71088.000   -669785.6082  -5002659.8785   3887010.7862   1   7   0.0046   0.0105   0.0069   0.0015  -0.0054   0.0014   0.00    5.7
2173  71089.000   -669785.6063  -5002659.8742   3887010.7871   1   7   0.0045   0.0105   0.0068   0.0020  -0.0055   0.0017   0.00    5.7
2173  71090.000   -669785.6036  -5002659.8736   3887010.7875   1   7   0.0044   0.0105   0.0070   0.0017  -0.0055   0.0012   0.00    5.7
2173  71091.000   -669785.6048  -5002659.8739   3887010.7887   1   7   0.0039   0.0104   0.0067   0.0025  -0.0055   0.0013   0.00    5.7
2173  71092.000   -669785.6035  -5002659.8721   3887010.7882   1   7   0.0044   0.0104   0.0069   0.0017  -0.0055   0.0012   0.00    5.7
2173  71093.000   -669785.6052  -5002659.8754   3887010.7897   1   7   0.0046   0.0106   0.0068   0.0020  -0.0055   0.0015   0.00    5.7
2173  71094.000   -669785.6070  -5002659.8760   3887010.7895   1   7   0.0044   0.0105   0.0069   0.0019  -0.0054   0.0013   0.00    5.6
2173  71095.000   -669785.6069  -5002659.8725   3887010.7887   1   7   0.0047   0.0105   0.0067   0.0023  -0.0054   0.0013   0.00    5.6
2173  71096.000   -669785.6097  -5002659.8707   3887010.7891   1   7   0.0047   0.0105   0.0068   0.0017  -0.0055   0.0014   0.00    5.6
2173  71097.000   -669785.6069  -5002659.8747   3887010.7892   1   7   0.0044   0.0105   0.0069   0.0021  -0.0054   0.0014   0.00    5.6
2173  71098.000   -669785.6084  -5002659.8742   3887010.7864   1   7   0.0042   0.0104   0.0069   0.0017  -0.0055   0.0015   0.00    5.6
2173  71099.000   -669785.6079  -5002659.8790   3887010.7908   1   7   0.0048   0.0105   0.0068   0.0011  -0.0055   0.0015   0.00    5.6
2173  71100.000   -669785.6077  -5002659.8732   3887010.7857   1   7   0.0046   0.0105   0.0068   0.0016  -0.0055   0.0014   0.00    5.6
2173  71101.000   -669785.6066  -5002659.8714   3887010.7860   1   7   0.0048   0.0105   0.0068   0.0011  -0.0054   0.0015   0.00    5.5
2173  71102.000   -669785.6083  -5002659.8693   3887010.7898   1   7   0.0048   0.0105   0.0069   0.0009  -0.0056   0.0017   0.00    5.5
2173  71103.000   -669785.6067  -5002659.8712   3887010.7883   1   7   0.0047   0.0105   0.0068   0.0020  -0.0054   0.0017   0.00    5.5
2173  71104.000   -669785.6075  -5002659.8719   3887010.7903   1   7   0.0047   0.0105   0.0069   0.0014  -0.0055   0.0015   0.00    5.5
2173  71105.000   -669785.6095  -5002659.8798   3887010.7918   1   7   0.0044   0.0104   0.0068   0.0021  -0.0054   0.0015   0.00    5.5
2173  71106.000   -669785.6083  -5002659.8758   3887010.7909   1   7   0.0042   0.0104   0.0068   0.0023  -0.0055   0.0012   0.00    5.5
2173  71107.000   -669785.6081  -5002659.8751   3887010.7886   1   7   0.0044   0.0104   0.0068   0.0018  -0.0055   0.0015   0.00    5.5
2173  71108.000   -669785.6090  -5002659.8753   3887010.7889   1   7   0.0043   0.0104   0.0069   0.0017  -0.0055   0.0013   0.00    5.5
2173  71109.000   -669785.6071  -5002659.8793   3887010.7903   1   7   0.0046   0.0105   0.0068   0.0023  -0.0055   0.0015   0.00    5.5
2173  71110.000   -669785.6074  -5002659.8730   3887010.7917   1   7   0.0044   0.0105   0.0070   0.0016  -0.0056   0.0012   0.00    5.5
2173  71111.000   -669785.6075  -5002659.8775   3887010.7904   1   7   0.0046   0.0105   0.0068   0.0021  -0.0055   0.0013   0.00    5.5
2173  71112.000   -669785.6069  -5002659.8764   3887010.7882   1   7   0.0046   0.0105   0.0069   0.0021  -0.0055   0.0015   0.00    5.5
2173  71113.000   -669785.6075  -5002659.8736   3887010.7881   1   7   0.0041   0.0104   0.0071   0.0023  -0.0056   0.0013   0.00    5.5
2173  71114.000   -669785.6098  -5002659.8731   3887010.7882   1   7   0.0046   0.0105   0.0070   0.0015  -0.0055   0.0014   0.00    5.5
2173  71115.000   -669785.6070  -5002659.8699   3887010.7897   1   7   0.0045   0.0105   0.0068   0.0020  -0.0055   0.0013   0.00    5.4
2173  71116.000   -669785.6082  -5002659.8803   3887010.7934   1   7   0.0044   0.0105   0.0069   0.0021  -0.0055   0.0015   0.00    5.4
2173  71117.000   -669785.6071  -5002659.8696   3887010.7880   1   7   0.0045   0.0104   0.0070   0.0018  -0.0055   0.0018   0.00    5.4
2173  71118.000   -669785.6079  -5002659.8761   3887010.7892   1   7   0.0050   0.0105   0.0069   0.0013  -0.0056   0.0016   0.00    5.4
2173  71119.000   -669785.6068  -5002659.8728   3887010.7921   1   7   0.0043   0.0104   0.0069   0.0017  -0.0055   0.0014   0.00    5.4
2173  71120.000   -669785.6066  -5002659.8738   3887010.7918   1   7   0.0045   0.0105   0.0071   0.0023  -0.0055   0.0014   0.00    5.4
2173  71121.000   -669785.6052  -5002659.8666   3887010.7910   1   7   0.0046   0.0104   0.0069   0.0017  -0.0055   0.0018   0.00    5.4
2173  71122.000   -669785.6046  -5002659.8729   3887010.7947   1   7   0.0045   0.0105   0.0069   0.0020  -0.0054   0.0010   0.00    5.4
2173  71123.000   -669785.6052  -5002659.8724   3887010.7961   1   7   0.0044   0.0104   0.0069   0.0020  -0.0054   0.0013   0.00    5.4
2173  71124.000   -669785.6072  -5002659.8734   3887010.7913   1   7   0.0046   0.0105   0.0070   0.0022  -0.0055   0.0017   0.00    5.4
2173  71125.000   -669785.6076  -5002659.8767   3887010.7930   1   7   0.0045   0.0104   0.0069   0.0016  -0.0055   0.0015   0.00    5.4
2173  71126.000   -669785.6073  -5002659.8748   3887010.7941   1   7   0.0040   0.0104   0.0068   0.0025  -0.0054   0.0011   0.00    5.4
2173  71127.000   -669785.6083  -5002659.8744   3887010.7937   1   7   0.0047   0.0104   0.0069   0.0012  -0.0055   0.0016   0.00    5.4
2173  71128.000   -669785.6075  -5002659.8721   3887010.7894   1   7   0.0048   0.0105   0.0069   0.0017  -0.0055   0.0017   0.00    5.4
2173  71129.000   -669785.6067  -5002659.8726   3887010.7897   1   7   0.0045   0.0104   0.0069   0.0021  -0.0054   0.0017   0.00    5.4
2173  71130.000   -669785.6088  -5002659.8690   3887010.7922   1   7   0.0045   0.0104   0.0070   0.0018  -0.0055   0.0007   0.00    5.3
2173  71131.000   -669785.6086  -5002659.8736   3887010.7923   1   7   0.0044   0.0105   0.0069   0.0020  -0.0055   0.0018   0.00    5.3
2173  71132.000   -669785.6081  -5002659.8753   3887010.7944   1   7   0.0046   0.0104   0.0068   0.0020  -0.0054   0.0016   0.00    5.3
2173  71133.000   -669785.6088  -5002659.8741   3887010.7926   1   7   0.0047   0.0105   0.0069   0.0018  -0.0054   0.0015   0.00    5.3
2173  71134.000   -669785.6089  -5002659.8721   3887010.7916   1   7   0.0045   0.0104   0.0070   0.0020  -0.0055   0.0015   0.00    5.3
2173  71135.000   -669785.6074  -5002659.8733   3887010.7929   1   7   0.0046   0.0104   0.0069   0.0017  -0.0054   0.0018   0.00    5.3
2173  71136.000   -669785.6092  -5002659.8787   3887010.7973   1   7   0.0043   0.0104   0.0069   0.0020  -0.0056   0.0018   0.00    5.3
2173  71137.000   -669785.6093  -5002659.8782   3887010.7941   1   7   0.0046   0.0104   0.0069   0.0017  -0.0056   0.0015   0.00    5.3
2173  71138.000   -669785.6081  -5002659.8772   3887010.7969   1   7   0.0048   0.0104   0.0069   0.0016  -0.0055   0.0016   0.00    5.3
2173  71139.000   -669785.6098  -5002659.8704   3887010.7950   1   7   0.0050   0.0104   0.0069   0.0014  -0.0055   0.0016   0.00    5.3
2173  71140.000   -669785.6081  -5002659.8747   3887010.7958   1   7   0.0047   0.0104   0.0069   0.0015  -0.0055   0.0014   0.00    5.3
2173  71141.000   -669785.6079  -5002659.8733   3887010.7941   1   7   0.0048   0.0104   0.0069   0.0016  -0.0055   0.0013   0.00    5.3
2173  71142.000   -669785.6088  -5002659.8746   3887010.7973   1   7   0.0044   0.0104   0.0069   0.0016  -0.0055   0.0018   0.00    5.3
2173  71143.000   -669785.6075  -5002659.8729   3887010.7935   1   7   0.0049   0.0105   0.0070   0.0016  -0.0055   0.0018   0.00    5.3
2173  71144.000   -669785.6098  -5002659.8737   3887010.7928   1   7   0.0048   0.0104   0.0069   0.0019  -0.0054   0.0017   0.00    5.3
2173  71145.000   -669785.6118  -5002659.8720   3887010.7940   1   7   0.0041   0.0103   0.0069   0.0021  -0.0055   0.0015   0.00    5.3
2173  71146.000   -669785.6086  -5002659.8687   3887010.7956   1   7   0.0044   0.0104   0.0069   0.0018  -0.0055   0.0013   0.00    5.3
2173  71147.000   -669785.6087  -5002659.8725   3887010.7957   1   7   0.0043   0.0104   0.0069   0.0021  -0.0055   0.0010   0.00    5.3
2173  71148.000   -669785.6115  -5002659.8751   3887010.7952   1   7   0.0045   0.0104   0.0070   0.0020  -0.0056   0.0015   0.00    5.3
2173  71149.000   -669785.6132  -5002659.8715   3887010.7957   1   7   0.0045   0.0104   0.0070   0.0018  -0.0056   0.0018   0.00    5.3
2173  71150.000   -669785.6115  -5002659.8721   3887010.7961   1   7   0.0047   0.0104   0.0068   0.0017  -0.0055   0.0020   0.00    5.3
2173  71151.000   -669785.6121  -5002659.8740   3887010.7969   1   7   0.0048   0.0104   0.0069   0.0019  -0.0055   0.0018   0.00    5.3
2173  71152.000   -669785.6100  -5002659.8726   3887010.7959   1   7   0.0050   0.0105   0.0069   0.0017  -0.0055   0.0016   0.00    5.3
2173  71153.000   -669785.6111  -5002659.8751   3887010.7991   1   7   0.0045   0.0105   0.0068   0.0019  -0.0054   0.0016   0.00    5.3
2173  71154.000   -669785.6113  -5002659.8743   3887010.7958   1   7   0.0045   0.0105   0.0069   0.0022  -0.0054   0.0013   0.00    5.3
2173  71155.000   -669785.6110  -5002659.8729   3887010.7916   1   7   0.0047   0.0104   0.0070   0.0015  -0.0055   0.0018   0.00    5.3
2173  71156.000   -669785.6122  -5002659.8698   3887010.7927   1   7   0.0045   0.0104   0.0070   0.0022  -0.0055   0.0018   0.00    5.3
2173  71157.000   -669785.6107  -5002659.8776   3887010.7988   1   7   0.0047   0.0104   0.0069   0.0014  -0.0054   0.0016   0.00    5.3
2173  71158.000   -669785.6127  -5002659.8824   3887010.7986   1   7   0.0045   0.0104   0.0068   0.0021  -0.0054   0.0014   0.00    5.3
2173  71159.000   -669785.6119  -5002659.8725   3887010.7998   1   7   0.0047   0.0105   0.0069   0.0019  -0.0055   0.0014   0.00    5.3
2173  71160.000   -669785.6105  -5002659.8712   3887010.7974   1   7   0.0047   0.0104   0.0069   0.0016  -0.0055   0.0016   0.00    5.3
2173  71161.000   -669785.6110  -5002659.8718   3887010.7982   1   7   0.0045   0.0104   0.0070   0.0022  -0.0055   0.0010   0.00    5.3
2173  71162.000   -669785.6099  -5002659.8722   3887010.7990   1   7   0.0047   0.0104   0.0069   0.0020  -0.0055   0.0016   0.00    5.4
2173  71163.000   -669785.6117  -5002659.8750   3887010.7982   1   7   0.0043   0.0104   0.0069   0.0024  -0.0055   0.0014   0.00    5.4
2173  71164.000   -669785.6145  -5002659.8741   3887010.7991   1   7   0.0044   0.0104   0.0071   0.0018  -0.0055   0.0018   0.00    5.4
2173  71165.000   -669785.6118  -5002659.8795   3887010.8021   1   7   0.0045   0.0104   0.0069   0.0020  -0.0055   0.0018   0.00    5.4
2173  71166.000   -669785.6131  -5002659.8777   3887010.8012   1   7   0.0045   0.0104   0.0069   0.0023  -0.0054   0.0015   0.00    5.4
2173  71167.000   -669785.6134  -5002659.8784   3887010.8025   1   7   0.0044   0.0103   0.0070   0.0018  -0.0055   0.0018   0.00    5.4
2173  71168.000   -669785.6127  -5002659.8735   3887010.8015   1   7   0.0042   0.0104   0.0069   0.0018  -0.0054   0.0018   0.00    5.4
2173  71169.000   -669785.6132  -5002659.8785   3887010.8036   1   7   0.0044   0.0104   0.0068   0.0021  -0.0054   0.0017   0.00    5.4
2173  71170.000   -669785.6137  -5002659.8738   3887010.8031   1   7   0.0047   0.0104   0.0069   0.0014  -0.0055   0.0017   0.00    5.5
2173  71171.000   -669785.6129  -5002659.8765   3887010.8034   1   7   0.0045   0.0104   0.0068   0.0015  -0.0054   0.0016   0.00    5.5
2173  71172.000   -669785.6135  -5002659.8684   3887010.8023   1   7   0.0045   0.0104   0.0069   0.0016  -0.0054   0.0019   0.00    5.5
2173  71173.000   -669785.6122  -5002659.8747   3887010.8059   1   7   0.0047   0.0104   0.0069   0.0014  -0.0055   0.0018   0.00    5.5
2173  71174.000   -669785.6144  -5002659.8710   3887010.8026   1   7   0.0046   0.0104   0.0069   0.0018  -0.0054   0.0018   0.00    5.5
2173  71175.000   -669785.6162  -5002659.8670   3887010.7995   1   7   0.0045   0.0105   0.0069   0.0023  -0.0054   0.0015   0.00    5.5
2173  71176.000   -669785.6161  -5002659.8695   3887010.7985   1   7   0.0047   0.0104   0.0071   0.0023  -0.0055   0.0014   0.00    5.6
2173  71177.000   -669785.6170  -5002659.8664   3887010.7957   1   7   0.0045   0.0104   0.0070   0.0018  -0.0055   0.0016   0.00    5.6
2173  71178.000   -669785.6148  -5002659.8649   3887010.7985   1   7   0.0043   0.0103   0.0069   0.0020  -0.0055   0.0017   0.00    5.6
2173  71179.000   -669785.6152  -5002659.8670   3887010.7975   1   7   0.0043   0.0104   0.0069   0.0019  -0.0055   0.0016   0.00    5.6
2173  71180.000   -669785.6141  -5002659.8628   3887010.7943   1   7   0.0044   0.0104   0.0070   0.0019  -0.0055   0.0016   0.00    5.6
2173  71181.000   -669785.6158  -5002659.8674   3887010.7961   1   7   0.0045   0.0104   0.0070   0.0021  -0.0056   0.0015   0.00    5.6
2173  71182.000   -669785.6161  -5002659.8681   3887010.7984   1   7   0.0047   0.0104   0.0070   0.0017  -0.0055   0.0016   0.00    5.7
2173  71183.000   -669785.6180  -5002659.8630   3887010.7950   1   7   0.0044   0.0105   0.0069   0.0025  -0.0055   0.0018   0.00    5.7
2173  71184.000   -669785.6163  -5002659.8665   3887010.7987   1   7   0.0046   0.0104   0.0069   0.0017  -0.0055   0.0016   0.00    5.7
2173  71185.000   -669785.6184  -5002659.8632   3887010.7995   1   7   0.0046   0.0104   0.0069   0.0012  -0.0054   0.0015   0.00    5.7
2173  71186.000   -669785.6129  -5002659.8619   3887010.8011   1   7   0.0045   0.0104   0.0069   0.0022  -0.0055   0.0014   0.00    5.7
2173  71187.000   -669785.6164  -5002659.8588   3887010.7982   1   7   0.0042   0.0104   0.0071   0.0023  -0.0055   0.0016   0.00    5.8
2173  71188.000   -669785.6162  -5002659.8618   3887010.7985   1   7   0.0049   0.0104   0.0070   0.0009  -0.0055   0.0019   0.00    5.8
2173  71189.000   -669785.6153  -5002659.8649   3887010.7975   1   7   0.0045   0.0104   0.0069   0.0015  -0.0055   0.0016   0.00    5.8
2173  71190.000   -669785.6170  -5002659.8624   3887010.7953   1   7   0.0042   0.0104   0.0070   0.0022  -0.0055   0.0016   0.00    5.8
2173  71191.000   -669785.6159  -5002659.8583   3887010.7930   1   7   0.0047   0.0104   0.0071   0.0020  -0.0055   0.0016   0.00    5.8
2173  71192.000   -669785.6159  -5002659.8650   3887010.7957   1   7   0.0045   0.0104   0.0069   0.0017  -0.0055   0.0019   0.00    5.9
2173  71193.000   -669785.6167  -5002659.8657   3887010.7967   1   7   0.0046   0.0104   0.0070   0.0019  -0.0056   0.0017   0.00    5.9
2173  71194.000   -669785.6166  -5002659.8542   3887010.7913   1   7   0.0050   0.0104   0.0071   0.0015  -0.0056   0.0016   0.00    5.9
2173  71195.000   -669785.6163  -5002659.8595   3887010.7938   1   7   0.0050   0.0105   0.0069   0.0017  -0.0055   0.0019   0.00    5.9
2173  71196.000   -669785.6179  -5002659.8544   3887010.7949   1   7   0.0044   0.0103   0.0070   0.0017  -0.0055   0.0014   0.00    6.0
2173  71197.000   -669785.6157  -5002659.8552   3887010.7938   1   7   0.0046   0.0104   0.0069   0.0019  -0.0055   0.0017   0.00    6.0
2173  71198.000   -669785.6178  -5002659.8602   3887010.7945   1   7   0.0046   0.0104   0.0070   0.0018  -0.0056   0.0018   0.00    6.0
2173  71199.000   -669785.6177  -5002659.8622   3887010.7852   1   6   0.0047   0.0104   0.0097   0.0019  -0.0057   0.0027   0.00    4.5
2173  71200.000   -669785.6196  -5002659.8619   3887010.7901   1   6   0.0045   0.0103   0.0096   0.0020  -0.0057   0.0028   0.00    4.5
2173  71201.000   -669785.6181  -5002659.8584   3887010.7859   1   6   0.0048   0.0104   0.0096   0.0015  -0.0056   0.0029   0.00    4.5
2173  71202.000   -669785.6179  -5002659.8617   3887010.7917   1   6   0.0045   0.0104   0.0097   0.0020  -0.0057   0.0027   0.00    4.5
2173  71203.000   -669785.6171  -5002659.8556   3887010.7913   1   6   0.0045   0.0104   0.0096   0.0020  -0.0056   0.0029   0.00    4.5
2173  71204.000   -669785.6213  -5002659.8615   3887010.7874   1   6   0.0047   0.0104   0.0097   0.0018  -0.0056   0.0027   0.00    4.5
2173  71205.000   -669785.6184  -5002659.8601   3887010.7868   1   6   0.0048   0.0104   0.0096   0.0021  -0.0057   0.0028   0.00    4.5
2173  71206.000   -669785.6234  -5002659.8598   3887010.7819   1   6   0.0048   0.0104   0.0096   0.0011  -0.0057   0.0028   0.00    4.5
2173  71207.000   -669785.6204  -5002659.8608   3887010.7886   1   6   0.0046   0.0104   0.0096   0.0017  -0.0056   0.0028   0.00    4.5
2173  71208.000   -669785.6203  -5002659.8588   3887010.7883   1   6   0.0043   0.0104   0.0096   0.0022  -0.0056   0.0029   0.00    4.5
2173  71209.000   -669785.6191  -5002659.8564   3887010.7884   1   6   0.0047   0.0104   0.0097   0.0017  -0.0056   0.0029   0.00    4.5
2173  71210.000   -669785.6178  -5002659.8552   3887010.7892   1   6   0.0048   0.0104   0.0096   0.0015  -0.0056   0.0029   0.00    4.5
2173  71211.000   -669785.6174  -5002659.8581   3887010.7824   1   6   0.0047   0.0104   0.0097   0.0018  -0.0057   0.0027   0.00    4.5
2173  71212.000   -669785.6178  -5002659.8630   3887010.7832   1   6   0.0045   0.0104   0.0097   0.0021  -0.0057   0.0027   0.00    4.5
2173  71213.000   -669785.6187  -5002659.8630   3887010.7896   1   6   0.0048   0.0103   0.0097   0.0015  -0.0057   0.0029   0.00    4.5
2173  71214.000   -669785.6182  -5002659.8657   3887010.7879   1   6   0.0047   0.0104   0.0096   0.0012  -0.0057   0.0030   0.00    4.5
2173  71215.000   -669785.6179  -5002659.8638   3887010.7891   1   6   0.0047   0.0104   0.0096   0.0017  -0.0057   0.0029   0.00    4.5
2173  71216.000   -669785.6178  -5002659.8584   3887010.7871   1   6   0.0047   0.0104   0.0096   0.0008  -0.0058   0.0029   0.00    4.5
2173  71217.000   -669785.6185  -5002659.8605   3887010.7870   1   6   0.0044   0.0103   0.0096   0.0016  -0.0057   0.0028   0.00    4.5
2173  71218.000   -669785.6199  -5002659.8584   3887010.7873   1   6   0.0045   0.0103   0.0096   0.0019  -0.0057   0.0028   0.00    4.5
2173  71219.000   -669785.6207  -5002659.8675   3887010.7880   1   6   0.0047   0.0104   0.0096   0.0017  -0.0057   0.0030   0.00    4.5
2173  71220.000   -669785.6191  -5002659.8627   3887010.7851   1   6   0.0048   0.0104   0.0096   0.0017  -0.0057   0.0029   0.00    4.5
2173  71221.000   -669785.6187  -5002659.8643   3887010.7886   1   6   0.0047   0.0104   0.0097   0.0018  -0.0057   0.0027   0.00    4.5
2173  71222.000   -669785.6209  -5002659.8614   3887010.7838   1   6   0.0048   0.0104   0.0096   0.0015  -0.0057   0.0030   0.00    4.5
2173  71223.000   -669785.6183  -5002659.8640   3887010.7857   1   6   0.0044   0.0104   0.0097   0.0020  -0.0057   0.0028   0.00    4.6
2173  71224.000   -669785.6189  -5002659.8663   3887010.7916   1   6   0.0046   0.0103   0.0096   0.0017  -0.0057   0.0030   0.00    4.6
