     2.11           OBSERVATION DATA    M (MIXED)           RINEX VERSION / TYPE
CONVBIN 2.4.3                           20210901 190901 UTC PGM / RUN BY / DATE 
log: logs/21_09_01_09_42_28_mami_P1.rtcm                    COMMENT             
format: RTCM 3, station ID: 835                             COMMENT             
0835                                                        MARKER NAME         
                                                            MARKER NUMBER       
                                                            OBSERVER / AGENCY   
                                                            REC # / TYPE / VERS 
                                                            ANT # / TYPE        
  1529850.9450 -4473632.6100  4266634.9760                  APPROX POSITION XYZ 
        0.0000        0.0000        0.0000                  ANTENNA: DELTA H/E/N
     1     1                                                WAVELENGTH FACT L1/2
     5    C1    L1    C2    L2    P2                        # / TYPES OF OBSERV 
  2021     9     1     9    42   33.0000000     GPS         TIME OF FIRST OBS   
  2021     9     1    10    12   32.0000000     GPS         TIME OF LAST OBS    
                                                            END OF HEADER       
 21  9  1  9 42 33.0000000  0 25G22G19G21G 1G14G 3G30G 7G17G 8R13R14
                                R17R23R24E13E15E21E26E27C11C23C25C28
                                C34
  23116378.762   121477397.2661                   94657715.2331   23116379.316  
  23251118.432   122185462.6541                   95209445.5261   23251119.844  
  22331787.471   117354360.2431                   91444992.3101   22331789.061  
  20165997.559   105973057.4831   20166002.384    82576432.7941   20166002.616  
  20510186.337   107781766.4581   20510188.857    83985809.8071   20510189.107  
  23860314.989   125386796.3001   23860321.135    97704026.2251   23860320.492  
  21878227.871   114970863.7861   21878232.392    89587703.3991   21878231.552  
  23307055.872   122479394.5001   23307056.998    95438490.0871   23307054.746  
  21426386.878   112596428.8761   21426388.040    87737493.1101   21426387.879  
                                  24567931.532   100601571.281                  
  19948763.972   106525296.005    19948772.477    82853023.772                  
  19797782.289   105533328.392    19797788.704    82081492.393                  
                                  23092283.510    96111144.455                  
  19731558.689   105550556.226                                                  
  19608704.743   104856570.217    19608712.980    81555160.458                  
  23540228.270   123704762.554                                                  
  23891523.737   125550816.990                                                  
  24211382.393   127231668.793                                                  
  27154411.780   142697389.272                                                  
  23762560.783   124873111.136                                                  
                 118543900.203    22765106.006   118543900.203                  
                 116341793.246    22342216.887   116341793.246                  
                              4   25014631.178                4                 
                 119983895.197    23041645.183   119983895.197                  
                 129144615.185    24800864.343   129144615.185                  
 21  9  1  9 42 34.0000000  0 25G22G19G21G 1G14G 3G30G 7G17G 8R13R14
                                R17R23R24E13E15E21E26E27C11C23C25C28
                                C34
  23116064.643   121475746.6301                   94656429.0231   23116065.197  
  23250577.197   122182618.8531                   95207229.5821   23250578.645  
  22332273.544   117356914.9471                   91446982.9871   22332275.206  
  20166166.010   105973941.9931   20166170.763    82577122.0181   20166170.924  
  20509940.960   107780476.9231   20509943.408    83984804.9751   20509943.729  
  23859755.009   125383852.7991   23859760.727    97701732.5971   23859760.352  
  21878673.060   114973203.3721   21878677.581    89589526.4531   21878676.777  
  23307736.521   122482971.1641   23307737.325    95441277.1051   23307735.377  
  21426118.110   112595016.7231   21426119.683    87736392.7331   21426119.129  
                                  24568496.586   100603887.233                  
  19949234.142   106527806.748    19949242.576    82854976.561                  
  19797419.048   105531392.375    19797425.623    82079986.611                  
                                  23091616.674    96108366.303                  
  19731917.106   105552473.966                                                  
  19608482.059   104855379.215    19608490.064    81554234.116                  
  23539981.088   123703463.691                                                  
  23891810.392   125552323.239                                                  
  24211106.138   127230217.092                                                  
  27153855.053   142694463.298                                                  
  23762797.583   124874355.307                                                  
                 118545926.946    22765495.283   118545926.946                  
                 116343013.949    22342451.346   116343013.949                  
                              4   25015263.331                4                 
                 119981957.708    23041273.222   119981957.708                  
                 129147299.692    24801379.757   129147299.692                  
 21  9  1  9 42 35.0000000  0 25G22G19G21G 1G14G 3G30G 7G17G 8R13R14
                                R17R23R24E13E15E21E26E27C11C23C25C28
                                C34
  23115750.469   121474096.7341                   94655143.3921   23115751.291  
  23250036.195   122179775.5051                   95205013.9861   23250037.642  
  22332759.849   117359470.2211                   91448974.1091   22332761.458  
  20166334.551   105974827.4571   20166339.340    82577811.9921   20166339.411  
  20509695.725   107779188.0751   20509697.995    83983800.6781   20509698.477  
  23859195.065   125380909.7591   23859200.944    97699439.3231   23859200.355  
  21879118.392   114975543.6941   21879122.877    89591350.0811   21879122.144  
  23308417.134   122486548.2481   23308416.955    95444064.4501   23308416.098  
  21425849.414   112593605.0951   21425850.700    87735292.7631   21425850.504  
                                  24569062.195   100606203.393                  
  19949704.365   106530318.439    19949712.102    82856930.114                  
  19797056.003   105529457.302    19797062.703    82078481.547                  
                                  23090949.409    96105588.569                  
  19732275.702   105554392.473                                                  
  19608259.500   104854189.115    19608267.559    81553308.494                  
  23539734.067   123702165.476                                                  
  23892097.101   125553830.064                                                  
  24210829.955   127228765.931                                                  
  27153298.790   142691537.689                                                  
  23763034.455   124875600.073                                                  
                 118547954.131    22765884.721   118547954.131                  
                 116344235.423    22342685.931   116344235.423                  
                              4   25015896.055                4                 
                 119980020.775    23040901.367   119980020.775                  
                 129149984.502    24801895.349   129149984.502                  
 21  9  1  9 42 36.0000000  0 25G22G19G21G 1G14G 3G30G 7G17G 8R13R14
                                R17R23R24E13E15E21E26E27C11C23C25C28
                                C34
  23115436.797   121472447.2331                   94653858.0651   23115437.404  
  23249495.371   122176932.2561                   95202798.4651   23249496.550  
  22333246.298   117362025.7381                   91450965.4191   22333247.745  
  20166503.217   105975713.5401   20166507.970    82578502.4441   20166508.023  
  20509450.509   107777899.5681   20509452.778    83982796.6421   20509453.314  
  23858635.372   125377966.8771   23858640.929    97697146.1691   23858640.357  
  21879563.831   114977884.4451   21879568.280    89593174.0401   21879567.565  
  23309097.801   122490125.4171   23309098.784    95446851.8411   23309096.800  
  21425580.824   112592193.6481   21425582.111    87734192.9371   21425581.914  
                                  24569627.338   100608519.541                  
  19950174.803   106532830.750    19950182.683    82858884.099                  
  19796692.976   105527522.863    19796699.962    82076976.988                  
                                  23090282.359    96102811.004                  
  19732634.458   105556311.399                                                  
  19608037.085   104852999.582    19608045.465    81552383.306                  
  23539486.992   123700867.570                                                  
  23892383.952   125555337.129                                                  
  24210553.843   127227314.972                                                  
  27152742.135   142688612.161                                                  
  23763271.434   124876845.122                                                  
                 118549981.432    22766274.176   118549981.432                  
                 116345457.344    22342920.551   116345457.344                  
                              4   25016528.654                4                 
                 119978084.050    23040529.477   119978084.050                  
                 129152669.337    24802411.049   129152669.337                  
 21  9  1  9 42 37.0000000  0 25G22G19G21G 1G14G 3G30G 7G17G 8R13R14
                                R17R23R24E13E15E21E26E27C11C23C25C28
                                C34
  23115122.891   121470798.0471                   94652572.9871   23115123.553  
  23248954.494   122174089.0131                   95200582.9531   23248955.494  
  22333732.639   117364581.3911                   91452956.8361   22333734.051  
  20166672.025   105976600.1481   20166676.635    82579193.3101   20166676.725  
  20509205.417   107776611.3271   20509207.615    83981792.8231   20509208.169  
  23858075.249   125375024.0331   23858080.682    97694853.0341   23858080.324  
  21880009.287   114980225.4921   21880013.630    89594998.2331   21880013.076  
  23309778.521   122493702.5831   23309778.772    95449639.2471   23309777.521  
  21425312.306   112590782.2731   21425313.289    87733093.1611   21425313.307  
                                  24570192.911   100610835.510                  
  19950645.240   106535343.586    19950652.888    82860838.555                  
  19796330.127   105525588.975    19796337.239    82075472.848                  
                                  23089615.683    96100033.556                  
  19732993.232   105558230.641                                                  
  19607814.705   104851810.479    19607823.210    81551458.439                  
  23539240.042   123699569.877                                                  
  23892670.750   125556844.338                                                  
  24210277.766   127225864.110                                                  
  27152185.657   142685686.528                                                  
  23763508.359   124878090.343                                                  
                 118552008.757    22766663.560   118552008.757                  
                 116346679.605    22343155.261   116346679.605                  
                              4   25017161.468                4                 
                 119976147.445    23040157.623   119976147.445                  
                 129155354.051    24802926.660   129155354.051                  
 21  9  1  9 42 38.0000000  0 25G22G19G21G 1G14G 3G30G 7G17G 8R13R14
                                R17R23R24E13E15E21E26E27C11C23C25C28
                                C34
  23114809.094   121469149.4651                   94651288.3731   23114809.826  
  23248413.688   122171246.0761                   95198367.6751   23248414.545  
  22334218.998   117367137.4921                   91454948.6031   22334220.463  
  20166840.923   105977487.5551   20166845.408    82579884.7941   20166845.569  
  20508960.415   107775323.6241   20508962.577    83980789.4151   20508963.131  
  23857515.020   125372081.5501   23857520.702    97692560.1901   23857520.416  
  21880454.780   114982567.1471   21880458.908    89596822.8991   21880458.676  
  23310459.331   122497280.0101   23310459.206    95452426.8481   23310458.259  
  21425043.789   112589371.2751   21425044.629    87731993.6781   21425044.789  
                                  24570758.537   100613151.585                  
  19951116.018   106537857.236    19951123.648    82862793.605                  
  19795967.493   105523655.923    19795974.623    82073969.366                  
                                  23088948.668    96097256.422                  
  19733352.221   105560150.492                                                  
  19607592.485   104850622.104    19607601.080    81550534.143                  
  23538993.181   123698272.684                                                  
  23892957.601   125558351.984                                                  
  24210001.797   127224413.657                                                  
  27151629.234   142682761.185                                                  
  23763745.410   124879336.043                                                  
                 118554036.407    22767053.033   118554036.407                  
                 116347902.504    22343390.060   116347902.504                  
                              4   25017794.174                4                 
                 119974211.250    23039785.858   119974211.250                  
                 129158038.959    24803442.271   129158038.959                  
 21  9  1  9 42 39.0000000  0 25G22G19G21G 1G14G 3G30G 7G17G 8R13R14
                                R17R23R24E13E15E21E26E27C11C23C25C28
                                C34
  23114495.314   121467501.5351                   94650004.2741   23114496.243  
  23247872.649   122168403.5131                   95196152.6961   23247873.614  
  22334705.554   117369694.0831                   91456940.7521   22334706.983  
  20167009.982   105978375.8481   20167014.485    82580576.9721   20167014.592  
  20508715.556   107774036.5311   20508717.664    83979786.4881   20508718.236  
  23856955.040   125369139.4691   23856960.955    97690267.6461   23856960.562  
  21880900.576   114984909.4821   21880904.901    89598648.0951   21880904.418  
  23311140.195   122500857.8101   23311140.498    95455214.7511   23311139.158  
  21424775.289   112587960.7331   21424776.111    87730894.5571   21424776.379  
                                  24571324.663   100615467.816                  
  19951586.831   106540371.763    19951594.246    82864749.341                  
  19795604.966   105521723.758    19795611.953    82072466.580                  
                                  23088281.886    96094479.645                  
  19733711.299   105562071.031                                                  
  19607370.373   104849434.548    19607378.986    81549610.486                  
  23538746.428   123696976.080                                                  
  23893244.649   125559860.135                                                  
  24209725.917   127222963.663                                                  
  27151072.328   142679836.129                                                  
  23763982.603   124880582.268                                                  
                 118556064.415    22767442.470   118556064.415                  
                 116349126.097    22343625.055   116349126.097                  
                 130277520.910    25018427.131   130277520.910                  
                 119972275.538    23039414.075   119972275.538                  
                 129160724.118    24803957.953   129160724.118                  
 21  9  1  9 42 40.0000000  0 25G22G19G21G 1G14G 3G30G 7G17G 8R13R14
                                R17R23R24E13E15E21E26E27C11C23C25C28
                                C34
  23114181.837   121465853.9741                   94648720.4581   23114182.713  
  23247331.736   122165561.0041                   95193937.7521   23247332.755  
  22335192.092   117372250.8741                   91458933.0591   22335193.521  
  20167179.166   105979264.7241   20167183.651    82581269.6011   20167183.758  
  20508470.679   107772749.7551   20508473.019    83978783.8051   20508473.377  
  23856394.989   125366197.4911   23856401.226    97687975.2091   23856400.690  
  21881346.373   114987252.1791   21881350.679    89600473.5731   21881350.215  
  23311821.004   122504435.6421   23311821.791    95458002.6701   23311820.039  
  21424506.914   112586550.3261   21424507.879    87729795.5381   21424507.986  
                                  24571889.914   100617783.974                  
  19952057.858   106542886.892    19952064.970    82866705.546                  
  19795242.618   105519792.173    19795249.569    82070964.243                  
                                  23087615.210    96091702.883                  
  19734070.538   105563991.931                                                  
  19607148.404   104848247.529    19607157.053    81548687.242                  
  23538499.746   123695679.735                                                  
  23893531.697   125561368.483                                                  
  24209450.091   127221513.832                                                  
  27150515.672   142676911.109                                                  
  23764219.779   124881828.725                                                  
                 118558092.519    22767831.926   118558092.519                  
                 116350350.094    22343860.104   116350350.094                  
                 130280816.023    25019059.926   130280816.023                  
                 119970339.997    23039042.417   119970339.997                  
                 129163409.209    24804473.671   129163409.209                  
 21  9  1  9 42 41.0000000  0 25G22G19G21G 1G14G 3G30G 7G17G 8R13R14
                                R17R23R24E13E15E21E26E27C11C23C25C28
                                C34
  23113868.147   121464206.5861                   94647436.7771   23113869.219  
  23246791.073   122162718.3661                   95191722.7091   23246791.824  
  22335678.736   117374807.6731                   91460925.3681   22335680.059  
  20167348.368   105980153.9851   20167353.103    82581962.5341   20167352.996  
  20508225.927   107771463.0931   20508228.321    83977781.2091   20508228.553  
  23855835.153   125363255.4361   23855841.443    97685682.6991   23855840.889  
  21881792.151   114989595.0691   21881796.708    89602299.1971   21881796.047  
  23312502.011   122508013.3391   23312503.011    95460790.4971   23312500.849  
  21424238.450   112585139.8861   21424239.808    87728696.4941   21424239.593  
                                  24572454.468   100620099.880                  
  19952528.796   106545402.391    19952535.837    82868662.061                  
  19794880.288   105517860.985    19794887.364    82069462.189                  
                                  23086947.838    96088926.148                  
  19734429.741   105565913.022                                                  
  19606926.525   104847060.857    19606934.852    81547764.275                  
  23538253.046   123694383.480                                                  
  23893818.728   125562876.860                                                  
  24209174.211   127220063.979                                                  
  27149959.034   142673985.846                                                  
  23764457.008   124883075.232                                                  
                 118560120.515    22768221.310   118560120.515                  
                 116351574.310    22344095.118   116351574.310                  
                 130284110.994    25019692.669   130284110.994                  
                 119968404.454    23038670.616   119968404.454                  
                 129166094.097    24804989.210   129166094.097                  
 21  9  1  9 42 42.0000000  0 25G22G19G21G 1G14G 3G30G 7G17G 8R13R14
                                R17R23R24E13E15E21E26E27C11C23C25C28
                                C34
  23113554.795   121462560.1351                   94646153.8301   23113555.885  
  23246249.981   122159876.3791                   95189508.1741   23246250.946  
  22336165.399   117377365.2541                   91462918.2901   22336166.722  
  20167517.820   105981044.4061   20167522.537    82582656.3661   20167522.430  
  20507981.353   107770177.3171   20507983.855    83976779.3061   20507983.891  
  23855275.656   125360314.0681   23855281.660    97683390.7341   23855281.106  
  21882238.109   114991938.9011   21882242.683    89604125.5571   21882242.058  
  23313183.071   122511591.6551   23313184.697    95463578.7861   23313181.820  
  21423970.236   112583730.1711   21423971.790    87727598.0151   21423971.308  
                                  24573019.987   100622416.148                  
  19953000.002   106547919.059    19953007.597    82870619.478                  
  19794518.172   105515930.954    19794525.338    82067961.052                  
                                  23086279.894    96086150.045                  
  19734789.123   105567835.072                                                  
  19606704.860   104845875.259    19606712.883    81546842.157                  
  23538006.507   123693088.068                                                  
  23894105.883   125564385.996                                                  
  24208898.564   127218614.867                                                  
  27149402.611   142671061.231                                                  
  23764694.309   124884322.551                                                  
                 118562149.157    22768610.801   118562149.157                  
                 116352799.493    22344330.363   116352799.493                  
                 130287406.578    25020325.482   130287406.578                  
                 119966469.655    23038299.012   119966469.655                  
                 129168779.477    24805504.910   129168779.477                  
 21  9  1  9 42 43.0000000  0 25G22G19G21G 1G14G 3G30G 7G17G 8R13R14
                                R17R23R24E13E15E21E26E27C11C23C25C28
                                C34
  23113241.605   121460913.9531                   94644871.0951   23113242.606  
  23245709.265   122157034.3251                   95187293.5861   23245710.104  
  22336652.062   117379922.9331                   91464911.2831   22336653.402  
  20167687.307   105981935.3101   20167691.900    82583350.5771   20167691.971  
  20507736.798   107768891.7681   20507739.335    83975777.5791   20507739.264  
  23854716.088   125357372.7001   23854722.324    97681098.7631   23854721.395  
  21882684.137   114994283.0081   21882688.819    89605952.1331   21882688.140  
  23313863.916   122515169.9301   23313864.631    95466367.0621   23313862.772  
  21423701.950   112582320.4971   21423703.701    87726499.5681   21423703.022  
                                  24573586.453   100624732.278                  
  19953471.173   106550436.215    19953479.357    82872577.265                  
  19794156.164   105514001.435    19794163.133    82066460.318                  
                                  23085612.825    96083373.934                  
  19735148.433   105569757.408                                                  
  19606483.266   104844690.059    19606491.217    81545920.309                  
  23537760.022   123691792.835                                                  
  23894393.092   125565895.248                                                  
  24208622.862   127217165.816                                                  
  27148846.205   142668136.472                                                  
  23764931.645   124885569.997                                                  
                 118564177.781    22769000.220   118564177.781                  
                 116354024.988    22344565.698   116354024.988                  
                 130290702.153    25020958.742   130290702.153                  
                 119964534.937    23037927.354   119964534.937                  
                 129171464.746    24806020.735   129171464.746                  
 21  9  1  9 42 44.0000000  0 25G22G19G21G 1G14G 3G30G 7G17G 8R13R14
                                R17R23R24E13E15E21E26E27C11C23C25C28
                                C34
  23112928.397   121459267.9711                   94643588.5121   23112929.344  
  23245168.602   122154192.2001                   95185078.9521   23245169.245  
  22337138.814   117382480.6721                   91466904.3261   22337140.119  
  20167856.902   105982826.6461   20167861.441    82584045.1241   20167861.584  
  20507492.350   107767606.3651   20507494.673    83974775.9641   20507494.655  
  23854156.519   125354431.3031   23854162.380    97678806.7651   23854161.665  
  21883130.255   114996627.3311   21883135.044    89607778.8821   21883134.258  
  23314544.672   122518748.0911   23314545.155    95469155.2371   23314543.707  
  21423433.629   112580910.8211   21423435.094    87725401.1141   21423434.737  
                                  24574151.864   100627048.207                  
  19953942.808   106552953.793    19953950.902    82874535.364                  
  19793794.138   105512072.366    19793801.214    82064959.921                  
                                  23084945.793    96080597.866                  
  19735507.761   105571679.969                                                  
  19606261.690   104843505.223    19606269.195    81544998.784                  
  23537513.590   123690497.713                                                  
  23894680.318   125567404.543                                                  
  24208347.143   127215716.782                                                  
  27148289.817   142665211.596                                                  
  23765169.035   124886817.531                                                  
                 118566206.321    22769389.729   118566206.321                  
                 116355250.727    22344801.051   116355250.727                  
                 130293997.591    25021591.645   130293997.591                  
                 119962600.239    23037555.732   119962600.239                  
                 129174149.800    24806536.292   129174149.800                  
 21  9  1  9 42 45.0000000  0 25G22G19G21G 1G14G 3G30G 7G17G 8R13R14
                                R17R23R24E13E15E21E26E27C11C23C25C28
                                C34
  23112615.600   121457622.9781                   94642306.7021   23112616.296  
  23244627.867   122151350.7291                   95182864.8171   23244628.528  
  22337625.656   117385039.2061                   91468897.9891   22337627.014  
  20168026.712   105983719.1501   20168031.465    82584740.5841   20168031.429  
  20507247.866   107766321.8721   20507250.117    83973775.0631   20507250.224  
  23853597.129   125351490.5811   23853602.633    97676515.2981   23853602.061  
  21883576.623   114998972.6241   21883581.019    89609606.3831   21883580.573  
  23315225.661   122522326.8941   23315226.447    95471943.9101   23315224.767  
  21423165.397   112579501.8741   21423167.273    87724303.2361   21423166.648  
                                  24574717.419   100629364.475                  
  19954414.854   106555472.565    19954423.127    82876494.403                  
  19793432.415   105510144.479    19793439.652    82063460.467                  
  23084277.527   123528672.048    23084278.671    96077822.312                  
  19735867.375   105573603.525                                                  
  19606040.203   104842321.498    19606047.976    81544078.111                  
  23537267.212   123689203.466                                                  
  23894967.670   125568914.634                                                  
  24208071.478   127214268.511                                                  
  27147733.322   142662287.321                                                  
  23765406.514   124888065.889                                                  
                 118568235.544    22769779.381   118568235.544                  
                 116356477.467    22345036.637   116356477.467                  
                 130297293.658    25022224.513   130297293.658                  
                 119960666.315    23037184.271   119960666.315                  
                 129176835.400    24807052.117   129176835.400                  
 21  9  1  9 42 46.0000000  0 25G22G19G21G 1G14G 3G30G 7G17G 8R13R14
                                R17R23R24E13E15E21E26E27C11C23C25C28
                                C34
  23112302.838   121455978.5631                   94641025.3421   23112303.356  
  23244087.133   122148509.5671                   95180650.9201   23244087.955  
  22338112.640   117387598.1681                   91470891.9811   22338113.963  
  20168196.735   105984612.4871   20168201.328    82585436.6861   20168201.435  
  20507003.471   107765037.9191   20507005.526    83972774.5801   20507005.901  
  23853037.614   125348550.2201   23853043.029    97674224.1071   23853042.457  
  21884023.027   115001318.5161   21884027.548    89611434.3511   21884026.994  
  23315906.685   122525905.9771   23315907.829    95474732.8121   23315905.881  
  21422897.379   112578093.3251   21422899.434    87723205.6641   21422898.630  
                                  24575283.402   100631680.857                  
  19954886.667   106557992.143    19954894.762    82878454.056                  
  19793070.907   105508217.404    19793077.965    82061961.629                  
  23083609.422   123525103.927    23083611.977    96075047.104                  
  19736227.007   105575527.713                                                  
  19605818.949   104841138.510    19605826.937    81543158.005                  
  23537020.959   123687909.732                                                  
  23895255.129   125570425.165                                                  
  24207795.938   127212820.628                                                  
  27147176.863   142659363.304                                                  
  23765644.154   124889314.726                                                  
                 118570265.073    22770169.194   118570265.073                  
                 116357704.828    22345272.365   116357704.828                  
                 130300590.039    25022857.505   130300590.039                  
                 119958732.810    23036812.845   119958732.810                  
                 129179521.189    24807567.907   129179521.189                  
 21  9  1  9 42 47.0000000  0 25G22G19G21G 1G14G 3G30G 7G17G 8R13R14
                                R17R23R24E13E15E21E26E27C11C23C25C28
                                C34
  23111990.094   121454334.2071                   94639744.0201   23111990.416  
  23243546.684   122145668.1501                   95178436.8351   23243547.238  
  22338599.589   117390157.0371                   91472885.9061   22338600.894  
  20168366.688   105985506.0731   20168371.298    82586132.9851   20168371.476  
  20506759.041   107763753.9741   20506761.149    83971774.1031   20506761.560  
  23852477.832   125345609.6651   23852483.371    97671932.7541   23852482.889  
  21884469.431   115003664.4691   21884473.952    89613262.3641   21884473.434  
  23316587.798   122529484.8031   23316588.352    95477521.5161   23316586.941  
  21422629.326   112576684.6011   21422631.381    87722107.9581   21422630.524  
                                  24575848.850   100633996.898                  
  19955358.481   106560511.993    19955366.290    82880413.948                  
  19792709.452   105506290.603    19792716.332    82060463.010                  
  23082941.389   123521535.671    23082945.141    96072271.773                  
  19736586.729   105577451.977                                                  
  19605597.713   104839955.705    19605606.111    81542238.034                  
  23536774.724   123686615.951                                                  
  23895542.516   125571935.587                                                  
  24207520.504   127211372.610                                                  
  27146620.547   142656438.945                                                  
  23765881.741   124890563.489                                                  
                 118572294.372    22770559.025   118572294.372                  
                 116358932.306    22345508.129   116358932.306                  
                 130303886.149    25023490.390   130303886.149                  
                 119956799.159    23036441.384   119956799.159                  
                 129182206.621    24808083.750   129182206.621                  
 21  9  1  9 42 48.0000000  0 25G22G19G21G 1G14G 3G30G 7G17G 8R13R14
                                R17R23R24E13E15E21E26E27C11C23C25C28
                                C34
  23111677.458   121452690.2141                   94638462.9831   23111677.547  
  23243006.164   122142826.7911                   95176222.7821   23243006.557  
  22339086.556   117392716.1041                   91474879.9881   22339087.878  
  20168536.872   105986400.2461   20168541.286    82586829.7441   20168541.643  
  20506514.860   107762470.3471   20506516.969    83970773.8741   20506517.291  
  23851918.460   125342669.2121   23851923.785    97669641.4931   23851923.302  
  21884915.907   115006010.7931   21884920.249    89615090.6681   21884919.963  
  23317268.912   122533063.6801   23317270.949    95480310.2421   23317267.983  
  21422361.255   112575276.0401   21422363.185    87721010.3751   21422362.452  
                                  24576414.172   100636312.864                  
  19955830.634   106563032.430    19955838.175    82882374.285                  
  19792348.158   105504364.424    19792355.145    82058964.871                  
  23082273.659   123517967.574    23082278.305    96069496.608                  
  19736946.503   105579376.625                                                  
  19605376.584   104838773.407    19605384.893    81541318.476                  
  23536528.560   123685322.452                                                  
  23895829.975   125573446.217                                                  
  24207245.018   127209924.759                                                  
  27146064.177   142653514.623                                                  
  23766119.470   124891812.478                                                  
                 118574323.755    22770948.837   118574323.755                  
                 116360160.171    22345743.964   116360160.171                  
                 130307182.315    25024123.150   130307182.315                  
                 119954865.700    23036070.012   119954865.700                  
                 129184892.012    24808599.307   129184892.012                  
 21  9  1  9 42 49.0000000  0 25G22G19G21G 1G14G 3G30G 7G17G 8R13R14
                                R17R23R24E13E15E21E26E27C11C23C25C28
                                C34
  23111365.018   121451047.1731                   94637182.6931   23111364.857  
  23242465.519   122139986.0921                   95174009.2531   23242465.965  
  22339573.683   117395275.9471                   91476874.6701   22339575.005  
  20168707.307   105987295.5881   20168711.756    82587527.4141   20168712.006  
  20506270.716   107761187.6201   20506272.699    83969774.3471   20506273.200  
  23851358.873   125339729.4641   23851364.466    97667350.7781   23851363.930  
  21885362.507   115008358.0871   21885366.742    89616919.7271   21885366.635  
  23317949.865   122536643.1791   23317951.812    95483099.4591   23317949.186  
  21422093.452   112573868.2121   21422094.953    87719913.3671   21422094.524  
                                  24576980.298   100638629.148                  
  19956302.734   106565554.050    19956310.096    82884335.550                  
  19791987.168   105502439.450    19791993.959    82057467.660                  
  23081605.393   123514400.271    23081611.826    96066721.988                  
  19737306.350   105581302.248                                                  
  19605155.669   104837592.220    19605164.032    81540399.784                  
  23536282.540   123684029.804                                                  
  23896117.595   125574957.637                                                  
  24206969.692   127208477.656                                                  
  27145507.771   142650590.918                                                  
  23766357.289   124893062.289                                                  
                 118576353.810    22771338.811   118576353.810                  
                 116361389.030    22345979.978   116361389.030                  
                 130310479.117    25024756.392   130310479.117                  
                 119952933.004    23035698.801   119952933.004                  
                 129187577.930    24809115.150   129187577.930                  
 21  9  1  9 42 50.0000000  0 25G22G19G21G 1G14G 3G30G 7G17G 8R13R14
                                R17R23R24E13E15E21E26E27C11C23C25C28
                                C34
  23111052.203   121449404.0341                   94635902.3251   23111052.149  
  23241924.999   122137144.9771                   95171795.3971   23241925.267  
  22340060.936   117397835.5231                   91478869.1451   22340062.079  
  20168877.831   105988191.0201   20168882.209    82588225.1541   20168882.388  
  20506026.589   107759904.7201   20506028.787    83968774.6821   20506029.091  
  23850799.305   125336789.3231   23850805.077    97665059.7611   23850804.433  
  21885809.143   115010705.2621   21885813.486    89618748.6961   21885813.307  
  23318631.014   122540222.2641   23318632.247    95485888.3571   23318630.246  
  21421825.470   112572460.0401   21421827.007    87718816.0881   21421826.560  
                                  24577546.049   100640945.029                  
  19956775.048   106568075.778    19956782.481    82886296.906                  
  19791626.125   105500514.563    19791633.129    82055970.521                  
  23080937.753   123510832.592    23080944.990    96063947.122                  
  19737666.143   105583227.736                                                  
  19604934.790   104836411.072    19604943.349    81539481.132                  
  23536036.519   123682736.951                                                  
  23896405.161   125576468.770                                                  
  24206694.259   127207030.231                                                  
  27144951.258   142647666.702                                                  
  23766595.019   124894311.860                                                  
                 118578383.452    22771728.606   118578383.452                  
                 116362617.808    22346215.938   116362617.808                  
                 130313775.475    25025389.349   130313775.475                  
                 119950999.996    23035327.590   119950999.996                  
                 129190263.326    24809631.064   129190263.326                  
 21  9  1  9 42 51.0000000  0 25G22G19G21G 1G14G 3G30G 7G17G 8R13R14
                                R17R23R24E13E15E21E26E27C11C23C25C28
                                C34
  23110739.584   121447761.7201                   94634622.6001   23110739.567  
  23241384.657   122134304.4011                   95169581.9641   23241384.711  
  22340548.099   117400395.7671                   91480864.1361   22340549.278  
  20169048.373   105989087.5121   20169052.822    82588923.7211   20169052.983  
  20505782.606   107758622.6071   20505784.964    83967775.6351   20505785.143  
  23850239.897   125333849.7891   23850245.669    97662769.2171   23850244.990  
  21886255.923   115013053.2931   21886260.426    89620578.3331   21886260.122  
  23319312.020   122543801.8601   23319314.040    95488677.6501   23319311.520  
  21421557.632   112571052.4941   21421559.115    87717719.2991   21421558.686  
                                  24578111.693   100643261.175                  
  19957247.183   106570598.571    19957254.545    82888259.080                  
  19791265.331   105498590.727    19791272.318    82054474.197                  
  23080269.934   123507265.535    23080278.404    96061172.737                  
  19738026.096   105585154.082                                                  
  19604714.107   104835230.975    19604722.488    81538563.274                  
  23535790.677   123681444.855                                                  
  23896692.835   125577980.586                                                  
  24206418.897   127205583.451                                                  
  27144394.549   142644743.017                                                  
  23766832.927   124895562.140                                                  
                 118580413.673    22772118.508   118580413.673                  
                 116363847.461    22346451.970   116363847.461                  
                 130317072.347    25026022.359   130317072.347                  
                 119949067.650    23034956.433   119949067.650                  
                 129192949.145    24810147.032   129192949.145                  
 21  9  1  9 42 52.0000000  0 25G22G19G21G 1G14G 3G30G 7G17G 8R13R14
                                R17R23R24E13E15E21E26E27C11C23C25C28
                                C34
  23110427.162   121446119.7671                   94633343.1561   23110427.055  
  23240844.298   122131463.8731                   95167368.5701   23240844.209  
  22341035.387   117402956.2111                   91482859.2871   22341036.513  
  20169219.040   105989984.5751   20169223.704    82589622.7321   20169223.686  
  20505538.676   107757340.7931   20505541.088    83966776.8171   20505541.249  
  23849680.472   125330910.3611   23849686.386    97660478.7541   23849685.761  
  21886702.845   115015401.6761   21886707.312    89622408.2371   21886707.008  
  23319993.188   122547381.5061   23319994.957    95491466.9841   23319992.777  
  21421289.864   112569645.0891   21421291.258    87716622.6171   21421290.829  
                                  24578677.462   100645577.244                  
  19957719.640   106573121.936    19957726.788    82890221.674                  
  19790904.538   105496667.453    19790911.489    82052978.334                  
  23079601.829   123503698.669    23079610.764    96058398.519                  
  19738386.068   105587080.788                                                  
  19604493.479   104834051.394    19604501.663    81537645.806                  
  23535544.853   123680153.014                                                  
  23896980.598   125579492.596                                                  
  24206143.571   127204136.838                                                  
  27143837.840   142641819.270                                                  
  23767070.889   124896812.641                                                  
                 118582443.952    22772508.392   118582443.952                  
                 116365077.510    22346688.127   116365077.510                  
                 130320369.266    25026655.190   130320369.266                  
                 119947135.474    23034585.347   119947135.474                  
                 129195634.926    24810663.054   129195634.926                  
 21  9  1  9 42 53.0000000  0 25G22G19G21G 1G14G 3G30G 7G17G 8R13R14
                                R17R23R24E13E15E21E26E27C11C23C25C28
                                C34
  23110114.687   121444478.1101                   94632063.9431   23110114.580  
  23240303.546   122128623.3381                   95165155.1691   23240303.724  
  22341522.640   117405516.7821                   91484854.5371   22341523.765  
  20169389.886   105990882.1531   20169394.710    82590322.1451   20169394.478  
  20505294.710   107756059.2311   20505297.283    83965778.1951   20505297.372  
  23849121.064   125327970.9711   23849127.175    97658188.3131   23849126.461  
  21887149.767   115017750.3561   21887154.574    89624238.3771   21887153.930  
  23320674.301   122550961.1191   23320675.445    95494256.3001   23320674.087  
  21421022.151   112568237.7591   21421024.313    87715525.9971   21421022.990  
                                  24579242.731   100647893.180                  
  19958192.329   106575645.819    19958199.531    82892184.681                  
  19790543.816   105494744.700    19790550.946    82051482.862                  
  23078934.082   123500131.856    23078943.177    96055624.341                  
  19738746.200   105589007.803                                                  
  19604272.957   104832872.199    19604280.909    81536728.652                  
  23535299.082   123678861.381                                                  
  23897268.342   125581004.737                                                  
  24205868.299   127202690.311                                                  
  27143281.577   142638895.500                                                  
  23767308.886   124898063.305                                                  
                 118584474.228    22772898.241   118584474.228                  
                 116366307.901    22346924.392   116366307.901                  
                 130323666.170    25027288.129   130323666.170                  
                 119945203.399    23034214.332   119945203.399                  
                 129198320.590    24811178.897   129198320.590                  
 21  9  1  9 42 54.0000000  0 25G22G19G21G 1G14G 3G30G 7G17G 8R13R14
                                R17R23R24E13E15E21E26E27C11C23C25C28
                                C34
  23109802.497   121442837.0081                   94630785.1621   23109802.247  
  23239763.061   122125783.0831                   95162941.9851   23239763.222  
  22342009.910   117408077.7721                   91486850.1161   22342011.125  
  20169560.892   105991780.5081   20169565.824    82591022.1621   20169565.431  
  20505050.905   107754778.1921   20505053.532    83964779.9851   20505053.603  
  23848562.175   125325031.8771   23848568.071    97655898.1171   23848567.142  
  21887596.886   115020099.6231   21887601.567    89626068.9771   21887600.996  
  23321355.647   122554540.9931   23321355.826    95497045.8131   23321355.432  
  21420754.491   112566830.7821   21420756.671    87714429.6551   21420755.205  
                                  24579808.393   100650209.162                  
  19958665.376   106578170.499    19958672.452    82894148.312                  
  19790183.201   105492822.766    19790190.349    82049988.024                  
  23078266.691   123496565.450    23078276.966    96052850.498                  
  19739106.439   105590935.409                                                  
  19604052.543   104831693.699    19604060.530    81535812.034                  
  23535053.455   123677570.227                                                  
  23897556.159   125582517.293                                                  
  24205593.152   127201244.167                                                  
  27142725.118   142635971.930                                                  
  23767546.973   124899314.419                                                  
                 118586504.794    22773288.214   118586504.794                  
                 116367538.883    22347160.709   116367538.883                  
                 130326963.304    25027921.407   130326963.304                  
                 119943271.717    23033843.353   119943271.717                  
                 129201006.400    24811694.740   129201006.400                  
 21  9  1  9 42 55.0000000  0 25G22G19G21G 1G14G 3G30G 7G17G 8R13R14
                                R17R23R24E13E15E21E26E27C11C23C25C28
                                C34
  23109490.665   121441196.6961                   94629506.9991   23109490.057  
  23239222.631   122122943.3001                   95160729.1741   23239222.845  
  22342497.377   117410639.3571                   91488846.1561   22342498.574  
  20169732.167   105992679.8661   20169736.759    82591722.9581   20169736.563  
  20504807.332   107753497.8721   20504809.888    83963782.3331   20504809.959  
  23848002.946   125322093.3321   23848008.682    97653608.3421   23848007.931  
  21888044.183   115022449.6701   21888048.686    89627900.1801   21888048.186  
  23322037.064   122558121.2931   23322037.636    95499835.6611   23322036.778  
  21420486.938   112565424.3631   21420489.010    87713333.7441   21420487.545  
                                  24580374.108   100652525.400                  
  19959138.405   106580696.166    19959146.285    82896112.754                  
  19789822.872   105490901.853    19789829.734    82048493.980                  
  23077599.945   123492999.636    23077610.577    96050077.070                  
  19739466.929   105592863.818                                                  
  19603832.360   104830516.140    19603840.312    81534896.164                  
  23534807.952   123676279.756                                                  
  23897844.136   125584030.453                                                  
  24205318.040   127199798.594                                                  
  27142168.676   142633048.800                                                  
  23767785.239   124900566.184                                                  
                 118588535.838    22773678.223   118588535.838                  
                 116368770.679    22347397.224   116368770.679                  
                 130330260.923    25028554.435   130330260.923                  
                 119941340.617    23033472.589   119941340.617                  
                 129203692.576    24812210.654   129203692.576                  
 21  9  1  9 42 56.0000000  0 25G22G19G21G 1G14G 3G30G 7G17G 8R13R14
                                R17R23R24E13E15E21E26E27C11C23C25C28
                                C34
  23109178.672   121439556.6881                   94628229.0641   23109177.939  
  23238681.968   122120103.5371                   95158516.3671   23238682.432  
  22342984.647   117413201.0991                   91490842.3161   22342986.059  
  20169903.513   105993579.7471   20169908.141    82592424.1671   20169907.784  
  20504563.635   107752217.8061   20504566.172    83962784.8841   20504566.404  
  23847443.485   125319154.8141   23847449.685    97651318.5851   23847448.810  
  21888491.409   115024800.0431   21888495.787    89629731.6401   21888495.447  
  23322718.231   122561701.5991   23322719.304    95502625.5101   23322718.088  
  21420219.403   112564018.0371   21420221.154    87712237.9081   21420219.903  
                                  24580939.931   100654841.491                  
  19959611.595   106583222.382    19959620.350    82898077.565                  
  19789462.633   105488981.499    19789469.566    82047000.363                  
  23076933.019   123489433.863    23076944.830    96047303.699                  
  19739827.562   105594792.574                                                  
  19603612.321   104829339.074    19603620.041    81533980.673                  
  23534562.450   123674989.505                                                  
  23898132.095   125585543.772                                                  
  24205042.875   127198353.140                                                  
  27141612.664   142630125.649                                                  
  23768023.468   124901818.120                                                  
                 118590566.937    22774068.322   118590566.937                  
                 116370002.833    22347633.863   116370002.833                  
                 130333558.534    25029187.678   130333558.534                  
                 119939409.647    23033101.896   119939409.647                  
                 129206378.662    24812726.658   129206378.662                  
 21  9  1  9 42 57.0000000  0 25G22G19G21G 1G14G 3G30G 7G17G 8R13R14
                                R17R23R24E13E15E21E26E27C11C23C25C28
                                C34
  23108866.536   121437917.1331                   94626951.4951   23108865.892  
  23238141.376   122117263.8891                   95156303.6521   23238141.966  
  22343472.132   117415763.1011                   91492838.6821   22343473.580  
  20170074.913   105994480.2741   20170079.701    82593125.8761   20170079.148  
  20504320.169   107750938.1231   20504322.617    83961787.7281   20504322.903  
  23846884.595   125316216.4921   23846890.706    97649028.9901   23846889.724  
  21888938.778   115027150.8501   21888942.959    89631563.4381   21888942.780  
  23323399.452   122565281.9991   23323401.668    95505415.4301   23323399.470  
  21419951.725   112562611.9321   21419953.440    87711142.2391   21419952.296  
                                  24581505.485   100657157.555                  
  19960084.909   106585749.230    19960093.683    82900042.919                  
  19789102.483   105487061.797    19789109.487    82045507.268                  
  23076266.326   123485868.297    23076277.708    96044530.524                  
  19740188.230   105596721.779                                                  
  19603392.372   104828162.593    19603400.430    81533065.637                  
  23534317.054   123673699.598                                                  
  23898420.072   125587057.360                                                  
  24204767.835   127196907.910                                                  
  27141056.758   142627202.513                                                  
  23768261.788   124903070.361                                                  
                 118592598.158    22774458.474   118592598.158                  
                 116371235.452    22347870.574   116371235.452                  
                 130336856.267    25029821.081   130336856.267                  
                 119937478.919    23032731.203   119937478.919                  
                 129209064.757    24813242.608   129209064.757                  
 21  9  1  9 42 58.0000000  0 25G22G19G21G 1G14G 3G30G 7G17G 8R13R14
                                R17R23R24E13E15E21E26E27C11C23C25C28
                                C34
  23108554.739   121436278.3431                   94625674.5191   23108553.988  
  23237601.106   122114424.7511                   95154091.3391   23237601.731  
  22343959.688   117418325.7491                   91494835.5451   22343961.225  
  20170246.348   105995381.8101   20170251.065    82593828.3731   20170250.708  
  20504076.686   107749659.1851   20504079.188    83960791.1461   20504079.527  
  23846325.402   125313278.7071   23846331.728    97646739.8171   23846330.602  
  21889386.165   115029502.4521   21889390.328    89633395.8551   21889390.292  
  23324080.798   122568862.9001   23324082.281    95508205.7521   23324080.941  
  21419684.297   112561206.3981   21419685.691    87710047.0231   21419684.815  
                                  24582071.040   100659473.892                  
  19960558.563   106588277.118    19960567.355    82902009.043                  
  19788742.475   105485143.105    19788749.712    82044014.956                  
  23075600.008   123482303.367    23075611.676    96041757.773                  
  19740549.256   105598651.804                                                  
  19603172.565   104826987.059    19603180.731    81532151.334                  
  23534071.677   123672410.381                                                  
  23898708.175   125588571.574                                                  
  24204492.956   127195463.272                                                  
  27140500.603   142624279.870                                                  
  23768500.142   124904323.273                                                  
                 118594629.893    22774848.734   118594629.893                  
                 116372468.899    22348107.339   116372468.899                  
                 130340154.442    25030454.216   130340154.442                  
                 119935548.789    23032360.546   119935548.789                  
                 129211751.224    24813758.362   129211751.224                  
 21  9  1  9 42 59.0000000  0 25G22G19G21G 1G14G 3G30G 7G17G 8R13R14
                                R17R23R24E13E15E21E26E27C11C23C25C28
                                C34
  23108243.014   121434640.1521                   94624398.0061   23108242.210  
  23237060.836   122111585.8691                   95151879.2261   23237061.479  
  22344447.352   117420888.8021                   91496832.7301   22344448.942  
  20170418.087   105996284.1411   20170422.805    82594531.4891   20170422.429  
  20503833.471   107748380.7721   20503836.026    83959794.9851   20503836.240  
  23845766.387   125310341.2541   23845772.409    97644450.8921   23845771.605  
  21889833.801   115031854.6411   21889837.697    89635228.7341   21889837.876  
  23324762.412   122572444.0541   23324763.198    95510996.2571   23324762.412  
  21419416.869   112559801.2231   21419418.013    87708952.0791   21419417.441  
                                  24582637.166   100661790.285                  
  19961032.021   106590805.818    19961040.223    82903975.816                  
  19788382.683   105483225.198    19788390.152    82042523.244                  
  23074934.583   123478738.841    23074945.251    96038985.352                  
  19740910.317   105600582.412                                                  
  19602952.847   104825812.226    19602961.281    81531237.583                  
  23533826.442   123671121.662                                                  
