% program   : rnx2rtkp ver.2.4.3 b31
% inp file  : ngs/21_08_31_02_34_42_ncrd.obs
% inp file  : ngs/21_08_31_02_34_42_ncrd_P1.obs
% inp file  : ngs/21_08_31_02_34_42_brdc.nav
% obs start : 2021/08/31 02:00:00.0 GPST (week2173 180000.0s)
% obs end   : 2021/08/31 02:59:59.0 GPST (week2173 183599.0s)
% ref pos   :  1033835.1850  -5104419.7280   3669659.7700
%
% (x/y/z-ecef=WGS84,Q=1:fix,2:float,3:sbas,4:dgps,5:single,6:ppp,ns=# of satellites)
%  GPST              x-ecef(m)      y-ecef(m)      z-ecef(m)   Q  ns   sdx(m)   sdy(m)   sdz(m)  sdxy(m)  sdyz(m)  sdzx(m) age(s)  ratio
2173 182057.000   1026003.2427  -5078804.1708   3706983.1006   2   7   0.5249   1.0035   0.7958  -0.5232  -0.6582   0.1945 -30.00    1.1
2173 182058.000   1026003.3551  -5078804.4214   3706983.1748   2   7   0.3732   0.7145   0.5663  -0.3716  -0.4687   0.1369 -29.00    1.1
2173 182059.000   1026003.3820  -5078804.5320   3706983.1541   2   7   0.3056   0.5851   0.4637  -0.3042  -0.3838   0.1119 -28.00    1.0
2173 182060.000   1026003.3678  -5078804.5350   3706983.1158   2   7   0.2652   0.5077   0.4023  -0.2640  -0.3330   0.0971 -27.00    1.0
2173 182061.000   1026003.3086  -5078804.4753   3706983.0601   2   7   0.2375   0.4547   0.3603  -0.2365  -0.2983   0.0870 -26.00    1.1
2173 182062.000   1026003.2727  -5078804.4759   3706983.0806   2   7   0.2171   0.4154   0.3292  -0.2161  -0.2725   0.0795 -25.00    1.1
2173 182063.000   1026003.3019  -5078804.5256   3706983.1038   2   7   0.2012   0.3849   0.3051  -0.2003  -0.2525   0.0737 -24.00    1.0
2173 182064.000   1026003.3386  -5078804.5254   3706983.1278   2   7   0.1883   0.3603   0.2855  -0.1875  -0.2363   0.0689 -23.00    1.0
2173 182065.000   1026003.3425  -5078804.5094   3706983.1431   2   7   0.1776   0.3398   0.2693  -0.1768  -0.2228   0.0650 -22.00    1.0
2173 182066.000   1026003.3518  -5078804.5251   3706983.1450   2   7   0.1686   0.3224   0.2555  -0.1678  -0.2114   0.0616 -21.00    1.1
2173 182067.000   1026003.3460  -5078804.5299   3706983.1507   2   7   0.1608   0.3075   0.2437  -0.1600  -0.2016   0.0587 -20.00    1.1
2173 182068.000   1026003.3300  -5078804.5200   3706983.1563   2   7   0.1540   0.2944   0.2333  -0.1532  -0.1930   0.0561 -19.00    1.1
2173 182069.000   1026003.3228  -5078804.5137   3706983.1329   2   7   0.1479   0.2828   0.2241  -0.1472  -0.1854   0.0538 -18.00    1.2
2173 182070.000   1026003.3157  -5078804.5065   3706983.1156   2   7   0.1425   0.2725   0.2159  -0.1418  -0.1786   0.0517 -17.00    1.3
2173 182071.000   1026003.3093  -5078804.5116   3706983.1185   2   7   0.1377   0.2632   0.2085  -0.1370  -0.1725   0.0499 -16.00    1.4
2173 182072.000   1026003.3123  -5078804.5174   3706983.1245   2   7   0.1333   0.2548   0.2018  -0.1326  -0.1669   0.0481 -15.00    1.5
2173 182073.000   1026003.3166  -5078804.5214   3706983.1334   2   7   0.1292   0.2471   0.1957  -0.1286  -0.1618   0.0466 -14.00    1.6
2173 182074.000   1026003.3152  -5078804.5134   3706983.1325   2   7   0.1255   0.2400   0.1901  -0.1249  -0.1572   0.0451 -13.00    1.8
2173 182075.000   1026003.3128  -5078804.4893   3706983.1171   2   7   0.1221   0.2335   0.1849  -0.1215  -0.1529   0.0438 -12.00    1.9
2173 182076.000   1026003.3095  -5078804.4942   3706983.1330   2   7   0.1190   0.2275   0.1801  -0.1183  -0.1489   0.0425 -11.00    2.0
2173 182077.000   1026003.3008  -5078804.4779   3706983.1265   2   7   0.1161   0.2219   0.1756  -0.1154  -0.1452   0.0414 -10.00    2.2
2173 182078.000   1026003.2979  -5078804.4801   3706983.1199   2   7   0.1134   0.2167   0.1715  -0.1127  -0.1418   0.0403  -9.00    2.4
2173 182079.000   1026003.2958  -5078804.4818   3706983.1239   2   7   0.1108   0.2119   0.1676  -0.1101  -0.1385   0.0393  -8.00    2.6
2173 182080.000   1026003.2954  -5078804.4729   3706983.1189   2   7   0.1084   0.2073   0.1639  -0.1077  -0.1355   0.0383  -7.00    2.9
2173 182081.000   1026003.4709  -5078804.5386   3706983.0599   1   7   0.0083   0.0150   0.0119  -0.0088  -0.0098   0.0048  -6.00    3.3
2173 182082.000   1026003.4678  -5078804.5342   3706983.0594   1   7   0.0076   0.0138   0.0109  -0.0080  -0.0090   0.0040  -5.00    3.3
2173 182083.000   1026003.4671  -5078804.5306   3706983.0556   1   7   0.0069   0.0126   0.0100  -0.0071  -0.0082   0.0034  -4.00    3.3
2173 182084.000   1026003.4690  -5078804.5327   3706983.0582   1   7   0.0064   0.0117   0.0093  -0.0063  -0.0076   0.0031  -3.00    3.3
2173 182085.000   1026003.4678  -5078804.5325   3706983.0568   1   7   0.0059   0.0109   0.0086  -0.0058  -0.0070   0.0024  -2.00    3.3
2173 182086.000   1026003.4656  -5078804.5295   3706983.0534   1   7   0.0054   0.0103   0.0082  -0.0053  -0.0068   0.0022  -1.00    3.3
2173 182087.000   1026003.4648  -5078804.5296   3706983.0506   1   7   0.0050   0.0102   0.0081  -0.0052  -0.0066   0.0019   0.00    3.3
2173 182088.000   1026003.4639  -5078804.5273   3706983.0510   1   7   0.0053   0.0101   0.0080  -0.0053  -0.0066   0.0018   0.00    3.0
2173 182089.000   1026003.4520  -5078804.8061   3706982.9702   2   7   0.5256   1.0005   0.7954  -0.5223  -0.6547   0.1842   0.00    2.6
2173 182090.000   1026002.5304  -5078803.4653   3706983.2863   2   8   0.4609   0.9035   0.7953  -0.4052  -0.6543   0.1835   0.00    2.6
2173 182091.000   1026002.5877  -5078803.4927   3706983.4571   2   8   0.4562   0.8997   0.7951  -0.3985  -0.6555   0.1870   0.00    2.9
2173 182092.000   1026002.5954  -5078803.1892   3706983.1497   2   8   0.4545   0.8983   0.7950  -0.3960  -0.6560   0.1882   0.00    2.7
2173 182093.000   1026003.4649  -5078804.5321   3706983.0519   1   8   0.0047   0.0091   0.0080  -0.0041  -0.0066   0.0018   0.00    3.7
2173 182094.000   1026003.4653  -5078804.5349   3706983.0522   1   8   0.0047   0.0091   0.0080  -0.0041  -0.0066   0.0018   0.00    3.6
2173 182095.000   1026003.4663  -5078804.5352   3706983.0523   1   8   0.0047   0.0091   0.0080  -0.0041  -0.0066   0.0018   0.00    3.4
2173 182096.000   1026003.4657  -5078804.5340   3706983.0535   1   8   0.0047   0.0091   0.0080  -0.0041  -0.0066   0.0018   0.00    4.0
2173 182097.000   1026003.4663  -5078804.5355   3706983.0543   1   8   0.0047   0.0091   0.0080  -0.0041  -0.0066   0.0018   0.00    3.7
2173 182098.000   1026003.4659  -5078804.5355   3706983.0553   1   8   0.0047   0.0091   0.0080  -0.0041  -0.0066   0.0018   0.00    4.3
2173 182099.000   1026003.4671  -5078804.5361   3706983.0518   1   8   0.0047   0.0091   0.0080  -0.0041  -0.0066   0.0018   0.00    3.1
2173 182100.000   1026003.4675  -5078804.5371   3706983.0542   1   8   0.0047   0.0091   0.0080  -0.0041  -0.0066   0.0018   0.00    3.4
2173 182101.000   1026002.5342  -5078803.1599   3706982.9919   2   8   0.4611   0.9031   0.7957  -0.4050  -0.6540   0.1815   0.00    2.8
2173 182102.000   1026002.4251  -5078803.0922   3706983.2400   2   8   0.4612   0.9031   0.7957  -0.4050  -0.6540   0.1813   0.00    2.6
2173 182103.000   1026002.0680  -5078802.3346   3706982.7683   2   8   0.4612   0.9031   0.7957  -0.4050  -0.6539   0.1811   0.00    1.9
2173 182104.000   1026002.0794  -5078802.5919   3706983.3584   2   8   0.4612   0.9030   0.7957  -0.4050  -0.6539   0.1810   0.00    1.7
2173 182105.000   1026001.8314  -5078802.4103   3706983.3577   2   8   0.4612   0.9030   0.7958  -0.4050  -0.6539   0.1808   0.00    1.4
2173 182106.000   1026001.5652  -5078801.9417   3706983.0628   2   8   0.4613   0.9030   0.7958  -0.4050  -0.6539   0.1806   0.00    1.1
2173 182107.000   1026001.4705  -5078801.8472   3706983.2704   2   8   0.4613   0.9030   0.7958  -0.4050  -0.6538   0.1804   0.00    1.0
2173 182108.000   1026001.6250  -5078802.2584   3706983.4715   2   8   0.4613   0.9029   0.7958  -0.4050  -0.6538   0.1802   0.00    1.1
2173 182109.000   1026001.7789  -5078802.4702   3706983.1363   2   8   0.4613   0.9029   0.7959  -0.4049  -0.6538   0.1800   0.00    1.3
2173 182110.000   1026001.9260  -5078802.5160   3706983.3762   2   8   0.4614   0.9029   0.7959  -0.4049  -0.6538   0.1798   0.00    1.4
2173 182111.000   1026001.8496  -5078802.2981   3706982.9843   2   8   0.4614   0.9028   0.7959  -0.4049  -0.6537   0.1797   0.00    1.4
2173 182112.000   1026001.9586  -5078802.3313   3706983.1537   2   8   0.4614   0.9028   0.7960  -0.4049  -0.6537   0.1795   0.00    1.4
2173 182113.000   1026002.1171  -5078802.6997   3706983.1980   2   8   0.4614   0.9028   0.7960  -0.4049  -0.6537   0.1793   0.00    1.6
2173 182114.000   1026002.4863  -5078803.4348   3706983.2450   2   8   0.4615   0.9028   0.7960  -0.4049  -0.6537   0.1791   0.00    2.1
2173 182115.000   1026002.5806  -5078803.7112   3706983.1745   2   8   0.4615   0.9027   0.7960  -0.4049  -0.6536   0.1789   0.00    2.5
2173 182116.000   1026003.4630  -5078804.5333   3706983.0535   1   8   0.0047   0.0091   0.0080  -0.0041  -0.0066   0.0017   0.00    3.1
2173 182117.000   1026003.4654  -5078804.5354   3706983.0548   1   8   0.0047   0.0091   0.0080  -0.0041  -0.0066   0.0017   0.00    3.4
2173 182118.000   1026003.4642  -5078804.5340   3706983.0528   1   8   0.0047   0.0091   0.0080  -0.0041  -0.0066   0.0017   0.00    3.5
2173 182119.000   1026003.4644  -5078804.5343   3706983.0550   1   8   0.0047   0.0091   0.0080  -0.0041  -0.0066   0.0017   0.00    3.5
2173 182120.000   1026003.4615  -5078804.5324   3706983.0567   1   8   0.0047   0.0091   0.0080  -0.0041  -0.0066   0.0017   0.00    3.0
2173 182121.000   1026003.4624  -5078804.5340   3706983.0533   1   8   0.0047   0.0091   0.0080  -0.0041  -0.0066   0.0017   0.00    3.5
2173 182122.000   1026004.1590  -5078805.7732   3706983.3244   2   8   0.4617   0.9025   0.7962  -0.4048  -0.6535   0.1776   0.00    2.9
2173 182123.000   1026003.9709  -5078805.6966   3706983.1803   2   8   0.4617   0.9025   0.7963  -0.4048  -0.6534   0.1774   0.00    3.0
2173 182124.000   1026003.9528  -5078805.8286   3706983.2222   2   8   0.4617   0.9025   0.7963  -0.4048  -0.6534   0.1772   0.00    2.4
2173 182125.000   1026003.4628  -5078804.5369   3706983.0542   1   8   0.0047   0.0091   0.0080  -0.0041  -0.0066   0.0017   0.00    3.0
2173 182126.000   1026004.0875  -5078805.9936   3706983.2751   2   8   0.4618   0.9024   0.7963  -0.4047  -0.6534   0.1768   0.00    2.4
2173 182127.000   1026003.8930  -5078806.0686   3706983.3191   2   8   0.4618   0.9024   0.7964  -0.4047  -0.6533   0.1766   0.00    2.6
2173 182128.000   1026003.8970  -5078805.6216   3706983.2105   2   8   0.4618   0.9023   0.7964  -0.4047  -0.6533   0.1764   0.00    2.8
2173 182129.000   1026003.8837  -5078805.8449   3706983.1349   2   8   0.4618   0.9023   0.7964  -0.4047  -0.6533   0.1762   0.00    2.3
2173 182130.000   1026003.4616  -5078804.5402   3706983.0559   1   8   0.0047   0.0091   0.0081  -0.0041  -0.0066   0.0017   0.00    3.2
2173 182131.000   1026003.4603  -5078804.5363   3706983.0574   1   8   0.0047   0.0091   0.0081  -0.0041  -0.0066   0.0017   0.00    3.3
2173 182132.000   1026003.9285  -5078805.7139   3706983.4261   2   8   0.4619   0.9022   0.7965  -0.4047  -0.6532   0.1757   0.00    2.4
2173 182133.000   1026003.9788  -5078805.7708   3706983.2667   2   8   0.4619   0.9022   0.7965  -0.4047  -0.6532   0.1755   0.00    2.8
2173 182134.000   1026004.2818  -5078806.5013   3706983.8442   2   8   0.4620   0.9022   0.7966  -0.4046  -0.6531   0.1753   0.00    2.3
2173 182135.000   1026004.4266  -5078806.3194   3706983.5549   2   8   0.4620   0.9021   0.7966  -0.4046  -0.6531   0.1751   0.00    2.2
2173 182136.000   1026004.3873  -5078806.5361   3706983.5999   2   8   0.4620   0.9021   0.7966  -0.4046  -0.6531   0.1749   0.00    2.0
2173 182137.000   1026004.2136  -5078806.4840   3706983.8157   2   8   0.4620   0.9021   0.7967  -0.4046  -0.6531   0.1747   0.00    2.3
2173 182138.000   1026003.8034  -5078806.1480   3706983.8570   2   8   0.4621   0.9021   0.7967  -0.4046  -0.6530   0.1745   0.00    2.4
2173 182139.000   1026003.9563  -5078805.8354   3706983.7133   2   8   0.4621   0.9020   0.7967  -0.4046  -0.6530   0.1743   0.00    2.3
2173 182140.000   1026003.9253  -5078805.6065   3706983.8141   2   8   0.4621   0.9020   0.7967  -0.4046  -0.6530   0.1741   0.00    2.5
2173 182141.000   1026003.8757  -5078805.5638   3706983.6676   2   8   0.4622   0.9020   0.7968  -0.4046  -0.6530   0.1739   0.00    2.2
2173 182142.000   1026003.7342  -5078805.4147   3706983.7543   2   8   0.4622   0.9019   0.7968  -0.4045  -0.6529   0.1737   0.00    2.6
2173 182143.000   1026003.6020  -5078805.1819   3706983.8546   2   8   0.4622   0.9019   0.7968  -0.4045  -0.6529   0.1735   0.00    2.4
2173 182144.000   1026003.8215  -5078805.5034   3706983.6846   2   8   0.4622   0.9019   0.7969  -0.4045  -0.6529   0.1733   0.00    2.6
2173 182145.000   1026003.9115  -5078805.6043   3706983.7771   2   8   0.4623   0.9019   0.7969  -0.4045  -0.6529   0.1731   0.00    2.6
2173 182146.000   1026003.9426  -5078805.4119   3706983.6600   2   8   0.4623   0.9018   0.7969  -0.4045  -0.6528   0.1729   0.00    2.6
2173 182147.000   1026004.1061  -5078805.5172   3706983.7604   2   8   0.4623   0.9018   0.7969  -0.4045  -0.6528   0.1727   0.00    2.6
2173 182148.000   1026003.4591  -5078804.5352   3706983.0580   1   8   0.0047   0.0091   0.0081  -0.0041  -0.0066   0.0017   0.00    3.2
2173 182149.000   1026003.4615  -5078804.5388   3706983.0559   1   8   0.0047   0.0091   0.0081  -0.0041  -0.0066   0.0017   0.00    3.1
2173 182150.000   1026003.4617  -5078804.5371   3706983.0563   1   8   0.0047   0.0091   0.0081  -0.0041  -0.0066   0.0017   0.00    3.4
2173 182151.000   1026003.6754  -5078804.8373   3706983.7663   2   8   0.4624   0.9017   0.7971  -0.4044  -0.6527   0.1720   0.00    2.5
2173 182152.000   1026003.5535  -5078804.4607   3706983.6172   2   8   0.4624   0.9017   0.7971  -0.4044  -0.6527   0.1718   0.00    2.4
2173 182153.000   1026003.6750  -5078804.5859   3706983.6515   2   8   0.4625   0.9016   0.7971  -0.4044  -0.6527   0.1716   0.00    2.3
2173 182154.000   1026003.7655  -5078804.6991   3706983.7329   2   8   0.4625   0.9016   0.7971  -0.4044  -0.6526   0.1714   0.00    2.5
2173 182155.000   1026003.7115  -5078804.6019   3706983.9900   2   8   0.4625   0.9016   0.7972  -0.4044  -0.6526   0.1712   0.00    2.4
2173 182156.000   1026004.0294  -5078805.0090   3706983.9387   2   8   0.4625   0.9015   0.7972  -0.4044  -0.6526   0.1710   0.00    1.9
2173 182157.000   1026004.0568  -5078804.9043   3706983.7882   2   8   0.4626   0.9015   0.7972  -0.4044  -0.6526   0.1708   0.00    2.1
2173 182158.000   1026003.8723  -5078804.4943   3706983.7252   2   8   0.4626   0.9015   0.7972  -0.4043  -0.6525   0.1706   0.00    2.0
2173 182159.000   1026003.9479  -5078804.5919   3706983.8399   2   8   0.4626   0.9015   0.7973  -0.4043  -0.6525   0.1704   0.00    2.1
2173 182160.000   1026004.0262  -5078804.5020   3706983.6898   2   8   0.4626   0.9014   0.7973  -0.4043  -0.6525   0.1702   0.00    2.1
2173 182161.000   1026004.1220  -5078804.8344   3706983.7489   2   8   0.4627   0.9014   0.7973  -0.4043  -0.6525   0.1700   0.00    1.7
2173 182162.000   1026004.2032  -5078804.9178   3706983.4918   2   8   0.4627   0.9014   0.7974  -0.4043  -0.6524   0.1698   0.00    1.8
2173 182163.000   1026004.3950  -5078805.0274   3706983.6157   2   8   0.4627   0.9014   0.7974  -0.4043  -0.6524   0.1696   0.00    1.8
2173 182164.000   1026004.3497  -5078805.3748   3706983.6401   2   8   0.4627   0.9013   0.7974  -0.4043  -0.6524   0.1694   0.00    1.7
2173 182165.000   1026004.4754  -5078805.3685   3706983.5949   2   8   0.4628   0.9013   0.7974  -0.4043  -0.6524   0.1692   0.00    1.6
2173 182166.000   1026004.2612  -5078805.1706   3706983.3157   2   8   0.4628   0.9013   0.7975  -0.4042  -0.6523   0.1690   0.00    1.6
2173 182167.000   1026004.5160  -5078805.4255   3706983.3501   2   8   0.4628   0.9012   0.7975  -0.4042  -0.6523   0.1687   0.00    1.4
2173 182168.000   1026004.4855  -5078805.3995   3706983.5174   2   8   0.4629   0.9012   0.7975  -0.4042  -0.6523   0.1685   0.00    1.6
2173 182169.000   1026004.4571  -5078805.4053   3706983.6317   2   8   0.4629   0.9012   0.7976  -0.4042  -0.6523   0.1683   0.00    1.7
2173 182170.000   1026004.1416  -5078804.8094   3706983.3609   2   8   0.4629   0.9012   0.7976  -0.4042  -0.6522   0.1681   0.00    1.8
2173 182171.000   1026004.2721  -5078804.9794   3706983.4620   2   8   0.4629   0.9011   0.7976  -0.4042  -0.6522   0.1679   0.00    1.6
2173 182172.000   1026004.1524  -5078805.0461   3706983.4716   2   8   0.4630   0.9011   0.7976  -0.4042  -0.6522   0.1677   0.00    1.9
2173 182173.000   1026004.2410  -5078805.2187   3706983.2439   2   8   0.4630   0.9011   0.7977  -0.4042  -0.6522   0.1675   0.00    1.8
2173 182174.000   1026004.1764  -5078805.1568   3706983.4742   2   8   0.4630   0.9011   0.7977  -0.4042  -0.6521   0.1673   0.00    2.0
2173 182175.000   1026004.1003  -5078804.9146   3706983.4170   2   8   0.4630   0.9010   0.7977  -0.4041  -0.6521   0.1671   0.00    1.7
2173 182176.000   1026003.7162  -5078804.8009   3706983.5909   2   8   0.4631   0.9010   0.7978  -0.4041  -0.6521   0.1669   0.00    2.0
2173 182177.000   1026004.0161  -5078804.8159   3706983.4730   2   8   0.4631   0.9010   0.7978  -0.4041  -0.6521   0.1667   0.00    2.1
2173 182178.000   1026004.0671  -5078805.2797   3706983.5439   2   8   0.4631   0.9009   0.7978  -0.4041  -0.6520   0.1665   0.00    1.9
2173 182179.000   1026003.8890  -5078804.8021   3706982.9193   2   8   0.4631   0.9009   0.7978  -0.4041  -0.6520   0.1663   0.00    2.2
2173 182180.000   1026003.8582  -5078804.6582   3706983.2065   2   8   0.4632   0.9009   0.7979  -0.4041  -0.6520   0.1661   0.00    2.0
2173 182181.000   1026003.8434  -5078805.0506   3706983.4418   2   8   0.4632   0.9009   0.7979  -0.4041  -0.6520   0.1659   0.00    2.2
2173 182182.000   1026004.0566  -5078804.8694   3706982.8603   2   8   0.4632   0.9008   0.7979  -0.4041  -0.6519   0.1657   0.00    1.8
2173 182183.000   1026004.1919  -5078805.3906   3706983.3379   2   8   0.4633   0.9008   0.7980  -0.4040  -0.6519   0.1655   0.00    1.9
2173 182184.000   1026004.0145  -5078805.2830   3706983.2275   2   8   0.4633   0.9008   0.7980  -0.4040  -0.6519   0.1652   0.00    2.3
2173 182185.000   1026003.9241  -5078805.1815   3706983.1270   2   8   0.4633   0.9008   0.7980  -0.4040  -0.6519   0.1650   0.00    1.9
2173 182186.000   1026003.7067  -5078804.3351   3706982.7750   2   8   0.4633   0.9007   0.7980  -0.4040  -0.6518   0.1648   0.00    1.8
2173 182187.000   1026003.6059  -5078804.5284   3706982.8889   2   8   0.4634   0.9007   0.7981  -0.4040  -0.6518   0.1646   0.00    1.9
2173 182188.000   1026003.8002  -5078804.7861   3706982.9751   2   8   0.4634   0.9007   0.7981  -0.4040  -0.6518   0.1644   0.00    1.9
2173 182189.000   1026003.9134  -5078805.0619   3706983.2126   2   8   0.4634   0.9006   0.7981  -0.4040  -0.6518   0.1642   0.00    1.9
2173 182190.000   1026003.7456  -5078804.5179   3706982.8983   2   8   0.4634   0.9006   0.7982  -0.4040  -0.6517   0.1640   0.00    1.8
2173 182191.000   1026003.9975  -5078805.3349   3706983.3458   2   8   0.4635   0.9006   0.7982  -0.4039  -0.6517   0.1638   0.00    1.7
2173 182192.000   1026003.8599  -5078804.9819   3706983.1603   2   8   0.4635   0.9006   0.7982  -0.4039  -0.6517   0.1636   0.00    2.0
2173 182193.000   1026003.7616  -5078804.9049   3706983.0000   2   8   0.4635   0.9005   0.7982  -0.4039  -0.6517   0.1634   0.00    1.9
2173 182194.000   1026003.8123  -5078805.0886   3706983.5364   2   8   0.4636   0.9005   0.7983  -0.4039  -0.6516   0.1631   0.00    2.1
2173 182195.000   1026003.7317  -5078805.0797   3706983.4494   2   8   0.4636   0.9005   0.7983  -0.4039  -0.6516   0.1629   0.00    2.0
2173 182196.000   1026003.7726  -5078805.1383   3706983.4922   2   8   0.4636   0.9005   0.7983  -0.4039  -0.6516   0.1627   0.00    2.2
2173 182197.000   1026003.6246  -5078804.9473   3706983.2940   2   8   0.4636   0.9004   0.7984  -0.4039  -0.6516   0.1625   0.00    2.0
2173 182198.000   1026003.9533  -5078805.2340   3706983.4251   2   8   0.4637   0.9004   0.7984  -0.4039  -0.6515   0.1623   0.00    2.1
2173 182199.000   1026003.8378  -5078805.2219   3706983.3023   2   8   0.4637   0.9004   0.7984  -0.4039  -0.6515   0.1621   0.00    2.1
2173 182200.000   1026003.8273  -5078805.6146   3706983.8058   2   8   0.4637   0.9003   0.7984  -0.4038  -0.6515   0.1619   0.00    2.1
2173 182201.000   1026003.4443  -5078804.9804   3706983.6088   2   8   0.4637   0.9003   0.7985  -0.4038  -0.6515   0.1616   0.00    2.0
2173 182202.000   1026003.5705  -5078805.0073   3706983.7484   2   8   0.4638   0.9003   0.7985  -0.4038  -0.6514   0.1614   0.00    2.5
2173 182203.000   1026003.6458  -5078804.9419   3706983.8255   2   8   0.4638   0.9003   0.7985  -0.4038  -0.6514   0.1612   0.00    2.3
2173 182204.000   1026004.0692  -5078805.6257   3706984.0029   2   8   0.4638   0.9002   0.7986  -0.4038  -0.6514   0.1610   0.00    1.9
2173 182205.000   1026003.6338  -5078804.8108   3706983.7565   2   8   0.4639   0.9002   0.7986  -0.4038  -0.6514   0.1608   0.00    2.1
2173 182206.000   1026003.8826  -5078805.1091   3706983.7153   2   8   0.4639   0.9002   0.7986  -0.4038  -0.6513   0.1606   0.00    2.0
2173 182207.000   1026003.8317  -5078805.3676   3706983.5861   2   8   0.4639   0.9002   0.7986  -0.4038  -0.6513   0.1603   0.00    1.9
2173 182208.000   1026003.9310  -5078805.2464   3706983.7665   2   8   0.4639   0.9001   0.7987  -0.4037  -0.6513   0.1601   0.00    1.9
2173 182209.000   1026003.6205  -5078804.9293   3706983.5291   2   8   0.4640   0.9001   0.7987  -0.4037  -0.6513   0.1599   0.00    2.2
2173 182210.000   1026003.7886  -5078805.0249   3706983.5613   2   8   0.4640   0.9001   0.7987  -0.4037  -0.6512   0.1597   0.00    2.2
2173 182211.000   1026003.7217  -5078804.8587   3706983.4010   2   8   0.4640   0.9001   0.7988  -0.4037  -0.6512   0.1595   0.00    2.2
2173 182212.000   1026003.5760  -5078804.7762   3706983.2995   2   8   0.4640   0.9000   0.7988  -0.4037  -0.6512   0.1593   0.00    2.2
2173 182213.000   1026003.7572  -5078805.1422   3706983.6927   2   8   0.4641   0.9000   0.7988  -0.4037  -0.6512   0.1590   0.00    2.0
2173 182214.000   1026003.6631  -5078805.2407   3706983.7787   2   8   0.4641   0.9000   0.7989  -0.4037  -0.6511   0.1588   0.00    2.1
2173 182215.000   1026003.7972  -5078805.1046   3706983.5525   2   8   0.4641   0.8999   0.7989  -0.4037  -0.6511   0.1586   0.00    1.8
2173 182216.000   1026003.6834  -5078805.0199   3706983.6297   2   8   0.4642   0.8999   0.7989  -0.4036  -0.6511   0.1584   0.00    1.9
2173 182217.000   1026003.7405  -5078805.1958   3706983.6362   2   8   0.4642   0.8999   0.7989  -0.4036  -0.6511   0.1582   0.00    1.7
2173 182218.000   1026004.0114  -5078805.3774   3706983.3019   2   8   0.4642   0.8999   0.7990  -0.4036  -0.6510   0.1579   0.00    2.2
2173 182219.000   1026003.8123  -5078805.2949   3706983.5125   2   8   0.4642   0.8998   0.7990  -0.4036  -0.6510   0.1577   0.00    1.8
2173 182220.000   1026003.6975  -5078805.0402   3706983.1579   2   8   0.4643   0.8998   0.7990  -0.4036  -0.6510   0.1575   0.00    1.8
2173 182221.000   1026003.7150  -5078805.1994   3706983.4384   2   8   0.4643   0.8998   0.7991  -0.4036  -0.6510   0.1573   0.00    2.1
2173 182222.000   1026003.8550  -5078805.1855   3706983.3850   2   8   0.4643   0.8998   0.7991  -0.4036  -0.6509   0.1570   0.00    2.0
2173 182223.000   1026003.9928  -5078805.3402   3706983.5621   2   8   0.4644   0.8997   0.7991  -0.4036  -0.6509   0.1568   0.00    1.7
2173 182224.000   1026004.0221  -5078805.3992   3706983.6400   2   8   0.4644   0.8997   0.7991  -0.4036  -0.6509   0.1566   0.00    1.7
2173 182225.000   1026003.8815  -5078805.3821   3706983.7758   2   8   0.4644   0.8997   0.7992  -0.4035  -0.6509   0.1564   0.00    1.9
2173 182226.000   1026003.9731  -5078805.3323   3706983.6957   2   8   0.4254   0.8469   0.7990  -0.3261  -0.6542   0.1649   0.00    2.2
2173 182227.000   1026003.7484  -5078804.9692   3706983.5112   2   8   0.4235   0.8459   0.7987  -0.3234  -0.6549   0.1673   0.00    2.2
2173 182228.000   1026003.7913  -5078805.1761   3706983.5893   2   8   0.4228   0.8455   0.7987  -0.3225  -0.6552   0.1681   0.00    2.2
2173 182229.000   1026003.9186  -5078805.2539   3706983.4790   2   8   0.4224   0.8453   0.7986  -0.3219  -0.6553   0.1684   0.00    2.5
2173 182230.000   1026003.9525  -5078805.1825   3706983.2915   2   8   0.4222   0.8452   0.7986  -0.3216  -0.6554   0.1686   0.00    2.4
2173 182231.000   1026003.9817  -5078805.2916   3706983.4305   2   8   0.4221   0.8451   0.7986  -0.3214  -0.6554   0.1687   0.00    2.6
2173 182232.000   1026004.1173  -5078805.1398   3706983.3138   2   8   0.4220   0.8450   0.7987  -0.3212  -0.6555   0.1687   0.00    2.2
2173 182233.000   1026004.0300  -5078804.9692   3706983.3129   2   8   0.4219   0.8450   0.7987  -0.3211  -0.6555   0.1686   0.00    2.3
2173 182234.000   1026004.1615  -5078805.3158   3706983.6158   2   8   0.4219   0.8449   0.7987  -0.3210  -0.6555   0.1686   0.00    2.3
2173 182235.000   1026003.9918  -5078804.8502   3706983.2816   2   8   0.4255   0.8468   0.7992  -0.3259  -0.6543   0.1636   0.00    2.2
2173 182236.000   1026004.2156  -5078804.9198   3706983.5862   2   8   0.4255   0.8468   0.7993  -0.3259  -0.6543   0.1635   0.00    2.0
2173 182237.000   1026004.0785  -5078804.9091   3706983.5245   2   8   0.4255   0.8468   0.7993  -0.3259  -0.6543   0.1633   0.00    2.2
2173 182238.000   1026004.2336  -5078804.8565   3706983.4081   2   8   0.4256   0.8468   0.7993  -0.3259  -0.6543   0.1632   0.00    2.2
2173 182239.000   1026003.9572  -5078804.5960   3706983.3350   2   8   0.4256   0.8468   0.7993  -0.3258  -0.6543   0.1631   0.00    2.0
2173 182240.000   1026004.0327  -5078805.2400   3706983.4342   2   8   0.4256   0.8468   0.7994  -0.3258  -0.6543   0.1629   0.00    2.7
2173 182241.000   1026004.1388  -5078805.1073   3706983.4929   2   8   0.4256   0.8468   0.7994  -0.3258  -0.6543   0.1628   0.00    2.4
2173 182242.000   1026004.0522  -5078805.2460   3706983.6013   2   8   0.4256   0.8468   0.7994  -0.3258  -0.6543   0.1626   0.00    2.5
2173 182243.000   1026004.0441  -5078805.2476   3706983.4906   2   8   0.4256   0.8467   0.7994  -0.3258  -0.6543   0.1625   0.00    2.4
2173 182244.000   1026003.9065  -5078804.9932   3706983.3915   2   8   0.4256   0.8467   0.7995  -0.3257  -0.6543   0.1623   0.00    2.5
2173 182245.000   1026003.9202  -5078805.1661   3706983.3055   2   8   0.4257   0.8467   0.7995  -0.3257  -0.6543   0.1622   0.00    2.4
2173 182246.000   1026003.9786  -5078805.0842   3706983.4577   2   8   0.4257   0.8467   0.7995  -0.3257  -0.6543   0.1620   0.00    2.6
2173 182247.000   1026003.9251  -5078805.3097   3706983.5741   2   8   0.4257   0.8467   0.7996  -0.3257  -0.6543   0.1619   0.00    2.6
2173 182248.000   1026003.7503  -5078805.0171   3706983.1933   2   8   0.4257   0.8467   0.7996  -0.3257  -0.6543   0.1617   0.00    2.2
2173 182249.000   1026003.7632  -5078804.9047   3706983.0834   2   8   0.4257   0.8467   0.7996  -0.3257  -0.6543   0.1616   0.00    1.9
2173 182250.000   1026003.5840  -5078804.5957   3706982.8528   2   8   0.4257   0.8467   0.7996  -0.3256  -0.6543   0.1615   0.00    1.9
2173 182251.000   1026003.6589  -5078804.8223   3706982.8044   2   8   0.4258   0.8467   0.7997  -0.3256  -0.6543   0.1613   0.00    2.3
2173 182252.000   1026003.7788  -5078805.0112   3706983.1145   2   8   0.4258   0.8467   0.7997  -0.3256  -0.6543   0.1612   0.00    2.0
2173 182253.000   1026003.5801  -5078804.7157   3706982.8752   2   8   0.4258   0.8466   0.7997  -0.3256  -0.6543   0.1610   0.00    2.1
2173 182254.000   1026003.5677  -5078804.6289   3706983.1136   2   8   0.4258   0.8466   0.7997  -0.3256  -0.6543   0.1609   0.00    2.0
2173 182255.000   1026003.5603  -5078804.7784   3706982.8116   2   8   0.4258   0.8466   0.7998  -0.3256  -0.6543   0.1607   0.00    2.2
2173 182256.000   1026003.7885  -5078804.9737   3706982.8809   2   8   0.4258   0.8466   0.7998  -0.3255  -0.6543   0.1606   0.00    2.6
2173 182257.000   1026003.5389  -5078804.7346   3706982.6344   2   8   0.4258   0.8466   0.7998  -0.3255  -0.6543   0.1604   0.00    2.2
2173 182258.000   1026003.7663  -5078804.8305   3706982.6611   2   8   0.4259   0.8466   0.7998  -0.3255  -0.6543   0.1603   0.00    2.1
2173 182259.000   1026003.6510  -5078804.8035   3706982.5946   2   8   0.4259   0.8466   0.7999  -0.3255  -0.6543   0.1601   0.00    2.1
2173 182260.000   1026003.5328  -5078804.7948   3706982.4429   2   8   0.4259   0.8466   0.7999  -0.3255  -0.6543   0.1600   0.00    2.1
2173 182261.000   1026003.6860  -5078804.9138   3706982.5317   2   8   0.4259   0.8466   0.7999  -0.3254  -0.6543   0.1598   0.00    2.3
2173 182262.000   1026003.5056  -5078804.2947   3706982.1623   2   8   0.4259   0.8466   0.7999  -0.3254  -0.6543   0.1597   0.00    1.9
2173 182263.000   1026003.4437  -5078804.5368   3706982.4702   2   8   0.4259   0.8465   0.8000  -0.3254  -0.6543   0.1595   0.00    1.7
2173 182264.000   1026003.5685  -5078804.4603   3706982.2706   2   8   0.4260   0.8465   0.8000  -0.3254  -0.6543   0.1594   0.00    1.9
2173 182265.000   1026003.4664  -5078804.6944   3706982.3625   2   8   0.4260   0.8465   0.8000  -0.3254  -0.6543   0.1592   0.00    1.8
2173 182266.000   1026003.6139  -5078804.7973   3706982.3942   2   8   0.4260   0.8465   0.8001  -0.3254  -0.6544   0.1591   0.00    1.8
2173 182267.000   1026003.6457  -5078804.7325   3706982.5155   2   8   0.4260   0.8465   0.8001  -0.3253  -0.6544   0.1590   0.00    1.9
2173 182268.000   1026003.6013  -5078804.8665   3706982.3927   2   8   0.4260   0.8465   0.8001  -0.3253  -0.6544   0.1588   0.00    2.3
2173 182269.000   1026003.6013  -5078804.6507   3706982.3136   2   8   0.4260   0.8465   0.8001  -0.3253  -0.6544   0.1587   0.00    2.5
2173 182270.000   1026003.2504  -5078804.3472   3706982.1086   2   8   0.4260   0.8465   0.8002  -0.3253  -0.6544   0.1585   0.00    2.5
2173 182271.000   1026003.3697  -5078804.6088   3706982.3157   2   8   0.4261   0.8465   0.8002  -0.3253  -0.6544   0.1584   0.00    2.7
2173 182272.000   1026003.3514  -5078804.3240   3706982.1306   2   8   0.4261   0.8465   0.8002  -0.3252  -0.6544   0.1582   0.00    2.5
2173 182273.000   1026003.3454  -5078804.5739   3706982.5779   2   8   0.4261   0.8465   0.8002  -0.3252  -0.6544   0.1581   0.00    2.3
2173 182274.000   1026003.2466  -5078804.4402   3706982.2203   2   8   0.4261   0.8464   0.8003  -0.3252  -0.6544   0.1579   0.00    2.1
2173 182275.000   1026003.4147  -5078804.3888   3706982.4507   2   8   0.4261   0.8464   0.8003  -0.3252  -0.6544   0.1578   0.00    2.2
2173 182276.000   1026003.3394  -5078804.2854   3706982.5764   2   8   0.4261   0.8464   0.8003  -0.3252  -0.6544   0.1576   0.00    2.5
2173 182277.000   1026003.2976  -5078804.2501   3706982.3746   2   8   0.4262   0.8464   0.8003  -0.3252  -0.6544   0.1575   0.00    2.3
2173 182278.000   1026003.2012  -5078804.1108   3706982.3879   2   8   0.4262   0.8464   0.8004  -0.3251  -0.6544   0.1573   0.00    2.2
2173 182279.000   1026003.1557  -5078803.9617   3706982.3809   2   8   0.4262   0.8464   0.8004  -0.3251  -0.6544   0.1572   0.00    2.4
2173 182280.000   1026003.2023  -5078803.6870   3706982.2932   2   8   0.4262   0.8464   0.8004  -0.3251  -0.6544   0.1570   0.00    2.8
2173 182281.000   1026003.4629  -5078804.5362   3706983.0528   1   8   0.0043   0.0086   0.0081  -0.0033  -0.0066   0.0015   0.00    3.4
2173 182282.000   1026003.4613  -5078804.5340   3706983.0528   1   8   0.0043   0.0086   0.0081  -0.0032  -0.0066   0.0015   0.00    3.3
2173 182283.000   1026003.4621  -5078804.5342   3706983.0523   1   8   0.0043   0.0086   0.0081  -0.0032  -0.0066   0.0015   0.00    3.3
2173 182284.000   1026003.4597  -5078804.5319   3706983.0511   1   8   0.0043   0.0086   0.0081  -0.0032  -0.0066   0.0015   0.00    3.2
2173 182285.000   1026003.4599  -5078804.5316   3706983.0520   1   8   0.0043   0.0086   0.0081  -0.0032  -0.0066   0.0015   0.00    3.1
2173 182286.000   1026003.3369  -5078804.2921   3706982.5435   2   8   0.4263   0.8463   0.8006  -0.3250  -0.6544   0.1561   0.00    3.0
2173 182287.000   1026003.4619  -5078804.5324   3706983.0521   1   8   0.0043   0.0086   0.0081  -0.0032  -0.0066   0.0015   0.00    3.1
2173 182288.000   1026003.2000  -5078804.4216   3706982.8324   2   8   0.4263   0.8463   0.8006  -0.3250  -0.6544   0.1558   0.00    2.9
2173 182289.000   1026003.4628  -5078804.5334   3706983.0493   1   8   0.0043   0.0086   0.0081  -0.0032  -0.0066   0.0015   0.00    3.0
2173 182290.000   1026003.4610  -5078804.5337   3706983.0502   1   8   0.0043   0.0086   0.0081  -0.0032  -0.0066   0.0015   0.00    3.4
2173 182291.000   1026003.4627  -5078804.5348   3706983.0510   1   8   0.0043   0.0086   0.0081  -0.0032  -0.0066   0.0015   0.00    3.1
2173 182292.000   1026003.1265  -5078803.8205   3706982.6785   2   8   0.4264   0.8463   0.8007  -0.3249  -0.6544   0.1552   0.00    2.8
2173 182293.000   1026003.1798  -5078803.3113   3706982.1721   2   8   0.4264   0.8463   0.8008  -0.3249  -0.6544   0.1550   0.00    2.8
2173 182294.000   1026003.2118  -5078803.6846   3706982.4772   2   8   0.4264   0.8463   0.8008  -0.3249  -0.6544   0.1549   0.00    2.8
2173 182295.000   1026003.1889  -5078803.4090   3706982.1302   2   8   0.4264   0.8463   0.8008  -0.3248  -0.6544   0.1547   0.00    2.7
2173 182296.000   1026003.1178  -5078803.4043   3706982.0320   2   8   0.4265   0.8462   0.8008  -0.3248  -0.6544   0.1546   0.00    2.6
2173 182297.000   1026003.0596  -5078803.5231   3706982.2906   2   8   0.4265   0.8462   0.8009  -0.3248  -0.6544   0.1544   0.00    2.5
2173 182298.000   1026003.1598  -5078803.6031   3706982.2521   2   8   0.4265   0.8462   0.8009  -0.3248  -0.6544   0.1543   0.00    2.5
2173 182299.000   1026003.2302  -5078803.3597   3706982.3010   2   8   0.4265   0.8462   0.8009  -0.3248  -0.6544   0.1541   0.00    2.6
2173 182300.000   1026003.0811  -5078803.4466   3706982.1657   2   8   0.4265   0.8462   0.8009  -0.3248  -0.6544   0.1539   0.00    2.3
2173 182301.000   1026003.2066  -5078803.3601   3706982.1731   2   8   0.4265   0.8462   0.8010  -0.3247  -0.6544   0.1538   0.00    2.6
2173 182302.000   1026003.2393  -5078803.6858   3706982.4117   2   8   0.4265   0.8462   0.8010  -0.3247  -0.6544   0.1536   0.00    2.6
2173 182303.000   1026003.4231  -5078803.6956   3706982.7127   2   8   0.4266   0.8462   0.8010  -0.3247  -0.6544   0.1535   0.00    2.9
2173 182304.000   1026003.3138  -5078803.5164   3706982.0783   2   8   0.4266   0.8462   0.8011  -0.3247  -0.6544   0.1533   0.00    2.6
2173 182305.000   1026003.3478  -5078803.8758   3706982.3728   2   8   0.4266   0.8462   0.8011  -0.3247  -0.6545   0.1532   0.00    2.5
2173 182306.000   1026003.2698  -5078803.5456   3706982.4218   2   8   0.4266   0.8462   0.8011  -0.3246  -0.6545   0.1530   0.00    2.3
2173 182307.000   1026003.3051  -5078803.6609   3706982.2040   2   8   0.4266   0.8462   0.8011  -0.3246  -0.6545   0.1529   0.00    2.5
2173 182308.000   1026003.4290  -5078803.8417   3706982.2067   2   8   0.4266   0.8461   0.8012  -0.3246  -0.6545   0.1527   0.00    2.7
2173 182309.000   1026003.1454  -5078803.6460   3706982.3027   2   8   0.4267   0.8461   0.8012  -0.3246  -0.6545   0.1525   0.00    2.2
2173 182310.000   1026003.1134  -5078803.3358   3706981.9545   2   8   0.4267   0.8461   0.8012  -0.3246  -0.6545   0.1524   0.00    2.2
2173 182311.000   1026003.0498  -5078803.5399   3706982.2461   2   8   0.4267   0.8461   0.8012  -0.3246  -0.6545   0.1522   0.00    2.3
2173 182312.000   1026003.3449  -5078803.4142   3706982.0256   2   8   0.4267   0.8461   0.8013  -0.3245  -0.6545   0.1521   0.00    2.3
2173 182313.000   1026003.2738  -5078803.3312   3706981.9144   2   8   0.4267   0.8461   0.8013  -0.3245  -0.6545   0.1519   0.00    2.5
2173 182314.000   1026003.2931  -5078803.5327   3706982.2798   2   8   0.4267   0.8461   0.8013  -0.3245  -0.6545   0.1518   0.00    2.5
2173 182315.000   1026003.3236  -5078803.4771   3706982.1448   2   8   0.4268   0.8461   0.8013  -0.3245  -0.6545   0.1516   0.00    2.6
2173 182316.000   1026003.3711  -5078803.8075   3706982.5311   2   8   0.4268   0.8461   0.8014  -0.3245  -0.6545   0.1514   0.00    2.8
2173 182317.000   1026003.3418  -5078803.5975   3706982.1916   2   8   0.4268   0.8461   0.8014  -0.3245  -0.6545   0.1513   0.00    2.6
2173 182318.000   1026003.3121  -5078803.4163   3706982.1979   2   8   0.4268   0.8461   0.8014  -0.3244  -0.6545   0.1511   0.00    2.6
2173 182319.000   1026003.3920  -5078803.5931   3706982.2573   2   8   0.4268   0.8461   0.8014  -0.3244  -0.6545   0.1510   0.00    2.6
2173 182320.000   1026003.2086  -5078803.6134   3706982.1046   2   8   0.4268   0.8460   0.8015  -0.3244  -0.6545   0.1508   0.00    2.3
2173 182321.000   1026003.2201  -5078803.7309   3706982.1427   2   8   0.4269   0.8460   0.8015  -0.3244  -0.6545   0.1506   0.00    2.3
2173 182322.000   1026003.2605  -5078803.4454   3706981.9054   2   8   0.4269   0.8460   0.8015  -0.3244  -0.6545   0.1505   0.00    2.1
2173 182323.000   1026003.0663  -5078803.4836   3706981.9406   2   8   0.4269   0.8460   0.8015  -0.3243  -0.6545   0.1503   0.00    2.3
2173 182324.000   1026003.1246  -5078803.5979   3706982.2674   2   8   0.4269   0.8460   0.8016  -0.3243  -0.6545   0.1502   0.00    2.1
2173 182325.000   1026003.0633  -5078803.9421   3706982.4058   2   8   0.4269   0.8460   0.8016  -0.3243  -0.6545   0.1500   0.00    2.3
2173 182326.000   1026003.1952  -5078803.8009   3706982.2889   2   8   0.4269   0.8460   0.8016  -0.3243  -0.6545   0.1499   0.00    2.2
2173 182327.000   1026003.3327  -5078803.9544   3706982.3531   2   8   0.4270   0.8460   0.8016  -0.3243  -0.6545   0.1497   0.00    2.2
2173 182328.000   1026003.3412  -5078803.7069   3706982.2202   2   8   0.4270   0.8460   0.8017  -0.3243  -0.6545   0.1495   0.00    2.1
2173 182329.000   1026003.3638  -5078804.0103   3706982.2413   2   8   0.4270   0.8460   0.8017  -0.3242  -0.6545   0.1494   0.00    2.3
2173 182330.000   1026003.4347  -5078803.9147   3706982.0192   2   8   0.4270   0.8460   0.8017  -0.3242  -0.6545   0.1492   0.00    2.3
2173 182331.000   1026003.5072  -5078804.2204   3706982.1671   2   8   0.4270   0.8460   0.8017  -0.3242  -0.6545   0.1490   0.00    2.5
2173 182332.000   1026003.4858  -5078804.1958   3706981.8545   2   8   0.4270   0.8460   0.8018  -0.3242  -0.6545   0.1489   0.00    2.4
2173 182333.000   1026003.6001  -5078804.7752   3706982.2067   2   8   0.4271   0.8459   0.8018  -0.3242  -0.6545   0.1487   0.00    2.7
2173 182334.000   1026003.5863  -5078804.4575   3706981.8494   2   8   0.4271   0.8459   0.8018  -0.3242  -0.6545   0.1486   0.00    2.5
2173 182335.000   1026003.6390  -5078804.4680   3706982.0820   2   8   0.4271   0.8459   0.8019  -0.3241  -0.6545   0.1484   0.00    2.6
2173 182336.000   1026003.6821  -5078804.6209   3706982.4220   2   8   0.4271   0.8459   0.8019  -0.3241  -0.6545   0.1482   0.00    2.7
2173 182337.000   1026003.5874  -5078804.6174   3706982.3287   2   8   0.4271   0.8459   0.8019  -0.3241  -0.6545   0.1481   0.00    2.6
2173 182338.000   1026003.5818  -5078804.7319   3706982.3901   2   8   0.4271   0.8459   0.8019  -0.3241  -0.6545   0.1479   0.00    2.5
2173 182339.000   1026003.5819  -5078804.3259   3706982.3262   2   8   0.4272   0.8459   0.8020  -0.3241  -0.6545   0.1478   0.00    2.6
2173 182340.000   1026003.5005  -5078804.4607   3706982.3031   2   8   0.4272   0.8459   0.8020  -0.3241  -0.6545   0.1476   0.00    2.4
2173 182341.000   1026003.5668  -5078804.4909   3706982.5273   2   8   0.4272   0.8459   0.8020  -0.3240  -0.6545   0.1474   0.00    2.7
2173 182342.000   1026003.5299  -5078804.3006   3706982.4160   2   8   0.4272   0.8459   0.8020  -0.3240  -0.6545   0.1473   0.00    2.4
2173 182343.000   1026003.6323  -5078804.3219   3706982.3446   2   8   0.4272   0.8459   0.8021  -0.3240  -0.6545   0.1471   0.00    2.8
2173 182344.000   1026003.6381  -5078804.3804   3706982.3018   2   8   0.4272   0.8459   0.8021  -0.3240  -0.6545   0.1469   0.00    2.5
2173 182345.000   1026003.4522  -5078804.4480   3706982.3645   2   8   0.4273   0.8459   0.8021  -0.3240  -0.6546   0.1468   0.00    2.5
2173 182346.000   1026003.5903  -5078804.3963   3706982.5310   2   8   0.4273   0.8459   0.8021  -0.3239  -0.6546   0.1466   0.00    2.5
2173 182347.000   1026003.4323  -5078804.3723   3706982.3442   2   8   0.4273   0.8458   0.8022  -0.3239  -0.6546   0.1464   0.00    2.5
2173 182348.000   1026003.4954  -5078804.7442   3706982.5391   2   8   0.4273   0.8458   0.8022  -0.3239  -0.6546   0.1463   0.00    2.6
2173 182349.000   1026003.5082  -5078804.3459   3706982.0627   2   8   0.4273   0.8458   0.8022  -0.3239  -0.6546   0.1461   0.00    2.2
2173 182350.000   1026003.8601  -5078804.3146   3706981.9837   2   8   0.4273   0.8458   0.8022  -0.3239  -0.6546   0.1460   0.00    2.4
2173 182351.000   1026003.7732  -5078804.2179   3706982.4782   2   8   0.4274   0.8458   0.8023  -0.3239  -0.6546   0.1458   0.00    2.3
2173 182352.000   1026003.8112  -5078804.2111   3706982.2876   2   8   0.4274   0.8458   0.8023  -0.3238  -0.6546   0.1456   0.00    2.2
2173 182353.000   1026003.9090  -5078804.3745   3706982.3874   2   8   0.4274   0.8458   0.8023  -0.3238  -0.6546   0.1455   0.00    2.2
2173 182354.000   1026003.9785  -5078804.3849   3706982.4164   2   8   0.4274   0.8458   0.8023  -0.3238  -0.6546   0.1453   0.00    2.3
2173 182355.000   1026004.1058  -5078804.1263   3706982.3761   2   8   0.4274   0.8458   0.8024  -0.3238  -0.6546   0.1451   0.00    2.2
2173 182356.000   1026003.8827  -5078804.3109   3706982.5150   2   8   0.4274   0.8458   0.8024  -0.3238  -0.6546   0.1450   0.00    2.4
2173 182357.000   1026003.9775  -5078804.2134   3706982.3075   2   8   0.4275   0.8458   0.8024  -0.3238  -0.6546   0.1448   0.00    2.5
2173 182358.000   1026003.7934  -5078804.1919   3706982.2503   2   8   0.4275   0.8458   0.8024  -0.3237  -0.6546   0.1446   0.00    2.4
2173 182359.000   1026003.8899  -5078804.4798   3706982.4569   2   8   0.4275   0.8458   0.8025  -0.3237  -0.6546   0.1445   0.00    2.6
2173 182360.000   1026003.9470  -5078804.4071   3706982.1526   2   8   0.4275   0.8458   0.8025  -0.3237  -0.6546   0.1443   0.00    2.5
2173 182361.000   1026003.8420  -5078804.0857   3706982.0543   2   8   0.4275   0.8457   0.8025  -0.3237  -0.6546   0.1441   0.00    2.7
2173 182362.000   1026003.8430  -5078803.9381   3706981.7415   2   8   0.4275   0.8457   0.8025  -0.3237  -0.6546   0.1440   0.00    2.6
2173 182363.000   1026003.9227  -5078804.0198   3706981.9866   2   8   0.4276   0.8457   0.8026  -0.3237  -0.6546   0.1438   0.00    2.6
2173 182364.000   1026003.9135  -5078804.2802   3706982.0856   2   8   0.4276   0.8457   0.8026  -0.3236  -0.6546   0.1436   0.00    2.7
2173 182365.000   1026003.7402  -5078804.1839   3706981.8706   2   8   0.4276   0.8457   0.8026  -0.3236  -0.6546   0.1435   0.00    2.6
2173 182366.000   1026003.7188  -5078804.4219   3706982.2378   2   8   0.4276   0.8457   0.8026  -0.3236  -0.6546   0.1433   0.00    2.7
2173 182367.000   1026003.6862  -5078804.5417   3706982.0364   2   8   0.4276   0.8457   0.8027  -0.3236  -0.6546   0.1431   0.00    2.8
2173 182368.000   1026003.6648  -5078804.4997   3706981.8826   2   8   0.4277   0.8457   0.8027  -0.3236  -0.6546   0.1429   0.00    2.8
2173 182369.000   1026003.6187  -5078804.2171   3706981.9217   2   8   0.4277   0.8457   0.8027  -0.3236  -0.6546   0.1428   0.00    2.9
2173 182370.000   1026003.4634  -5078804.5570   3706983.0471   1   8   0.0043   0.0086   0.0081  -0.0032  -0.0066   0.0013   0.00    3.1
2173 182371.000   1026003.8306  -5078804.3631   3706982.0270   2   8   0.4277   0.8457   0.8028  -0.3235  -0.6546   0.1424   0.00    2.6
2173 182372.000   1026003.7040  -5078804.5104   3706982.1798   2   8   0.4277   0.8457   0.8028  -0.3235  -0.6546   0.1423   0.00    2.9
2173 182373.000   1026003.4651  -5078804.5574   3706983.0471   1   8   0.0043   0.0086   0.0081  -0.0032  -0.0066   0.0013   0.00    3.1
2173 182374.000   1026003.6623  -5078804.3302   3706982.0690   2   8   0.4278   0.8457   0.8028  -0.3235  -0.6546   0.1419   0.00    2.8
2173 182375.000   1026003.7765  -5078804.7628   3706982.2906   2   8   0.4278   0.8457   0.8029  -0.3235  -0.6546   0.1418   0.00    2.8
2173 182376.000   1026003.6965  -5078804.3551   3706982.2018   2   8   0.4278   0.8457   0.8029  -0.3234  -0.6546   0.1416   0.00    2.8
2173 182377.000   1026003.7209  -5078804.6834   3706982.3315   2   8   0.4278   0.8456   0.8029  -0.3234  -0.6546   0.1414   0.00    2.9
2173 182378.000   1026003.6402  -5078804.4768   3706982.0377   2   8   0.4278   0.8456   0.8029  -0.3234  -0.6546   0.1412   0.00    3.0
2173 182379.000   1026003.4645  -5078804.5574   3706983.0483   1   8   0.0043   0.0086   0.0081  -0.0032  -0.0066   0.0013   0.00    3.0
2173 182380.000   1026003.8258  -5078804.8344   3706982.5825   2   8   0.4279   0.8456   0.8030  -0.3234  -0.6546   0.1409   0.00    2.9
2173 182381.000   1026003.4649  -5078804.5591   3706983.0473   1   8   0.0043   0.0086   0.0081  -0.0032  -0.0066   0.0013   0.00    3.3
2173 182382.000   1026003.4628  -5078804.5583   3706983.0498   1   8   0.0043   0.0086   0.0081  -0.0032  -0.0066   0.0013   0.00    3.2
2173 182383.000   1026003.5892  -5078804.6394   3706982.1836   2   8   0.4279   0.8456   0.8031  -0.3233  -0.6546   0.1404   0.00    2.9
2173 182384.000   1026003.4637  -5078804.5611   3706983.0469   1   8   0.0043   0.0086   0.0081  -0.0032  -0.0066   0.0013   0.00    3.2
2173 182385.000   1026003.4623  -5078804.5588   3706983.0489   1   8   0.0043   0.0086   0.0081  -0.0032  -0.0066   0.0013   0.00    3.0
2173 182386.000   1026003.6502  -5078804.6662   3706982.1949   2   8   0.4280   0.8456   0.8031  -0.3233  -0.6546   0.1399   0.00    3.0
2173 182387.000   1026003.4645  -5078804.5630   3706983.0471   1   8   0.0043   0.0086   0.0081  -0.0032  -0.0066   0.0013   0.00    3.2
2173 182388.000   1026003.4648  -5078804.5601   3706983.0463   1   8   0.0043   0.0086   0.0081  -0.0032  -0.0066   0.0013   0.00    3.1
2173 182389.000   1026003.4666  -5078804.5628   3706983.0485   1   8   0.0043   0.0086   0.0081  -0.0032  -0.0066   0.0013   0.00    3.1
2173 182390.000   1026003.4657  -5078804.5596   3706983.0452   1   8   0.0043   0.0086   0.0081  -0.0032  -0.0066   0.0013   0.00    3.6
2173 182391.000   1026003.7876  -5078804.8229   3706982.4219   2   8   0.4281   0.8456   0.8033  -0.3232  -0.6547   0.1390   0.00    2.9
2173 182392.000   1026003.8562  -5078804.6124   3706982.3614   2   8   0.4281   0.8456   0.8033  -0.3232  -0.6547   0.1388   0.00    3.0
2173 182393.000   1026003.8619  -5078805.0002   3706982.5717   2   8   0.4281   0.8455   0.8033  -0.3231  -0.6547   0.1386   0.00    3.0
2173 182394.000   1026003.4673  -5078804.5642   3706983.0465   1   8   0.0043   0.0086   0.0081  -0.0032  -0.0066   0.0013   0.00    3.1
2173 182395.000   1026003.4677  -5078804.5648   3706983.0472   1   8   0.0043   0.0086   0.0081  -0.0032  -0.0066   0.0013   0.00    3.3
2173 182396.000   1026003.4680  -5078804.5664   3706983.0486   1   8   0.0043   0.0086   0.0081  -0.0032  -0.0066   0.0013   0.00    3.2
2173 182397.000   1026003.4682  -5078804.5675   3706983.0459   1   8   0.0043   0.0086   0.0081  -0.0032  -0.0066   0.0013   0.00    3.3
2173 182398.000   1026003.4666  -5078804.5651   3706983.0471   1   8   0.0043   0.0086   0.0081  -0.0032  -0.0066   0.0013   0.00    3.4
2173 182399.000   1026003.4669  -5078804.5642   3706983.0477   1   8   0.0043   0.0086   0.0081  -0.0032  -0.0066   0.0013   0.00    3.5
2173 182400.000   1026003.4673  -5078804.5634   3706983.0478   1   8   0.0043   0.0086   0.0081  -0.0032  -0.0066   0.0013   0.00    3.4
2173 182401.000   1026003.4673  -5078804.5645   3706983.0484   1   8   0.0043   0.0086   0.0081  -0.0032  -0.0066   0.0013   0.00    3.4
2173 182402.000   1026003.4675  -5078804.5622   3706983.0461   1   8   0.0043   0.0086   0.0081  -0.0032  -0.0066   0.0013   0.00    3.5
2173 182403.000   1026003.4682  -5078804.5657   3706983.0470   1   8   0.0043   0.0086   0.0081  -0.0032  -0.0066   0.0013   0.00    3.3
2173 182404.000   1026003.4086  -5078804.6834   3706982.5610   2   8   0.4283   0.8455   0.8036  -0.3230  -0.6547   0.1367   0.00    2.9
2173 182405.000   1026003.4667  -5078804.5632   3706983.0456   1   8   0.0043   0.0086   0.0081  -0.0032  -0.0066   0.0013   0.00    3.4
2173 182406.000   1026003.4679  -5078804.5637   3706983.0449   1   8   0.0043   0.0086   0.0081  -0.0032  -0.0066   0.0013   0.00    3.9
2173 182407.000   1026003.4669  -5078804.5676   3706983.0458   1   8   0.0043   0.0086   0.0081  -0.0032  -0.0066   0.0013   0.00    3.4
2173 182408.000   1026003.4665  -5078804.5669   3706983.0454   1   8   0.0043   0.0086   0.0081  -0.0032  -0.0066   0.0013   0.00    3.5
2173 182409.000   1026003.4692  -5078804.5653   3706983.0440   1   8   0.0043   0.0086   0.0081  -0.0032  -0.0066   0.0013   0.00    3.8
2173 182410.000   1026003.4683  -5078804.5697   3706983.0472   1   8   0.0043   0.0086   0.0081  -0.0032  -0.0066   0.0013   0.00    3.5
2173 182411.000   1026003.4692  -5078804.5668   3706983.0429   1   8   0.0043   0.0086   0.0081  -0.0032  -0.0066   0.0013   0.00    3.9
2173 182412.000   1026003.4680  -5078804.5625   3706983.0426   1   8   0.0043   0.0086   0.0081  -0.0032  -0.0066   0.0013   0.00    3.4
2173 182413.000   1026003.4683  -5078804.5668   3706983.0451   1   8   0.0043   0.0086   0.0081  -0.0032  -0.0066   0.0013   0.00    3.3
2173 182414.000   1026003.4674  -5078804.5667   3706983.0477   1   8   0.0043   0.0086   0.0081  -0.0032  -0.0066   0.0013   0.00    3.6
2173 182415.000   1026003.4696  -5078804.5705   3706983.0464   1   8   0.0043   0.0086   0.0081  -0.0032  -0.0066   0.0012   0.00    3.4
2173 182416.000   1026003.4692  -5078804.5718   3706983.0493   1   8   0.0043   0.0086   0.0081  -0.0032  -0.0066   0.0012   0.00    3.5
2173 182417.000   1026003.4701  -5078804.5726   3706983.0481   1   8   0.0043   0.0086   0.0081  -0.0032  -0.0066   0.0012   0.00    3.3
2173 182418.000   1026003.3305  -5078805.3539   3706983.7290   2   8   0.4285   0.8454   0.8039  -0.3227  -0.6547   0.1342   0.00    2.8
2173 182419.000   1026003.2820  -5078805.3133   3706983.7002   2   8   0.4286   0.8454   0.8040  -0.3227  -0.6547   0.1340   0.00    2.8
2173 182420.000   1026003.4710  -5078804.5721   3706983.0485   1   8   0.0043   0.0086   0.0081  -0.0032  -0.0066   0.0012   0.00    3.3
2173 182421.000   1026003.4723  -5078804.5700   3706983.0467   1   8   0.0043   0.0086   0.0081  -0.0032  -0.0066   0.0012   0.00    3.4
2173 182422.000   1026003.4698  -5078804.5668   3706983.0449   1   8   0.0043   0.0086   0.0081  -0.0032  -0.0066   0.0012   0.00    3.0
2173 182423.000   1026003.4705  -5078804.5710   3706983.0464   1   8   0.0043   0.0086   0.0081  -0.0032  -0.0066   0.0012   0.00    3.2
2173 182424.000   1026003.4693  -5078804.5723   3706983.0472   1   8   0.0043   0.0086   0.0081  -0.0032  -0.0066   0.0012   0.00    3.1
2173 182425.000   1026003.4688  -5078804.5694   3706983.0467   1   8   0.0043   0.0086   0.0081  -0.0032  -0.0066   0.0012   0.00    3.1
2173 182426.000   1026003.4699  -5078804.5673   3706983.0458   1   8   0.0043   0.0086   0.0081  -0.0032  -0.0066   0.0012   0.00    3.1
2173 182427.000   1026003.0365  -5078804.8555   3706983.2793   2   8   0.4287   0.8454   0.8042  -0.3226  -0.6547   0.1325   0.00    2.9
2173 182428.000   1026003.4711  -5078804.5727   3706983.0462   1   8   0.0043   0.0086   0.0081  -0.0032  -0.0066   0.0012   0.00    3.2
2173 182429.000   1026003.4707  -5078804.5723   3706983.0430   1   8   0.0043   0.0086   0.0081  -0.0032  -0.0066   0.0012   0.00    3.4
2173 182430.000   1026003.4718  -5078804.5742   3706983.0443   1   8   0.0043   0.0086   0.0081  -0.0032  -0.0066   0.0012   0.00    3.1
2173 182431.000   1026003.4707  -5078804.5748   3706983.0444   1   8   0.0043   0.0086   0.0081  -0.0032  -0.0066   0.0012   0.00    3.2
2173 182432.000   1026003.4719  -5078804.5696   3706983.0431   1   8   0.0043   0.0086   0.0081  -0.0032  -0.0066   0.0012   0.00    3.2
2173 182433.000   1026003.4714  -5078804.5711   3706983.0447   1   8   0.0043   0.0086   0.0081  -0.0032  -0.0066   0.0012   0.00    3.6
2173 182434.000   1026003.4729  -5078804.5738   3706983.0428   1   8   0.0043   0.0086   0.0081  -0.0032  -0.0066   0.0012   0.00    3.5
2173 182435.000   1026003.3167  -5078804.9021   3706983.1421   2   8   0.4289   0.8453   0.8044  -0.3224  -0.6548   0.1311   0.00    3.0
2173 182436.000   1026003.4716  -5078804.5737   3706983.0431   1   8   0.0043   0.0086   0.0081  -0.0032  -0.0066   0.0012   0.00    3.1
2173 182437.000   1026003.4709  -5078804.5731   3706983.0448   1   8   0.0043   0.0086   0.0081  -0.0032  -0.0066   0.0012   0.00    3.1
2173 182438.000   1026003.3198  -5078805.0730   3706983.3070   2   8   0.4289   0.8453   0.8044  -0.3224  -0.6548   0.1305   0.00    2.6
2173 182439.000   1026003.2976  -5078804.6972   3706983.3541   2   8   0.4289   0.8453   0.8045  -0.3224  -0.6548   0.1303   0.00    2.5
2173 182440.000   1026003.2744  -5078805.1711   3706983.8788   2   8   0.4289   0.8453   0.8045  -0.3224  -0.6548   0.1301   0.00    2.4
2173 182441.000   1026003.3462  -5078804.8313   3706983.5281   2   8   0.4290   0.8453   0.8045  -0.3223  -0.6548   0.1299   0.00    2.8
2173 182442.000   1026003.3523  -5078805.0284   3706983.6498   2   8   0.4290   0.8453   0.8045  -0.3223  -0.6548   0.1297   0.00    2.5
2173 182443.000   1026003.3519  -5078805.0739   3706983.7559   2   8   0.4290   0.8453   0.8046  -0.3223  -0.6548   0.1295   0.00    2.3
2173 182444.000   1026003.1095  -5078804.1520   3706983.1876   2   8   0.4290   0.8453   0.8046  -0.3223  -0.6548   0.1294   0.00    2.1
2173 182445.000   1026003.3038  -5078804.6143   3706983.8444   2   8   0.4290   0.8453   0.8046  -0.3223  -0.6548   0.1292   0.00    2.2
2173 182446.000   1026003.1375  -5078804.5137   3706983.6628   2   8   0.4291   0.8453   0.8046  -0.3223  -0.6548   0.1290   0.00    2.4
2173 182447.000   1026003.1279  -5078804.7019   3706983.5360   2   8   0.4291   0.8453   0.8047  -0.3222  -0.6548   0.1288   0.00    2.8
2173 182448.000   1026003.2316  -5078804.2767   3706983.3395   2   8   0.4291   0.8453   0.8047  -0.3222  -0.6548   0.1286   0.00    2.3
2173 182449.000   1026003.1024  -5078803.8963   3706983.3401   2   8   0.4291   0.8453   0.8047  -0.3222  -0.6548   0.1284   0.00    2.2
2173 182450.000   1026003.1684  -5078804.2176   3706983.3891   2   8   0.4291   0.8453   0.8047  -0.3222  -0.6548   0.1282   0.00    2.4
2173 182451.000   1026003.1252  -5078804.3726   3706983.6253   2   8   0.4292   0.8453   0.8048  -0.3222  -0.6548   0.1280   0.00    2.6
2173 182452.000   1026003.1770  -5078804.3640   3706983.4750   2   8   0.4292   0.8453   0.8048  -0.3222  -0.6548   0.1278   0.00    2.2
2173 182453.000   1026003.1743  -5078804.2067   3706983.3324   2   8   0.4292   0.8453   0.8048  -0.3222  -0.6548   0.1276   0.00    2.5
2173 182454.000   1026003.0445  -5078804.3507   3706983.7477   2   8   0.4292   0.8453   0.8048  -0.3221  -0.6548   0.1274   0.00    2.2
2173 182455.000   1026003.2268  -5078804.2566   3706983.3718   2   8   0.4292   0.8453   0.8049  -0.3221  -0.6548   0.1273   0.00    2.2
2173 182456.000   1026003.1381  -5078804.4491   3706983.5149   2   8   0.4293   0.8453   0.8049  -0.3221  -0.6548   0.1271   0.00    2.3
2173 182457.000   1026003.2809  -5078804.4800   3706983.5969   2   8   0.4293   0.8452   0.8049  -0.3221  -0.6548   0.1269   0.00    2.3
2173 182458.000   1026003.4044  -5078804.5773   3706983.3747   2   8   0.4293   0.8452   0.8049  -0.3221  -0.6548   0.1267   0.00    2.7
2173 182459.000   1026003.3203  -5078804.4030   3706983.4498   2   8   0.4293   0.8452   0.8050  -0.3221  -0.6548   0.1265   0.00    2.6
2173 182460.000   1026003.2114  -5078804.0603   3706983.4488   2   8   0.4293   0.8452   0.8050  -0.3220  -0.6548   0.1263   0.00    2.3
2173 182461.000   1026003.1995  -5078804.1245   3706983.3812   2   8   0.4293   0.8452   0.8050  -0.3220  -0.6548   0.1261   0.00    2.9
2173 182462.000   1026003.0572  -5078803.9402   3706983.3089   2   8   0.4294   0.8452   0.8050  -0.3220  -0.6548   0.1259   0.00    3.0
2173 182463.000   1026003.0263  -5078804.2661   3706983.4468   2   8   0.4294   0.8452   0.8051  -0.3220  -0.6548   0.1257   0.00    2.8
2173 182464.000   1026003.0363  -5078803.9608   3706983.2154   2   8   0.4294   0.8452   0.8051  -0.3220  -0.6548   0.1255   0.00    2.7
2173 182465.000   1026003.1127  -5078804.3648   3706983.2488   2   8   0.4294   0.8452   0.8051  -0.3220  -0.6548   0.1253   0.00    2.6
2173 182466.000   1026002.9156  -5078804.0926   3706983.2132   2   8   0.4294   0.8452   0.8051  -0.3219  -0.6548   0.1251   0.00    2.3
2173 182467.000   1026003.1864  -5078804.2990   3706983.3546   2   8   0.4295   0.8452   0.8052  -0.3219  -0.6548   0.1249   0.00    2.6
2173 182468.000   1026003.0756  -5078804.4594   3706983.2607   2   8   0.4295   0.8452   0.8052  -0.3219  -0.6548   0.1247   0.00    2.5
2173 182469.000   1026003.2954  -5078804.6941   3706983.4552   2   8   0.4295   0.8452   0.8052  -0.3219  -0.6548   0.1245   0.00    2.2
2173 182470.000   1026003.0716  -5078804.2669   3706983.2394   2   8   0.4295   0.8452   0.8052  -0.3219  -0.6548   0.1243   0.00    2.2
2173 182471.000   1026003.1461  -5078804.2386   3706983.0820   2   8   0.4295   0.8452   0.8052  -0.3219  -0.6548   0.1241   0.00    2.2
2173 182472.000   1026003.1349  -5078804.4367   3706983.0928   2   8   0.4296   0.8452   0.8053  -0.3218  -0.6548   0.1239   0.00    2.2
2173 182473.000   1026003.2616  -5078804.3257   3706982.9135   2   8   0.4296   0.8452   0.8053  -0.3218  -0.6548   0.1237   0.00    2.3
2173 182474.000   1026003.2387  -5078804.1349   3706983.0266   2   8   0.4296   0.8452   0.8053  -0.3218  -0.6548   0.1235   0.00    2.3
2173 182475.000   1026003.1819  -5078804.4033   3706983.3202   2   8   0.4296   0.8452   0.8053  -0.3218  -0.6548   0.1233   0.00    2.4
2173 182476.000   1026003.2525  -5078804.1738   3706983.2048   2   8   0.4296   0.8452   0.8054  -0.3218  -0.6548   0.1231   0.00    2.3
2173 182477.000   1026003.0089  -5078804.1795   3706983.1939   2   8   0.4297   0.8452   0.8054  -0.3218  -0.6548   0.1229   0.00    2.3
2173 182478.000   1026003.1316  -5078804.4160   3706983.1263   2   8   0.4297   0.8452   0.8054  -0.3217  -0.6548   0.1227   0.00    2.3
2173 182479.000   1026003.2644  -5078804.3357   3706982.8874   2   8   0.4297   0.8452   0.8054  -0.3217  -0.6548   0.1225   0.00    2.3
2173 182480.000   1026003.3331  -5078804.4411   3706983.0768   2   8   0.4297   0.8452   0.8055  -0.3217  -0.6549   0.1223   0.00    2.7
2173 182481.000   1026003.3927  -5078804.2392   3706982.9329   2   8   0.4297   0.8452   0.8055  -0.3217  -0.6549   0.1221   0.00    2.7
2173 182482.000   1026003.6535  -5078804.3588   3706982.8724   2   8   0.4298   0.8452   0.8055  -0.3217  -0.6549   0.1219   0.00    2.6
2173 182483.000   1026003.4751  -5078804.5812   3706983.0500   1   8   0.0043   0.0086   0.0082  -0.0032  -0.0066   0.0011   0.00    3.0
2173 182484.000   1026003.5965  -5078804.5586   3706982.7726   2   8   0.4298   0.8452   0.8056  -0.3217  -0.6549   0.1215   0.00    2.7
2173 182485.000   1026003.4603  -5078804.6446   3706983.0126   2   8   0.4298   0.8452   0.8056  -0.3216  -0.6549   0.1213   0.00    2.5
2173 182486.000   1026003.4759  -5078804.8519   3706983.0398   2   8   0.4298   0.8452   0.8056  -0.3216  -0.6549   0.1211   0.00    2.7
2173 182487.000   1026003.3827  -5078804.8357   3706982.8907   2   8   0.4299   0.8451   0.8056  -0.3216  -0.6549   0.1209   0.00    2.5
2173 182488.000   1026003.1258  -5078804.8679   3706983.0207   2   8   0.4299   0.8451   0.8057  -0.3216  -0.6549   0.1207   0.00    2.0
2173 182489.000   1026003.3611  -5078804.4501   3706982.9339   2   8   0.4299   0.8451   0.8057  -0.3216  -0.6549   0.1205   0.00    2.9
