% program   : rnx2rtkp ver.2.4.3 b31
% inp file  : ngs/21_08_31_20_18_57_gast.obs
% inp file  : ngs/21_08_31_20_18_57_gast_P1.obs
% inp file  : ngs/21_08_31_20_18_57_brdc.nav
% obs start : 2021/08/31 20:00:00.0 GPST (week2173 244800.0s)
% obs end   : 2021/08/31 20:59:59.0 GPST (week2173 248399.0s)
% ref pos   :   849687.5200  -5146423.9830   3658569.5420
%
% (x/y/z-ecef=WGS84,Q=1:fix,2:float,3:sbas,4:dgps,5:single,6:ppp,ns=# of satellites)
%  GPST              x-ecef(m)      y-ecef(m)      z-ecef(m)   Q  ns   sdx(m)   sdy(m)   sdz(m)  sdxy(m)  sdyz(m)  sdzx(m) age(s)  ratio
2173 245912.000    798177.0590  -5149234.9063   3666205.3802   2   6   0.4611   1.0325   0.9670  -0.0693  -0.8128   0.1485 -30.00    2.0
2173 245913.000    798177.0144  -5149234.7180   3666205.1995   2   6   0.3281   0.7341   0.6886  -0.0529  -0.5785   0.1088 -29.00    2.1
2173 245914.000    798177.0371  -5149234.6294   3666205.1485   2   6   0.2686   0.6011   0.5640  -0.0440  -0.4738   0.0895 -28.00    2.0
2173 245915.000    798177.0753  -5149234.6219   3666205.1743   2   6   0.2331   0.5215   0.4894  -0.0384  -0.4111   0.0777 -27.00    2.1
2173 245916.000    798177.0449  -5149234.6477   3666205.2529   2   6   0.2088   0.4671   0.4384  -0.0344  -0.3682   0.0695 -26.00    1.9
2173 245917.000    798177.0298  -5149234.7617   3666205.2822   2   6   0.1908   0.4269   0.4006  -0.0315  -0.3365   0.0634 -25.00    1.8
2173 245918.000    798177.0192  -5149234.7378   3666205.2017   2   6   0.1768   0.3955   0.3712  -0.0292  -0.3118   0.0586 -24.00    1.8
2173 245919.000    798176.9991  -5149234.7266   3666205.1736   2   6   0.1655   0.3702   0.3474  -0.0274  -0.2919   0.0548 -23.00    1.8
2173 245920.000    798176.9956  -5149234.7250   3666205.1329   2   6   0.1561   0.3492   0.3277  -0.0260  -0.2753   0.0517 -22.00    1.8
2173 245921.000    798176.9945  -5149234.7246   3666205.0787   2   6   0.1481   0.3314   0.3110  -0.0247  -0.2613   0.0490 -21.00    1.8
2173 245922.000    798176.9822  -5149234.7246   3666205.0678   2   6   0.1412   0.3160   0.2966  -0.0237  -0.2492   0.0468 -20.00    1.8
2173 245923.000    798176.9768  -5149234.7034   3666205.0579   2   6   0.1352   0.3025   0.2840  -0.0228  -0.2386   0.0448 -19.00    1.8
2173 245924.000    798176.9640  -5149234.6561   3666205.0132   2   6   0.1299   0.2906   0.2729  -0.0221  -0.2292   0.0431 -18.00    1.8
2173 245925.000    798176.9348  -5149234.6296   3666205.0117   2   6   0.1252   0.2800   0.2630  -0.0215  -0.2209   0.0416 -17.00    1.6
2173 245926.000    798176.9325  -5149234.5573   3666204.9449   2   6   0.1209   0.2704   0.2540  -0.0209  -0.2134   0.0403 -16.00    1.6
2173 245927.000    798176.9303  -5149234.5501   3666204.9258   2   6   0.1170   0.2617   0.2459  -0.0204  -0.2065   0.0391 -15.00    1.5
2173 245928.000    798176.9261  -5149234.5283   3666204.9244   2   6   0.1135   0.2538   0.2385  -0.0200  -0.2003   0.0380 -14.00    1.5
2173 245929.000    798176.9167  -5149234.5170   3666204.9017   2   6   0.1103   0.2465   0.2317  -0.0195  -0.1946   0.0370 -13.00    1.4
2173 245930.000    798176.9128  -5149234.4915   3666204.8956   2   6   0.1073   0.2398   0.2254  -0.0192  -0.1893   0.0361 -12.00    1.4
2173 245931.000    798176.9072  -5149234.5006   3666204.8857   2   6   0.1045   0.2336   0.2196  -0.0189  -0.1844   0.0353 -11.00    1.3
2173 245932.000    798176.8963  -5149234.4951   3666204.8801   2   6   0.1020   0.2278   0.2143  -0.0186  -0.1799   0.0346 -10.00    1.2
2173 245933.000    798176.8856  -5149234.4819   3666204.8514   2   6   0.0996   0.2225   0.2092  -0.0183  -0.1757   0.0338  -9.00    1.1
2173 245934.000    798176.8846  -5149234.4889   3666204.8541   2   6   0.0974   0.2174   0.2045  -0.0180  -0.1717   0.0332  -8.00    1.1
2173 245935.000    798176.8790  -5149234.5086   3666204.8729   2   6   0.0953   0.2127   0.2001  -0.0178  -0.1680   0.0326  -7.00    1.0
2173 245936.000    798176.8742  -5149234.5052   3666204.8577   2   6   0.0933   0.2083   0.1960  -0.0175  -0.1645   0.0320  -6.00    1.1
2173 245937.000    798176.8783  -5149234.5038   3666204.8534   2   6   0.0915   0.2041   0.1920  -0.0173  -0.1612   0.0314  -5.00    1.1
2173 245938.000    798176.8775  -5149234.5141   3666204.8675   2   6   0.0897   0.2002   0.1883  -0.0170  -0.1581   0.0309  -4.00    1.2
2173 245939.000    798176.8778  -5149234.5181   3666204.8756   2   6   0.0881   0.1965   0.1848  -0.0168  -0.1552   0.0303  -3.00    1.2
2173 245940.000    798176.8762  -5149234.5222   3666204.8880   2   6   0.0865   0.1930   0.1815  -0.0166  -0.1524   0.0298  -2.00    1.2
2173 245941.000    798176.8759  -5149234.5329   3666204.9043   2   6   0.0851   0.1897   0.1783  -0.0164  -0.1497   0.0293  -1.00    1.3
2173 245942.000    798176.8768  -5149234.5326   3666204.9188   2   6   0.0837   0.1865   0.1753  -0.0161  -0.1472   0.0288   0.00    1.3
2173 245943.000    798176.8359  -5149234.3718   3666205.1654   2   6   0.4600   1.0307   0.9669  -0.0732  -0.8132   0.1456   0.00    1.1
2173 245944.000    798176.7498  -5149234.9867   3666205.3639   2   6   0.4600   1.0307   0.9669  -0.0733  -0.8133   0.1454   0.00    1.1
2173 245945.000    798176.8531  -5149234.7119   3666205.1801   2   6   0.4600   1.0307   0.9669  -0.0734  -0.8134   0.1453   0.00    1.0
2173 245946.000    798176.8872  -5149234.7038   3666205.2357   2   6   0.4600   1.0307   0.9670  -0.0735  -0.8134   0.1452   0.00    1.1
2173 245947.000    798176.9051  -5149234.3137   3666205.0643   2   6   0.4600   1.0307   0.9670  -0.0735  -0.8135   0.1450   0.00    1.1
2173 245948.000    798176.9256  -5149234.1935   3666204.8642   2   6   0.4599   1.0307   0.9671  -0.0736  -0.8135   0.1449   0.00    1.1
2173 245949.000    798176.7054  -5149234.3191   3666204.9381   2   6   0.4599   1.0307   0.9671  -0.0737  -0.8136   0.1447   0.00    1.0
2173 245950.000    798176.6064  -5149234.0926   3666205.2530   2   6   0.4599   1.0307   0.9671  -0.0738  -0.8136   0.1446   0.00    1.1
2173 245951.000    798176.4897  -5149234.1575   3666204.8883   2   6   0.4599   1.0307   0.9672  -0.0738  -0.8137   0.1445   0.00    1.0
2173 245952.000    798176.9099  -5149233.5995   3666204.0866   2   6   0.4599   1.0307   0.9672  -0.0739  -0.8137   0.1443   0.00    1.0
2173 245953.000    798176.6703  -5149233.9132   3666204.4020   2   6   0.4599   1.0307   0.9673  -0.0740  -0.8138   0.1442   0.00    1.2
2173 245954.000    798176.9049  -5149233.8090   3666203.9766   2   6   0.4599   1.0307   0.9673  -0.0741  -0.8138   0.1441   0.00    1.0
2173 245955.000    798176.9522  -5149233.6447   3666204.2051   2   6   0.4599   1.0307   0.9673  -0.0741  -0.8139   0.1439   0.00    1.0
2173 245956.000    798176.9856  -5149234.0970   3666204.4225   2   6   0.4599   1.0307   0.9674  -0.0742  -0.8140   0.1438   0.00    1.0
2173 245957.000    798176.9701  -5149233.7492   3666204.2263   2   6   0.4598   1.0307   0.9674  -0.0743  -0.8140   0.1436   0.00    1.1
2173 245958.000    798176.7276  -5149233.6628   3666204.4158   2   6   0.4598   1.0307   0.9675  -0.0744  -0.8141   0.1435   0.00    1.1
2173 245959.000    798176.7572  -5149233.7151   3666204.3919   2   6   0.4598   1.0307   0.9675  -0.0744  -0.8141   0.1434   0.00    1.1
2173 245960.000    798177.0611  -5149233.3502   3666203.9827   2   6   0.4598   1.0307   0.9675  -0.0745  -0.8142   0.1432   0.00    1.4
2173 245961.000    798176.8572  -5149233.7932   3666204.5588   2   6   0.4598   1.0307   0.9676  -0.0746  -0.8142   0.1431   0.00    1.1
2173 245962.000    798176.9357  -5149234.0722   3666204.6185   2   6   0.4598   1.0307   0.9676  -0.0747  -0.8143   0.1430   0.00    1.1
2173 245963.000    798176.9403  -5149233.3694   3666204.1247   2   6   0.4598   1.0307   0.9677  -0.0747  -0.8143   0.1428   0.00    1.2
2173 245964.000    798176.8676  -5149233.5703   3666203.9283   2   6   0.4598   1.0308   0.9677  -0.0748  -0.8144   0.1427   0.00    1.2
2173 245965.000    798176.8945  -5149233.4271   3666204.1512   2   6   0.4598   1.0308   0.9678  -0.0749  -0.8145   0.1425   0.00    1.1
2173 245966.000    798176.9255  -5149233.3205   3666203.8779   2   6   0.4597   1.0308   0.9678  -0.0750  -0.8145   0.1424   0.00    1.3
2173 245967.000    798177.0152  -5149233.0985   3666203.5931   2   6   0.4597   1.0308   0.9678  -0.0750  -0.8146   0.1423   0.00    1.3
2173 245968.000    798176.9688  -5149233.3178   3666203.7305   2   6   0.4597   1.0308   0.9679  -0.0751  -0.8146   0.1421   0.00    1.3
2173 245969.000    798176.8317  -5149233.4370   3666203.0744   2   6   0.4597   1.0308   0.9679  -0.0752  -0.8147   0.1420   0.00    1.3
2173 245970.000    798177.0519  -5149233.1649   3666203.4118   2   6   0.4597   1.0308   0.9680  -0.0752  -0.8147   0.1418   0.00    1.3
2173 245971.000    798176.8411  -5149233.0595   3666203.4208   2   6   0.4597   1.0308   0.9680  -0.0753  -0.8148   0.1417   0.00    1.1
2173 245972.000    798177.1930  -5149233.4991   3666203.5417   2   6   0.4597   1.0308   0.9680  -0.0754  -0.8148   0.1416   0.00    1.6
2173 245973.000    798176.9336  -5149234.0970   3666204.0563   2   6   0.4597   1.0308   0.9681  -0.0755  -0.8149   0.1414   0.00    1.3
2173 245974.000    798176.8563  -5149233.3026   3666203.7864   2   6   0.4597   1.0308   0.9681  -0.0755  -0.8150   0.1413   0.00    1.1
2173 245975.000    798177.3083  -5149233.2893   3666203.4152   2   6   0.4596   1.0308   0.9682  -0.0756  -0.8150   0.1412   0.00    1.6
2173 245976.000    798176.9053  -5149233.3950   3666203.7677   2   6   0.4596   1.0308   0.9682  -0.0757  -0.8151   0.1410   0.00    1.2
2173 245977.000    798177.0118  -5149233.4136   3666203.4870   2   6   0.4596   1.0308   0.9682  -0.0758  -0.8151   0.1409   0.00    1.3
2173 245978.000    798177.0753  -5149233.4004   3666203.3221   2   6   0.4596   1.0308   0.9683  -0.0758  -0.8152   0.1407   0.00    1.2
2173 245979.000    798177.1791  -5149233.1640   3666203.0729   2   6   0.4596   1.0308   0.9683  -0.0759  -0.8152   0.1406   0.00    1.4
2173 245980.000    798177.1599  -5149232.8999   3666203.5730   2   6   0.4596   1.0308   0.9684  -0.0760  -0.8153   0.1405   0.00    1.3
2173 245981.000    798176.9746  -5149232.7728   3666203.9187   2   6   0.4596   1.0308   0.9684  -0.0761  -0.8153   0.1403   0.00    1.0
2173 245982.000    798177.4054  -5149233.5316   3666204.0939   2   6   0.4596   1.0308   0.9684  -0.0761  -0.8154   0.1402   0.00    1.1
2173 245983.000    798177.2196  -5149233.8952   3666204.4119   2   6   0.4595   1.0308   0.9685  -0.0762  -0.8155   0.1400   0.00    1.0
2173 245984.000    798177.3829  -5149234.3979   3666204.6685   2   6   0.4595   1.0308   0.9685  -0.0763  -0.8155   0.1399   0.00    1.1
2173 245985.000    798177.4630  -5149233.9465   3666204.2836   2   6   0.4595   1.0308   0.9686  -0.0764  -0.8156   0.1398   0.00    1.3
2173 245986.000    798177.3530  -5149234.3185   3666204.8886   2   6   0.4595   1.0309   0.9686  -0.0764  -0.8156   0.1396   0.00    1.1
2173 245987.000    798177.5608  -5149234.8073   3666204.9542   2   6   0.4595   1.0309   0.9686  -0.0765  -0.8157   0.1395   0.00    1.2
2173 245988.000    798177.3242  -5149234.2466   3666204.5518   2   6   0.4595   1.0309   0.9687  -0.0766  -0.8157   0.1393   0.00    1.1
2173 245989.000    798177.2040  -5149235.3824   3666205.4732   2   6   0.4595   1.0309   0.9687  -0.0767  -0.8158   0.1392   0.00    1.0
2173 245990.000    798176.9987  -5149234.9072   3666205.2140   2   6   0.4595   1.0309   0.9688  -0.0767  -0.8158   0.1391   0.00    1.1
2173 245991.000    798177.3465  -5149234.5825   3666204.7782   2   6   0.4595   1.0309   0.9688  -0.0768  -0.8159   0.1389   0.00    1.1
2173 245992.000    798177.1845  -5149235.5896   3666205.5576   2   6   0.4595   1.0309   0.9688  -0.0769  -0.8159   0.1388   0.00    1.0
2173 245993.000    798177.0980  -5149234.8394   3666205.0858   2   6   0.4594   1.0309   0.9689  -0.0769  -0.8160   0.1387   0.00    1.0
2173 245994.000    798177.2270  -5149234.0702   3666204.3246   2   6   0.4594   1.0309   0.9689  -0.0770  -0.8161   0.1385   0.00    1.0
2173 245995.000    798177.0949  -5149234.7126   3666205.3727   2   6   0.4594   1.0309   0.9690  -0.0771  -0.8161   0.1384   0.00    1.3
2173 245996.000    798177.3185  -5149234.8465   3666204.6473   2   6   0.4594   1.0309   0.9690  -0.0772  -0.8162   0.1382   0.00    1.2
2173 245997.000    798177.3572  -5149234.0521   3666204.6053   2   6   0.4594   1.0309   0.9690  -0.0772  -0.8162   0.1381   0.00    1.0
2173 245998.000    798177.1925  -5149234.5200   3666205.0729   2   6   0.4594   1.0309   0.9691  -0.0773  -0.8163   0.1380   0.00    1.0
2173 245999.000    798177.3579  -5149234.1399   3666204.4947   2   6   0.4594   1.0309   0.9691  -0.0774  -0.8163   0.1378   0.00    1.0
2173 246000.000    798177.2701  -5149234.3617   3666204.8874   2   6   0.4594   1.0309   0.9692  -0.0775  -0.8164   0.1377   0.00    1.0
2173 246001.000    798177.0808  -5149234.5898   3666204.8401   2   6   0.4594   1.0309   0.9692  -0.0775  -0.8164   0.1375   0.00    1.1
2173 246002.000    798176.8567  -5149234.2812   3666204.5636   2   6   0.4593   1.0309   0.9692  -0.0776  -0.8165   0.1374   0.00    1.0
2173 246003.000    798176.9880  -5149234.0673   3666204.6435   2   6   0.4593   1.0310   0.9693  -0.0777  -0.8166   0.1373   0.00    1.0
2173 246004.000    798177.0254  -5149234.4063   3666204.5937   2   6   0.4593   1.0310   0.9693  -0.0778  -0.8166   0.1371   0.00    1.0
2173 246005.000    798177.1425  -5149234.0917   3666204.5050   2   6   0.4593   1.0310   0.9694  -0.0778  -0.8167   0.1370   0.00    1.1
2173 246006.000    798176.9352  -5149233.8377   3666204.4467   2   6   0.4593   1.0310   0.9694  -0.0779  -0.8167   0.1368   0.00    1.1
2173 246007.000    798177.0229  -5149233.6048   3666204.1484   2   6   0.4593   1.0310   0.9694  -0.0780  -0.8168   0.1367   0.00    1.2
2173 246008.000    798177.0052  -5149232.9857   3666203.7764   2   6   0.4593   1.0310   0.9695  -0.0780  -0.8168   0.1365   0.00    1.3
2173 246009.000    798176.8680  -5149233.8273   3666204.3733   2   6   0.4593   1.0310   0.9695  -0.0781  -0.8169   0.1364   0.00    1.1
2173 246010.000    798176.7258  -5149234.0884   3666205.2246   2   6   0.4593   1.0310   0.9696  -0.0782  -0.8169   0.1363   0.00    1.1
2173 246011.000    798176.8962  -5149233.5526   3666204.1941   2   6   0.4592   1.0310   0.9696  -0.0783  -0.8170   0.1361   0.00    1.2
2173 246012.000    798176.9141  -5149233.9724   3666204.1546   2   6   0.4592   1.0310   0.9696  -0.0783  -0.8171   0.1360   0.00    1.1
2173 246013.000    798177.0509  -5149233.8346   3666204.4564   2   6   0.4592   1.0310   0.9697  -0.0784  -0.8171   0.1358   0.00    1.0
2173 246014.000    798176.5081  -5149234.4296   3666205.4295   2   6   0.4592   1.0310   0.9697  -0.0785  -0.8172   0.1357   0.00    1.0
2173 246015.000    798176.5803  -5149234.3024   3666205.1480   2   6   0.4592   1.0310   0.9697  -0.0786  -0.8172   0.1356   0.00    1.1
2173 246016.000    798176.7235  -5149234.3961   3666205.3268   2   6   0.4592   1.0310   0.9698  -0.0786  -0.8173   0.1354   0.00    1.0
2173 246017.000    798176.5736  -5149233.7493   3666205.0344   2   6   0.4592   1.0310   0.9698  -0.0787  -0.8173   0.1353   0.00    1.1
2173 246018.000    798176.6366  -5149233.4442   3666204.4529   2   6   0.4592   1.0311   0.9699  -0.0788  -0.8174   0.1351   0.00    1.2
2173 246019.000    798176.5232  -5149233.6327   3666204.9105   2   6   0.4592   1.0311   0.9699  -0.0788  -0.8174   0.1350   0.00    1.1
2173 246020.000    798176.6184  -5149233.4925   3666204.6040   2   6   0.4591   1.0311   0.9699  -0.0789  -0.8175   0.1349   0.00    1.1
2173 246021.000    798176.8222  -5149233.0183   3666204.0012   2   6   0.4591   1.0311   0.9700  -0.0790  -0.8175   0.1347   0.00    1.5
2173 246022.000    798177.0181  -5149233.4801   3666204.6634   2   6   0.4591   1.0311   0.9700  -0.0791  -0.8176   0.1346   0.00    1.0
2173 246023.000    798176.7505  -5149233.5177   3666204.7386   2   6   0.4591   1.0311   0.9701  -0.0791  -0.8177   0.1344   0.00    1.1
2173 246024.000    798176.4482  -5149233.4282   3666204.3877   2   6   0.4591   1.0311   0.9701  -0.0792  -0.8177   0.1343   0.00    1.2
2173 246025.000    798176.3356  -5149232.9171   3666204.7443   2   6   0.4591   1.0311   0.9701  -0.0793  -0.8178   0.1341   0.00    1.3
2173 246026.000    798176.3920  -5149233.6616   3666204.9812   2   6   0.4591   1.0311   0.9702  -0.0794  -0.8178   0.1340   0.00    1.2
2173 246027.000    798176.5131  -5149233.9985   3666204.7740   2   6   0.4591   1.0311   0.9702  -0.0794  -0.8179   0.1339   0.00    1.1
2173 246028.000    798176.3926  -5149233.3802   3666204.7659   2   6   0.4591   1.0311   0.9703  -0.0795  -0.8179   0.1337   0.00    1.1
2173 246029.000    798176.3855  -5149233.4794   3666205.1784   2   6   0.4591   1.0311   0.9703  -0.0796  -0.8180   0.1336   0.00    1.0
2173 246030.000    798176.6118  -5149233.8162   3666205.2431   2   6   0.4590   1.0312   0.9703  -0.0796  -0.8180   0.1334   0.00    1.0
2173 246031.000    798176.4662  -5149234.0424   3666205.6028   2   6   0.4590   1.0312   0.9704  -0.0797  -0.8181   0.1333   0.00    1.1
2173 246032.000    798176.0255  -5149233.8982   3666205.8422   2   6   0.4590   1.0312   0.9704  -0.0798  -0.8182   0.1332   0.00    1.0
2173 246033.000    798176.2496  -5149234.1908   3666205.7743   2   6   0.4590   1.0312   0.9704  -0.0799  -0.8182   0.1330   0.00    1.2
2173 246034.000    798176.1320  -5149233.8628   3666205.9477   2   6   0.4590   1.0312   0.9705  -0.0799  -0.8183   0.1329   0.00    1.2
2173 246035.000    798176.0470  -5149233.5353   3666205.4490   2   6   0.4590   1.0312   0.9705  -0.0800  -0.8183   0.1327   0.00    1.2
2173 246036.000    798175.7163  -5149234.1327   3666205.9674   2   6   0.4590   1.0312   0.9706  -0.0801  -0.8184   0.1326   0.00    1.3
2173 246037.000    798175.9567  -5149234.2133   3666205.3294   2   6   0.4590   1.0312   0.9706  -0.0801  -0.8184   0.1324   0.00    1.5
2173 246038.000    798176.0226  -5149234.1520   3666205.4336   2   6   0.4590   1.0312   0.9706  -0.0802  -0.8185   0.1323   0.00    1.7
2173 246039.000    798176.2757  -5149234.0073   3666205.6829   2   6   0.4590   1.0312   0.9707  -0.0803  -0.8185   0.1322   0.00    1.2
2173 246040.000    798176.3037  -5149233.7197   3666205.2924   2   6   0.4589   1.0312   0.9707  -0.0804  -0.8186   0.1320   0.00    1.5
2173 246041.000    798176.1610  -5149234.4279   3666205.7211   2   6   0.4589   1.0312   0.9708  -0.0804  -0.8187   0.1319   0.00    1.4
2173 246042.000    798176.1746  -5149234.0352   3666205.7525   2   6   0.4589   1.0313   0.9708  -0.0805  -0.8187   0.1317   0.00    1.3
2173 246043.000    798176.0732  -5149233.8434   3666205.6383   2   6   0.4589   1.0313   0.9708  -0.0806  -0.8188   0.1316   0.00    1.6
2173 246044.000    798175.8633  -5149234.4344   3666205.5459   2   6   0.4589   1.0313   0.9709  -0.0807  -0.8188   0.1314   0.00    2.0
2173 246045.000    798176.1273  -5149234.1180   3666205.4680   2   6   0.4589   1.0313   0.9709  -0.0807  -0.8189   0.1313   0.00    1.7
2173 246046.000    798176.2585  -5149234.4644   3666206.0535   2   6   0.4589   1.0313   0.9709  -0.0808  -0.8189   0.1312   0.00    1.2
2173 246047.000    798176.1235  -5149233.9411   3666205.7405   2   6   0.4589   1.0313   0.9710  -0.0809  -0.8190   0.1310   0.00    1.6
2173 246048.000    798176.0563  -5149234.7360   3666206.6214   2   6   0.4589   1.0313   0.9710  -0.0809  -0.8190   0.1309   0.00    1.0
2173 246049.000    798176.2983  -5149233.9430   3666205.7170   2   6   0.4589   1.0313   0.9711  -0.0810  -0.8191   0.1307   0.00    1.4
2173 246050.000    798176.3446  -5149234.6432   3666206.0582   2   6   0.4588   1.0313   0.9711  -0.0811  -0.8191   0.1306   0.00    1.3
2173 246051.000    798176.2708  -5149234.0634   3666205.7150   2   6   0.4588   1.0313   0.9711  -0.0812  -0.8192   0.1304   0.00    1.0
2173 246052.000    798176.3890  -5149234.1901   3666205.6959   2   6   0.4588   1.0314   0.9712  -0.0812  -0.8193   0.1303   0.00    1.1
2173 246053.000    798176.4771  -5149234.0886   3666205.6353   2   6   0.4588   1.0314   0.9712  -0.0813  -0.8193   0.1302   0.00    1.0
2173 246054.000    798176.3077  -5149234.0891   3666205.6037   2   6   0.4588   1.0314   0.9712  -0.0814  -0.8194   0.1300   0.00    1.1
2173 246055.000    798176.5038  -5149234.7543   3666206.1592   2   6   0.4588   1.0314   0.9713  -0.0814  -0.8194   0.1299   0.00    1.1
2173 246056.000    798176.6911  -5149234.7056   3666205.8290   2   6   0.4588   1.0314   0.9713  -0.0815  -0.8195   0.1297   0.00    1.1
2173 246057.000    798176.7536  -5149234.1935   3666205.3682   2   6   0.4588   1.0314   0.9714  -0.0816  -0.8195   0.1296   0.00    1.1
2173 246058.000    798176.5770  -5149234.9288   3666205.8780   2   6   0.4588   1.0314   0.9714  -0.0817  -0.8196   0.1294   0.00    1.2
2173 246059.000    798176.5370  -5149234.9597   3666205.6804   2   6   0.4588   1.0314   0.9714  -0.0817  -0.8196   0.1293   0.00    1.2
2173 246060.000    798176.4218  -5149234.6694   3666205.2942   2   6   0.4587   1.0314   0.9715  -0.0818  -0.8197   0.1291   0.00    1.2
2173 246061.000    798176.3712  -5149234.6122   3666205.2175   2   6   0.4587   1.0314   0.9715  -0.0819  -0.8198   0.1290   0.00    1.0
2173 246062.000    798176.4262  -5149234.9592   3666205.7824   2   6   0.4587   1.0315   0.9716  -0.0820  -0.8198   0.1289   0.00    1.1
2173 246063.000    798176.3613  -5149235.4860   3666205.9887   2   6   0.4587   1.0315   0.9716  -0.0820  -0.8199   0.1287   0.00    1.4
2173 246064.000    798176.3234  -5149235.6325   3666206.3642   2   6   0.4587   1.0315   0.9716  -0.0821  -0.8199   0.1286   0.00    1.3
2173 246065.000    798176.4621  -5149234.6725   3666205.4549   2   6   0.4587   1.0315   0.9717  -0.0822  -0.8200   0.1284   0.00    1.4
2173 246066.000    798176.3978  -5149234.6026   3666205.3033   2   6   0.4587   1.0315   0.9717  -0.0822  -0.8200   0.1283   0.00    1.4
2173 246067.000    798176.7676  -5149234.7072   3666204.9648   2   6   0.4587   1.0315   0.9717  -0.0823  -0.8201   0.1281   0.00    2.0
2173 246068.000    798176.5536  -5149235.0355   3666204.5597   2   6   0.4587   1.0315   0.9718  -0.0824  -0.8201   0.1280   0.00    1.3
2173 246069.000    798176.6662  -5149235.3154   3666204.9923   2   6   0.4587   1.0315   0.9718  -0.0825  -0.8202   0.1278   0.00    1.5
2173 246070.000    798176.7349  -5149235.5884   3666205.1825   2   6   0.4586   1.0315   0.9718  -0.0825  -0.8202   0.1277   0.00    1.3
2173 246071.000    798176.7696  -5149235.2984   3666204.5495   2   6   0.4586   1.0315   0.9719  -0.0826  -0.8203   0.1276   0.00    1.4
2173 246072.000    798176.6079  -5149235.0074   3666204.5066   2   6   0.4586   1.0316   0.9719  -0.0827  -0.8204   0.1274   0.00    1.5
2173 246073.000    798176.5080  -5149235.7993   3666205.1137   2   6   0.4586   1.0316   0.9720  -0.0827  -0.8204   0.1273   0.00    1.4
2173 246074.000    798176.6128  -5149235.5964   3666204.8802   2   6   0.4586   1.0316   0.9720  -0.0828  -0.8205   0.1271   0.00    1.8
2173 246075.000    798176.4610  -5149235.4842   3666204.9737   2   6   0.4586   1.0316   0.9720  -0.0829  -0.8205   0.1270   0.00    1.3
2173 246076.000    798176.6775  -5149234.9622   3666204.7786   2   6   0.4586   1.0316   0.9721  -0.0830  -0.8206   0.1268   0.00    2.3
2173 246077.000    798176.6538  -5149235.3554   3666205.1491   2   6   0.4586   1.0316   0.9721  -0.0830  -0.8206   0.1267   0.00    1.7
2173 246078.000    798176.6416  -5149235.3867   3666204.9717   2   6   0.4586   1.0316   0.9721  -0.0831  -0.8207   0.1265   0.00    1.0
2173 246079.000    798176.3776  -5149235.4586   3666205.4216   2   6   0.4586   1.0316   0.9722  -0.0832  -0.8207   0.1264   0.00    1.4
2173 246080.000    798176.6914  -5149235.5736   3666205.1540   2   6   0.4585   1.0317   0.9722  -0.0832  -0.8208   0.1262   0.00    1.1
2173 246081.000    798176.5285  -5149235.6177   3666205.2163   2   6   0.4585   1.0317   0.9723  -0.0833  -0.8209   0.1261   0.00    1.3
2173 246082.000    798176.5310  -5149235.1029   3666204.8620   2   6   0.4585   1.0317   0.9723  -0.0834  -0.8209   0.1260   0.00    1.3
2173 246083.000    798176.7709  -5149234.7535   3666204.6713   2   6   0.4585   1.0317   0.9723  -0.0835  -0.8210   0.1258   0.00    1.1
2173 246084.000    798176.6076  -5149234.9241   3666204.9267   2   6   0.4585   1.0317   0.9724  -0.0835  -0.8210   0.1257   0.00    1.8
2173 246085.000    798176.4649  -5149235.0925   3666205.0036   2   6   0.4585   1.0317   0.9724  -0.0836  -0.8211   0.1255   0.00    1.7
2173 246086.000    798176.7127  -5149234.8921   3666204.7173   2   6   0.4585   1.0317   0.9724  -0.0837  -0.8211   0.1254   0.00    1.5
2173 246087.000    798176.5214  -5149235.2174   3666204.9110   2   6   0.4585   1.0317   0.9725  -0.0838  -0.8212   0.1252   0.00    2.0
2173 246088.000    798176.6998  -5149235.0825   3666204.6446   2   6   0.4585   1.0317   0.9725  -0.0838  -0.8212   0.1251   0.00    1.9
2173 246089.000    798176.6794  -5149234.6274   3666204.5289   2   6   0.4585   1.0318   0.9726  -0.0839  -0.8213   0.1249   0.00    2.4
2173 246090.000    798176.7209  -5149234.6840   3666204.7153   2   6   0.4585   1.0318   0.9726  -0.0840  -0.8213   0.1248   0.00    2.2
2173 246091.000    798176.9097  -5149234.7051   3666204.7018   2   6   0.4584   1.0318   0.9726  -0.0840  -0.8214   0.1246   0.00    2.4
2173 246092.000    798176.7927  -5149233.9989   3666204.1086   2   6   0.4584   1.0318   0.9727  -0.0841  -0.8215   0.1245   0.00    1.5
2173 246093.000    798177.2671  -5149234.0416   3666203.5820   2   6   0.4584   1.0318   0.9727  -0.0842  -0.8215   0.1243   0.00    1.5
2173 246094.000    798177.2661  -5149234.1410   3666203.7018   2   6   0.4584   1.0318   0.9727  -0.0843  -0.8216   0.1242   0.00    1.7
2173 246095.000    798177.3525  -5149233.4861   3666203.6522   2   6   0.4584   1.0318   0.9728  -0.0843  -0.8216   0.1241   0.00    1.6
2173 246096.000    798176.9311  -5149234.1763   3666203.9481   2   6   0.4584   1.0318   0.9728  -0.0844  -0.8217   0.1239   0.00    2.5
2173 246097.000    798176.8064  -5149234.2054   3666203.5917   2   6   0.4584   1.0319   0.9728  -0.0845  -0.8217   0.1238   0.00    2.3
2173 246098.000    798177.0218  -5149234.4909   3666204.1578   2   6   0.4584   1.0319   0.9729  -0.0845  -0.8218   0.1236   0.00    2.3
2173 246099.000    798177.0695  -5149234.3305   3666204.1811   2   6   0.4584   1.0319   0.9729  -0.0846  -0.8218   0.1235   0.00    1.2
2173 246100.000    798177.1141  -5149234.2956   3666204.6605   2   6   0.4584   1.0319   0.9730  -0.0847  -0.8219   0.1233   0.00    2.6
2173 246101.000    798177.1683  -5149234.3714   3666204.2384   2   6   0.4583   1.0319   0.9730  -0.0848  -0.8219   0.1232   0.00    1.7
2173 246102.000    798177.2258  -5149234.2694   3666204.9126   1   6   0.0046   0.0104   0.0098  -0.0009  -0.0083   0.0014   0.00    3.2
2173 246103.000    798177.2267  -5149234.2854   3666204.9220   1   6   0.0046   0.0104   0.0098  -0.0009  -0.0083   0.0014   0.00    3.1
2173 246104.000    798177.0605  -5149234.4935   3666204.5743   2   6   0.4583   1.0319   0.9731  -0.0850  -0.8221   0.1227   0.00    1.3
2173 246105.000    798177.0429  -5149234.2678   3666203.8665   2   6   0.4583   1.0320   0.9731  -0.0850  -0.8222   0.1226   0.00    1.7
2173 246106.000    798177.1371  -5149233.8913   3666203.9428   2   6   0.4583   1.0320   0.9732  -0.0851  -0.8222   0.1224   0.00    2.0
2173 246107.000    798177.0648  -5149233.7916   3666203.5872   2   6   0.4583   1.0320   0.9732  -0.0852  -0.8223   0.1223   0.00    2.4
2173 246108.000    798176.9998  -5149234.4468   3666204.2907   2   6   0.4583   1.0320   0.9732  -0.0853  -0.8223   0.1221   0.00    2.2
2173 246109.000    798176.9239  -5149233.7915   3666204.0007   2   6   0.4583   1.0320   0.9733  -0.0853  -0.8224   0.1220   0.00    2.2
2173 246110.000    798176.7922  -5149234.1389   3666204.1268   2   6   0.4583   1.0320   0.9733  -0.0854  -0.8224   0.1218   0.00    2.8
2173 246111.000    798176.7882  -5149234.3595   3666204.3508   2   6   0.4583   1.0320   0.9734  -0.0855  -0.8225   0.1217   0.00    2.3
2173 246112.000    798177.3082  -5149233.8255   3666204.1851   2   6   0.4582   1.0321   0.9734  -0.0855  -0.8226   0.1215   0.00    1.8
2173 246113.000    798177.2251  -5149234.2689   3666204.9104   1   6   0.0046   0.0104   0.0098  -0.0009  -0.0083   0.0013   0.00    3.3
2173 246114.000    798176.8452  -5149234.0368   3666204.3331   2   6   0.4582   1.0321   0.9735  -0.0857  -0.8227   0.1213   0.00    2.9
2173 246115.000    798176.8737  -5149233.8394   3666204.5347   2   6   0.4582   1.0321   0.9735  -0.0858  -0.8227   0.1211   0.00    2.9
2173 246116.000    798176.7891  -5149234.3180   3666204.4019   2   6   0.4582   1.0321   0.9735  -0.0858  -0.8228   0.1210   0.00    2.7
2173 246117.000    798176.7546  -5149233.5503   3666203.9455   2   6   0.4582   1.0321   0.9736  -0.0859  -0.8228   0.1208   0.00    2.1
2173 246118.000    798176.7338  -5149233.3488   3666204.4900   2   6   0.4582   1.0321   0.9736  -0.0860  -0.8229   0.1207   0.00    2.6
2173 246119.000    798176.4592  -5149233.9295   3666204.5032   2   6   0.4582   1.0322   0.9736  -0.0860  -0.8229   0.1205   0.00    2.4
2173 246120.000    798176.7128  -5149233.0933   3666204.0284   2   6   0.4582   1.0322   0.9737  -0.0861  -0.8230   0.1204   0.00    2.2
2173 246121.000    798176.7729  -5149233.5700   3666204.5619   2   6   0.4582   1.0322   0.9737  -0.0862  -0.8230   0.1202   0.00    2.6
2173 246122.000    798176.5905  -5149234.0372   3666204.8408   2   6   0.4582   1.0322   0.9737  -0.0863  -0.8231   0.1201   0.00    1.9
2173 246123.000    798176.5613  -5149233.9655   3666204.2179   2   6   0.4581   1.0322   0.9738  -0.0863  -0.8232   0.1199   0.00    1.3
2173 246124.000    798176.3729  -5149234.0477   3666204.6115   2   6   0.4581   1.0322   0.9738  -0.0864  -0.8232   0.1198   0.00    2.1
2173 246125.000    798176.6138  -5149234.7604   3666204.9156   2   6   0.4581   1.0322   0.9739  -0.0865  -0.8233   0.1196   0.00    2.2
2173 246126.000    798176.4910  -5149234.0599   3666204.6577   2   6   0.4581   1.0323   0.9739  -0.0865  -0.8233   0.1195   0.00    1.9
2173 246127.000    798176.6038  -5149233.7339   3666203.8149   2   6   0.4581   1.0323   0.9739  -0.0866  -0.8234   0.1193   0.00    1.2
2173 246128.000    798176.6908  -5149234.1503   3666203.8254   2   6   0.4581   1.0323   0.9740  -0.0867  -0.8234   0.1192   0.00    1.6
2173 246129.000    798176.7998  -5149233.8915   3666204.5274   2   6   0.4581   1.0323   0.9740  -0.0868  -0.8235   0.1190   0.00    1.4
2173 246130.000    798176.7943  -5149234.0428   3666204.4211   2   6   0.4581   1.0323   0.9740  -0.0868  -0.8235   0.1189   0.00    1.7
2173 246131.000    798176.7174  -5149233.6559   3666203.9955   2   6   0.4581   1.0323   0.9741  -0.0869  -0.8236   0.1187   0.00    1.4
2173 246132.000    798176.5131  -5149233.8648   3666204.4891   2   6   0.4581   1.0323   0.9741  -0.0870  -0.8236   0.1186   0.00    1.3
2173 246133.000    798176.5865  -5149233.2514   3666204.2318   2   6   0.4581   1.0324   0.9741  -0.0870  -0.8237   0.1184   0.00    1.2
2173 246134.000    798176.8614  -5149233.4285   3666204.2707   2   6   0.4581   1.0324   0.9742  -0.0871  -0.8238   0.1183   0.00    2.0
2173 246135.000    798176.7666  -5149234.2751   3666204.9122   2   6   0.4580   1.0324   0.9742  -0.0872  -0.8238   0.1181   0.00    1.7
2173 246136.000    798176.8933  -5149233.6106   3666204.6437   2   6   0.4580   1.0324   0.9742  -0.0873  -0.8239   0.1180   0.00    1.2
2173 246137.000    798176.9513  -5149233.7324   3666204.5479   2   6   0.4580   1.0324   0.9743  -0.0873  -0.8239   0.1178   0.00    1.1
2173 246138.000    798176.9083  -5149234.1669   3666204.9198   2   6   0.4580   1.0324   0.9743  -0.0874  -0.8240   0.1177   0.00    1.1
2173 246139.000    798177.0524  -5149234.1781   3666204.7961   2   6   0.4580   1.0325   0.9743  -0.0875  -0.8240   0.1175   0.00    1.2
2173 246140.000    798177.3113  -5149234.5189   3666205.3091   2   6   0.4580   1.0325   0.9744  -0.0876  -0.8241   0.1174   0.00    1.2
2173 246141.000    798177.1248  -5149234.5828   3666205.5349   2   6   0.4580   1.0325   0.9744  -0.0876  -0.8241   0.1172   0.00    1.2
2173 246142.000    798176.9098  -5149233.9011   3666205.0141   2   6   0.4580   1.0325   0.9744  -0.0877  -0.8242   0.1171   0.00    1.4
2173 246143.000    798177.3224  -5149233.6065   3666204.7628   2   6   0.4580   1.0325   0.9745  -0.0878  -0.8242   0.1169   0.00    1.5
2173 246144.000    798177.4082  -5149233.4446   3666204.3014   2   6   0.4580   1.0325   0.9745  -0.0878  -0.8243   0.1168   0.00    1.8
2173 246145.000    798177.2402  -5149233.8854   3666204.8627   2   6   0.4580   1.0325   0.9746  -0.0879  -0.8244   0.1166   0.00    1.3
2173 246146.000    798177.3629  -5149234.2611   3666205.0269   2   6   0.4579   1.0326   0.9746  -0.0880  -0.8244   0.1165   0.00    1.3
2173 246147.000    798177.2958  -5149234.0732   3666205.3304   2   6   0.4579   1.0326   0.9746  -0.0881  -0.8245   0.1163   0.00    1.2
2173 246148.000    798177.0637  -5149233.8162   3666204.8684   2   6   0.4579   1.0326   0.9747  -0.0881  -0.8245   0.1162   0.00    1.3
2173 246149.000    798177.1984  -5149233.6593   3666204.4359   2   6   0.4579   1.0326   0.9747  -0.0882  -0.8246   0.1160   0.00    1.2
2173 246150.000    798177.1629  -5149233.9644   3666204.9725   2   6   0.4579   1.0326   0.9747  -0.0883  -0.8246   0.1159   0.00    1.0
2173 246151.000    798177.2824  -5149233.8623   3666204.4713   2   6   0.4579   1.0326   0.9748  -0.0883  -0.8247   0.1157   0.00    1.3
2173 246152.000    798177.1768  -5149233.8769   3666204.4347   2   6   0.4579   1.0327   0.9748  -0.0884  -0.8247   0.1156   0.00    1.0
2173 246153.000    798177.3125  -5149234.0356   3666204.6514   2   6   0.4579   1.0327   0.9748  -0.0885  -0.8248   0.1154   0.00    1.3
2173 246154.000    798176.9071  -5149234.0678   3666204.6182   2   6   0.4579   1.0327   0.9749  -0.0886  -0.8249   0.1153   0.00    1.2
2173 246155.000    798177.0352  -5149234.0210   3666204.8088   2   6   0.4579   1.0327   0.9749  -0.0886  -0.8249   0.1151   0.00    1.2
2173 246156.000    798176.9794  -5149234.7090   3666205.4994   2   6   0.4579   1.0327   0.9749  -0.0887  -0.8250   0.1150   0.00    1.1
2173 246157.000    798176.9504  -5149233.9688   3666204.6894   2   6   0.4579   1.0327   0.9750  -0.0888  -0.8250   0.1148   0.00    1.0
2173 246158.000    798177.1116  -5149233.8130   3666204.9975   2   6   0.4578   1.0328   0.9750  -0.0888  -0.8251   0.1147   0.00    1.2
2173 246159.000    798176.9392  -5149234.1708   3666205.0436   2   6   0.4578   1.0328   0.9750  -0.0889  -0.8251   0.1145   0.00    1.1
2173 246160.000    798177.0200  -5149233.9016   3666204.8455   2   6   0.4578   1.0328   0.9751  -0.0890  -0.8252   0.1143   0.00    1.0
2173 246161.000    798177.2474  -5149233.6510   3666204.4869   2   6   0.4578   1.0328   0.9751  -0.0891  -0.8252   0.1142   0.00    1.2
2173 246162.000    798176.7435  -5149234.8690   3666205.3168   2   6   0.4578   1.0328   0.9751  -0.0891  -0.8253   0.1140   0.00    1.2
2173 246163.000    798177.0330  -5149233.7596   3666205.0256   2   6   0.4578   1.0328   0.9752  -0.0892  -0.8253   0.1139   0.00    1.1
2173 246164.000    798176.6893  -5149233.8331   3666204.9475   2   6   0.4578   1.0329   0.9752  -0.0893  -0.8254   0.1137   0.00    1.2
2173 246165.000    798177.0260  -5149234.0629   3666205.1438   2   6   0.4578   1.0329   0.9752  -0.0893  -0.8255   0.1136   0.00    1.0
2173 246166.000    798176.8188  -5149234.8663   3666205.2026   2   6   0.4578   1.0329   0.9753  -0.0894  -0.8255   0.1134   0.00    1.0
2173 246167.000    798176.7307  -5149234.6503   3666205.5565   2   6   0.4578   1.0329   0.9753  -0.0895  -0.8256   0.1133   0.00    1.0
2173 246168.000    798176.5817  -5149234.6712   3666205.2557   2   6   0.4578   1.0329   0.9753  -0.0896  -0.8256   0.1131   0.00    1.1
2173 246169.000    798176.6532  -5149234.0651   3666205.6594   2   6   0.4578   1.0329   0.9754  -0.0896  -0.8257   0.1130   0.00    1.0
2173 246170.000    798176.6327  -5149234.1209   3666205.1866   2   6   0.4577   1.0330   0.9754  -0.0897  -0.8257   0.1128   0.00    1.0
2173 246171.000    798176.5148  -5149234.3577   3666205.5959   2   6   0.4577   1.0330   0.9754  -0.0898  -0.8258   0.1127   0.00    1.0
2173 246172.000    798176.8457  -5149234.6976   3666205.5784   2   6   0.4577   1.0330   0.9755  -0.0898  -0.8258   0.1125   0.00    1.1
2173 246173.000    798176.8145  -5149234.3013   3666205.6936   2   6   0.4577   1.0330   0.9755  -0.0899  -0.8259   0.1124   0.00    1.0
2173 246174.000    798176.6951  -5149234.0695   3666205.8377   2   6   0.4577   1.0330   0.9755  -0.0900  -0.8259   0.1122   0.00    1.0
2173 246175.000    798176.5048  -5149234.4753   3666205.3961   2   6   0.4577   1.0331   0.9756  -0.0901  -0.8260   0.1121   0.00    1.0
2173 246176.000    798176.4915  -5149234.0157   3666205.6402   2   6   0.4577   1.0331   0.9756  -0.0901  -0.8261   0.1119   0.00    1.1
2173 246177.000    798176.4968  -5149234.0835   3666205.4314   2   6   0.4577   1.0331   0.9756  -0.0902  -0.8261   0.1118   0.00    1.4
2173 246178.000    798176.3481  -5149233.8810   3666205.3392   2   6   0.4577   1.0331   0.9757  -0.0903  -0.8262   0.1116   0.00    1.3
2173 246179.000    798176.5415  -5149233.6391   3666205.4311   2   6   0.4577   1.0331   0.9757  -0.0904  -0.8262   0.1114   0.00    1.5
2173 246180.000    798176.5404  -5149234.1699   3666205.3058   2   6   0.4577   1.0331   0.9757  -0.0904  -0.8263   0.1113   0.00    1.1
2173 246181.000    798176.6968  -5149233.5846   3666204.8422   2   6   0.4577   1.0332   0.9758  -0.0905  -0.8263   0.1111   0.00    1.1
2173 246182.000    798176.6861  -5149233.3397   3666204.9929   2   6   0.4576   1.0332   0.9758  -0.0906  -0.8264   0.1110   0.00    1.1
2173 246183.000    798176.6569  -5149233.6454   3666205.2952   2   6   0.4576   1.0332   0.9758  -0.0906  -0.8264   0.1108   0.00    1.5
2173 246184.000    798176.7409  -5149233.5568   3666205.2413   2   6   0.4576   1.0332   0.9759  -0.0907  -0.8265   0.1107   0.00    1.6
2173 246185.000    798176.5455  -5149233.7126   3666205.4887   2   6   0.4576   1.0332   0.9759  -0.0908  -0.8265   0.1105   0.00    1.5
2173 246186.000    798176.5033  -5149233.9244   3666205.2424   2   6   0.4576   1.0333   0.9759  -0.0909  -0.8266   0.1104   0.00    1.2
2173 246187.000    798176.7882  -5149233.1536   3666204.4388   2   6   0.4576   1.0333   0.9760  -0.0909  -0.8266   0.1102   0.00    1.4
2173 246188.000    798176.7790  -5149233.9346   3666205.1041   2   6   0.4576   1.0333   0.9760  -0.0910  -0.8267   0.1101   0.00    1.4
2173 246189.000    798176.9049  -5149233.4451   3666204.8551   2   6   0.4576   1.0333   0.9760  -0.0911  -0.8268   0.1099   0.00    1.2
2173 246190.000    798176.8077  -5149233.7595   3666205.2967   2   6   0.4576   1.0333   0.9761  -0.0911  -0.8268   0.1097   0.00    1.3
2173 246191.000    798176.5817  -5149232.8818   3666204.6631   2   6   0.4576   1.0333   0.9761  -0.0912  -0.8269   0.1096   0.00    1.5
2173 246192.000    798176.7818  -5149233.1721   3666204.7094   2   6   0.4576   1.0334   0.9761  -0.0913  -0.8269   0.1094   0.00    1.3
2173 246193.000    798176.7519  -5149232.8816   3666204.5672   2   6   0.4576   1.0334   0.9762  -0.0914  -0.8270   0.1093   0.00    2.3
2173 246194.000    798176.7624  -5149232.6908   3666203.9395   2   6   0.4576   1.0334   0.9762  -0.0914  -0.8270   0.1091   0.00    1.9
2173 246195.000    798176.5725  -5149232.8901   3666204.1054   2   6   0.4575   1.0334   0.9762  -0.0915  -0.8271   0.1090   0.00    1.6
2173 246196.000    798176.6097  -5149233.2640   3666204.7727   2   6   0.4575   1.0334   0.9763  -0.0916  -0.8271   0.1088   0.00    1.6
2173 246197.000    798176.6530  -5149232.5352   3666204.0982   2   6   0.4575   1.0335   0.9763  -0.0916  -0.8272   0.1087   0.00    1.9
2173 246198.000    798176.6734  -5149232.9805   3666204.4944   2   6   0.4575   1.0335   0.9763  -0.0917  -0.8272   0.1085   0.00    1.7
2173 246199.000    798176.6023  -5149232.5791   3666204.3160   2   6   0.4575   1.0335   0.9764  -0.0918  -0.8273   0.1083   0.00    1.7
2173 246200.000    798176.4050  -5149232.8986   3666204.4998   2   6   0.4575   1.0335   0.9764  -0.0919  -0.8274   0.1082   0.00    1.6
2173 246201.000    798176.6606  -5149232.4545   3666203.8400   2   6   0.4575   1.0335   0.9764  -0.0919  -0.8274   0.1080   0.00    1.7
2173 246202.000    798176.5652  -5149232.8030   3666203.6655   2   6   0.4575   1.0336   0.9765  -0.0920  -0.8275   0.1079   0.00    1.5
2173 246203.000    798176.9032  -5149232.8577   3666203.9219   2   6   0.4575   1.0336   0.9765  -0.0921  -0.8275   0.1077   0.00    1.8
2173 246204.000    798176.9693  -5149232.9329   3666203.8223   2   6   0.4575   1.0336   0.9765  -0.0922  -0.8276   0.1076   0.00    1.5
2173 246205.000    798176.7758  -5149233.3164   3666204.1806   2   6   0.4575   1.0336   0.9766  -0.0922  -0.8276   0.1074   0.00    1.9
2173 246206.000    798177.0596  -5149233.5607   3666204.1106   2   6   0.4575   1.0336   0.9766  -0.0923  -0.8277   0.1073   0.00    1.8
2173 246207.000    798176.5900  -5149232.4451   3666203.5405   2   6   0.4575   1.0337   0.9766  -0.0924  -0.8277   0.1071   0.00    1.5
2173 246208.000    798176.9454  -5149233.0948   3666204.0631   2   6   0.4574   1.0337   0.9767  -0.0924  -0.8278   0.1069   0.00    1.9
2173 246209.000    798176.8218  -5149233.3922   3666204.2363   2   6   0.4574   1.0337   0.9767  -0.0925  -0.8278   0.1068   0.00    1.8
2173 246210.000    798176.9666  -5149232.7562   3666203.8030   2   6   0.4574   1.0337   0.9767  -0.0926  -0.8279   0.1066   0.00    1.4
2173 246211.000    798176.9692  -5149232.6567   3666203.2099   2   6   0.4574   1.0337   0.9768  -0.0927  -0.8280   0.1065   0.00    1.1
2173 246212.000    798177.0191  -5149232.8216   3666203.9197   2   6   0.4574   1.0338   0.9768  -0.0927  -0.8280   0.1063   0.00    1.6
2173 246213.000    798176.9458  -5149233.1084   3666204.6978   2   6   0.4574   1.0338   0.9768  -0.0928  -0.8281   0.1062   0.00    1.6
2173 246214.000    798177.0309  -5149232.8531   3666204.4993   2   6   0.4574   1.0338   0.9769  -0.0929  -0.8281   0.1060   0.00    1.7
2173 246215.000    798176.7923  -5149233.7768   3666204.7993   2   6   0.4574   1.0338   0.9769  -0.0929  -0.8282   0.1058   0.00    1.7
2173 246216.000    798176.9339  -5149233.4107   3666204.9651   2   6   0.4574   1.0338   0.9769  -0.0930  -0.8282   0.1057   0.00    2.0
2173 246217.000    798177.0583  -5149233.6313   3666204.9202   2   6   0.4574   1.0339   0.9770  -0.0931  -0.8283   0.1055   0.00    2.1
2173 246218.000    798177.0843  -5149233.6061   3666204.8944   2   6   0.4574   1.0339   0.9770  -0.0932  -0.8283   0.1054   0.00    2.1
2173 246219.000    798176.8179  -5149233.5570   3666204.8093   2   6   0.4574   1.0339   0.9770  -0.0932  -0.8284   0.1052   0.00    2.2
2173 246220.000    798176.9805  -5149233.9245   3666204.8657   2   6   0.4574   1.0339   0.9771  -0.0933  -0.8284   0.1051   0.00    1.8
2173 246221.000    798177.0339  -5149233.8166   3666204.5950   2   6   0.4573   1.0339   0.9771  -0.0934  -0.8285   0.1049   0.00    1.7
2173 246222.000    798176.9022  -5149233.0147   3666204.3764   2   6   0.4573   1.0340   0.9771  -0.0935  -0.8285   0.1047   0.00    1.8
2173 246223.000    798177.1465  -5149233.4195   3666204.5780   2   6   0.4573   1.0340   0.9771  -0.0935  -0.8286   0.1046   0.00    1.7
2173 246224.000    798176.9679  -5149233.3700   3666204.8655   2   6   0.4573   1.0340   0.9772  -0.0936  -0.8287   0.1044   0.00    1.9
2173 246225.000    798176.9816  -5149233.2391   3666204.5295   2   6   0.4573   1.0340   0.9772  -0.0937  -0.8287   0.1043   0.00    1.9
2173 246226.000    798177.1641  -5149233.6187   3666204.7583   2   6   0.4573   1.0340   0.9772  -0.0937  -0.8288   0.1041   0.00    1.7
2173 246227.000    798177.0801  -5149233.7466   3666205.0755   2   6   0.4573   1.0341   0.9773  -0.0938  -0.8288   0.1040   0.00    1.9
2173 246228.000    798177.2841  -5149233.4232   3666204.7717   2   6   0.4573   1.0341   0.9773  -0.0939  -0.8289   0.1038   0.00    1.8
2173 246229.000    798176.9007  -5149233.1767   3666204.7084   2   6   0.4573   1.0341   0.9773  -0.0940  -0.8289   0.1036   0.00    1.6
2173 246230.000    798176.8654  -5149233.3617   3666204.9779   2   6   0.4573   1.0341   0.9774  -0.0940  -0.8290   0.1035   0.00    1.9
2173 246231.000    798177.1069  -5149232.8127   3666204.1682   2   6   0.4573   1.0341   0.9774  -0.0941  -0.8290   0.1033   0.00    1.6
2173 246232.000    798176.7927  -5149232.7657   3666204.1628   2   6   0.4573   1.0342   0.9774  -0.0942  -0.8291   0.1032   0.00    1.5
2173 246233.000    798176.8095  -5149232.4510   3666203.8579   2   6   0.4573   1.0342   0.9775  -0.0943  -0.8291   0.1030   0.00    1.4
2173 246234.000    798176.8293  -5149233.0476   3666204.4906   2   6   0.4572   1.0342   0.9775  -0.0943  -0.8292   0.1028   0.00    2.1
2173 246235.000    798177.0404  -5149232.6128   3666203.8349   2   6   0.4572   1.0342   0.9775  -0.0944  -0.8293   0.1027   0.00    1.5
2173 246236.000    798176.7294  -5149233.3473   3666204.0803   2   6   0.4572   1.0343   0.9776  -0.0945  -0.8293   0.1025   0.00    1.4
2173 246237.000    798176.9000  -5149233.3330   3666204.3139   2   6   0.4572   1.0343   0.9776  -0.0945  -0.8294   0.1024   0.00    1.6
2173 246238.000    798177.2186  -5149233.2587   3666204.4723   2   6   0.4572   1.0343   0.9776  -0.0946  -0.8294   0.1022   0.00    1.9
2173 246239.000    798177.1014  -5149233.4612   3666204.8467   2   6   0.4572   1.0343   0.9777  -0.0947  -0.8295   0.1020   0.00    2.1
2173 246240.000    798177.0972  -5149233.4206   3666204.3678   2   6   0.4572   1.0343   0.9777  -0.0948  -0.8295   0.1019   0.00    2.1
2173 246241.000    798177.2483  -5149233.2111   3666204.2232   2   6   0.4572   1.0344   0.9777  -0.0948  -0.8296   0.1017   0.00    2.0
2173 246242.000    798177.0802  -5149232.7552   3666204.0031   2   6   0.4572   1.0344   0.9777  -0.0949  -0.8296   0.1016   0.00    1.7
2173 246243.000    798176.9199  -5149233.0289   3666204.3389   2   6   0.4572   1.0344   0.9778  -0.0950  -0.8297   0.1014   0.00    2.1
2173 246244.000    798177.0739  -5149233.4513   3666204.3837   2   6   0.4572   1.0344   0.9778  -0.0951  -0.8297   0.1012   0.00    2.3
2173 246245.000    798176.7808  -5149233.6743   3666204.2841   2   6   0.4572   1.0345   0.9778  -0.0951  -0.8298   0.1011   0.00    2.0
2173 246246.000    798176.8051  -5149233.5062   3666204.0376   2   6   0.4572   1.0345   0.9779  -0.0952  -0.8298   0.1009   0.00    2.0
2173 246247.000    798176.8241  -5149233.8169   3666204.3911   2   6   0.4572   1.0345   0.9779  -0.0953  -0.8299   0.1008   0.00    2.3
2173 246248.000    798176.9186  -5149233.2420   3666203.8794   2   6   0.4571   1.0345   0.9779  -0.0953  -0.8300   0.1006   0.00    2.1
2173 246249.000    798176.8418  -5149232.9814   3666203.9814   2   6   0.4571   1.0345   0.9780  -0.0954  -0.8300   0.1004   0.00    2.3
2173 246250.000    798176.9027  -5149233.3541   3666204.1820   2   6   0.4571   1.0346   0.9780  -0.0955  -0.8301   0.1003   0.00    2.5
2173 246251.000    798176.9720  -5149233.4026   3666204.3764   2   6   0.4571   1.0346   0.9780  -0.0956  -0.8301   0.1001   0.00    2.7
2173 246252.000    798176.7748  -5149233.4646   3666203.8198   2   6   0.4571   1.0346   0.9781  -0.0956  -0.8302   0.1000   0.00    1.7
2173 246253.000    798177.0641  -5149233.8950   3666204.4893   2   6   0.4571   1.0346   0.9781  -0.0957  -0.8302   0.0998   0.00    2.2
2173 246254.000    798177.0467  -5149233.8616   3666204.4354   2   6   0.4571   1.0347   0.9781  -0.0958  -0.8303   0.0996   0.00    2.0
2173 246255.000    798176.9754  -5149233.5398   3666203.7147   2   6   0.4571   1.0347   0.9781  -0.0959  -0.8303   0.0995   0.00    2.0
2173 246256.000    798177.2959  -5149233.7162   3666204.1535   2   6   0.4571   1.0347   0.9782  -0.0959  -0.8304   0.0993   0.00    2.2
2173 246257.000    798177.2496  -5149233.9268   3666204.3437   2   6   0.4571   1.0347   0.9782  -0.0960  -0.8304   0.0991   0.00    2.4
2173 246258.000    798177.3868  -5149234.1211   3666204.3575   2   6   0.4571   1.0347   0.9782  -0.0961  -0.8305   0.0990   0.00    1.8
2173 246259.000    798177.4258  -5149234.0113   3666203.8540   2   6   0.4571   1.0348   0.9783  -0.0961  -0.8305   0.0988   0.00    1.5
2173 246260.000    798177.4992  -5149233.4283   3666203.7611   2   6   0.4571   1.0348   0.9783  -0.0962  -0.8306   0.0987   0.00    1.4
2173 246261.000    798177.6455  -5149233.5287   3666203.6845   2   6   0.4571   1.0348   0.9783  -0.0963  -0.8307   0.0985   0.00    1.6
2173 246262.000    798177.5137  -5149233.4710   3666203.5696   2   6   0.4571   1.0348   0.9784  -0.0964  -0.8307   0.0983   0.00    1.5
2173 246263.000    798177.5974  -5149233.5252   3666203.6481   2   6   0.4570   1.0349   0.9784  -0.0964  -0.8308   0.0982   0.00    1.6
2173 246264.000    798177.6230  -5149234.1307   3666204.2032   2   6   0.4570   1.0349   0.9784  -0.0965  -0.8308   0.0980   0.00    1.6
2173 246265.000    798177.5766  -5149233.3779   3666203.6582   2   6   0.4570   1.0349   0.9784  -0.0966  -0.8309   0.0978   0.00    1.5
2173 246266.000    798177.5038  -5149233.6850   3666203.8567   2   6   0.4570   1.0349   0.9785  -0.0967  -0.8309   0.0977   0.00    1.4
2173 246267.000    798177.5645  -5149233.8100   3666204.2004   2   6   0.4570   1.0350   0.9785  -0.0967  -0.8310   0.0975   0.00    1.7
2173 246268.000    798177.6026  -5149233.1344   3666203.5635   2   6   0.4570   1.0350   0.9785  -0.0968  -0.8310   0.0974   0.00    1.7
2173 246269.000    798177.3544  -5149233.5193   3666204.2484   2   6   0.4570   1.0350   0.9786  -0.0969  -0.8311   0.0972   0.00    2.0
2173 246270.000    798177.7109  -5149233.3282   3666204.1526   2   6   0.4570   1.0350   0.9786  -0.0970  -0.8311   0.0970   0.00    1.8
2173 246271.000    798177.6663  -5149234.1519   3666204.5165   2   6   0.4570   1.0350   0.9786  -0.0970  -0.8312   0.0969   0.00    1.6
2173 246272.000    798177.7264  -5149233.8815   3666204.1777   2   6   0.4570   1.0351   0.9787  -0.0971  -0.8312   0.0967   0.00    1.5
2173 246273.000    798177.4882  -5149233.8133   3666204.3723   2   6   0.4570   1.0351   0.9787  -0.0972  -0.8313   0.0965   0.00    2.1
2173 246274.000    798177.3458  -5149233.9483   3666204.1793   2   6   0.4570   1.0351   0.9787  -0.0972  -0.8314   0.0964   0.00    1.8
2173 246275.000    798177.6407  -5149234.4289   3666204.2885   2   6   0.4570   1.0351   0.9787  -0.0973  -0.8314   0.0962   0.00    1.5
2173 246276.000    798177.4506  -5149233.5306   3666203.6920   2   6   0.4570   1.0352   0.9788  -0.0974  -0.8315   0.0960   0.00    1.7
2173 246277.000    798177.6370  -5149233.6470   3666203.8895   2   6   0.4569   1.0352   0.9788  -0.0975  -0.8315   0.0959   0.00    1.7
2173 246278.000    798177.6326  -5149234.2718   3666204.2441   2   6   0.4569   1.0352   0.9788  -0.0975  -0.8316   0.0957   0.00    1.6
2173 246279.000    798177.6017  -5149234.2172   3666204.3528   2   6   0.4569   1.0352   0.9789  -0.0976  -0.8316   0.0956   0.00    1.7
2173 246280.000    798177.5502  -5149234.1616   3666204.5506   2   6   0.4569   1.0353   0.9789  -0.0977  -0.8317   0.0954   0.00    1.9
2173 246281.000    798177.4933  -5149233.5643   3666204.1136   2   6   0.4569   1.0353   0.9789  -0.0978  -0.8317   0.0952   0.00    2.2
2173 246282.000    798177.5395  -5149234.2575   3666204.9361   2   6   0.4569   1.0353   0.9790  -0.0978  -0.8318   0.0951   0.00    1.9
2173 246283.000    798177.5963  -5149233.9900   3666204.5833   2   6   0.4569   1.0353   0.9790  -0.0979  -0.8318   0.0949   0.00    2.1
2173 246284.000    798177.5705  -5149233.9980   3666204.4744   2   6   0.4569   1.0354   0.9790  -0.0980  -0.8319   0.0947   0.00    1.9
2173 246285.000    798177.6390  -5149233.8597   3666204.3705   2   6   0.4569   1.0354   0.9790  -0.0981  -0.8319   0.0946   0.00    1.8
2173 246286.000    798177.5530  -5149234.1329   3666204.3694   2   6   0.4569   1.0354   0.9791  -0.0981  -0.8320   0.0944   0.00    1.6
2173 246287.000    798177.4179  -5149233.9952   3666204.3957   2   6   0.4569   1.0354   0.9791  -0.0982  -0.8321   0.0942   0.00    1.7
2173 246288.000    798177.6358  -5149234.2541   3666204.5894   2   6   0.4569   1.0355   0.9791  -0.0983  -0.8321   0.0941   0.00    1.6
2173 246289.000    798177.6420  -5149234.0518   3666204.1839   2   6   0.4569   1.0355   0.9792  -0.0984  -0.8322   0.0939   0.00    1.5
2173 246290.000    798177.4955  -5149234.9113   3666204.7023   2   6   0.4569   1.0355   0.9792  -0.0984  -0.8322   0.0937   0.00    1.3
2173 246291.000    798177.4416  -5149233.7083   3666203.2553   2   6   0.4569   1.0355   0.9792  -0.0985  -0.8323   0.0936   0.00    1.4
2173 246292.000    798177.6908  -5149234.5474   3666204.6533   2   6   0.4569   1.0356   0.9792  -0.0986  -0.8323   0.0934   0.00    1.3
2173 246293.000    798177.5137  -5149234.0830   3666204.0982   2   6   0.4568   1.0356   0.9793  -0.0986  -0.8324   0.0932   0.00    1.6
2173 246294.000    798177.4023  -5149234.1346   3666203.8617   2   6   0.4568   1.0356   0.9793  -0.0987  -0.8324   0.0931   0.00    1.4
2173 246295.000    798177.6933  -5149234.4641   3666204.1390   2   6   0.4568   1.0356   0.9793  -0.0988  -0.8325   0.0929   0.00    1.1
2173 246296.000    798177.6326  -5149234.2310   3666203.7639   2   6   0.4568   1.0357   0.9794  -0.0989  -0.8325   0.0927   0.00    1.2
2173 246297.000    798177.3878  -5149234.5756   3666204.6241   2   6   0.4568   1.0357   0.9794  -0.0989  -0.8326   0.0926   0.00    1.3
2173 246298.000    798177.8425  -5149234.4255   3666204.1882   2   6   0.4568   1.0357   0.9794  -0.0990  -0.8326   0.0924   0.00    1.1
2173 246299.000    798177.4464  -5149234.3555   3666204.1891   2   6   0.4568   1.0357   0.9795  -0.0991  -0.8327   0.0922   0.00    1.3
2173 246300.000    798177.4990  -5149234.5266   3666204.2048   2   6   0.4568   1.0358   0.9795  -0.0992  -0.8327   0.0921   0.00    1.2
2173 246301.000    798177.3808  -5149234.2419   3666204.2883   2   6   0.4568   1.0358   0.9795  -0.0992  -0.8328   0.0919   0.00    1.5
2173 246302.000    798177.2603  -5149233.8450   3666203.8508   2   6   0.4568   1.0358   0.9795  -0.0993  -0.8329   0.0917   0.00    1.4
2173 246303.000    798177.2673  -5149233.9744   3666204.1640   2   6   0.4568   1.0358   0.9796  -0.0994  -0.8329   0.0916   0.00    1.7
2173 246304.000    798177.2540  -5149234.4374   3666203.7207   2   6   0.4568   1.0359   0.9796  -0.0995  -0.8330   0.0914   0.00    1.3
2173 246305.000    798176.8960  -5149234.7200   3666204.3978   2   6   0.4568   1.0359   0.9796  -0.0995  -0.8330   0.0912   0.00    1.4
2173 246306.000    798177.1288  -5149234.2666   3666204.4084   2   6   0.4568   1.0359   0.9797  -0.0996  -0.8331   0.0911   0.00    1.6
2173 246307.000    798177.0800  -5149234.0139   3666204.0867   2   6   0.4568   1.0359   0.9797  -0.0997  -0.8331   0.0909   0.00    1.6
2173 246308.000    798176.9431  -5149234.9309   3666204.6458   2   6   0.4567   1.0360   0.9797  -0.0998  -0.8332   0.0907   0.00    1.4
2173 246309.000    798176.8576  -5149234.1615   3666204.0799   2   6   0.4567   1.0360   0.9797  -0.0998  -0.8332   0.0905   0.00    1.7
2173 246310.000    798176.3913  -5149234.3458   3666204.4564   2   6   0.4567   1.0360   0.9798  -0.0999  -0.8333   0.0904   0.00    1.3
2173 246311.000    798176.7917  -5149235.1714   3666204.3829   2   6   0.4567   1.0360   0.9798  -0.1000  -0.8333   0.0902   0.00    1.2
2173 246312.000    798176.7132  -5149235.2393   3666204.8840   2   6   0.4567   1.0361   0.9798  -0.1001  -0.8334   0.0900   0.00    1.2
2173 246313.000    798176.7908  -5149235.0470   3666204.6243   2   6   0.4567   1.0361   0.9799  -0.1001  -0.8334   0.0899   0.00    1.3
2173 246314.000    798176.8364  -5149234.8939   3666204.9652   2   6   0.4567   1.0361   0.9799  -0.1002  -0.8335   0.0897   0.00    1.3
2173 246315.000    798176.5193  -5149235.0267   3666204.9186   2   6   0.4567   1.0362   0.9799  -0.1003  -0.8335   0.0895   0.00    1.1
2173 246316.000    798176.6199  -5149234.5105   3666204.2155   2   6   0.4567   1.0362   0.9799  -0.1004  -0.8336   0.0894   0.00    1.1
2173 246317.000    798176.5858  -5149235.1980   3666205.0247   2   6   0.4567   1.0362   0.9800  -0.1004  -0.8337   0.0892   0.00    1.1
2173 246318.000    798176.6255  -5149235.5203   3666205.2922   2   6   0.4567   1.0362   0.9800  -0.1005  -0.8337   0.0890   0.00    1.1
2173 246319.000    798176.6296  -5149235.2093   3666204.6826   2   6   0.4567   1.0363   0.9800  -0.1006  -0.8338   0.0888   0.00    1.1
2173 246320.000    798176.6112  -5149234.4071   3666204.5119   2   6   0.4567   1.0363   0.9800  -0.1007  -0.8338   0.0887   0.00    1.1
2173 246321.000    798176.6754  -5149235.2362   3666205.2799   2   6   0.4567   1.0363   0.9801  -0.1007  -0.8339   0.0885   0.00    1.3
2173 246322.000    798176.5860  -5149235.3415   3666205.1775   2   6   0.4567   1.0363   0.9801  -0.1008  -0.8339   0.0883   0.00    1.1
2173 246323.000    798176.6904  -5149235.3894   3666205.1767   2   6   0.4567   1.0364   0.9801  -0.1009  -0.8340   0.0882   0.00    1.2
2173 246324.000    798176.9319  -5149235.1018   3666204.8955   2   6   0.4567   1.0364   0.9802  -0.1010  -0.8340   0.0880   0.00    1.0
2173 246325.000    798176.6355  -5149235.6748   3666205.7152   2   6   0.4566   1.0364   0.9802  -0.1010  -0.8341   0.0878   0.00    1.2
2173 246326.000    798176.6508  -5149235.7561   3666205.6824   2   6   0.4566   1.0364   0.9802  -0.1011  -0.8341   0.0877   0.00    1.1
2173 246327.000    798176.6272  -5149235.2502   3666205.6134   2   6   0.4566   1.0365   0.9802  -0.1012  -0.8342   0.0875   0.00    1.1
2173 246328.000    798176.9236  -5149234.9707   3666205.7443   2   6   0.4566   1.0365   0.9803  -0.1013  -0.8342   0.0873   0.00    1.0
2173 246329.000    798176.6660  -5149235.8255   3666206.0152   2   6   0.4566   1.0365   0.9803  -0.1013  -0.8343   0.0871   0.00    1.2
2173 246330.000    798176.4781  -5149235.3861   3666205.8274   2   6   0.4566   1.0366   0.9803  -0.1014  -0.8343   0.0870   0.00    1.1
2173 246331.000    798176.8387  -5149234.8760   3666205.1005   2   6   0.4566   1.0366   0.9804  -0.1015  -0.8344   0.0868   0.00    1.0
2173 246332.000    798176.6420  -5149235.0495   3666205.3207   2   6   0.4566   1.0366   0.9804  -0.1015  -0.8345   0.0866   0.00    1.0
2173 246333.000    798176.7779  -5149235.0019   3666205.1254   2   6   0.4566   1.0366   0.9804  -0.1016  -0.8345   0.0864   0.00    1.0
2173 246334.000    798176.4759  -5149235.0000   3666205.2385   2   6   0.4566   1.0367   0.9804  -0.1017  -0.8346   0.0863   0.00    1.1
2173 246335.000    798176.6375  -5149234.2008   3666204.6194   2   6   0.4566   1.0367   0.9805  -0.1018  -0.8346   0.0861   0.00    1.0
2173 246336.000    798176.7154  -5149234.9705   3666205.4995   2   6   0.4566   1.0367   0.9805  -0.1018  -0.8347   0.0859   0.00    1.1
2173 246337.000    798176.5059  -5149234.3256   3666205.0411   2   6   0.4566   1.0367   0.9805  -0.1019  -0.8347   0.0858   0.00    1.1
2173 246338.000    798176.4946  -5149234.5685   3666205.5156   2   6   0.4566   1.0368   0.9805  -0.1020  -0.8348   0.0856   0.00    1.0
2173 246339.000    798176.4288  -5149234.4916   3666205.2512   2   6   0.4566   1.0368   0.9806  -0.1021  -0.8348   0.0854   0.00    1.1
2173 246340.000    798176.6012  -5149234.9726   3666205.4011   2   6   0.4566   1.0368   0.9806  -0.1021  -0.8349   0.0852   0.00    1.1
2173 246341.000    798176.4371  -5149234.9236   3666205.3210   2   6   0.4566   1.0369   0.9806  -0.1022  -0.8349   0.0851   0.00    1.1
2173 246342.000    798176.4819  -5149234.5490   3666205.2214   2   6   0.4565   1.0369   0.9807  -0.1023  -0.8350   0.0849   0.00    1.1
2173 246343.000    798176.4621  -5149234.3275   3666205.3888   2   6   0.4565   1.0369   0.9807  -0.1024  -0.8350   0.0847   0.00    1.0
2173 246344.000    798176.3020  -5149234.5494   3666205.3462   2   6   0.4565   1.0369   0.9807  -0.1024  -0.8351   0.0845   0.00    1.0
