% program   : rnx2rtkp ver.2.4.3 b31
% inp file  : ngs/21_09_01_09_12_19_pass.obs
% inp file  : ngs/21_09_01_09_12_19_pass_SW.obs
% inp file  : ngs/21_09_01_09_12_19_brdc.nav
% obs start : 2021/09/01 09:00:00.0 GPST (week2173 291600.0s)
% obs end   : 2021/09/01 09:59:59.0 GPST (week2173 295199.0s)
% ref pos   :  1174954.0883  -4768561.4199   4055921.6518
%
% (x/y/z-ecef=WGS84,Q=1:fix,2:float,3:sbas,4:dgps,5:single,6:ppp,ns=# of satellites)
%  GPST              x-ecef(m)      y-ecef(m)      z-ecef(m)   Q  ns   sdx(m)   sdy(m)   sdz(m)  sdxy(m)  sdyz(m)  sdzx(m) age(s)  ratio
2173 292314.000   1159577.2563  -4706157.6891   4132205.7310   2   8   0.4808   1.0160   0.8410  -0.5067  -0.7694   0.3161 -30.00    2.6
2173 292315.000   1159577.2781  -4706157.7556   4132205.7107   2   8   0.3421   0.7243   0.5988  -0.3610  -0.5486   0.2258 -29.00    2.6
2173 292316.000   1159577.3179  -4706157.7567   4132205.6847   2   8   0.2802   0.5933   0.4903  -0.2957  -0.4494   0.1850 -28.00    2.7
2173 292317.000   1159577.3018  -4706157.7312   4132205.6748   2   8   0.2431   0.5147   0.4254  -0.2566  -0.3899   0.1605 -27.00    2.8
2173 292318.000   1159577.3149  -4706157.7447   4132205.6843   2   8   0.2177   0.4610   0.3809  -0.2299  -0.3491   0.1438 -26.00    2.8
2173 292319.000   1159577.2880  -4706157.7185   4132205.6565   2   8   0.1990   0.4212   0.3480  -0.2101  -0.3190   0.1314 -25.00    2.9
2173 292320.000   1159577.2615  -4706157.6674   4132205.6349   2   8   0.1844   0.3903   0.3224  -0.1947  -0.2955   0.1217 -24.00    3.0
2173 292321.000   1159577.2555  -4706157.3791   4132205.1376   1   8   0.0206   0.0348   0.0322  -0.0191  -0.0243   0.0041 -23.00    3.0
2173 292322.000   1159577.2587  -4706157.3786   4132205.1352   1   8   0.0197   0.0334   0.0309  -0.0184  -0.0234   0.0041 -22.00    3.1
2173 292323.000   1159577.2580  -4706157.3771   4132205.1360   1   8   0.0189   0.0321   0.0296  -0.0176  -0.0225   0.0041 -21.00    3.0
2173 292324.000   1159577.2597  -4706157.3790   4132205.1340   1   8   0.0181   0.0307   0.0284  -0.0169  -0.0215   0.0041 -20.00    3.0
2173 292325.000   1159577.3117  -4706157.6902   4132205.6394   2   8   0.1412   0.2986   0.2464  -0.1491  -0.2259   0.0932 -19.00    3.0
2173 292326.000   1159577.3395  -4706157.7190   4132205.6370   2   8   0.1356   0.2869   0.2367  -0.1433  -0.2171   0.0896 -18.00    2.9
2173 292327.000   1159577.3455  -4706157.7270   4132205.6395   2   8   0.1307   0.2765   0.2280  -0.1381  -0.2091   0.0864 -17.00    2.9
2173 292328.000   1159577.3626  -4706157.7382   4132205.6525   2   8   0.1263   0.2671   0.2202  -0.1334  -0.2020   0.0835 -16.00    2.9
2173 292329.000   1159577.3621  -4706157.7389   4132205.6532   2   8   0.1223   0.2586   0.2131  -0.1292  -0.1956   0.0808 -15.00    2.9
2173 292330.000   1159577.3638  -4706157.7689   4132205.6726   2   8   0.1186   0.2508   0.2067  -0.1253  -0.1897   0.0784 -14.00    2.9
2173 292331.000   1159577.3696  -4706157.7535   4132205.6604   2   8   0.1152   0.2437   0.2008  -0.1218  -0.1843   0.0763 -13.00    3.0
2173 292332.000   1159577.3803  -4706157.7857   4132205.6705   2   8   0.1121   0.2372   0.1953  -0.1186  -0.1793   0.0742 -12.00    3.0
2173 292333.000   1159577.2625  -4706157.3562   4132205.1143   1   8   0.0110   0.0193   0.0172  -0.0104  -0.0137   0.0040 -11.00    3.0
2173 292334.000   1159577.2622  -4706157.3544   4132205.1134   1   8   0.0102   0.0181   0.0161  -0.0097  -0.0129   0.0038 -10.00    3.1
2173 292335.000   1159577.2625  -4706157.3559   4132205.1105   1   8   0.0094   0.0170   0.0150  -0.0091  -0.0122   0.0038  -9.00    3.1
2173 292336.000   1159577.2640  -4706157.3632   4132205.1167   1   8   0.0087   0.0159   0.0139  -0.0084  -0.0114   0.0038  -8.00    3.2
2173 292337.000   1159577.2638  -4706157.3627   4132205.1162   1   8   0.0081   0.0149   0.0129  -0.0078  -0.0107   0.0037  -7.00    3.2
2173 292338.000   1159577.2632  -4706157.3631   4132205.1164   1   8   0.0073   0.0139   0.0119  -0.0073  -0.0101   0.0035  -6.00    3.3
2173 292339.000   1159577.2636  -4706157.3623   4132205.1168   1   8   0.0067   0.0130   0.0110  -0.0066  -0.0095   0.0036  -5.00    3.4
2173 292340.000   1159577.2639  -4706157.3645   4132205.1179   1   8   0.0063   0.0121   0.0101  -0.0063  -0.0090   0.0034  -4.00    3.4
2173 292341.000   1159577.2641  -4706157.3660   4132205.1187   1   8   0.0056   0.0114   0.0095  -0.0056  -0.0085   0.0036  -3.00    3.3
2173 292342.000   1159577.2624  -4706157.3614   4132205.1170   1   8   0.0051   0.0108   0.0089  -0.0055  -0.0082   0.0032  -2.00    3.3
2173 292343.000   1159577.2639  -4706157.3635   4132205.1172   1   8   0.0052   0.0105   0.0086  -0.0053  -0.0079   0.0031  -1.00    3.2
2173 292344.000   1159577.2639  -4706157.3636   4132205.1174   1   8   0.0049   0.0104   0.0085  -0.0050  -0.0077   0.0032   0.00    3.2
2173 292345.000   1159577.2607  -4706157.3628   4132205.1172   1   8   0.0051   0.0103   0.0086  -0.0052  -0.0078   0.0029   0.00    3.1
2173 292346.000   1159577.2625  -4706157.3656   4132205.1196   1   8   0.0042   0.0103   0.0085  -0.0050  -0.0078   0.0038   0.00    3.0
2173 292347.000   1159577.3849  -4706157.7112   4132205.4223   2   8   0.0836   0.1768   0.1446  -0.0886  -0.1333   0.0557   0.00    3.0
2173 292348.000   1159577.3858  -4706157.7088   4132205.4113   2   8   0.0825   0.1742   0.1424  -0.0873  -0.1314   0.0549   0.00    2.9
2173 292349.000   1159577.3903  -4706157.7039   4132205.3991   2   8   0.0813   0.1718   0.1403  -0.0861  -0.1295   0.0541   0.00    2.9
2173 292350.000   1159577.3841  -4706157.7005   4132205.4060   2   8   0.0802   0.1694   0.1383  -0.0850  -0.1277   0.0534   0.00    2.9
2173 292351.000   1159577.3799  -4706157.7022   4132205.4059   2   8   0.0792   0.1672   0.1364  -0.0839  -0.1259   0.0527   0.00    2.9
2173 292352.000   1159577.3746  -4706157.7103   4132205.4168   2   8   0.0781   0.1650   0.1345  -0.0828  -0.1243   0.0520   0.00    2.9
2173 292353.000   1159577.3702  -4706157.7257   4132205.4339   2   8   0.0771   0.1629   0.1327  -0.0818  -0.1226   0.0514   0.00    2.9
2173 292354.000   1159577.3655  -4706157.7198   4132205.4373   2   8   0.0762   0.1609   0.1310  -0.0808  -0.1211   0.0508   0.00    2.9
2173 292355.000   1159577.3565  -4706157.7064   4132205.4367   2   8   0.0753   0.1589   0.1293  -0.0798  -0.1196   0.0502   0.00    2.9
2173 292356.000   1159577.3581  -4706157.7186   4132205.4494   2   8   0.0744   0.1570   0.1277  -0.0789  -0.1181   0.0496   0.00    3.0
2173 292357.000   1159577.2546  -4706157.3702   4132205.1245   1   8   0.0048   0.0103   0.0084  -0.0050  -0.0078   0.0035   0.00    3.0
2173 292358.000   1159577.2574  -4706157.3758   4132205.1229   1   8   0.0047   0.0103   0.0084  -0.0052  -0.0078   0.0034   0.00    3.0
2173 292359.000   1159577.2573  -4706157.3773   4132205.1236   1   8   0.0049   0.0103   0.0084  -0.0051  -0.0079   0.0032   0.00    3.1
2173 292360.000   1159577.2598  -4706157.3729   4132205.1184   1   8   0.0051   0.0104   0.0085  -0.0053  -0.0078   0.0032   0.00    3.1
2173 292361.000   1159577.2589  -4706157.3694   4132205.1128   1   8   0.0044   0.0103   0.0084  -0.0051  -0.0078   0.0033   0.00    3.0
2173 292362.000   1159577.2576  -4706157.3666   4132205.1139   1   8   0.0039   0.0102   0.0084  -0.0053  -0.0078   0.0034   0.00    3.1
2173 292363.000   1159577.2561  -4706157.3611   4132205.1116   1   8   0.0049   0.0103   0.0083  -0.0051  -0.0078   0.0032   0.00    3.1
2173 292364.000   1159577.3589  -4706157.7119   4132205.4234   2   9   0.0683   0.1437   0.1157  -0.0725  -0.1075   0.0457   0.00    1.1
2173 292365.000   1159577.3593  -4706157.7104   4132205.4216   2   9   0.0677   0.1420   0.1141  -0.0718  -0.1060   0.0454   0.00    1.2
2173 292366.000   1159577.3637  -4706157.7191   4132205.4249   2   9   0.0671   0.1404   0.1126  -0.0712  -0.1046   0.0450   0.00    1.2
2173 292367.000   1159577.3648  -4706157.7213   4132205.4255   2   9   0.0665   0.1388   0.1111  -0.0706  -0.1033   0.0447   0.00    1.3
2173 292368.000   1159577.3641  -4706157.7262   4132205.4239   2   9   0.0659   0.1373   0.1097  -0.0700  -0.1020   0.0444   0.00    1.4
2173 292369.000   1159577.3662  -4706157.7303   4132205.4272   2   9   0.0652   0.1359   0.1083  -0.0694  -0.1007   0.0440   0.00    1.4
2173 292370.000   1159577.3720  -4706157.7408   4132205.4286   2   9   0.0646   0.1344   0.1069  -0.0688  -0.0995   0.0437   0.00    1.4
2173 292371.000   1159577.3756  -4706157.7404   4132205.4238   2   9   0.0641   0.1331   0.1056  -0.0682  -0.0983   0.0434   0.00    1.5
2173 292372.000   1159577.3822  -4706157.7581   4132205.4251   2   9   0.0635   0.1317   0.1043  -0.0677  -0.0972   0.0430   0.00    1.5
2173 292373.000   1159577.3874  -4706157.7684   4132205.4239   2   9   0.0630   0.1304   0.1031  -0.0671  -0.0961   0.0428   0.00    1.5
2173 292374.000   1159577.3899  -4706157.7799   4132205.4204   2   9   0.0625   0.1292   0.1018  -0.0666  -0.0950   0.0425   0.00    1.6
2173 292375.000   1159577.3900  -4706157.7815   4132205.4213   2   9   0.0619   0.1279   0.1006  -0.0661  -0.0939   0.0421   0.00    1.6
2173 292376.000   1159577.3968  -4706157.7931   4132205.4257   2   9   0.0614   0.1267   0.0995  -0.0656  -0.0929   0.0418   0.00    1.6
2173 292377.000   1159577.3977  -4706157.7913   4132205.4161   2   9   0.0609   0.1255   0.0983  -0.0650  -0.0919   0.0415   0.00    1.6
2173 292378.000   1159577.4008  -4706157.7923   4132205.4169   2   9   0.0604   0.1244   0.0972  -0.0645  -0.0909   0.0413   0.00    1.6
2173 292379.000   1159577.4019  -4706157.7937   4132205.4134   2   9   0.0600   0.1233   0.0962  -0.0641  -0.0900   0.0410   0.00    1.7
2173 292380.000   1159577.4060  -4706157.7989   4132205.4151   2   9   0.0595   0.1222   0.0951  -0.0636  -0.0891   0.0407   0.00    1.7
2173 292381.000   1159577.4037  -4706157.7959   4132205.4109   2   9   0.0591   0.1211   0.0941  -0.0631  -0.0881   0.0404   0.00    1.7
2173 292382.000   1159577.4023  -4706157.7978   4132205.4088   2   9   0.0587   0.1200   0.0931  -0.0626  -0.0873   0.0402   0.00    1.7
2173 292383.000   1159577.4046  -4706157.8001   4132205.4076   2   9   0.0582   0.1190   0.0921  -0.0622  -0.0864   0.0399   0.00    1.7
2173 292384.000   1159577.4044  -4706157.8005   4132205.4053   2   9   0.0578   0.1180   0.0911  -0.0617  -0.0855   0.0396   0.00    1.7
2173 292385.000   1159577.4112  -4706157.8063   4132205.4054   2   9   0.0573   0.1170   0.0901  -0.0613  -0.0847   0.0394   0.00    1.7
2173 292386.000   1159577.4139  -4706157.8113   4132205.4144   2   9   0.0569   0.1161   0.0892  -0.0608  -0.0839   0.0391   0.00    1.7
2173 292387.000   1159577.4107  -4706157.8090   4132205.4187   2   9   0.0565   0.1151   0.0883  -0.0604  -0.0831   0.0388   0.00    1.8
2173 292388.000   1159577.4217  -4706157.8202   4132205.4135   2   9   0.0562   0.1142   0.0874  -0.0600  -0.0823   0.0386   0.00    1.8
2173 292389.000   1159577.4217  -4706157.8255   4132205.4203   2   9   0.0558   0.1133   0.0865  -0.0596  -0.0815   0.0383   0.00    1.8
2173 292390.000   1159577.4237  -4706157.8218   4132205.4129   2   9   0.0554   0.1124   0.0856  -0.0591  -0.0808   0.0380   0.00    1.8
2173 292391.000   1159577.4286  -4706157.8284   4132205.4063   2   9   0.0550   0.1115   0.0847  -0.0587  -0.0800   0.0378   0.00    1.8
2173 292392.000   1159577.4321  -4706157.8275   4132205.3962   2   9   0.0547   0.1106   0.0839  -0.0583  -0.0793   0.0376   0.00    1.8
2173 292393.000   1159577.4341  -4706157.8200   4132205.3855   2   9   0.0543   0.1098   0.0831  -0.0579  -0.0786   0.0373   0.00    1.8
2173 292394.000   1159577.4378  -4706157.8233   4132205.3763   2   9   0.0540   0.1089   0.0823  -0.0575  -0.0779   0.0370   0.00    1.8
2173 292395.000   1159577.4389  -4706157.8195   4132205.3672   2   9   0.0535   0.1081   0.0814  -0.0571  -0.0772   0.0368   0.00    1.8
2173 292396.000   1159577.4398  -4706157.8202   4132205.3539   2   9   0.0533   0.1073   0.0806  -0.0568  -0.0765   0.0366   0.00    1.8
2173 292397.000   1159577.4416  -4706157.8112   4132205.3364   2   9   0.0529   0.1065   0.0798  -0.0564  -0.0759   0.0363   0.00    1.8
2173 292398.000   1159577.4411  -4706157.8075   4132205.3230   2   9   0.0526   0.1057   0.0791  -0.0560  -0.0752   0.0361   0.00    1.8
2173 292399.000   1159577.4429  -4706157.8116   4132205.3174   2   9   0.0522   0.1049   0.0783  -0.0556  -0.0745   0.0358   0.00    1.9
2173 292400.000   1159577.4399  -4706157.8005   4132205.3041   2   9   0.0519   0.1042   0.0776  -0.0553  -0.0739   0.0357   0.00    1.9
2173 292401.000   1159577.4364  -4706157.7906   4132205.2887   2   9   0.0515   0.1034   0.0769  -0.0549  -0.0733   0.0354   0.00    1.9
2173 292402.000   1159577.4327  -4706157.7795   4132205.2729   2   9   0.0513   0.1027   0.0761  -0.0545  -0.0727   0.0352   0.00    1.9
2173 292403.000   1159577.4348  -4706157.7807   4132205.2637   2   9   0.0510   0.1020   0.0754  -0.0542  -0.0721   0.0350   0.00    1.9
2173 292404.000   1159577.4330  -4706157.7774   4132205.2586   2   9   0.0507   0.1012   0.0747  -0.0538  -0.0714   0.0348   0.00    1.9
2173 292405.000   1159577.4290  -4706157.7605   4132205.2456   2   9   0.0503   0.1005   0.0740  -0.0535  -0.0709   0.0345   0.00    1.9
2173 292406.000   1159577.4305  -4706157.7565   4132205.2402   2   9   0.0500   0.0998   0.0733  -0.0531  -0.0703   0.0343   0.00    1.9
2173 292407.000   1159577.4316  -4706157.7503   4132205.2332   2   9   0.0498   0.0991   0.0727  -0.0528  -0.0697   0.0341   0.00    1.9
2173 292408.000   1159577.4288  -4706157.7438   4132205.2191   2   9   0.0495   0.0984   0.0720  -0.0524  -0.0691   0.0339   0.00    1.9
2173 292409.000   1159577.4258  -4706157.7348   4132205.2127   2   9   0.0492   0.0978   0.0713  -0.0521  -0.0685   0.0337   0.00    2.0
2173 292410.000   1159577.4272  -4706157.7283   4132205.1983   2   9   0.0489   0.0971   0.0707  -0.0518  -0.0680   0.0335   0.00    2.0
2173 292411.000   1159577.4248  -4706157.7216   4132205.1918   2   9   0.0486   0.0964   0.0700  -0.0514  -0.0675   0.0333   0.00    2.0
2173 292412.000   1159577.4196  -4706157.7109   4132205.1806   2   9   0.0484   0.0958   0.0694  -0.0511  -0.0669   0.0330   0.00    2.0
2173 292413.000   1159577.4183  -4706157.7048   4132205.1733   2   9   0.0480   0.0951   0.0688  -0.0508  -0.0664   0.0328   0.00    2.0
2173 292414.000   1159577.4194  -4706157.7001   4132205.1640   2   9   0.0479   0.0945   0.0682  -0.0505  -0.0658   0.0326   0.00    2.0
2173 292415.000   1159577.4195  -4706157.6964   4132205.1554   2   9   0.0475   0.0939   0.0676  -0.0502  -0.0653   0.0324   0.00    2.0
2173 292416.000   1159577.4185  -4706157.6980   4132205.1525   2   9   0.0473   0.0933   0.0670  -0.0498  -0.0648   0.0322   0.00    2.0
2173 292417.000   1159577.4136  -4706157.6809   4132205.1391   2   9   0.0470   0.0927   0.0664  -0.0495  -0.0643   0.0320   0.00    2.0
2173 292418.000   1159577.4128  -4706157.6849   4132205.1377   2   9   0.0467   0.0921   0.0658  -0.0492  -0.0638   0.0318   0.00    2.0
2173 292419.000   1159577.4103  -4706157.6794   4132205.1248   2   9   0.0465   0.0914   0.0652  -0.0489  -0.0633   0.0316   0.00    2.0
2173 292420.000   1159577.4091  -4706157.6768   4132205.1193   2   9   0.0463   0.0909   0.0646  -0.0486  -0.0628   0.0314   0.00    2.0
2173 292421.000   1159577.4039  -4706157.6713   4132205.1145   2   9   0.0461   0.0903   0.0641  -0.0483  -0.0623   0.0312   0.00    2.0
2173 292422.000   1159577.4029  -4706157.6685   4132205.1071   2   9   0.0457   0.0897   0.0635  -0.0480  -0.0619   0.0310   0.00    2.0
2173 292423.000   1159577.4019  -4706157.6684   4132205.1072   2   9   0.0455   0.0891   0.0630  -0.0477  -0.0614   0.0308   0.00    2.0
2173 292424.000   1159577.3956  -4706157.6538   4132205.0978   2   9   0.0452   0.0885   0.0625  -0.0474  -0.0609   0.0307   0.00    2.0
2173 292425.000   1159577.3938  -4706157.6487   4132205.0927   2   9   0.0451   0.0880   0.0619  -0.0471  -0.0605   0.0305   0.00    2.0
2173 292426.000   1159577.3894  -4706157.6371   4132205.0889   2   9   0.0447   0.0874   0.0614  -0.0468  -0.0600   0.0302   0.00    2.0
2173 292427.000   1159577.3876  -4706157.6304   4132205.0863   2   9   0.0445   0.0869   0.0609  -0.0465  -0.0596   0.0301   0.00    2.0
2173 292428.000   1159577.3832  -4706157.6234   4132205.0816   2   9   0.0443   0.0863   0.0603  -0.0462  -0.0591   0.0299   0.00    2.0
2173 292429.000   1159577.3837  -4706157.6263   4132205.0800   2   9   0.0441   0.0858   0.0598  -0.0459  -0.0587   0.0297   0.00    2.0
2173 292430.000   1159577.3815  -4706157.6239   4132205.0827   2   9   0.0439   0.0853   0.0593  -0.0457  -0.0583   0.0295   0.00    2.0
2173 292431.000   1159577.3796  -4706157.6203   4132205.0762   2   9   0.0437   0.0847   0.0588  -0.0454  -0.0578   0.0293   0.00    2.0
2173 292432.000   1159577.3756  -4706157.6132   4132205.0665   2   9   0.0434   0.0842   0.0583  -0.0451  -0.0574   0.0291   0.00    2.0
2173 292433.000   1159577.3763  -4706157.6091   4132205.0615   2   9   0.0432   0.0837   0.0578  -0.0448  -0.0570   0.0290   0.00    2.0
2173 292434.000   1159577.3745  -4706157.5966   4132205.0451   2   9   0.0429   0.0832   0.0574  -0.0445  -0.0565   0.0289   0.00    2.1
2173 292435.000   1159577.3715  -4706157.5809   4132205.0262   2   9   0.0427   0.0827   0.0569  -0.0443  -0.0561   0.0286   0.00    2.1
2173 292436.000   1159577.3682  -4706157.5744   4132205.0198   2   9   0.0425   0.0822   0.0564  -0.0440  -0.0557   0.0284   0.00    2.1
2173 292437.000   1159577.3633  -4706157.5660   4132205.0069   2   9   0.0422   0.0817   0.0560  -0.0437  -0.0553   0.0283   0.00    2.1
2173 292438.000   1159577.3596  -4706157.5597   4132205.0020   2   9   0.0421   0.0812   0.0555  -0.0434  -0.0549   0.0282   0.00    2.1
2173 292439.000   1159577.3578  -4706157.5623   4132205.0073   2   9   0.0419   0.0807   0.0550  -0.0432  -0.0545   0.0279   0.00    2.1
2173 292440.000   1159577.3571  -4706157.5609   4132205.0192   2   9   0.0417   0.0802   0.0546  -0.0429  -0.0542   0.0277   0.00    2.1
2173 292441.000   1159577.3544  -4706157.5534   4132205.0204   2   9   0.0415   0.0797   0.0542  -0.0427  -0.0537   0.0276   0.00    2.1
2173 292442.000   1159577.3547  -4706157.5471   4132205.0232   2   9   0.0413   0.0792   0.0537  -0.0424  -0.0534   0.0274   0.00    2.1
2173 292443.000   1159577.3555  -4706157.5443   4132205.0253   2   9   0.0412   0.0788   0.0533  -0.0421  -0.0530   0.0272   0.00    2.1
2173 292444.000   1159577.3556  -4706157.5448   4132205.0315   2   9   0.0409   0.0783   0.0528  -0.0419  -0.0526   0.0271   0.00    2.1
2173 292445.000   1159577.3576  -4706157.5485   4132205.0387   2   9   0.0407   0.0778   0.0524  -0.0416  -0.0522   0.0269   0.00    2.1
2173 292446.000   1159577.3513  -4706157.5314   4132205.0388   2   9   0.0406   0.0773   0.0520  -0.0414  -0.0519   0.0267   0.00    2.1
2173 292447.000   1159577.3493  -4706157.5231   4132205.0385   2   9   0.0403   0.0769   0.0516  -0.0411  -0.0515   0.0266   0.00    2.1
2173 292448.000   1159577.3536  -4706157.5202   4132205.0322   2   9   0.0402   0.0765   0.0512  -0.0409  -0.0511   0.0265   0.00    2.1
2173 292449.000   1159577.3488  -4706157.5074   4132205.0279   2   9   0.0400   0.0760   0.0508  -0.0406  -0.0508   0.0262   0.00    2.1
2173 292450.000   1159577.3452  -4706157.4970   4132205.0208   2   9   0.0398   0.0756   0.0504  -0.0404  -0.0505   0.0261   0.00    2.1
2173 292451.000   1159577.3493  -4706157.4908   4132205.0171   2   9   0.0396   0.0751   0.0500  -0.0401  -0.0501   0.0259   0.00    2.1
2173 292452.000   1159577.3478  -4706157.4878   4132205.0113   2   9   0.0394   0.0747   0.0496  -0.0399  -0.0498   0.0258   0.00    2.2
2173 292453.000   1159577.3467  -4706157.4851   4132205.0082   2   9   0.0393   0.0742   0.0493  -0.0397  -0.0494   0.0255   0.00    2.2
2173 292454.000   1159577.3468  -4706157.4798   4132205.0078   2   9   0.0390   0.0738   0.0489  -0.0394  -0.0491   0.0255   0.00    2.2
2173 292455.000   1159577.3475  -4706157.4734   4132205.0054   2   9   0.0388   0.0734   0.0485  -0.0392  -0.0487   0.0254   0.00    2.2
2173 292456.000   1159577.3452  -4706157.4842   4132205.0374   2   9   0.0387   0.0730   0.0481  -0.0389  -0.0484   0.0251   0.00    2.2
2173 292457.000   1159577.3447  -4706157.4786   4132205.0683   2   9   0.0385   0.0725   0.0477  -0.0387  -0.0481   0.0250   0.00    2.2
2173 292458.000   1159577.3453  -4706157.4853   4132205.0801   2   9   0.0383   0.0721   0.0474  -0.0385  -0.0478   0.0249   0.00    2.2
2173 292459.000   1159577.3459  -4706157.4872   4132205.0850   2   9   0.0382   0.0717   0.0470  -0.0382  -0.0474   0.0248   0.00    2.2
2173 292460.000   1159577.3429  -4706157.4863   4132205.0913   2   9   0.0380   0.0713   0.0467  -0.0380  -0.0471   0.0246   0.00    2.2
2173 292461.000   1159577.3426  -4706157.4865   4132205.0991   2   9   0.0377   0.0709   0.0463  -0.0377  -0.0468   0.0244   0.00    2.1
2173 292462.000   1159577.3430  -4706157.4949   4132205.1082   2   9   0.0377   0.0705   0.0460  -0.0375  -0.0465   0.0242   0.00    2.1
2173 292463.000   1159577.3420  -4706157.5020   4132205.1227   2   9   0.0375   0.0701   0.0456  -0.0373  -0.0462   0.0241   0.00    2.1
2173 292464.000   1159577.3425  -4706157.5053   4132205.1320   2   9   0.0373   0.0697   0.0453  -0.0371  -0.0459   0.0239   0.00    2.1
2173 292465.000   1159577.3401  -4706157.5015   4132205.1367   2   9   0.0371   0.0693   0.0450  -0.0369  -0.0456   0.0238   0.00    2.1
2173 292466.000   1159577.3369  -4706157.4987   4132205.1409   2   9   0.0370   0.0689   0.0446  -0.0366  -0.0453   0.0237   0.00    2.1
2173 292467.000   1159577.3360  -4706157.4996   4132205.1478   2   9   0.0367   0.0685   0.0443  -0.0364  -0.0450   0.0236   0.00    2.1
2173 292468.000   1159577.3368  -4706157.4945   4132205.1503   2   9   0.0366   0.0682   0.0440  -0.0362  -0.0447   0.0234   0.00    2.1
2173 292469.000   1159577.3366  -4706157.4994   4132205.1575   2   9   0.0364   0.0678   0.0436  -0.0360  -0.0444   0.0233   0.00    2.1
2173 292470.000   1159577.3369  -4706157.5039   4132205.1615   2   9   0.0364   0.0674   0.0433  -0.0358  -0.0441   0.0231   0.00    2.1
2173 292471.000   1159577.3345  -4706157.5008   4132205.1605   2   9   0.0362   0.0670   0.0430  -0.0356  -0.0438   0.0230   0.00    2.1
2173 292472.000   1159577.3333  -4706157.5055   4132205.1674   2   9   0.0360   0.0667   0.0427  -0.0353  -0.0435   0.0229   0.00    2.1
2173 292473.000   1159577.3295  -4706157.5015   4132205.1662   2   9   0.0358   0.0663   0.0424  -0.0351  -0.0432   0.0227   0.00    2.1
2173 292474.000   1159577.3301  -4706157.5050   4132205.1687   2   9   0.0357   0.0659   0.0421  -0.0349  -0.0430   0.0226   0.00    2.1
2173 292475.000   1159577.3294  -4706157.5068   4132205.1735   2   9   0.0355   0.0656   0.0418  -0.0347  -0.0427   0.0225   0.00    2.1
2173 292476.000   1159577.3298  -4706157.5119   4132205.1763   2   9   0.0354   0.0652   0.0415  -0.0345  -0.0424   0.0223   0.00    2.0
2173 292477.000   1159577.3289  -4706157.5133   4132205.1787   2   9   0.0352   0.0648   0.0412  -0.0343  -0.0421   0.0222   0.00    2.0
2173 292478.000   1159577.3273  -4706157.5106   4132205.1760   2   9   0.0351   0.0645   0.0409  -0.0341  -0.0419   0.0220   0.00    2.0
2173 292479.000   1159577.3242  -4706157.5109   4132205.1780   2   9   0.0349   0.0641   0.0406  -0.0339  -0.0416   0.0220   0.00    2.0
2173 292480.000   1159577.3218  -4706157.5095   4132205.1797   2   9   0.0348   0.0638   0.0403  -0.0337  -0.0413   0.0217   0.00    2.0
2173 292481.000   1159577.3184  -4706157.5065   4132205.1814   2   9   0.0346   0.0634   0.0400  -0.0335  -0.0411   0.0217   0.00    2.0
2173 292482.000   1159577.3179  -4706157.5078   4132205.1853   2   9   0.0344   0.0631   0.0398  -0.0332  -0.0408   0.0217   0.00    2.0
2173 292483.000   1159577.3147  -4706157.5012   4132205.1851   2   9   0.0344   0.0628   0.0395  -0.0331  -0.0406   0.0214   0.00    2.0
2173 292484.000   1159577.3131  -4706157.5038   4132205.1911   2   9   0.0342   0.0624   0.0392  -0.0329  -0.0403   0.0213   0.00    2.0
2173 292485.000   1159577.3099  -4706157.5039   4132205.1915   2   9   0.0340   0.0621   0.0389  -0.0327  -0.0401   0.0212   0.00    2.0
2173 292486.000   1159577.3052  -4706157.4977   4132205.1917   2   9   0.0338   0.0618   0.0387  -0.0324  -0.0398   0.0212   0.00    2.0
2173 292487.000   1159577.3040  -4706157.5029   4132205.1919   2   9   0.0337   0.0615   0.0384  -0.0322  -0.0396   0.0211   0.00    2.0
2173 292488.000   1159577.3014  -4706157.5036   4132205.1925   2   9   0.0337   0.0611   0.0382  -0.0321  -0.0393   0.0208   0.00    2.0
2173 292489.000   1159577.2986  -4706157.5055   4132205.1913   2   9   0.0335   0.0608   0.0379  -0.0319  -0.0391   0.0206   0.00    2.0
2173 292490.000   1159577.2988  -4706157.5041   4132205.1890   2   9   0.0334   0.0605   0.0376  -0.0317  -0.0388   0.0205   0.00    2.0
2173 292491.000   1159577.2996  -4706157.5006   4132205.1867   2   9   0.0332   0.0602   0.0374  -0.0315  -0.0386   0.0205   0.00    2.0
2173 292492.000   1159577.2988  -4706157.4914   4132205.1801   2   9   0.0331   0.0598   0.0371  -0.0313  -0.0384   0.0203   0.00    2.0
2173 292493.000   1159577.2963  -4706157.4847   4132205.1783   2   9   0.0329   0.0595   0.0369  -0.0311  -0.0381   0.0202   0.00    2.0
2173 292494.000   1159577.2945  -4706157.4805   4132205.1802   2   9   0.0329   0.0592   0.0366  -0.0309  -0.0379   0.0201   0.00    2.0
2173 292495.000   1159577.2913  -4706157.4744   4132205.1786   2   9   0.0327   0.0589   0.0364  -0.0308  -0.0377   0.0201   0.00    1.9
2173 292496.000   1159577.2932  -4706157.4751   4132205.1833   2   9   0.0325   0.0586   0.0361  -0.0305  -0.0375   0.0199   0.00    1.9
2173 292497.000   1159577.2907  -4706157.4706   4132205.1828   2   9   0.0324   0.0583   0.0359  -0.0304  -0.0372   0.0198   0.00    1.9
2173 292498.000   1159577.2863  -4706157.4630   4132205.1805   2   9   0.0323   0.0580   0.0356  -0.0302  -0.0370   0.0195   0.00    1.9
2173 292499.000   1159577.2860  -4706157.4631   4132205.1840   2   9   0.0322   0.0577   0.0354  -0.0301  -0.0368   0.0194   0.00    1.9
2173 292500.000   1159577.2815  -4706157.4561   4132205.1828   2   9   0.0320   0.0574   0.0351  -0.0298  -0.0366   0.0194   0.00    1.9
2173 292501.000   1159577.2780  -4706157.4532   4132205.1826   2   9   0.0319   0.0571   0.0350  -0.0297  -0.0363   0.0192   0.00    1.9
2173 292502.000   1159577.2774  -4706157.4556   4132205.1861   2   9   0.0318   0.0568   0.0348  -0.0295  -0.0361   0.0192   0.00    1.9
2173 292503.000   1159577.2771  -4706157.4576   4132205.1885   2   9   0.0317   0.0565   0.0345  -0.0293  -0.0359   0.0192   0.00    1.9
2173 292504.000   1159577.2735  -4706157.4541   4132205.1914   2   9   0.0316   0.0562   0.0343  -0.0291  -0.0357   0.0190   0.00    1.9
2173 292505.000   1159577.2776  -4706157.4607   4132205.1969   2   9   0.0315   0.0559   0.0341  -0.0290  -0.0355   0.0190   0.00    1.9
2173 292506.000   1159577.2768  -4706157.4566   4132205.2035   2   9   0.0314   0.0557   0.0339  -0.0288  -0.0353   0.0187   0.00    1.9
2173 292507.000   1159577.2765  -4706157.4548   4132205.2038   2   9   0.0312   0.0554   0.0337  -0.0286  -0.0351   0.0187   0.00    1.9
2173 292508.000   1159577.2754  -4706157.4597   4132205.2075   2   9   0.0312   0.0551   0.0334  -0.0285  -0.0349   0.0185   0.00    1.9
2173 292509.000   1159577.2759  -4706157.4586   4132205.2076   2   9   0.0310   0.0548   0.0333  -0.0283  -0.0347   0.0186   0.00    1.9
2173 292510.000   1159577.2773  -4706157.4667   4132205.2128   2   9   0.0308   0.0545   0.0331  -0.0281  -0.0345   0.0184   0.00    1.9
2173 292511.000   1159577.2767  -4706157.4715   4132205.2183   2   9   0.0308   0.0543   0.0328  -0.0279  -0.0343   0.0183   0.00    1.9
2173 292512.000   1159577.2737  -4706157.4727   4132205.2233   2   9   0.0305   0.0540   0.0326  -0.0278  -0.0341   0.0181   0.00    1.9
2173 292513.000   1159577.2715  -4706157.4679   4132205.2231   2   9   0.0305   0.0537   0.0324  -0.0276  -0.0339   0.0181   0.00    1.9
2173 292514.000   1159577.2684  -4706157.4607   4132205.2256   2   9   0.0306   0.0535   0.0322  -0.0275  -0.0337   0.0179   0.00    1.9
2173 292515.000   1159577.2629  -4706157.4580   4132205.2267   2   9   0.0302   0.0532   0.0320  -0.0273  -0.0335   0.0179   0.00    1.9
2173 292516.000   1159577.2635  -4706157.4601   4132205.2271   2   9   0.0301   0.0529   0.0318  -0.0271  -0.0333   0.0178   0.00    1.9
2173 292517.000   1159577.2571  -4706157.4567   4132205.2240   2   9   0.0300   0.0527   0.0316  -0.0270  -0.0331   0.0177   0.00    1.9
2173 292518.000   1159577.2527  -4706157.4459   4132205.2144   2   9   0.0299   0.0524   0.0314  -0.0268  -0.0330   0.0176   0.00    1.8
2173 292519.000   1159577.2527  -4706157.4393   4132205.2088   2   9   0.0298   0.0522   0.0312  -0.0266  -0.0328   0.0175   0.00    1.8
2173 292520.000   1159577.2493  -4706157.4277   4132205.2033   2   9   0.0298   0.0519   0.0310  -0.0265  -0.0326   0.0173   0.00    1.8
2173 292521.000   1159577.2494  -4706157.4248   4132205.1936   2   9   0.0296   0.0517   0.0309  -0.0263  -0.0324   0.0174   0.00    1.8
2173 292522.000   1159577.2456  -4706157.4184   4132205.1854   2   9   0.0295   0.0514   0.0307  -0.0262  -0.0322   0.0172   0.00    1.8
2173 292523.000   1159577.2460  -4706157.4180   4132205.1803   2   9   0.0292   0.0511   0.0305  -0.0260  -0.0321   0.0172   0.00    1.8
2173 292524.000   1159577.2444  -4706157.4192   4132205.1766   2   9   0.0293   0.0509   0.0303  -0.0259  -0.0319   0.0170   0.00    1.8
2173 292525.000   1159577.2430  -4706157.4162   4132205.1720   2   9   0.0293   0.0507   0.0301  -0.0257  -0.0317   0.0169   0.00    1.8
2173 292526.000   1159577.2435  -4706157.4181   4132205.1656   2   9   0.0292   0.0504   0.0299  -0.0255  -0.0315   0.0168   0.00    1.8
2173 292527.000   1159577.2429  -4706157.4132   4132205.1601   2   9   0.0290   0.0502   0.0298  -0.0255  -0.0313   0.0167   0.00    1.8
2173 292528.000   1159577.2387  -4706157.4089   4132205.1543   2   9   0.0289   0.0499   0.0296  -0.0253  -0.0312   0.0167   0.00    1.8
2173 292529.000   1159577.2426  -4706157.4174   4132205.1565   2   9   0.0288   0.0497   0.0294  -0.0251  -0.0310   0.0164   0.00    1.8
2173 292530.000   1159577.2424  -4706157.4173   4132205.1559   2   9   0.0287   0.0494   0.0292  -0.0250  -0.0309   0.0165   0.00    1.8
2173 292531.000   1159577.2409  -4706157.4145   4132205.1501   2   9   0.0286   0.0492   0.0291  -0.0248  -0.0307   0.0164   0.00    1.8
2173 292532.000   1159577.2397  -4706157.4163   4132205.1472   2   9   0.0285   0.0490   0.0290  -0.0247  -0.0305   0.0163   0.00    1.8
2173 292533.000   1159577.2403  -4706157.4165   4132205.1444   2   9   0.0284   0.0487   0.0287  -0.0246  -0.0304   0.0161   0.00    1.8
2173 292534.000   1159577.2379  -4706157.4140   4132205.1383   2   9   0.0283   0.0485   0.0286  -0.0243  -0.0302   0.0162   0.00    1.7
2173 292535.000   1159577.2402  -4706157.4159   4132205.1345   2   9   0.0281   0.0483   0.0284  -0.0242  -0.0300   0.0160   0.00    1.7
2173 292536.000   1159577.2429  -4706157.4201   4132205.1280   2   9   0.0280   0.0481   0.0283  -0.0241  -0.0299   0.0159   0.00    1.7
2173 292537.000   1159577.2416  -4706157.4226   4132205.1271   2   9   0.0280   0.0478   0.0281  -0.0240  -0.0297   0.0159   0.00    1.7
2173 292538.000   1159577.2407  -4706157.4240   4132205.1244   2   9   0.0278   0.0476   0.0280  -0.0238  -0.0295   0.0158   0.00    1.7
2173 292539.000   1159577.2441  -4706157.4267   4132205.1184   2   9   0.0278   0.0474   0.0278  -0.0237  -0.0294   0.0158   0.00    1.7
2173 292540.000   1159577.2420  -4706157.4274   4132205.1176   2   9   0.0277   0.0472   0.0277  -0.0236  -0.0292   0.0154   0.00    1.7
2173 292541.000   1159577.2443  -4706157.4310   4132205.1139   2   9   0.0276   0.0470   0.0275  -0.0234  -0.0291   0.0155   0.00    1.7
2173 292542.000   1159577.2438  -4706157.4378   4132205.1136   2   9   0.0274   0.0467   0.0273  -0.0232  -0.0289   0.0154   0.00    1.7
2173 292543.000   1159577.2459  -4706157.4430   4132205.1145   2   9   0.0273   0.0465   0.0272  -0.0231  -0.0288   0.0153   0.00    1.7
2173 292544.000   1159577.2485  -4706157.4477   4132205.1120   2   9   0.0274   0.0463   0.0271  -0.0230  -0.0286   0.0152   0.00    1.7
2173 292545.000   1159577.2446  -4706157.4459   4132205.1100   2   9   0.0273   0.0461   0.0269  -0.0229  -0.0285   0.0151   0.00    1.7
2173 292546.000   1159577.2447  -4706157.4444   4132205.1085   2   9   0.0271   0.0459   0.0267  -0.0227  -0.0284   0.0150   0.00    1.7
2173 292547.000   1159577.2436  -4706157.4442   4132205.1024   2   9   0.0270   0.0457   0.0266  -0.0226  -0.0282   0.0151   0.00    1.7
2173 292548.000   1159577.2459  -4706157.4479   4132205.1045   2   9   0.0270   0.0455   0.0265  -0.0225  -0.0281   0.0150   0.00    1.7
2173 292549.000   1159577.2440  -4706157.4431   4132205.0995   2   9   0.0270   0.0453   0.0263  -0.0224  -0.0279   0.0147   0.00    1.7
2173 292550.000   1159577.2432  -4706157.4461   4132205.1002   2   9   0.0268   0.0451   0.0262  -0.0222  -0.0278   0.0147   0.00    1.7
2173 292551.000   1159577.2410  -4706157.4448   4132205.0963   2   9   0.0267   0.0449   0.0260  -0.0221  -0.0276   0.0146   0.00    1.7
2173 292552.000   1159577.2438  -4706157.4517   4132205.0962   2   9   0.0266   0.0447   0.0259  -0.0220  -0.0275   0.0146   0.00    1.6
2173 292553.000   1159577.2447  -4706157.4579   4132205.0959   2   9   0.0266   0.0445   0.0258  -0.0218  -0.0273   0.0147   0.00    1.6
2173 292554.000   1159577.2473  -4706157.4615   4132205.0946   2   9   0.0264   0.0443   0.0257  -0.0217  -0.0272   0.0146   0.00    1.6
2173 292555.000   1159577.2501  -4706157.4706   4132205.0950   2   9   0.0263   0.0441   0.0255  -0.0216  -0.0271   0.0145   0.00    1.6
2173 292556.000   1159577.2466  -4706157.4683   4132205.0907   2   9   0.0265   0.0439   0.0254  -0.0215  -0.0269   0.0143   0.00    1.6
2173 292557.000   1159577.2438  -4706157.4682   4132205.0894   2   9   0.0261   0.0437   0.0252  -0.0213  -0.0268   0.0143   0.00    1.6
2173 292558.000   1159577.2418  -4706157.4722   4132205.0918   2   9   0.0262   0.0435   0.0251  -0.0212  -0.0267   0.0142   0.00    1.6
2173 292559.000   1159577.2407  -4706157.4735   4132205.0951   2   9   0.0259   0.0433   0.0250  -0.0211  -0.0266   0.0143   0.00    1.6
2173 292560.000   1159577.2393  -4706157.4739   4132205.0963   2   9   0.0259   0.0431   0.0248  -0.0210  -0.0264   0.0140   0.00    1.6
2173 292561.000   1159577.2382  -4706157.4755   4132205.0994   2   9   0.0260   0.0429   0.0247  -0.0208  -0.0263   0.0139   0.00    1.6
2173 292562.000   1159577.2368  -4706157.4797   4132205.1005   2   9   0.0257   0.0428   0.0247  -0.0207  -0.0261   0.0142   0.00    1.6
2173 292563.000   1159577.2367  -4706157.4791   4132205.0988   2   9   0.0257   0.0426   0.0244  -0.0206  -0.0261   0.0138   0.00    1.6
2173 292564.000   1159577.2388  -4706157.4812   4132205.0987   2   9   0.0256   0.0424   0.0244  -0.0205  -0.0259   0.0137   0.00    1.6
2173 292565.000   1159577.2433  -4706157.4834   4132205.0984   2   9   0.0256   0.0422   0.0243  -0.0203  -0.0258   0.0137   0.00    1.6
2173 292566.000   1159577.2476  -4706157.4926   4132205.1006   2   9   0.0255   0.0420   0.0242  -0.0203  -0.0256   0.0138   0.00    1.6
2173 292567.000   1159577.2514  -4706157.4916   4132205.0969   2   9   0.0255   0.0418   0.0240  -0.0202  -0.0256   0.0135   0.00    1.6
2173 292568.000   1159577.2535  -4706157.5019   4132205.0984   2   9   0.0252   0.0417   0.0239  -0.0200  -0.0254   0.0135   0.00    1.6
2173 292569.000   1159577.2581  -4706157.5120   4132205.1036   2   9   0.0251   0.0415   0.0237  -0.0199  -0.0253   0.0135   0.00    1.6
2173 292570.000   1159577.2634  -4706157.5198   4132205.1028   2   9   0.0252   0.0413   0.0236  -0.0198  -0.0252   0.0133   0.00    1.5
2173 292571.000   1159577.2697  -4706157.5296   4132205.1074   2   9   0.0252   0.0411   0.0235  -0.0196  -0.0251   0.0133   0.00    1.5
2173 292572.000   1159577.2714  -4706157.5333   4132205.1073   2   9   0.0248   0.0410   0.0234  -0.0195  -0.0249   0.0134   0.00    1.5
2173 292573.000   1159577.2766  -4706157.5398   4132205.1091   2   9   0.0249   0.0408   0.0233  -0.0194  -0.0248   0.0131   0.00    1.5
2173 292574.000   1159577.2785  -4706157.5410   4132205.1088   2   9   0.0249   0.0406   0.0232  -0.0193  -0.0247   0.0131   0.00    1.5
2173 292575.000   1159577.2833  -4706157.5444   4132205.1064   2   9   0.0247   0.0404   0.0230  -0.0193  -0.0246   0.0129   0.00    1.5
2173 292576.000   1159577.2763  -4706157.5447   4132205.1055   2   9   0.0246   0.0403   0.0230  -0.0190  -0.0245   0.0131   0.00    1.5
2173 292577.000   1159577.2783  -4706157.5499   4132205.1044   2   9   0.0248   0.0401   0.0229  -0.0190  -0.0244   0.0130   0.00    1.5
2173 292578.000   1159577.2835  -4706157.5597   4132205.1044   2   9   0.0245   0.0399   0.0228  -0.0189  -0.0242   0.0130   0.00    1.5
2173 292579.000   1159577.2888  -4706157.5699   4132205.1079   2   9   0.0244   0.0398   0.0226  -0.0188  -0.0242   0.0128   0.00    1.5
2173 292580.000   1159577.2928  -4706157.5813   4132205.1058   2   9   0.0245   0.0396   0.0226  -0.0187  -0.0240   0.0129   0.00    1.5
2173 292581.000   1159577.2973  -4706157.5861   4132205.1056   2   9   0.0243   0.0395   0.0224  -0.0185  -0.0239   0.0127   0.00    1.5
2173 292582.000   1159577.3021  -4706157.5920   4132205.1029   2   9   0.0243   0.0393   0.0224  -0.0185  -0.0238   0.0126   0.00    1.5
2173 292583.000   1159577.3080  -4706157.6016   4132205.1001   2   9   0.0242   0.0391   0.0222  -0.0183  -0.0237   0.0126   0.00    1.5
2173 292584.000   1159577.3103  -4706157.6049   4132205.1023   2   9   0.0241   0.0390   0.0220  -0.0183  -0.0236   0.0126   0.00    1.5
2173 292585.000   1159577.3131  -4706157.6095   4132205.0999   2   9   0.0239   0.0388   0.0220  -0.0182  -0.0235   0.0125   0.00    1.5
2173 292586.000   1159577.3187  -4706157.6223   4132205.1036   2   9   0.0240   0.0387   0.0219  -0.0180  -0.0234   0.0124   0.00    1.5
2173 292587.000   1159577.3225  -4706157.6303   4132205.1029   2   9   0.0239   0.0385   0.0218  -0.0179  -0.0233   0.0123   0.00    1.5
2173 292588.000   1159577.3225  -4706157.6338   4132205.1041   2   9   0.0239   0.0383   0.0217  -0.0178  -0.0232   0.0122   0.00    1.4
2173 292589.000   1159577.3283  -4706157.6430   4132205.1046   2   9   0.0237   0.0382   0.0216  -0.0177  -0.0231   0.0124   0.00    1.4
2173 292590.000   1159577.3314  -4706157.6531   4132205.1070   2   9   0.0236   0.0380   0.0215  -0.0177  -0.0230   0.0122   0.00    1.4
2173 292591.000   1159577.3329  -4706157.6570   4132205.1071   2   9   0.0236   0.0379   0.0214  -0.0176  -0.0229   0.0121   0.00    1.4
2173 292592.000   1159577.3369  -4706157.6578   4132205.1000   2   9   0.0236   0.0377   0.0213  -0.0175  -0.0228   0.0121   0.00    1.4
2173 292593.000   1159577.3402  -4706157.6647   4132205.1032   2   9   0.0236   0.0376   0.0212  -0.0173  -0.0227   0.0119   0.00    1.4
2173 292594.000   1159577.3456  -4706157.6766   4132205.1036   2   9   0.0233   0.0375   0.0212  -0.0172  -0.0226   0.0120   0.00    1.4
2173 292595.000   1159577.3491  -4706157.6806   4132205.1027   2   9   0.0233   0.0373   0.0210  -0.0172  -0.0225   0.0118   0.00    1.4
2173 292596.000   1159577.3538  -4706157.6917   4132205.1067   2   9   0.0233   0.0372   0.0210  -0.0170  -0.0224   0.0118   0.00    1.4
2173 292597.000   1159577.3555  -4706157.6920   4132205.1012   2   9   0.0232   0.0370   0.0208  -0.0170  -0.0223   0.0119   0.00    1.4
2173 292598.000   1159577.3580  -4706157.6990   4132205.1022   2   9   0.0231   0.0369   0.0208  -0.0169  -0.0222   0.0117   0.00    1.4
2173 292599.000   1159577.3614  -4706157.7109   4132205.1030   2   9   0.0232   0.0367   0.0206  -0.0167  -0.0221   0.0118   0.00    1.4
2173 292600.000   1159577.3601  -4706157.7126   4132205.1028   2   9   0.0230   0.0366   0.0206  -0.0166  -0.0220   0.0117   0.00    1.4
2173 292601.000   1159577.3620  -4706157.7199   4132205.1049   2   9   0.0229   0.0364   0.0205  -0.0166  -0.0219   0.0116   0.00    1.4
2173 292602.000   1159577.3646  -4706157.7287   4132205.1079   2   9   0.0230   0.0363   0.0204  -0.0165  -0.0218   0.0114   0.00    1.4
2173 292603.000   1159577.3667  -4706157.7361   4132205.1065   2   9   0.0230   0.0362   0.0203  -0.0164  -0.0217   0.0114   0.00    1.4
2173 292604.000   1159577.3713  -4706157.7465   4132205.1115   2   9   0.0228   0.0360   0.0202  -0.0163  -0.0216   0.0115   0.00    1.4
2173 292605.000   1159577.3716  -4706157.7514   4132205.1083   2   9   0.0228   0.0359   0.0201  -0.0162  -0.0215   0.0114   0.00    1.4
2173 292606.000   1159577.3730  -4706157.7570   4132205.1092   2   9   0.0227   0.0358   0.0200  -0.0162  -0.0214   0.0113   0.00    1.4
2173 292607.000   1159577.3766  -4706157.7685   4132205.1130   2   9   0.0227   0.0356   0.0200  -0.0160  -0.0214   0.0112   0.00    1.4
2173 292608.000   1159577.3764  -4706157.7715   4132205.1132   2   9   0.0226   0.0355   0.0199  -0.0158  -0.0213   0.0114   0.00    1.4
2173 292609.000   1159577.3776  -4706157.7777   4132205.1132   2   9   0.0225   0.0354   0.0198  -0.0158  -0.0212   0.0111   0.00    1.4
2173 292610.000   1159577.3816  -4706157.7897   4132205.1179   2   9   0.0224   0.0352   0.0198  -0.0158  -0.0211   0.0110   0.00    1.3
2173 292611.000   1159577.3827  -4706157.7929   4132205.1159   2   9   0.0226   0.0351   0.0196  -0.0157  -0.0210   0.0109   0.00    1.3
2173 292612.000   1159577.3877  -4706157.8050   4132205.1221   2   9   0.0224   0.0350   0.0196  -0.0156  -0.0209   0.0110   0.00    1.3
2173 292613.000   1159577.3883  -4706157.8078   4132205.1181   2   9   0.0224   0.0348   0.0194  -0.0155  -0.0209   0.0109   0.00    1.3
2173 292614.000   1159577.3911  -4706157.8138   4132205.1202   2   9   0.0223   0.0347   0.0194  -0.0153  -0.0208   0.0110   0.00    1.3
2173 292615.000   1159577.3920  -4706157.8191   4132205.1194   2   9   0.0222   0.0346   0.0192  -0.0154  -0.0207   0.0106   0.00    1.3
2173 292616.000   1159577.3932  -4706157.8313   4132205.1254   2   9   0.0222   0.0345   0.0194  -0.0152  -0.0205   0.0109   0.00    1.3
2173 292617.000   1159577.3929  -4706157.8322   4132205.1235   2   9   0.0221   0.0343   0.0192  -0.0151  -0.0205   0.0108   0.00    1.3
2173 292618.000   1159577.3960  -4706157.8420   4132205.1262   2   9   0.0220   0.0342   0.0191  -0.0151  -0.0204   0.0108   0.00    1.3
2173 292619.000   1159577.3995  -4706157.8487   4132205.1271   2   9   0.0219   0.0341   0.0190  -0.0150  -0.0204   0.0109   0.00    1.3
2173 292620.000   1159577.4019  -4706157.8568   4132205.1299   2   9   0.0218   0.0340   0.0190  -0.0149  -0.0202   0.0107   0.00    1.3
2173 292621.000   1159577.4042  -4706157.8594   4132205.1296   2   9   0.0219   0.0338   0.0188  -0.0149  -0.0203   0.0104   0.00    1.3
2173 292622.000   1159577.4081  -4706157.8654   4132205.1287   2   9   0.0216   0.0337   0.0188  -0.0147  -0.0201   0.0107   0.00    1.3
2173 292623.000   1159577.4099  -4706157.8694   4132205.1280   2   9   0.0217   0.0336   0.0188  -0.0146  -0.0200   0.0106   0.00    1.3
2173 292624.000   1159577.4181  -4706157.8943   4132205.1201   2   9   0.0217   0.0335   0.0187  -0.0146  -0.0199   0.0105   0.00    1.3
2173 292625.000   1159577.4226  -4706157.9015   4132205.1232   2   9   0.0215   0.0334   0.0186  -0.0144  -0.0199   0.0105   0.00    1.3
2173 292626.000   1159577.4276  -4706157.9074   4132205.1285   2   9   0.0216   0.0332   0.0185  -0.0145  -0.0198   0.0103   0.00    1.3
2173 292627.000   1159577.4324  -4706157.9169   4132205.1342   2   9   0.0214   0.0331   0.0185  -0.0142  -0.0197   0.0106   0.00    1.3
2173 292628.000   1159577.4379  -4706157.9331   4132205.1401   2   9   0.0214   0.0330   0.0182  -0.0143  -0.0197   0.0101   0.00    1.3
2173 292629.000   1159577.4467  -4706157.9491   4132205.1497   2   9   0.0213   0.0329   0.0183  -0.0142  -0.0196   0.0101   0.00    1.3
2173 292630.000   1159577.4481  -4706157.9560   4132205.1521   2   9   0.0212   0.0328   0.0183  -0.0141  -0.0195   0.0104   0.00    1.3
2173 292631.000   1159577.4573  -4706157.9690   4132205.1623   2   9   0.0214   0.0327   0.0182  -0.0140  -0.0194   0.0104   0.00    1.3
2173 292632.000   1159577.4593  -4706157.9801   4132205.1697   2   9   0.0211   0.0326   0.0181  -0.0139  -0.0193   0.0103   0.00    1.3
2173 292633.000   1159577.4610  -4706157.9864   4132205.1764   2   9   0.0214   0.0324   0.0180  -0.0139  -0.0193   0.0100   0.00    1.3
2173 292634.000   1159577.4648  -4706157.9948   4132205.1825   2   9   0.0211   0.0323   0.0179  -0.0137  -0.0192   0.0099   0.00    1.3
2173 292635.000   1159577.4636  -4706158.0002   4132205.1878   2   9   0.0211   0.0322   0.0178  -0.0138  -0.0191   0.0099   0.00    1.3
2173 292636.000   1159577.4710  -4706158.0135   4132205.1966   2   9   0.0211   0.0321   0.0178  -0.0137  -0.0191   0.0098   0.00    1.2
2173 292637.000   1159577.4798  -4706158.0107   4132205.1993   2   9   0.0211   0.0320   0.0176  -0.0136  -0.0190   0.0097   0.00    1.2
2173 292638.000   1159577.4815  -4706158.0141   4132205.2015   2   9   0.0210   0.0319   0.0177  -0.0135  -0.0189   0.0099   0.00    1.2
2173 292639.000   1159577.4798  -4706158.0115   4132205.2002   2   9   0.0209   0.0318   0.0175  -0.0134  -0.0189   0.0099   0.00    1.2
2173 292640.000   1159577.4824  -4706158.0128   4132205.2047   2   9   0.0209   0.0316   0.0175  -0.0134  -0.0188   0.0096   0.00    1.2
2173 292641.000   1159577.4837  -4706158.0126   4132205.2057   2   9   0.0207   0.0316   0.0174  -0.0133  -0.0187   0.0098   0.00    1.2
2173 292642.000   1159577.4805  -4706158.0037   4132205.2045   2   9   0.0207   0.0314   0.0175  -0.0132  -0.0186   0.0099   0.00    1.2
2173 292643.000   1159577.4775  -4706158.0056   4132205.2062   2   9   0.0207   0.0313   0.0173  -0.0132  -0.0186   0.0096   0.00    1.2
2173 292644.000   1159577.4778  -4706158.0051   4132205.2073   2   9   0.0208   0.0312   0.0173  -0.0131  -0.0185   0.0097   0.00    1.2
2173 292645.000   1159577.4761  -4706158.0039   4132205.2079   2   9   0.0206   0.0311   0.0173  -0.0130  -0.0185   0.0097   0.00    1.2
2173 292646.000   1159577.4740  -4706158.0056   4132205.2120   2   9   0.0205   0.0310   0.0172  -0.0129  -0.0184   0.0096   0.00    1.2
2173 292647.000   1159577.4745  -4706158.0037   4132205.2118   2   9   0.0204   0.0309   0.0171  -0.0128  -0.0183   0.0094   0.00    1.2
2173 292648.000   1159577.4743  -4706158.0001   4132205.2081   2   9   0.0204   0.0308   0.0171  -0.0128  -0.0182   0.0095   0.00    1.2
2173 292649.000   1159577.4742  -4706157.9925   4132205.2038   2   9   0.0203   0.0307   0.0170  -0.0127  -0.0182   0.0095   0.00    1.2
2173 292650.000   1159577.4721  -4706157.9879   4132205.2026   2   9   0.0204   0.0306   0.0169  -0.0127  -0.0181   0.0094   0.00    1.2
2173 292651.000   1159577.4698  -4706157.9795   4132205.1986   2   9   0.0203   0.0305   0.0168  -0.0125  -0.0181   0.0095   0.00    1.2
2173 292652.000   1159577.4723  -4706157.9801   4132205.1992   2   9   0.0201   0.0304   0.0168  -0.0125  -0.0180   0.0094   0.00    1.2
2173 292653.000   1159577.4723  -4706157.9785   4132205.1991   2   9   0.0203   0.0303   0.0167  -0.0125  -0.0179   0.0091   0.00    1.2
2173 292654.000   1159577.4739  -4706157.9780   4132205.1969   2   9   0.0201   0.0302   0.0166  -0.0124  -0.0179   0.0092   0.00    1.2
2173 292655.000   1159577.4745  -4706157.9753   4132205.1967   2   9   0.0203   0.0301   0.0168  -0.0123  -0.0178   0.0092   0.00    1.2
2173 292656.000   1159577.4746  -4706157.9708   4132205.1973   2   9   0.0202   0.0300   0.0166  -0.0122  -0.0177   0.0091   0.00    1.2
2173 292657.000   1159577.4746  -4706157.9692   4132205.1993   2   9   0.0201   0.0299   0.0165  -0.0122  -0.0177   0.0091   0.00    1.2
2173 292658.000   1159577.4772  -4706157.9694   4132205.2012   2   9   0.0199   0.0298   0.0165  -0.0121  -0.0176   0.0091   0.00    1.2
2173 292659.000   1159577.4751  -4706157.9666   4132205.1985   2   9   0.0199   0.0297   0.0164  -0.0121  -0.0176   0.0090   0.00    1.2
2173 292660.000   1159577.4732  -4706157.9602   4132205.1963   2   9   0.0199   0.0297   0.0164  -0.0120  -0.0175   0.0090   0.00    1.2
2173 292661.000   1159577.4747  -4706157.9629   4132205.1993   2   9   0.0199   0.0296   0.0164  -0.0119  -0.0174   0.0091   0.00    1.2
2173 292662.000   1159577.4710  -4706157.9576   4132205.1980   2   9   0.0198   0.0295   0.0162  -0.0118  -0.0173   0.0089   0.00    1.2
2173 292663.000   1159577.4692  -4706157.9524   4132205.1957   2   9   0.0198   0.0294   0.0163  -0.0117  -0.0173   0.0092   0.00    1.2
2173 292664.000   1159577.4682  -4706157.9522   4132205.1982   2   9   0.0196   0.0293   0.0161  -0.0117  -0.0173   0.0089   0.00    1.2
2173 292665.000   1159577.4685  -4706157.9519   4132205.2006   2   9   0.0197   0.0292   0.0161  -0.0117  -0.0172   0.0089   0.00    1.2
2173 292666.000   1159577.4705  -4706157.9553   4132205.2004   2   9   0.0195   0.0291   0.0160  -0.0116  -0.0171   0.0088   0.00    1.2
2173 292667.000   1159577.4742  -4706157.9584   4132205.2046   2   9   0.0196   0.0290   0.0160  -0.0116  -0.0171   0.0087   0.00    1.2
2173 292668.000   1159577.4757  -4706157.9616   4132205.2074   2   9   0.0195   0.0289   0.0160  -0.0115  -0.0170   0.0088   0.00    1.2
2173 292669.000   1159577.4782  -4706157.9624   4132205.2100   2   9   0.0196   0.0288   0.0159  -0.0114  -0.0170   0.0088   0.00    1.2
2173 292670.000   1159577.4822  -4706157.9658   4132205.2094   2   9   0.0194   0.0287   0.0159  -0.0112  -0.0169   0.0093   0.00    1.2
2173 292671.000   1159577.4884  -4706157.9698   4132205.2144   2   9   0.0195   0.0287   0.0158  -0.0113  -0.0168   0.0086   0.00    1.2
2173 292672.000   1159577.4879  -4706157.9691   4132205.2147   2   9   0.0196   0.0286   0.0157  -0.0113  -0.0168   0.0087   0.00    1.2
2173 292673.000   1159577.4873  -4706157.9615   4132205.2108   2   9   0.0194   0.0285   0.0157  -0.0111  -0.0167   0.0085   0.00    1.2
2173 292674.000   1159577.4892  -4706157.9638   4132205.2096   2   9   0.0193   0.0284   0.0157  -0.0110  -0.0167   0.0086   0.00    1.2
2173 292675.000   1159577.4893  -4706157.9607   4132205.2078   2   9   0.0192   0.0283   0.0155  -0.0110  -0.0167   0.0086   0.00    1.2
2173 292676.000   1159577.4901  -4706157.9528   4132205.2029   2   9   0.0191   0.0282   0.0154  -0.0111  -0.0167   0.0085   0.00    1.2
2173 292677.000   1159577.4910  -4706157.9506   4132205.2024   2   9   0.0190   0.0282   0.0155  -0.0109  -0.0165   0.0086   0.00    1.2
2173 292678.000   1159577.4872  -4706157.9443   4132205.1973   2   9   0.0191   0.0281   0.0155  -0.0109  -0.0165   0.0087   0.00    1.2
2173 292679.000   1159577.4916  -4706157.9460   4132205.1976   2   9   0.0192   0.0280   0.0154  -0.0109  -0.0165   0.0083   0.00    1.2
2173 292680.000   1159577.4956  -4706157.9530   4132205.2001   2   9   0.0194   0.0279   0.0154  -0.0109  -0.0164   0.0083   0.00    1.2
2173 292681.000   1159577.4940  -4706157.9515   4132205.2018   2   9   0.0191   0.0278   0.0153  -0.0108  -0.0163   0.0085   0.00    1.2
2173 292682.000   1159577.4948  -4706157.9503   4132205.1976   2   9   0.0191   0.0277   0.0154  -0.0107  -0.0163   0.0084   0.00    1.2
2173 292683.000   1159577.4943  -4706157.9478   4132205.1967   2   9   0.0189   0.0277   0.0152  -0.0106  -0.0162   0.0083   0.00    1.2
2173 292684.000   1159577.4947  -4706157.9433   4132205.1943   2   9   0.0189   0.0276   0.0152  -0.0104  -0.0161   0.0084   0.00    1.2
2173 292685.000   1159577.4964  -4706157.9456   4132205.1956   2   9   0.0188   0.0275   0.0153  -0.0104  -0.0161   0.0085   0.00    1.2
2173 292686.000   1159577.4942  -4706157.9405   4132205.1944   2   9   0.0189   0.0274   0.0151  -0.0105  -0.0161   0.0083   0.00    1.1
2173 292687.000   1159577.4922  -4706157.9345   4132205.1923   2   9   0.0187   0.0274   0.0151  -0.0103  -0.0159   0.0082   0.00    1.1
2173 292688.000   1159577.4913  -4706157.9314   4132205.1907   2   9   0.0186   0.0272   0.0150  -0.0103  -0.0160   0.0083   0.00    1.1
2173 292689.000   1159577.4913  -4706157.9269   4132205.1904   2   9   0.0188   0.0272   0.0150  -0.0102  -0.0159   0.0083   0.00    1.1
2173 292690.000   1159577.4891  -4706157.9265   4132205.1923   2   9   0.0188   0.0271   0.0149  -0.0102  -0.0159   0.0081   0.00    1.1
2173 292691.000   1159577.4897  -4706157.9251   4132205.1920   2   9   0.0187   0.0270   0.0149  -0.0101  -0.0158   0.0080   0.00    1.1
2173 292692.000   1159577.4934  -4706157.9300   4132205.1956   2   9   0.0187   0.0270   0.0148  -0.0102  -0.0157   0.0081   0.00    1.1
2173 292693.000   1159577.4945  -4706157.9293   4132205.1992   2   9   0.0185   0.0269   0.0148  -0.0099  -0.0157   0.0082   0.00    1.1
2173 292694.000   1159577.4936  -4706157.9258   4132205.2013   2   9   0.0186   0.0268   0.0147  -0.0101  -0.0157   0.0077   0.00    1.1
2173 292695.000   1159577.4909  -4706157.9249   4132205.2043   2   9   0.0183   0.0267   0.0147  -0.0098  -0.0157   0.0083   0.00    1.1
2173 292696.000   1159577.4945  -4706157.9203   4132205.1972   2   9   0.0187   0.0266   0.0148  -0.0100  -0.0155   0.0080   0.00    1.1
2173 292697.000   1159577.5021  -4706157.9283   4132205.2078   2   9   0.0184   0.0266   0.0147  -0.0099  -0.0155   0.0079   0.00    1.1
2173 292698.000   1159577.5015  -4706157.9290   4132205.2071   2   9   0.0182   0.0265   0.0145  -0.0096  -0.0155   0.0079   0.00    1.1
2173 292699.000   1159577.5004  -4706157.9228   4132205.2056   2   9   0.0185   0.0264   0.0144  -0.0098  -0.0155   0.0078   0.00    1.1
2173 292700.000   1159577.5030  -4706157.9328   4132205.2100   2   9   0.0182   0.0264   0.0144  -0.0096  -0.0154   0.0080   0.00    1.1
2173 292701.000   1159577.4988  -4706157.9292   4132205.2103   2   9   0.0183   0.0263   0.0145  -0.0095  -0.0153   0.0079   0.00    1.1
2173 292702.000   1159577.5029  -4706157.9354   4132205.2124   2   9   0.0183   0.0262   0.0144  -0.0096  -0.0153   0.0081   0.00    1.1
2173 292703.000   1159577.5023  -4706157.9374   4132205.2155   2   9   0.0185   0.0261   0.0144  -0.0098  -0.0152   0.0075   0.00    1.1
2173 292704.000   1159577.4967  -4706157.9295   4132205.2126   2   9   0.0183   0.0261   0.0144  -0.0093  -0.0152   0.0079   0.00    1.1
2173 292705.000   1159577.5004  -4706157.9332   4132205.2164   2   9   0.0183   0.0260   0.0142  -0.0096  -0.0152   0.0075   0.00    1.1
2173 292706.000   1159577.5001  -4706157.9410   4132205.2236   2   9   0.0181   0.0259   0.0143  -0.0094  -0.0151   0.0081   0.00    1.1
2173 292707.000   1159577.5004  -4706157.9418   4132205.2260   2   9   0.0180   0.0259   0.0142  -0.0093  -0.0151   0.0076   0.00    1.1
2173 292708.000   1159577.4982  -4706157.9432   4132205.2279   2   9   0.0180   0.0258   0.0142  -0.0092  -0.0150   0.0077   0.00    1.1
2173 292709.000   1159577.4993  -4706157.9476   4132205.2320   2   9   0.0181   0.0258   0.0142  -0.0092  -0.0150   0.0079   0.00    1.0
2173 292710.000   1159577.4973  -4706157.9524   4132205.2374   2   9   0.0180   0.0257   0.0141  -0.0091  -0.0149   0.0076   0.00    1.0
2173 292711.000   1159577.4970  -4706157.9596   4132205.2409   2   9   0.0179   0.0256   0.0140  -0.0091  -0.0149   0.0076   0.00    1.0
2173 292712.000   1159577.5001  -4706157.9660   4132205.2465   2   9   0.0180   0.0255   0.0140  -0.0091  -0.0149   0.0074   0.00    1.0
2173 292713.000   1159577.4986  -4706157.9713   4132205.2542   2   9   0.0177   0.0254   0.0140  -0.0091  -0.0149   0.0077   0.00    1.0
2173 292714.000   1159577.5012  -4706157.9723   4132205.2565   2   9   0.0180   0.0254   0.0141  -0.0090  -0.0147   0.0078   0.00    1.0
2173 292715.000   1159577.5022  -4706157.9734   4132205.2568   2   9   0.0178   0.0253   0.0139  -0.0090  -0.0147   0.0075   0.00    1.0
2173 292716.000   1159577.5039  -4706157.9763   4132205.2616   2   9   0.0178   0.0253   0.0139  -0.0089  -0.0147   0.0075   0.00    1.0
2173 292717.000   1159577.5071  -4706157.9750   4132205.2614   2   9   0.0177   0.0252   0.0138  -0.0087  -0.0147   0.0075   0.00    1.0
2173 292718.000   1159577.5070  -4706157.9757   4132205.2640   2   9   0.0177   0.0251   0.0138  -0.0088  -0.0146   0.0073   0.00    1.0
2173 292719.000   1159577.5017  -4706157.9681   4132205.2642   2   9   0.0176   0.0251   0.0137  -0.0088  -0.0146   0.0072   0.00    1.0
2173 292720.000   1159577.4990  -4706157.9631   4132205.2631   2   9   0.0179   0.0250   0.0137  -0.0089  -0.0145   0.0070   0.00    1.0
2173 292721.000   1159577.4973  -4706157.9601   4132205.2633   2   9   0.0176   0.0249   0.0137  -0.0086  -0.0145   0.0073   0.00    1.0
2173 292722.000   1159577.4967  -4706157.9605   4132205.2651   2   9   0.0174   0.0249   0.0137  -0.0086  -0.0145   0.0076   0.00    1.0
2173 292723.000   1159577.4932  -4706157.9588   4132205.2656   2   9   0.0177   0.0248   0.0136  -0.0088  -0.0144   0.0073   0.00    1.0
2173 292724.000   1159577.4929  -4706157.9616   4132205.2687   2   9   0.0177   0.0247   0.0135  -0.0087  -0.0145   0.0072   0.00    1.0
2173 292725.000   1159577.4905  -4706157.9576   4132205.2711   2   9   0.0176   0.0247   0.0136  -0.0086  -0.0143   0.0070   0.00    1.0
2173 292726.000   1159577.4945  -4706157.9596   4132205.2726   2   9   0.0174   0.0246   0.0135  -0.0084  -0.0143   0.0074   0.00    1.0
2173 292727.000   1159577.4957  -4706157.9610   4132205.2747   2   9   0.0173   0.0246   0.0134  -0.0084  -0.0143   0.0073   0.00    1.0
2173 292728.000   1159577.5001  -4706157.9642   4132205.2765   2   9   0.0174   0.0245   0.0134  -0.0085  -0.0143   0.0071   0.00    1.0
2173 292729.000   1159577.5067  -4706157.9685   4132205.2764   2   9   0.0173   0.0244   0.0134  -0.0084  -0.0142   0.0072   0.00    1.1
2173 292730.000   1159577.5057  -4706157.9742   4132205.2794   2   9   0.0172   0.0244   0.0134  -0.0082  -0.0142   0.0074   0.00    1.1
2173 292731.000   1159577.5090  -4706157.9770   4132205.2810   2   9   0.0174   0.0243   0.0134  -0.0082  -0.0142   0.0070   0.00    1.1
2173 292732.000   1159577.5107  -4706157.9860   4132205.2838   2   9   0.0175   0.0243   0.0133  -0.0084  -0.0141   0.0071   0.00    1.1
2173 292733.000   1159577.5135  -4706157.9921   4132205.2893   2   9   0.0172   0.0242   0.0132  -0.0082  -0.0141   0.0070   0.00    1.1
2173 292734.000   1159577.5176  -4706157.9982   4132205.2934   2   9   0.0174   0.0241   0.0131  -0.0084  -0.0141   0.0069   0.00    1.1
2173 292735.000   1159577.5178  -4706157.9972   4132205.2923   2   9   0.0171   0.0241   0.0132  -0.0081  -0.0140   0.0071   0.00    1.1
2173 292736.000   1159577.5274  -4706158.0271   4132205.3334   2   9   0.0170   0.0240   0.0133  -0.0078  -0.0139   0.0073   0.00    1.1
2173 292737.000   1159577.5296  -4706158.0282   4132205.3394   2   9   0.0173   0.0240   0.0132  -0.0080  -0.0139   0.0073   0.00    1.1
2173 292738.000   1159577.5322  -4706158.0341   4132205.3444   2   9   0.0172   0.0239   0.0132  -0.0079  -0.0138   0.0072   0.00    1.1
2173 292739.000   1159577.5304  -4706158.0380   4132205.3478   2   9   0.0172   0.0238   0.0132  -0.0078  -0.0138   0.0071   0.00    1.1
2173 292740.000   1159577.5301  -4706158.0347   4132205.3502   2   9   0.0171   0.0238   0.0131  -0.0079  -0.0138   0.0070   0.00    1.1
2173 292741.000   1159577.5348  -4706158.0398   4132205.3596   2   9   0.0171   0.0237   0.0131  -0.0079  -0.0138   0.0070   0.00    1.1
2173 292742.000   1159577.5338  -4706158.0437   4132205.3618   2   9   0.0171   0.0237   0.0131  -0.0078  -0.0137   0.0066   0.00    1.1
2173 292743.000   1159577.5331  -4706158.0390   4132205.3653   2   9   0.0169   0.0236   0.0130  -0.0078  -0.0137   0.0067   0.00    1.1
2173 292744.000   1159577.5357  -4706158.0432   4132205.3706   2   9   0.0169   0.0236   0.0129  -0.0076  -0.0137   0.0070   0.00    1.1
2173 292745.000   1159577.5350  -4706158.0425   4132205.3730   2   9   0.0169   0.0235   0.0129  -0.0076  -0.0136   0.0070   0.00    1.1
2173 292746.000   1159577.5371  -4706158.0448   4132205.3746   2   9   0.0168   0.0235   0.0130  -0.0077  -0.0136   0.0066   0.00    1.1
