% program   : rnx2rtkp ver.2.4.3 b31
% inp file  : ngs/21_09_01_07_11_48_wylc.obs
% inp file  : ngs/21_09_01_07_11_48_wylc_P1.obs
% inp file  : ngs/21_09_01_07_11_48_brdc.nav
% obs start : 2021/09/01 07:00:00.0 GPST (week2173 284400.0s)
% obs end   : 2021/09/01 07:59:59.0 GPST (week2173 287999.0s)
% ref pos   : -1195994.9340  -4696897.3950   4134431.9190
%
% (x/y/z-ecef=WGS84,Q=1:fix,2:float,3:sbas,4:dgps,5:single,6:ppp,ns=# of satellites)
%  GPST              x-ecef(m)      y-ecef(m)      z-ecef(m)   Q  ns   sdx(m)   sdy(m)   sdz(m)  sdxy(m)  sdyz(m)  sdzx(m) age(s)  ratio
2173 285083.000  -1227802.1064  -4655144.2891   4172376.3137   2   7   0.4499   1.0853   0.7202   0.3249  -0.6627  -0.2979 -30.00    1.1
2173 285084.000  -1227802.2163  -4655144.4703   4172376.4041   2   7   0.3205   0.7728   0.5125   0.2327  -0.4715  -0.2129 -29.00    1.1
2173 285085.000  -1227802.2086  -4655144.5510   4172376.4614   2   7   0.2625   0.6328   0.4196   0.1907  -0.3861  -0.1744 -28.00    1.0
2173 285086.000  -1227802.2432  -4655144.7082   4172376.5374   2   7   0.2277   0.5491   0.3641   0.1654  -0.3350  -0.1513 -27.00    1.0
2173 285087.000  -1227802.2140  -4655144.7496   4172376.5528   2   7   0.2040   0.4917   0.3261   0.1481  -0.3000  -0.1354 -26.00    1.1
2173 285088.000  -1227802.2212  -4655144.7441   4172376.5309   2   7   0.1864   0.4493   0.2979   0.1352  -0.2742  -0.1237 -25.00    1.0
2173 285089.000  -1227802.2015  -4655144.7321   4172376.5384   2   7   0.1727   0.4163   0.2761   0.1252  -0.2540  -0.1145 -24.00    1.0
2173 285090.000  -1227802.2160  -4655144.7620   4172376.5163   2   7   0.1616   0.3896   0.2584   0.1172  -0.2377  -0.1071 -23.00    1.1
2173 285091.000  -1227802.2062  -4655144.7764   4172376.5139   2   7   0.1524   0.3675   0.2437   0.1104  -0.2242  -0.1010 -22.00    1.1
2173 285092.000  -1227802.1994  -4655144.7635   4172376.5089   2   7   0.1446   0.3487   0.2312   0.1048  -0.2127  -0.0958 -21.00    1.1
2173 285093.000  -1227802.2026  -4655144.7790   4172376.5278   2   7   0.1379   0.3325   0.2205   0.0999  -0.2029  -0.0914 -20.00    1.2
2173 285094.000  -1227802.1958  -4655144.7723   4172376.5153   2   7   0.1321   0.3184   0.2111   0.0956  -0.1942  -0.0875 -19.00    1.2
2173 285095.000  -1227802.2090  -4655144.8006   4172376.5314   2   7   0.1269   0.3058   0.2028   0.0919  -0.1865  -0.0840 -18.00    1.2
2173 285096.000  -1227802.2062  -4655144.8386   4172376.5468   2   7   0.1223   0.2947   0.1954   0.0885  -0.1797  -0.0810 -17.00    1.1
2173 285097.000  -1227802.2115  -4655144.8941   4172376.5873   2   7   0.1181   0.2846   0.1887   0.0855  -0.1735  -0.0782 -16.00    1.1
2173 285098.000  -1227802.1986  -4655144.9066   4172376.6094   2   7   0.1143   0.2755   0.1827   0.0828  -0.1679  -0.0757 -15.00    1.1
2173 285099.000  -1227802.1991  -4655144.9167   4172376.6164   2   7   0.1109   0.2671   0.1771   0.0803  -0.1628  -0.0735 -14.00    1.1
2173 285100.000  -1227802.1852  -4655144.9323   4172376.6264   2   7   0.1077   0.2595   0.1721   0.0780  -0.1582  -0.0714 -13.00    1.1
2173 285101.000  -1227802.1855  -4655144.9485   4172376.6395   2   7   0.1048   0.2525   0.1674   0.0759  -0.1538  -0.0694 -12.00    1.1
2173 285102.000  -1227802.1911  -4655144.9468   4172376.6463   2   7   0.1021   0.2459   0.1631   0.0740  -0.1498  -0.0677 -11.00    1.1
2173 285103.000  -1227802.1896  -4655144.9331   4172376.6365   2   7   0.0996   0.2399   0.1590   0.0722  -0.1461  -0.0660 -10.00    1.1
2173 285104.000  -1227802.1969  -4655144.9350   4172376.6597   2   7   0.0973   0.2342   0.1553   0.0705  -0.1426  -0.0645  -9.00    1.1
2173 285105.000  -1227802.1990  -4655144.9479   4172376.6822   2   7   0.0951   0.2289   0.1518   0.0690  -0.1393  -0.0630  -8.00    1.1
2173 285106.000  -1227802.1988  -4655144.9441   4172376.6753   2   7   0.0931   0.2239   0.1484   0.0675  -0.1363  -0.0617  -7.00    1.1
2173 285107.000  -1227802.1951  -4655144.9314   4172376.6573   2   7   0.0912   0.2193   0.1454   0.0661  -0.1334  -0.0604  -6.00    1.1
2173 285108.000  -1227802.2029  -4655144.9228   4172376.6562   2   7   0.0894   0.2149   0.1424   0.0648  -0.1307  -0.0592  -5.00    1.1
2173 285109.000  -1227802.1958  -4655144.9239   4172376.6556   2   7   0.0877   0.2107   0.1397   0.0635  -0.1281  -0.0580  -4.00    1.1
2173 285110.000  -1227802.1968  -4655144.9285   4172376.6583   2   7   0.0861   0.2068   0.1371   0.0623  -0.1257  -0.0569  -3.00    1.0
2173 285111.000  -1227802.1939  -4655144.9268   4172376.6665   2   7   0.0846   0.2030   0.1346   0.0612  -0.1234  -0.0559  -2.00    1.0
2173 285112.000  -1227802.1913  -4655144.9170   4172376.6671   2   7   0.0831   0.1995   0.1323   0.0601  -0.1212  -0.0549  -1.00    1.0
2173 285113.000  -1227802.1818  -4655144.9194   4172376.6676   2   7   0.0818   0.1961   0.1300   0.0591  -0.1191  -0.0540   0.00    1.0
2173 285114.000  -1227802.1718  -4655145.2528   4172376.6767   2   7   0.4487   1.0844   0.7186   0.3228  -0.6603  -0.2951   0.00    1.0
2173 285115.000  -1227802.1009  -4655145.1655   4172376.6486   2   7   0.4487   1.0844   0.7186   0.3227  -0.6603  -0.2950   0.00    1.0
2173 285116.000  -1227801.9068  -4655145.3616   4172376.6373   2   7   0.4487   1.0844   0.7186   0.3227  -0.6602  -0.2949   0.00    1.1
2173 285117.000  -1227801.9828  -4655145.8167   4172376.9651   2   7   0.4487   1.0845   0.7186   0.3226  -0.6602  -0.2948   0.00    1.1
2173 285118.000  -1227801.8547  -4655145.4062   4172376.7846   2   7   0.4487   1.0845   0.7186   0.3225  -0.6602  -0.2948   0.00    1.0
2173 285119.000  -1227801.8400  -4655145.9296   4172376.7740   2   7   0.4486   1.0845   0.7186   0.3225  -0.6601  -0.2947   0.00    1.2
2173 285120.000  -1227801.8470  -4655145.9844   4172377.0637   2   7   0.4486   1.0845   0.7185   0.3224  -0.6601  -0.2946   0.00    1.1
2173 285121.000  -1227801.9959  -4655145.4886   4172376.6071   2   7   0.4486   1.0846   0.7185   0.3223  -0.6600  -0.2945   0.00    1.1
2173 285122.000  -1227802.2066  -4655145.2954   4172376.7452   2   7   0.4486   1.0846   0.7185   0.3222  -0.6600  -0.2944   0.00    1.1
2173 285123.000  -1227802.0336  -4655145.2480   4172376.4561   2   7   0.4486   1.0846   0.7185   0.3222  -0.6600  -0.2943   0.00    1.1
2173 285124.000  -1227802.1426  -4655145.2714   4172376.4852   2   7   0.4486   1.0846   0.7185   0.3221  -0.6599  -0.2942   0.00    1.1
2173 285125.000  -1227802.1157  -4655145.0816   4172376.5191   2   7   0.4485   1.0847   0.7185   0.3220  -0.6599  -0.2942   0.00    1.1
2173 285126.000  -1227802.1569  -4655145.2233   4172376.4388   2   7   0.4485   1.0847   0.7185   0.3220  -0.6598  -0.2941   0.00    1.1
2173 285127.000  -1227802.1638  -4655145.0208   4172376.8948   2   7   0.4485   1.0847   0.7184   0.3219  -0.6598  -0.2940   0.00    1.0
2173 285128.000  -1227802.3383  -4655145.1612   4172376.6860   2   7   0.4485   1.0847   0.7184   0.3218  -0.6598  -0.2939   0.00    1.0
2173 285129.000  -1227802.0429  -4655144.6016   4172376.2020   2   7   0.4485   1.0848   0.7184   0.3218  -0.6597  -0.2938   0.00    1.2
2173 285130.000  -1227802.0593  -4655145.2694   4172376.9427   2   7   0.4484   1.0848   0.7184   0.3217  -0.6597  -0.2937   0.00    1.0
2173 285131.000  -1227802.0288  -4655145.1497   4172376.7329   2   7   0.4484   1.0848   0.7184   0.3216  -0.6597  -0.2936   0.00    1.1
2173 285132.000  -1227801.8872  -4655145.0270   4172376.4576   2   7   0.4484   1.0848   0.7184   0.3216  -0.6596  -0.2936   0.00    1.2
2173 285133.000  -1227802.0099  -4655145.3249   4172376.9265   2   7   0.4484   1.0849   0.7184   0.3215  -0.6596  -0.2935   0.00    1.1
2173 285134.000  -1227802.1782  -4655145.1606   4172376.7816   2   7   0.4484   1.0849   0.7184   0.3214  -0.6595  -0.2934   0.00    1.1
2173 285135.000  -1227801.8970  -4655144.8273   4172376.3347   2   7   0.4484   1.0849   0.7183   0.3214  -0.6595  -0.2933   0.00    1.2
2173 285136.000  -1227801.9506  -4655145.0724   4172376.7443   2   7   0.4483   1.0849   0.7183   0.3213  -0.6595  -0.2932   0.00    1.2
2173 285137.000  -1227801.9650  -4655144.7509   4172376.8133   2   7   0.4483   1.0850   0.7183   0.3212  -0.6594  -0.2931   0.00    1.0
2173 285138.000  -1227802.0603  -4655144.7553   4172376.7679   2   7   0.4483   1.0850   0.7183   0.3212  -0.6594  -0.2930   0.00    1.1
2173 285139.000  -1227802.1744  -4655145.5781   4172376.9459   2   7   0.4483   1.0850   0.7183   0.3211  -0.6594  -0.2930   0.00    1.1
2173 285140.000  -1227802.0509  -4655145.1796   4172377.0268   2   7   0.4483   1.0850   0.7183   0.3210  -0.6593  -0.2929   0.00    1.0
2173 285141.000  -1227802.0533  -4655144.9198   4172376.8187   2   7   0.4482   1.0851   0.7183   0.3210  -0.6593  -0.2928   0.00    1.0
2173 285142.000  -1227802.2708  -4655144.9138   4172376.8309   2   7   0.4482   1.0851   0.7183   0.3209  -0.6592  -0.2927   0.00    1.1
2173 285143.000  -1227801.9185  -4655144.7304   4172376.6661   2   7   0.4482   1.0851   0.7182   0.3208  -0.6592  -0.2926   0.00    1.0
2173 285144.000  -1227802.0753  -4655145.6314   4172377.0717   2   7   0.4482   1.0851   0.7182   0.3207  -0.6592  -0.2925   0.00    1.1
2173 285145.000  -1227802.1948  -4655144.7657   4172376.9043   2   7   0.4482   1.0852   0.7182   0.3207  -0.6591  -0.2924   0.00    1.1
2173 285146.000  -1227801.9757  -4655145.1560   4172377.0812   2   7   0.4482   1.0852   0.7182   0.3206  -0.6591  -0.2924   0.00    1.0
2173 285147.000  -1227802.0981  -4655144.9953   4172376.8811   2   7   0.4481   1.0852   0.7182   0.3205  -0.6590  -0.2923   0.00    1.0
2173 285148.000  -1227802.3343  -4655145.3726   4172377.0305   2   7   0.4481   1.0852   0.7182   0.3205  -0.6590  -0.2922   0.00    1.1
2173 285149.000  -1227802.1694  -4655144.4084   4172376.6048   2   7   0.4481   1.0853   0.7182   0.3204  -0.6590  -0.2921   0.00    1.1
2173 285150.000  -1227802.2419  -4655145.0096   4172376.8065   2   7   0.4481   1.0853   0.7182   0.3203  -0.6589  -0.2920   0.00    1.1
2173 285151.000  -1227802.1439  -4655144.7743   4172376.3843   2   7   0.4481   1.0853   0.7182   0.3203  -0.6589  -0.2919   0.00    1.1
2173 285152.000  -1227801.9535  -4655144.9542   4172376.4155   2   7   0.4480   1.0853   0.7181   0.3202  -0.6589  -0.2919   0.00    1.1
2173 285153.000  -1227802.0530  -4655144.8925   4172376.4574   2   7   0.4480   1.0854   0.7181   0.3201  -0.6588  -0.2918   0.00    1.0
2173 285154.000  -1227801.9611  -4655144.5485   4172376.4756   2   7   0.4480   1.0854   0.7181   0.3201  -0.6588  -0.2917   0.00    1.2
2173 285155.000  -1227801.9089  -4655144.4667   4172376.6025   2   7   0.4480   1.0854   0.7181   0.3200  -0.6587  -0.2916   0.00    1.1
2173 285156.000  -1227801.8628  -4655145.1309   4172376.6009   2   7   0.4480   1.0854   0.7181   0.3199  -0.6587  -0.2915   0.00    1.0
2173 285157.000  -1227801.9384  -4655144.8892   4172376.5749   2   7   0.4480   1.0855   0.7181   0.3199  -0.6587  -0.2914   0.00    1.0
2173 285158.000  -1227801.5230  -4655144.9472   4172376.3753   2   7   0.4479   1.0855   0.7181   0.3198  -0.6586  -0.2913   0.00    1.1
2173 285159.000  -1227801.6357  -4655145.1596   4172376.4887   2   7   0.4479   1.0855   0.7181   0.3197  -0.6586  -0.2913   0.00    1.0
2173 285160.000  -1227801.7191  -4655144.9133   4172376.2628   2   7   0.4479   1.0855   0.7180   0.3197  -0.6586  -0.2912   0.00    1.1
2173 285161.000  -1227801.7400  -4655145.3415   4172376.4962   2   7   0.4479   1.0856   0.7180   0.3196  -0.6585  -0.2911   0.00    1.0
2173 285162.000  -1227801.8042  -4655145.1263   4172375.9914   2   7   0.4479   1.0856   0.7180   0.3195  -0.6585  -0.2910   0.00    1.1
2173 285163.000  -1227801.6158  -4655145.2714   4172376.3086   2   7   0.4478   1.0856   0.7180   0.3195  -0.6584  -0.2909   0.00    1.0
2173 285164.000  -1227801.7444  -4655145.0700   4172376.4200   2   7   0.4478   1.0856   0.7180   0.3194  -0.6584  -0.2908   0.00    1.1
2173 285165.000  -1227801.7035  -4655145.6111   4172376.4740   2   7   0.4478   1.0857   0.7180   0.3193  -0.6584  -0.2907   0.00    1.0
2173 285166.000  -1227801.5799  -4655145.3177   4172376.4104   2   7   0.4478   1.0857   0.7180   0.3193  -0.6583  -0.2907   0.00    1.1
2173 285167.000  -1227801.7717  -4655145.7879   4172376.5755   2   7   0.4478   1.0857   0.7180   0.3192  -0.6583  -0.2906   0.00    1.1
2173 285168.000  -1227802.0220  -4655145.6779   4172376.5377   2   7   0.4478   1.0857   0.7180   0.3191  -0.6583  -0.2905   0.00    1.1
2173 285169.000  -1227801.5291  -4655145.4073   4172375.9927   2   7   0.4477   1.0857   0.7180   0.3191  -0.6582  -0.2904   0.00    1.0
2173 285170.000  -1227801.7022  -4655145.8882   4172376.3854   2   7   0.4477   1.0858   0.7179   0.3190  -0.6582  -0.2903   0.00    1.0
2173 285171.000  -1227801.8058  -4655145.8093   4172376.3269   2   7   0.4477   1.0858   0.7179   0.3189  -0.6581  -0.2902   0.00    1.0
2173 285172.000  -1227801.6272  -4655145.7721   4172376.2418   2   7   0.4477   1.0858   0.7179   0.3189  -0.6581  -0.2901   0.00    1.0
2173 285173.000  -1227801.7183  -4655145.4933   4172375.8321   2   7   0.4477   1.0858   0.7179   0.3188  -0.6581  -0.2901   0.00    1.0
2173 285174.000  -1227801.7723  -4655145.3857   4172375.9792   2   7   0.4476   1.0859   0.7179   0.3187  -0.6580  -0.2900   0.00    1.1
2173 285175.000  -1227801.5222  -4655145.0834   4172375.6807   2   7   0.4476   1.0859   0.7179   0.3187  -0.6580  -0.2899   0.00    1.1
2173 285176.000  -1227801.6319  -4655145.6567   4172376.0542   2   7   0.4476   1.0859   0.7179   0.3186  -0.6580  -0.2898   0.00    1.0
2173 285177.000  -1227801.6642  -4655145.1240   4172375.8458   2   7   0.4476   1.0859   0.7179   0.3185  -0.6579  -0.2897   0.00    1.2
2173 285178.000  -1227801.5753  -4655145.3483   4172375.5999   2   7   0.4476   1.0860   0.7179   0.3185  -0.6579  -0.2896   0.00    1.0
2173 285179.000  -1227801.6961  -4655145.5243   4172375.9980   2   7   0.4476   1.0860   0.7179   0.3184  -0.6578  -0.2895   0.00    1.0
2173 285180.000  -1227801.8148  -4655145.6078   4172375.9497   2   7   0.4475   1.0860   0.7178   0.3183  -0.6578  -0.2895   0.00    1.1
2173 285181.000  -1227801.5365  -4655146.1708   4172376.2186   2   7   0.4475   1.0860   0.7178   0.3183  -0.6578  -0.2894   0.00    1.1
2173 285182.000  -1227801.6692  -4655146.3341   4172376.2669   2   7   0.4475   1.0861   0.7178   0.3182  -0.6577  -0.2893   0.00    1.1
2173 285183.000  -1227801.8021  -4655144.9540   4172375.7896   2   7   0.4475   1.0861   0.7178   0.3181  -0.6577  -0.2892   0.00    1.0
2173 285184.000  -1227801.5839  -4655145.1270   4172375.7040   2   7   0.4475   1.0861   0.7178   0.3181  -0.6577  -0.2891   0.00    1.1
2173 285185.000  -1227801.8013  -4655146.0297   4172375.9676   2   7   0.4475   1.0861   0.7178   0.3180  -0.6576  -0.2890   0.00    1.0
2173 285186.000  -1227801.6253  -4655145.9662   4172376.0901   2   7   0.4474   1.0862   0.7178   0.3179  -0.6576  -0.2889   0.00    1.1
2173 285187.000  -1227801.6035  -4655145.8519   4172375.9930   2   7   0.4474   1.0862   0.7178   0.3179  -0.6575  -0.2889   0.00    1.1
2173 285188.000  -1227801.9958  -4655146.0985   4172376.4147   2   7   0.4474   1.0862   0.7178   0.3178  -0.6575  -0.2888   0.00    1.1
2173 285189.000  -1227801.9115  -4655145.3720   4172375.7679   2   7   0.4474   1.0862   0.7178   0.3177  -0.6575  -0.2887   0.00    1.0
2173 285190.000  -1227801.8543  -4655145.7080   4172375.8940   2   7   0.4474   1.0862   0.7178   0.3177  -0.6574  -0.2886   0.00    1.0
2173 285191.000  -1227801.9207  -4655145.6271   4172376.0012   2   7   0.4473   1.0863   0.7177   0.3176  -0.6574  -0.2885   0.00    1.1
2173 285192.000  -1227801.8188  -4655145.9141   4172376.0187   2   7   0.4473   1.0863   0.7177   0.3175  -0.6574  -0.2884   0.00    1.1
2173 285193.000  -1227801.7833  -4655145.6434   4172375.8882   2   7   0.4473   1.0863   0.7177   0.3175  -0.6573  -0.2883   0.00    1.0
2173 285194.000  -1227801.9832  -4655146.1585   4172376.0051   2   7   0.4473   1.0863   0.7177   0.3174  -0.6573  -0.2883   0.00    1.0
2173 285195.000  -1227801.7322  -4655146.1431   4172376.0508   2   7   0.4473   1.0864   0.7177   0.3173  -0.6572  -0.2882   0.00    1.1
2173 285196.000  -1227801.8616  -4655146.0933   4172376.0978   2   7   0.4473   1.0864   0.7177   0.3173  -0.6572  -0.2881   0.00    1.2
2173 285197.000  -1227802.1530  -4655145.9298   4172375.8649   2   7   0.4472   1.0864   0.7177   0.3172  -0.6572  -0.2880   0.00    1.1
2173 285198.000  -1227801.9629  -4655145.9976   4172376.0863   2   7   0.4472   1.0864   0.7177   0.3171  -0.6571  -0.2879   0.00    1.0
2173 285199.000  -1227801.9334  -4655145.6313   4172375.9423   2   7   0.4472   1.0865   0.7177   0.3171  -0.6571  -0.2878   0.00    1.2
2173 285200.000  -1227802.1603  -4655145.7607   4172375.9992   2   7   0.4472   1.0865   0.7177   0.3170  -0.6571  -0.2877   0.00    1.1
2173 285201.000  -1227801.9401  -4655145.8914   4172375.6700   2   7   0.4472   1.0865   0.7177   0.3169  -0.6570  -0.2877   0.00    1.1
2173 285202.000  -1227801.8879  -4655145.7378   4172375.6905   2   7   0.4472   1.0865   0.7176   0.3169  -0.6570  -0.2876   0.00    1.1
2173 285203.000  -1227802.0514  -4655145.5740   4172375.4680   2   7   0.4471   1.0865   0.7176   0.3168  -0.6569  -0.2875   0.00    1.1
2173 285204.000  -1227801.9654  -4655145.6775   4172375.6596   2   7   0.4471   1.0866   0.7176   0.3167  -0.6569  -0.2874   0.00    1.2
2173 285205.000  -1227802.0208  -4655145.4606   4172375.6220   2   7   0.4471   1.0866   0.7176   0.3167  -0.6569  -0.2873   0.00    1.2
2173 285206.000  -1227802.0081  -4655145.8262   4172375.4388   2   7   0.4471   1.0866   0.7176   0.3166  -0.6568  -0.2872   0.00    1.2
2173 285207.000  -1227801.9290  -4655145.7396   4172375.5557   2   7   0.4471   1.0866   0.7176   0.3165  -0.6568  -0.2871   0.00    1.2
2173 285208.000  -1227801.9461  -4655146.4973   4172375.9832   2   7   0.4471   1.0867   0.7176   0.3165  -0.6568  -0.2871   0.00    1.1
2173 285209.000  -1227802.0373  -4655146.1875   4172375.8627   2   7   0.4470   1.0867   0.7176   0.3164  -0.6567  -0.2870   0.00    1.0
2173 285210.000  -1227802.0305  -4655145.8419   4172375.8267   2   7   0.4470   1.0867   0.7176   0.3163  -0.6567  -0.2869   0.00    1.2
2173 285211.000  -1227801.9960  -4655145.9289   4172375.9652   2   7   0.4470   1.0867   0.7176   0.3163  -0.6566  -0.2868   0.00    1.0
2173 285212.000  -1227802.0466  -4655145.9731   4172376.3193   2   7   0.4470   1.0868   0.7176   0.3162  -0.6566  -0.2867   0.00    1.3
2173 285213.000  -1227801.9179  -4655145.8998   4172376.0560   2   7   0.4470   1.0868   0.7176   0.3161  -0.6566  -0.2866   0.00    1.0
2173 285214.000  -1227801.9472  -4655145.8954   4172375.8858   2   7   0.4470   1.0868   0.7176   0.3161  -0.6565  -0.2865   0.00    1.2
2173 285215.000  -1227801.8912  -4655145.7842   4172375.6478   2   7   0.4469   1.0868   0.7175   0.3160  -0.6565  -0.2865   0.00    1.2
2173 285216.000  -1227802.0365  -4655145.6752   4172375.9714   2   7   0.4469   1.0868   0.7175   0.3159  -0.6565  -0.2864   0.00    1.3
2173 285217.000  -1227802.0364  -4655145.9886   4172376.2001   2   7   0.4469   1.0869   0.7175   0.3159  -0.6564  -0.2863   0.00    1.2
2173 285218.000  -1227802.1496  -4655145.9137   4172376.1518   2   7   0.4469   1.0869   0.7175   0.3158  -0.6564  -0.2862   0.00    1.4
2173 285219.000  -1227802.0908  -4655146.1614   4172376.0029   2   7   0.4469   1.0869   0.7175   0.3157  -0.6563  -0.2861   0.00    1.3
2173 285220.000  -1227802.0435  -4655145.6126   4172375.5016   2   7   0.4469   1.0869   0.7175   0.3157  -0.6563  -0.2860   0.00    1.2
2173 285221.000  -1227802.1730  -4655145.5275   4172375.7565   2   7   0.4468   1.0870   0.7175   0.3156  -0.6563  -0.2859   0.00    1.1
2173 285222.000  -1227802.1788  -4655145.5622   4172375.9609   2   7   0.4468   1.0870   0.7175   0.3155  -0.6562  -0.2859   0.00    1.4
2173 285223.000  -1227802.1633  -4655145.0228   4172375.4239   2   7   0.4468   1.0870   0.7175   0.3155  -0.6562  -0.2858   0.00    1.1
2173 285224.000  -1227802.2786  -4655145.5581   4172375.6961   2   7   0.4468   1.0870   0.7175   0.3154  -0.6562  -0.2857   0.00    1.1
2173 285225.000  -1227802.4711  -4655145.3651   4172375.5198   2   7   0.4468   1.0870   0.7175   0.3153  -0.6561  -0.2856   0.00    1.2
2173 285226.000  -1227802.1292  -4655145.8385   4172375.8974   2   7   0.4468   1.0871   0.7175   0.3153  -0.6561  -0.2855   0.00    1.4
2173 285227.000  -1227802.3923  -4655145.4783   4172375.7776   2   7   0.4467   1.0871   0.7175   0.3152  -0.6561  -0.2854   0.00    1.1
2173 285228.000  -1227802.3252  -4655145.8458   4172376.1189   2   7   0.4467   1.0871   0.7175   0.3151  -0.6560  -0.2853   0.00    1.6
2173 285229.000  -1227802.3106  -4655145.4587   4172376.0603   2   7   0.4467   1.0871   0.7175   0.3151  -0.6560  -0.2853   0.00    1.1
2173 285230.000  -1227802.4830  -4655145.5740   4172375.9884   2   7   0.4467   1.0872   0.7174   0.3150  -0.6559  -0.2852   0.00    1.4
2173 285231.000  -1227802.4487  -4655145.5669   4172375.7758   2   7   0.4467   1.0872   0.7174   0.3149  -0.6559  -0.2851   0.00    1.3
2173 285232.000  -1227802.4656  -4655145.9480   4172376.2350   2   7   0.4467   1.0872   0.7174   0.3149  -0.6559  -0.2850   0.00    1.2
2173 285233.000  -1227802.5002  -4655145.8638   4172376.0340   2   7   0.4466   1.0872   0.7174   0.3148  -0.6558  -0.2849   0.00    1.4
2173 285234.000  -1227802.5886  -4655146.2942   4172376.0364   2   7   0.4466   1.0872   0.7174   0.3147  -0.6558  -0.2848   0.00    1.3
2173 285235.000  -1227802.3398  -4655145.9262   4172376.2802   2   7   0.4466   1.0873   0.7174   0.3147  -0.6558  -0.2847   0.00    1.7
2173 285236.000  -1227802.4268  -4655145.8338   4172375.9315   2   7   0.4466   1.0873   0.7174   0.3146  -0.6557  -0.2847   0.00    1.7
2173 285237.000  -1227802.3038  -4655145.8129   4172376.1361   2   7   0.4466   1.0873   0.7174   0.3145  -0.6557  -0.2846   0.00    1.7
2173 285238.000  -1227802.3811  -4655146.3180   4172376.3482   2   7   0.4466   1.0873   0.7174   0.3145  -0.6556  -0.2845   0.00    1.5
2173 285239.000  -1227802.3959  -4655145.6918   4172376.3159   2   7   0.4465   1.0874   0.7174   0.3144  -0.6556  -0.2844   0.00    1.8
2173 285240.000  -1227802.3769  -4655146.3055   4172376.4590   2   7   0.4465   1.0874   0.7174   0.3143  -0.6556  -0.2843   0.00    1.6
2173 285241.000  -1227802.5731  -4655146.3989   4172376.4224   2   7   0.4465   1.0874   0.7174   0.3143  -0.6555  -0.2842   0.00    1.5
2173 285242.000  -1227802.5366  -4655145.8224   4172376.2861   2   7   0.4465   1.0874   0.7174   0.3142  -0.6555  -0.2841   0.00    1.5
2173 285243.000  -1227802.6107  -4655146.3557   4172376.6136   2   7   0.4465   1.0874   0.7174   0.3141  -0.6555  -0.2841   0.00    1.5
2173 285244.000  -1227802.4576  -4655146.2817   4172376.5702   2   7   0.4465   1.0875   0.7174   0.3141  -0.6554  -0.2840   0.00    1.7
2173 285245.000  -1227802.3986  -4655146.6514   4172376.6276   2   7   0.4464   1.0875   0.7174   0.3140  -0.6554  -0.2839   0.00    1.7
2173 285246.000  -1227802.5066  -4655146.2469   4172376.5041   2   7   0.4464   1.0875   0.7174   0.3139  -0.6554  -0.2838   0.00    1.6
2173 285247.000  -1227802.3949  -4655146.1996   4172376.5178   2   7   0.4464   1.0875   0.7174   0.3139  -0.6553  -0.2837   0.00    1.6
2173 285248.000  -1227802.5417  -4655146.4023   4172376.4699   2   7   0.4464   1.0876   0.7173   0.3138  -0.6553  -0.2836   0.00    1.5
2173 285249.000  -1227802.3934  -4655146.2168   4172376.3785   2   7   0.4464   1.0876   0.7173   0.3137  -0.6552  -0.2835   0.00    1.5
2173 285250.000  -1227802.4813  -4655146.5284   4172376.6428   2   7   0.4464   1.0876   0.7173   0.3137  -0.6552  -0.2835   0.00    1.4
2173 285251.000  -1227802.4650  -4655145.7621   4172375.9796   2   7   0.4463   1.0876   0.7173   0.3136  -0.6552  -0.2834   0.00    1.4
2173 285252.000  -1227802.2451  -4655145.8525   4172376.4060   2   7   0.4463   1.0876   0.7173   0.3136  -0.6551  -0.2833   0.00    1.7
2173 285253.000  -1227802.4315  -4655146.5766   4172376.4473   2   7   0.4463   1.0877   0.7173   0.3135  -0.6551  -0.2832   0.00    1.4
2173 285254.000  -1227802.5801  -4655146.1184   4172376.4699   2   7   0.4463   1.0877   0.7173   0.3134  -0.6551  -0.2831   0.00    1.3
2173 285255.000  -1227802.7068  -4655145.6178   4172376.5662   2   7   0.4463   1.0877   0.7173   0.3134  -0.6550  -0.2830   0.00    1.4
2173 285256.000  -1227802.6331  -4655146.1429   4172376.4059   2   7   0.4463   1.0877   0.7173   0.3133  -0.6550  -0.2829   0.00    1.2
2173 285257.000  -1227802.6775  -4655146.4539   4172376.6203   2   7   0.4462   1.0877   0.7173   0.3132  -0.6549  -0.2829   0.00    1.2
2173 285258.000  -1227802.7232  -4655145.7170   4172376.6742   2   8   0.4461   0.8613   0.6943   0.3211  -0.5563  -0.2850   0.00    1.5
2173 285259.000  -1227802.7104  -4655145.5069   4172376.2461   2   8   0.4460   0.8613   0.6943   0.3211  -0.5563  -0.2849   0.00    1.6
2173 285260.000  -1227802.8757  -4655145.5020   4172376.4120   2   8   0.4460   0.8612   0.6943   0.3210  -0.5562  -0.2848   0.00    1.5
2173 285261.000  -1227802.8536  -4655145.8462   4172376.6899   2   8   0.4460   0.8611   0.6943   0.3210  -0.5562  -0.2847   0.00    1.2
2173 285262.000  -1227802.7680  -4655145.6709   4172376.3970   2   8   0.4460   0.8611   0.6943   0.3210  -0.5561  -0.2847   0.00    1.3
2173 285263.000  -1227802.8325  -4655145.2159   4172376.3085   2   8   0.4460   0.8610   0.6943   0.3209  -0.5560  -0.2846   0.00    1.5
2173 285264.000  -1227802.7554  -4655145.5879   4172376.1772   2   8   0.4460   0.8610   0.6943   0.3209  -0.5560  -0.2845   0.00    1.3
2173 285265.000  -1227802.8050  -4655145.6879   4172376.3044   2   8   0.4459   0.8609   0.6943   0.3209  -0.5559  -0.2844   0.00    1.2
2173 285266.000  -1227802.7790  -4655145.9834   4172376.6229   2   8   0.4459   0.8609   0.6943   0.3208  -0.5559  -0.2844   0.00    1.2
2173 285267.000  -1227802.6063  -4655145.8934   4172376.3601   2   8   0.4459   0.8608   0.6943   0.3208  -0.5558  -0.2843   0.00    1.5
2173 285268.000  -1227802.5998  -4655145.7564   4172376.4437   2   8   0.4459   0.8607   0.6943   0.3208  -0.5558  -0.2842   0.00    1.3
2173 285269.000  -1227802.6768  -4655145.8166   4172376.6569   2   8   0.4459   0.8607   0.6943   0.3208  -0.5557  -0.2841   0.00    1.4
2173 285270.000  -1227802.6914  -4655146.1811   4172376.4247   2   8   0.4459   0.8606   0.6943   0.3207  -0.5557  -0.2840   0.00    1.3
2173 285271.000  -1227802.5298  -4655146.1486   4172376.3467   2   8   0.4458   0.8606   0.6943   0.3207  -0.5556  -0.2840   0.00    1.3
2173 285272.000  -1227802.6670  -4655145.7751   4172376.4425   2   8   0.4458   0.8605   0.6943   0.3207  -0.5556  -0.2839   0.00    1.2
2173 285273.000  -1227802.5500  -4655145.8391   4172376.2683   2   8   0.4458   0.8604   0.6943   0.3206  -0.5555  -0.2838   0.00    1.3
2173 285274.000  -1227802.4245  -4655145.5127   4172376.4418   2   8   0.4458   0.8604   0.6943   0.3206  -0.5555  -0.2837   0.00    1.6
2173 285275.000  -1227802.3990  -4655145.8090   4172376.3712   2   8   0.4458   0.8603   0.6943   0.3206  -0.5554  -0.2837   0.00    1.4
2173 285276.000  -1227802.5046  -4655145.8201   4172376.4415   2   8   0.4458   0.8603   0.6943   0.3205  -0.5554  -0.2836   0.00    1.4
2173 285277.000  -1227802.6132  -4655145.7729   4172376.3794   2   8   0.4457   0.8602   0.6943   0.3205  -0.5553  -0.2835   0.00    1.2
2173 285278.000  -1227802.6379  -4655145.4163   4172376.1168   2   8   0.4457   0.8602   0.6943   0.3205  -0.5553  -0.2834   0.00    1.3
2173 285279.000  -1227802.3891  -4655145.2258   4172376.1382   2   8   0.4457   0.8601   0.6943   0.3205  -0.5552  -0.2834   0.00    1.6
2173 285280.000  -1227802.2373  -4655145.3095   4172376.2320   2   8   0.4457   0.8600   0.6943   0.3204  -0.5551  -0.2833   0.00    1.6
2173 285281.000  -1227802.2806  -4655145.5913   4172376.1692   2   8   0.4457   0.8600   0.6943   0.3204  -0.5551  -0.2832   0.00    1.5
2173 285282.000  -1227802.4032  -4655145.5102   4172375.9602   2   8   0.4457   0.8599   0.6943   0.3204  -0.5550  -0.2831   0.00    1.4
2173 285283.000  -1227802.4579  -4655145.3903   4172376.1703   2   8   0.4456   0.8599   0.6943   0.3203  -0.5550  -0.2831   0.00    1.3
2173 285284.000  -1227802.4384  -4655145.3246   4172376.2091   2   8   0.4456   0.8598   0.6943   0.3203  -0.5549  -0.2830   0.00    1.5
2173 285285.000  -1227802.6004  -4655145.5728   4172376.5307   2   8   0.4456   0.8598   0.6943   0.3203  -0.5549  -0.2829   0.00    1.5
2173 285286.000  -1227802.2355  -4655145.1283   4172376.2608   2   8   0.4456   0.8597   0.6943   0.3202  -0.5548  -0.2828   0.00    1.6
2173 285287.000  -1227802.2678  -4655145.3180   4172376.1012   2   8   0.4456   0.8596   0.6943   0.3202  -0.5548  -0.2828   0.00    1.6
2173 285288.000  -1227802.2708  -4655145.4205   4172376.3617   2   8   0.4456   0.8596   0.6943   0.3202  -0.5547  -0.2827   0.00    1.5
2173 285289.000  -1227801.9871  -4655145.8272   4172376.3445   2   8   0.4455   0.8595   0.6943   0.3202  -0.5547  -0.2826   0.00    1.8
2173 285290.000  -1227802.2873  -4655145.7532   4172376.3138   2   8   0.4455   0.8595   0.6943   0.3201  -0.5546  -0.2825   0.00    1.4
2173 285291.000  -1227802.1285  -4655145.8165   4172376.3368   2   8   0.4455   0.8594   0.6943   0.3201  -0.5546  -0.2825   0.00    1.4
2173 285292.000  -1227802.1455  -4655145.7410   4172376.6639   2   8   0.4455   0.8593   0.6943   0.3201  -0.5545  -0.2824   0.00    1.4
2173 285293.000  -1227802.0057  -4655145.8072   4172376.4362   2   8   0.4455   0.8593   0.6943   0.3200  -0.5545  -0.2823   0.00    1.5
2173 285294.000  -1227802.0991  -4655145.7862   4172376.4647   2   8   0.4455   0.8592   0.6943   0.3200  -0.5544  -0.2822   0.00    1.6
2173 285295.000  -1227802.1657  -4655145.8705   4172376.4790   2   8   0.4455   0.8592   0.6943   0.3200  -0.5544  -0.2822   0.00    1.4
2173 285296.000  -1227802.0746  -4655145.8083   4172376.2622   2   8   0.4454   0.8591   0.6943   0.3200  -0.5543  -0.2821   0.00    1.5
2173 285297.000  -1227802.0355  -4655145.2670   4172375.9046   2   8   0.4454   0.8591   0.6943   0.3199  -0.5543  -0.2820   0.00    1.4
2173 285298.000  -1227802.0485  -4655145.3685   4172376.0621   2   8   0.4454   0.8590   0.6943   0.3199  -0.5542  -0.2819   0.00    1.5
2173 285299.000  -1227802.2420  -4655145.8955   4172376.5154   2   8   0.4454   0.8589   0.6943   0.3199  -0.5541  -0.2818   0.00    1.4
2173 285300.000  -1227802.2349  -4655145.5887   4172376.0863   2   8   0.4454   0.8589   0.6943   0.3198  -0.5541  -0.2818   0.00    1.4
2173 285301.000  -1227802.2443  -4655145.5734   4172376.2575   2   8   0.4454   0.8588   0.6943   0.3198  -0.5540  -0.2817   0.00    1.5
2173 285302.000  -1227802.2242  -4655145.5218   4172376.3312   2   8   0.4453   0.8588   0.6943   0.3198  -0.5540  -0.2816   0.00    1.6
2173 285303.000  -1227802.3204  -4655145.4604   4172376.1504   2   8   0.4453   0.8587   0.6943   0.3198  -0.5539  -0.2815   0.00    1.5
2173 285304.000  -1227802.2059  -4655145.3204   4172376.2463   2   8   0.4453   0.8587   0.6943   0.3197  -0.5539  -0.2815   0.00    1.5
2173 285305.000  -1227802.2738  -4655145.6462   4172376.3517   2   8   0.4453   0.8586   0.6943   0.3197  -0.5538  -0.2814   0.00    1.4
2173 285306.000  -1227802.3390  -4655145.6087   4172376.4566   2   8   0.4453   0.8585   0.6943   0.3197  -0.5538  -0.2813   0.00    1.3
2173 285307.000  -1227802.3712  -4655145.2167   4172376.4293   2   8   0.4453   0.8585   0.6943   0.3196  -0.5537  -0.2812   0.00    1.6
2173 285308.000  -1227802.2923  -4655145.6374   4172376.6549   2   8   0.4452   0.8584   0.6943   0.3196  -0.5537  -0.2812   0.00    1.4
2173 285309.000  -1227802.2432  -4655145.7538   4172376.2964   2   8   0.4452   0.8584   0.6943   0.3196  -0.5536  -0.2811   0.00    1.6
2173 285310.000  -1227802.2144  -4655145.5677   4172376.3486   2   8   0.4452   0.8583   0.6943   0.3196  -0.5536  -0.2810   0.00    1.5
2173 285311.000  -1227802.2827  -4655145.3844   4172376.2904   2   8   0.4452   0.8583   0.6943   0.3195  -0.5535  -0.2809   0.00    1.6
2173 285312.000  -1227802.2263  -4655145.6148   4172376.3369   2   8   0.4452   0.8582   0.6943   0.3195  -0.5535  -0.2809   0.00    1.7
2173 285313.000  -1227802.1720  -4655145.0238   4172376.0683   2   8   0.4452   0.8581   0.6943   0.3195  -0.5534  -0.2808   0.00    1.6
2173 285314.000  -1227802.1535  -4655145.7201   4172376.4699   2   8   0.4451   0.8581   0.6943   0.3194  -0.5534  -0.2807   0.00    1.6
2173 285315.000  -1227802.2819  -4655145.6736   4172376.1493   2   8   0.4451   0.8580   0.6943   0.3194  -0.5533  -0.2806   0.00    1.3
2173 285316.000  -1227802.3614  -4655145.5707   4172376.0393   2   8   0.4451   0.8580   0.6944   0.3194  -0.5533  -0.2806   0.00    1.4
2173 285317.000  -1227802.3222  -4655145.5180   4172376.0445   2   8   0.4451   0.8579   0.6944   0.3194  -0.5532  -0.2805   0.00    1.6
2173 285318.000  -1227802.3911  -4655145.5175   4172376.0398   2   8   0.4451   0.8579   0.6944   0.3193  -0.5532  -0.2804   0.00    1.5
2173 285319.000  -1227802.5161  -4655145.3673   4172375.9643   2   8   0.4451   0.8578   0.6944   0.3193  -0.5531  -0.2803   0.00    1.1
2173 285320.000  -1227802.1171  -4655145.3079   4172376.0651   2   8   0.4451   0.8577   0.6944   0.3193  -0.5531  -0.2802   0.00    2.0
2173 285321.000  -1227802.3228  -4655145.4729   4172376.0527   2   8   0.4450   0.8577   0.6944   0.3193  -0.5530  -0.2802   0.00    1.6
2173 285322.000  -1227802.1962  -4655145.4231   4172376.1637   2   8   0.4450   0.8576   0.6944   0.3192  -0.5530  -0.2801   0.00    1.4
2173 285323.000  -1227802.4145  -4655145.3084   4172375.7856   2   8   0.4450   0.8576   0.6944   0.3192  -0.5529  -0.2800   0.00    1.4
2173 285324.000  -1227802.2747  -4655144.8405   4172375.7219   2   8   0.4450   0.8575   0.6944   0.3192  -0.5529  -0.2799   0.00    1.5
2173 285325.000  -1227802.4880  -4655145.3086   4172375.9781   2   8   0.4450   0.8575   0.6944   0.3191  -0.5528  -0.2799   0.00    1.5
2173 285326.000  -1227802.3226  -4655145.3842   4172375.9720   2   8   0.4450   0.8574   0.6944   0.3191  -0.5528  -0.2798   0.00    1.4
2173 285327.000  -1227802.2931  -4655145.4074   4172376.1225   2   8   0.4449   0.8573   0.6944   0.3191  -0.5527  -0.2797   0.00    1.4
2173 285328.000  -1227802.3259  -4655145.5388   4172376.1362   2   8   0.4449   0.8573   0.6944   0.3191  -0.5527  -0.2796   0.00    1.5
2173 285329.000  -1227802.5629  -4655145.8378   4172376.2521   2   8   0.4449   0.8572   0.6944   0.3190  -0.5526  -0.2796   0.00    1.3
2173 285330.000  -1227802.5952  -4655145.8447   4172376.0352   2   8   0.4449   0.8572   0.6944   0.3190  -0.5526  -0.2795   0.00    1.1
2173 285331.000  -1227802.4911  -4655145.8903   4172375.9671   2   8   0.4449   0.8571   0.6944   0.3190  -0.5525  -0.2794   0.00    1.2
2173 285332.000  -1227802.4456  -4655145.4869   4172375.6229   2   8   0.4449   0.8571   0.6944   0.3189  -0.5525  -0.2793   0.00    1.2
2173 285333.000  -1227802.3486  -4655145.4583   4172375.6753   2   8   0.4448   0.8570   0.6944   0.3189  -0.5524  -0.2793   0.00    1.5
2173 285334.000  -1227802.4059  -4655145.2044   4172375.7313   2   8   0.4448   0.8569   0.6944   0.3189  -0.5524  -0.2792   0.00    1.3
2173 285335.000  -1227802.3693  -4655145.4828   4172375.6670   2   8   0.4448   0.8569   0.6944   0.3189  -0.5523  -0.2791   0.00    1.3
2173 285336.000  -1227802.3935  -4655145.2562   4172375.6445   2   8   0.4448   0.8568   0.6944   0.3188  -0.5523  -0.2790   0.00    1.2
2173 285337.000  -1227802.4573  -4655145.1576   4172375.7837   2   8   0.4448   0.8568   0.6944   0.3188  -0.5522  -0.2790   0.00    1.5
2173 285338.000  -1227802.2849  -4655145.4646   4172376.0537   2   8   0.4448   0.8567   0.6944   0.3188  -0.5522  -0.2789   0.00    1.5
2173 285339.000  -1227802.1937  -4655144.9611   4172375.6440   2   8   0.4448   0.8567   0.6944   0.3188  -0.5521  -0.2788   0.00    1.6
2173 285340.000  -1227802.5835  -4655145.3237   4172375.9265   2   8   0.4447   0.8566   0.6944   0.3187  -0.5521  -0.2787   0.00    1.6
2173 285341.000  -1227802.4627  -4655145.0201   4172375.6543   2   8   0.4447   0.8566   0.6945   0.3187  -0.5520  -0.2786   0.00    1.3
2173 285342.000  -1227802.4660  -4655145.1566   4172375.5403   2   8   0.4447   0.8565   0.6945   0.3187  -0.5520  -0.2786   0.00    1.3
2173 285343.000  -1227802.3997  -4655145.0345   4172375.6274   2   8   0.4447   0.8564   0.6945   0.3186  -0.5519  -0.2785   0.00    1.4
2173 285344.000  -1227802.3360  -4655144.9971   4172375.5781   2   8   0.4447   0.8564   0.6945   0.3186  -0.5519  -0.2784   0.00    1.4
2173 285345.000  -1227802.2139  -4655145.2701   4172375.5735   2   8   0.4447   0.8563   0.6945   0.3186  -0.5518  -0.2783   0.00    1.5
2173 285346.000  -1227802.4568  -4655145.3743   4172375.6001   2   8   0.4446   0.8563   0.6945   0.3186  -0.5518  -0.2783   0.00    1.3
2173 285347.000  -1227802.1451  -4655145.5645   4172375.7565   2   8   0.4446   0.8562   0.6945   0.3185  -0.5517  -0.2782   0.00    1.4
2173 285348.000  -1227802.2134  -4655145.2109   4172375.7508   2   8   0.4446   0.8562   0.6945   0.3185  -0.5517  -0.2781   0.00    1.6
2173 285349.000  -1227801.9976  -4655144.6285   4172375.2666   2   8   0.4446   0.8561   0.6945   0.3185  -0.5516  -0.2780   0.00    1.4
2173 285350.000  -1227802.2514  -4655145.1847   4172376.0667   2   8   0.4446   0.8560   0.6945   0.3185  -0.5516  -0.2780   0.00    1.4
2173 285351.000  -1227802.3180  -4655145.5944   4172376.1250   2   8   0.4446   0.8560   0.6945   0.3184  -0.5515  -0.2779   0.00    1.4
2173 285352.000  -1227802.4996  -4655145.8049   4172376.0236   2   8   0.4446   0.8559   0.6945   0.3184  -0.5515  -0.2778   0.00    1.3
2173 285353.000  -1227802.4934  -4655145.3896   4172376.0667   2   8   0.4445   0.8559   0.6945   0.3184  -0.5514  -0.2777   0.00    1.5
2173 285354.000  -1227802.3512  -4655145.0743   4172375.8015   2   8   0.4445   0.8558   0.6945   0.3184  -0.5514  -0.2777   0.00    1.2
2173 285355.000  -1227802.3280  -4655145.4496   4172376.1583   2   8   0.4445   0.8558   0.6945   0.3183  -0.5513  -0.2776   0.00    1.6
2173 285356.000  -1227802.4965  -4655145.7222   4172376.3927   2   8   0.4445   0.8557   0.6945   0.3183  -0.5513  -0.2775   0.00    1.5
2173 285357.000  -1227802.3874  -4655145.2142   4172376.0184   2   8   0.4445   0.8557   0.6945   0.3183  -0.5512  -0.2774   0.00    1.4
2173 285358.000  -1227802.4655  -4655145.3447   4172376.1699   2   8   0.4445   0.8556   0.6945   0.3182  -0.5512  -0.2773   0.00    1.5
2173 285359.000  -1227802.4061  -4655145.1265   4172376.0657   2   8   0.4444   0.8555   0.6946   0.3182  -0.5511  -0.2773   0.00    1.4
2173 285360.000  -1227802.3964  -4655145.1358   4172375.8637   2   8   0.4444   0.8555   0.6946   0.3182  -0.5511  -0.2772   0.00    1.5
2173 285361.000  -1227802.5971  -4655145.3482   4172376.1633   2   8   0.4444   0.8554   0.6946   0.3182  -0.5510  -0.2771   0.00    1.5
2173 285362.000  -1227802.6074  -4655145.0896   4172375.8519   2   8   0.4444   0.8554   0.6946   0.3181  -0.5510  -0.2770   0.00    1.4
2173 285363.000  -1227802.5104  -4655145.2857   4172376.1399   2   8   0.4444   0.8553   0.6946   0.3181  -0.5509  -0.2770   0.00    1.6
2173 285364.000  -1227802.6833  -4655145.4123   4172376.4708   2   8   0.4444   0.8553   0.6946   0.3181  -0.5509  -0.2769   0.00    1.4
2173 285365.000  -1227802.6999  -4655145.4421   4172376.1925   2   8   0.4444   0.8552   0.6946   0.3181  -0.5508  -0.2768   0.00    1.4
2173 285366.000  -1227802.7275  -4655145.4175   4172376.3207   2   8   0.4443   0.8552   0.6946   0.3180  -0.5508  -0.2767   0.00    1.4
2173 285367.000  -1227802.6035  -4655145.1544   4172376.2322   2   8   0.4443   0.8551   0.6946   0.3180  -0.5507  -0.2767   0.00    1.4
2173 285368.000  -1227802.4765  -4655145.0394   4172376.1790   2   8   0.4443   0.8550   0.6946   0.3180  -0.5507  -0.2766   0.00    1.4
2173 285369.000  -1227802.4009  -4655145.1930   4172376.1998   2   8   0.4443   0.8550   0.6946   0.3180  -0.5506  -0.2765   0.00    1.5
2173 285370.000  -1227802.5221  -4655145.2044   4172375.9617   2   8   0.4443   0.8549   0.6946   0.3179  -0.5506  -0.2764   0.00    1.6
2173 285371.000  -1227802.6128  -4655145.2276   4172376.0807   2   8   0.4443   0.8549   0.6946   0.3179  -0.5505  -0.2764   0.00    1.5
2173 285372.000  -1227802.4591  -4655145.3802   4172376.0479   2   8   0.4442   0.8548   0.6946   0.3179  -0.5505  -0.2763   0.00    1.5
2173 285373.000  -1227802.3078  -4655145.2089   4172376.0283   2   8   0.4442   0.8548   0.6946   0.3179  -0.5504  -0.2762   0.00    1.6
2173 285374.000  -1227802.4985  -4655145.3882   4172376.0952   2   8   0.4442   0.8547   0.6947   0.3178  -0.5504  -0.2761   0.00    1.4
2173 285375.000  -1227802.4815  -4655145.6669   4172376.4552   2   8   0.4442   0.8547   0.6947   0.3178  -0.5503  -0.2760   0.00    1.5
2173 285376.000  -1227802.4282  -4655145.6834   4172376.2570   2   8   0.4442   0.8546   0.6947   0.3178  -0.5503  -0.2760   0.00    1.6
2173 285377.000  -1227802.2961  -4655145.6379   4172376.2956   2   8   0.4442   0.8545   0.6947   0.3178  -0.5502  -0.2759   0.00    1.4
2173 285378.000  -1227802.3707  -4655145.7462   4172376.3543   2   8   0.4442   0.8545   0.6947   0.3177  -0.5502  -0.2758   0.00    1.6
2173 285379.000  -1227802.1695  -4655146.0189   4172376.5437   2   8   0.4441   0.8544   0.6947   0.3177  -0.5501  -0.2757   0.00    1.4
2173 285380.000  -1227802.1783  -4655145.7270   4172376.5085   2   8   0.4441   0.8544   0.6947   0.3177  -0.5501  -0.2757   0.00    1.5
2173 285381.000  -1227802.2844  -4655145.1786   4172375.9760   2   8   0.4441   0.8543   0.6947   0.3176  -0.5500  -0.2756   0.00    1.6
2173 285382.000  -1227802.3019  -4655145.1476   4172376.0802   2   8   0.4441   0.8543   0.6947   0.3176  -0.5500  -0.2755   0.00    1.1
2173 285383.000  -1227802.2161  -4655145.2173   4172375.9963   2   8   0.4441   0.8542   0.6947   0.3176  -0.5499  -0.2754   0.00    1.2
2173 285384.000  -1227802.1882  -4655144.7896   4172375.8299   2   8   0.4441   0.8542   0.6947   0.3176  -0.5499  -0.2754   0.00    1.1
2173 285385.000  -1227802.1534  -4655145.2923   4172375.8225   2   8   0.4441   0.8541   0.6947   0.3175  -0.5498  -0.2753   0.00    1.3
2173 285386.000  -1227802.1800  -4655145.0147   4172375.9625   2   8   0.4440   0.8540   0.6948   0.3175  -0.5498  -0.2752   0.00    1.1
2173 285387.000  -1227802.4961  -4655144.7932   4172375.9041   2   8   0.4440   0.8540   0.6948   0.3175  -0.5497  -0.2751   0.00    1.2
2173 285388.000  -1227802.3535  -4655145.0572   4172376.0556   2   8   0.4440   0.8539   0.6948   0.3175  -0.5497  -0.2750   0.00    1.1
2173 285389.000  -1227802.2207  -4655144.8032   4172375.8999   2   8   0.4440   0.8539   0.6948   0.3174  -0.5496  -0.2750   0.00    1.0
2173 285390.000  -1227802.4237  -4655144.9545   4172375.8829   2   8   0.4440   0.8538   0.6948   0.3174  -0.5496  -0.2749   0.00    1.2
2173 285391.000  -1227802.5967  -4655144.7596   4172375.8925   2   8   0.4440   0.8538   0.6948   0.3174  -0.5495  -0.2748   0.00    1.1
2173 285392.000  -1227802.6687  -4655145.3141   4172376.4713   2   8   0.4440   0.8537   0.6948   0.3174  -0.5495  -0.2747   0.00    1.2
2173 285393.000  -1227802.3399  -4655144.9018   4172376.4592   2   8   0.4439   0.8537   0.6948   0.3173  -0.5494  -0.2747   0.00    1.0
2173 285394.000  -1227802.5130  -4655144.9716   4172376.3434   2   8   0.4439   0.8536   0.6948   0.3173  -0.5494  -0.2746   0.00    1.1
2173 285395.000  -1227802.4780  -4655145.0356   4172376.6496   2   8   0.4439   0.8535   0.6948   0.3173  -0.5494  -0.2745   0.00    1.1
2173 285396.000  -1227802.5753  -4655144.8555   4172376.5774   2   8   0.4439   0.8535   0.6948   0.3173  -0.5493  -0.2744   0.00    1.1
2173 285397.000  -1227802.2832  -4655144.4052   4172376.1563   2   8   0.4439   0.8534   0.6948   0.3172  -0.5493  -0.2744   0.00    1.2
2173 285398.000  -1227802.3457  -4655144.9668   4172376.3517   2   8   0.4439   0.8534   0.6949   0.3172  -0.5492  -0.2743   0.00    1.1
2173 285399.000  -1227802.4489  -4655144.7313   4172376.5316   2   8   0.4438   0.8533   0.6949   0.3172  -0.5492  -0.2742   0.00    1.0
2173 285400.000  -1227802.2691  -4655144.9266   4172376.6518   2   8   0.4438   0.8533   0.6949   0.3172  -0.5491  -0.2741   0.00    1.3
2173 285401.000  -1227802.2602  -4655144.6332   4172376.8067   2   8   0.4438   0.8532   0.6949   0.3171  -0.5491  -0.2740   0.00    1.5
2173 285402.000  -1227802.4873  -4655145.0336   4172377.1498   2   8   0.4438   0.8532   0.6949   0.3171  -0.5490  -0.2740   0.00    1.5
2173 285403.000  -1227802.4921  -4655145.1553   4172377.1463   2   8   0.4438   0.8531   0.6949   0.3171  -0.5490  -0.2739   0.00    1.5
2173 285404.000  -1227802.3088  -4655144.7268   4172376.7980   2   8   0.4438   0.8530   0.6949   0.3171  -0.5489  -0.2738   0.00    1.4
2173 285405.000  -1227802.4567  -4655145.3016   4172377.2161   2   8   0.4438   0.8530   0.6949   0.3170  -0.5489  -0.2737   0.00    1.5
2173 285406.000  -1227802.3399  -4655145.8282   4172377.0473   2   8   0.4437   0.8529   0.6949   0.3170  -0.5488  -0.2737   0.00    1.5
2173 285407.000  -1227802.4714  -4655145.2091   4172376.9396   2   8   0.4437   0.8529   0.6949   0.3170  -0.5488  -0.2736   0.00    1.4
2173 285408.000  -1227802.6310  -4655145.4406   4172376.9712   2   8   0.4437   0.8528   0.6950   0.3170  -0.5487  -0.2735   0.00    1.1
2173 285409.000  -1227802.5402  -4655145.1699   4172377.0335   2   8   0.4437   0.8528   0.6950   0.3169  -0.5487  -0.2734   0.00    1.4
2173 285410.000  -1227802.4135  -4655144.9237   4172377.0443   2   8   0.4437   0.8527   0.6950   0.3169  -0.5486  -0.2734   0.00    1.5
2173 285411.000  -1227802.3586  -4655145.4225   4172377.1051   2   8   0.4437   0.8527   0.6950   0.3169  -0.5486  -0.2733   0.00    1.4
2173 285412.000  -1227802.4459  -4655144.8579   4172376.9441   2   8   0.4437   0.8526   0.6950   0.3169  -0.5485  -0.2732   0.00    1.5
2173 285413.000  -1227802.3744  -4655145.6414   4172376.7867   2   8   0.4436   0.8526   0.6950   0.3168  -0.5485  -0.2731   0.00    1.4
2173 285414.000  -1227802.1461  -4655145.1692   4172376.8044   2   8   0.4436   0.8525   0.6950   0.3168  -0.5484  -0.2730   0.00    1.5
2173 285415.000  -1227802.3437  -4655145.4303   4172377.1622   2   8   0.4436   0.8524   0.6950   0.3168  -0.5484  -0.2730   0.00    1.5
2173 285416.000  -1227802.2717  -4655145.0492   4172376.7850   2   8   0.4436   0.8524   0.6950   0.3168  -0.5484  -0.2729   0.00    1.6
2173 285417.000  -1227802.4705  -4655144.9660   4172376.8417   2   8   0.4436   0.8523   0.6950   0.3168  -0.5483  -0.2728   0.00    1.4
2173 285418.000  -1227802.3498  -4655144.6114   4172376.7166   2   8   0.4436   0.8523   0.6951   0.3167  -0.5483  -0.2727   0.00    1.5
2173 285419.000  -1227802.3966  -4655144.9669   4172376.7617   2   8   0.4436   0.8522   0.6951   0.3167  -0.5482  -0.2727   0.00    1.7
2173 285420.000  -1227802.4702  -4655144.7627   4172377.1113   2   8   0.4435   0.8522   0.6951   0.3167  -0.5482  -0.2726   0.00    1.8
2173 285421.000  -1227802.5980  -4655145.5218   4172377.3712   2   8   0.4435   0.8521   0.6951   0.3167  -0.5481  -0.2725   0.00    1.6
2173 285422.000  -1227802.5895  -4655145.2366   4172377.1844   2   8   0.4435   0.8521   0.6951   0.3166  -0.5481  -0.2724   0.00    1.5
2173 285423.000  -1227802.4032  -4655145.2122   4172377.0463   2   8   0.4435   0.8520   0.6951   0.3166  -0.5480  -0.2724   0.00    1.5
2173 285424.000  -1227802.5396  -4655145.7755   4172377.4114   2   8   0.4435   0.8520   0.6951   0.3166  -0.5480  -0.2723   0.00    1.6
2173 285425.000  -1227802.5466  -4655145.5776   4172377.3774   2   8   0.4435   0.8519   0.6951   0.3166  -0.5479  -0.2722   0.00    1.4
2173 285426.000  -1227802.5758  -4655145.5803   4172377.0477   2   8   0.4435   0.8518   0.6952   0.3165  -0.5479  -0.2721   0.00    1.3
2173 285427.000  -1227802.4956  -4655145.2724   4172376.9659   2   8   0.4434   0.8518   0.6952   0.3165  -0.5478  -0.2720   0.00    1.5
2173 285428.000  -1227802.4775  -4655145.2644   4172377.0897   2   8   0.4434   0.8517   0.6952   0.3165  -0.5478  -0.2720   0.00    1.4
2173 285429.000  -1227802.2760  -4655145.0917   4172376.6867   2   8   0.4434   0.8517   0.6952   0.3165  -0.5477  -0.2719   0.00    1.4
2173 285430.000  -1227802.4583  -4655145.5626   4172376.9756   2   8   0.4434   0.8516   0.6952   0.3164  -0.5477  -0.2718   0.00    1.4
2173 285431.000  -1227802.5156  -4655145.5203   4172377.3407   2   8   0.4434   0.8516   0.6952   0.3164  -0.5477  -0.2717   0.00    1.3
2173 285432.000  -1227802.4382  -4655145.1259   4172377.1392   2   8   0.4434   0.8515   0.6952   0.3164  -0.5476  -0.2717   0.00    1.5
2173 285433.000  -1227802.3809  -4655145.4767   4172377.1681   2   8   0.4434   0.8515   0.6952   0.3164  -0.5476  -0.2716   0.00    1.5
2173 285434.000  -1227802.2681  -4655145.1827   4172377.0063   2   8   0.4433   0.8514   0.6952   0.3163  -0.5475  -0.2715   0.00    1.3
2173 285435.000  -1227802.4484  -4655145.0446   4172377.0566   2   8   0.4433   0.8514   0.6953   0.3163  -0.5475  -0.2714   0.00    1.2
2173 285436.000  -1227802.6218  -4655145.0631   4172377.3495   2   8   0.4433   0.8513   0.6953   0.3163  -0.5474  -0.2713   0.00    1.3
2173 285437.000  -1227802.6826  -4655145.1769   4172377.2930   2   8   0.4433   0.8513   0.6953   0.3163  -0.5474  -0.2713   0.00    1.4
2173 285438.000  -1227802.5584  -4655145.0941   4172377.6790   2   8   0.4433   0.8512   0.6953   0.3162  -0.5473  -0.2712   0.00    1.4
2173 285439.000  -1227802.6655  -4655145.0975   4172377.5611   2   8   0.4433   0.8511   0.6953   0.3162  -0.5473  -0.2711   0.00    1.2
2173 285440.000  -1227802.6208  -4655145.1082   4172377.4243   2   8   0.4433   0.8511   0.6953   0.3162  -0.5472  -0.2710   0.00    1.2
2173 285441.000  -1227802.7092  -4655144.9792   4172377.5107   2   8   0.4433   0.8510   0.6953   0.3162  -0.5472  -0.2710   0.00    1.1
2173 285442.000  -1227802.6837  -4655145.1399   4172377.7246   2   8   0.4432   0.8510   0.6953   0.3162  -0.5471  -0.2709   0.00    1.4
2173 285443.000  -1227802.6555  -4655144.7715   4172377.7913   2   8   0.4432   0.8509   0.6954   0.3161  -0.5471  -0.2708   0.00    1.2
2173 285444.000  -1227802.7115  -4655144.7541   4172377.5378   2   8   0.4432   0.8509   0.6954   0.3161  -0.5471  -0.2707   0.00    1.1
2173 285445.000  -1227802.4880  -4655144.6293   4172377.1784   2   8   0.4432   0.8508   0.6954   0.3161  -0.5470  -0.2706   0.00    1.1
2173 285446.000  -1227802.4957  -4655145.2259   4172377.5048   2   8   0.4432   0.8508   0.6954   0.3161  -0.5470  -0.2706   0.00    1.2
2173 285447.000  -1227802.4157  -4655145.3705   4172377.7313   2   8   0.4432   0.8507   0.6954   0.3160  -0.5469  -0.2705   0.00    1.3
2173 285448.000  -1227802.4754  -4655145.4012   4172377.4668   2   8   0.4432   0.8507   0.6954   0.3160  -0.5469  -0.2704   0.00    1.2
2173 285449.000  -1227802.3920  -4655145.2227   4172377.6588   2   8   0.4431   0.8506   0.6954   0.3160  -0.5468  -0.2703   0.00    1.3
2173 285450.000  -1227802.3713  -4655145.4790   4172377.6242   2   8   0.4431   0.8506   0.6954   0.3160  -0.5468  -0.2703   0.00    1.1
2173 285451.000  -1227802.4166  -4655145.4586   4172377.6189   2   8   0.4431   0.8505   0.6955   0.3159  -0.5467  -0.2702   0.00    1.2
2173 285452.000  -1227802.3907  -4655145.5843   4172377.4749   2   8   0.4431   0.8504   0.6955   0.3159  -0.5467  -0.2701   0.00    1.1
2173 285453.000  -1227802.2876  -4655145.1945   4172377.5795   2   8   0.4431   0.8504   0.6955   0.3159  -0.5466  -0.2700   0.00    1.3
2173 285454.000  -1227802.5013  -4655145.2164   4172377.5105   2   8   0.4431   0.8503   0.6955   0.3159  -0.5466  -0.2700   0.00    1.1
2173 285455.000  -1227802.3101  -4655145.2519   4172377.5181   2   8   0.4431   0.8503   0.6955   0.3159  -0.5466  -0.2699   0.00    1.2
2173 285456.000  -1227802.3196  -4655145.1928   4172377.3622   2   8   0.4430   0.8502   0.6955   0.3158  -0.5465  -0.2698   0.00    1.0
2173 285457.000  -1227802.5373  -4655145.2124   4172377.5176   2   8   0.4430   0.8502   0.6955   0.3158  -0.5465  -0.2697   0.00    1.1
2173 285458.000  -1227802.4755  -4655145.2931   4172377.4871   2   8   0.4430   0.8501   0.6956   0.3158  -0.5464  -0.2696   0.00    1.1
2173 285459.000  -1227802.3863  -4655145.3657   4172377.3985   2   8   0.4430   0.8501   0.6956   0.3158  -0.5464  -0.2696   0.00    1.0
2173 285460.000  -1227802.5180  -4655145.1001   4172377.3040   2   8   0.4430   0.8500   0.6956   0.3157  -0.5463  -0.2695   0.00    1.1
2173 285461.000  -1227802.2005  -4655144.9010   4172376.9705   2   8   0.4430   0.8500   0.6956   0.3157  -0.5463  -0.2694   0.00    1.1
2173 285462.000  -1227802.3334  -4655145.2681   4172377.1369   2   8   0.4430   0.8499   0.6956   0.3157  -0.5462  -0.2693   0.00    1.0
2173 285463.000  -1227802.2225  -4655145.2834   4172377.0664   2   8   0.4429   0.8499   0.6956   0.3157  -0.5462  -0.2693   0.00    1.1
2173 285464.000  -1227802.2388  -4655145.0157   4172377.0653   2   8   0.4429   0.8498   0.6956   0.3156  -0.5461  -0.2692   0.00    1.0
2173 285465.000  -1227802.5041  -4655145.0745   4172377.1627   2   8   0.4429   0.8497   0.6957   0.3156  -0.5461  -0.2691   0.00    1.1
2173 285466.000  -1227802.2764  -4655144.7968   4172377.1931   2   8   0.4429   0.8497   0.6957   0.3156  -0.5461  -0.2690   0.00    1.0
2173 285467.000  -1227802.3217  -4655145.1633   4172377.3319   2   8   0.4429   0.8496   0.6957   0.3156  -0.5460  -0.2689   0.00    1.0
2173 285468.000  -1227802.2348  -4655144.9540   4172377.1315   2   8   0.4429   0.8496   0.6957   0.3156  -0.5460  -0.2689   0.00    1.0
2173 285469.000  -1227802.1417  -4655145.0510   4172376.9147   2   8   0.4429   0.8495   0.6957   0.3155  -0.5459  -0.2688   0.00    1.1
2173 285470.000  -1227802.2985  -4655145.4005   4172377.1180   2   8   0.4429   0.8495   0.6957   0.3155  -0.5459  -0.2687   0.00    1.1
2173 285471.000  -1227802.2301  -4655144.8910   4172376.9151   2   8   0.4428   0.8494   0.6957   0.3155  -0.5458  -0.2686   0.00    1.2
2173 285472.000  -1227802.1370  -4655144.6826   4172376.9343   2   8   0.4428   0.8494   0.6958   0.3155  -0.5458  -0.2686   0.00    1.0
2173 285473.000  -1227802.1397  -4655144.7783   4172376.7902   2   8   0.4428   0.8493   0.6958   0.3154  -0.5457  -0.2685   0.00    1.2
2173 285474.000  -1227802.1266  -4655144.8480   4172377.0114   2   8   0.4428   0.8493   0.6958   0.3154  -0.5457  -0.2684   0.00    1.1
2173 285475.000  -1227802.2416  -4655144.6855   4172376.9557   2   8   0.4428   0.8492   0.6958   0.3154  -0.5457  -0.2683   0.00    1.0
2173 285476.000  -1227802.0665  -4655145.1166   4172377.3291   2   8   0.4428   0.8492   0.6958   0.3154  -0.5456  -0.2682   0.00    1.1
2173 285477.000  -1227802.1372  -4655144.7243   4172376.8549   2   8   0.4428   0.8491   0.6958   0.3154  -0.5456  -0.2682   0.00    1.1
2173 285478.000  -1227802.0761  -4655144.5369   4172376.8413   2   8   0.4427   0.8491   0.6959   0.3153  -0.5455  -0.2681   0.00    1.1
2173 285479.000  -1227802.1252  -4655145.0895   4172377.2102   2   8   0.4427   0.8490   0.6959   0.3153  -0.5455  -0.2680   0.00    1.1
2173 285480.000  -1227801.9678  -4655144.9564   4172376.8512   2   8   0.4427   0.8490   0.6959   0.3153  -0.5454  -0.2679   0.00    1.0
2173 285481.000  -1227802.1089  -4655145.2655   4172377.2752   2   8   0.4427   0.8489   0.6959   0.3153  -0.5454  -0.2678   0.00    1.1
2173 285482.000  -1227802.0930  -4655145.1047   4172376.9921   2   8   0.4427   0.8488   0.6959   0.3152  -0.5453  -0.2678   0.00    1.0
2173 285483.000  -1227802.1126  -4655145.4663   4172377.1993   2   8   0.4427   0.8488   0.6959   0.3152  -0.5453  -0.2677   0.00    1.1
2173 285484.000  -1227801.8813  -4655145.1686   4172376.9068   2   8   0.4427   0.8487   0.6960   0.3152  -0.5453  -0.2676   0.00    1.0
2173 285485.000  -1227802.0198  -4655145.3819   4172377.0747   2   8   0.4427   0.8487   0.6960   0.3152  -0.5452  -0.2675   0.00    1.0
2173 285486.000  -1227802.1270  -4655145.6077   4172377.2393   2   8   0.4426   0.8486   0.6960   0.3152  -0.5452  -0.2675   0.00    1.0
2173 285487.000  -1227801.8814  -4655145.2157   4172377.0993   2   8   0.4426   0.8486   0.6960   0.3151  -0.5451  -0.2674   0.00    1.1
2173 285488.000  -1227802.0501  -4655145.0001   4172377.0206   2   8   0.4426   0.8485   0.6960   0.3151  -0.5451  -0.2673   0.00    1.1
2173 285489.000  -1227802.2334  -4655145.3966   4172377.1369   2   8   0.4426   0.8485   0.6960   0.3151  -0.5450  -0.2672   0.00    1.0
2173 285490.000  -1227802.0496  -4655145.1625   4172376.9005   2   8   0.4426   0.8484   0.6961   0.3151  -0.5450  -0.2671   0.00    1.0
2173 285491.000  -1227802.1055  -4655145.4316   4172377.0582   2   8   0.4426   0.8484   0.6961   0.3150  -0.5449  -0.2671   0.00    1.0
2173 285492.000  -1227801.8735  -4655145.1395   4172376.9545   2   8   0.4426   0.8483   0.6961   0.3150  -0.5449  -0.2670   0.00    1.0
2173 285493.000  -1227802.1376  -4655145.2109   4172377.1185   2   8   0.4425   0.8483   0.6961   0.3150  -0.5449  -0.2669   0.00    1.1
2173 285494.000  -1227802.1792  -4655145.4502   4172377.1521   2   8   0.4425   0.8482   0.6961   0.3150  -0.5448  -0.2668   0.00    1.0
2173 285495.000  -1227802.2342  -4655145.6363   4172377.2682   2   8   0.4425   0.8482   0.6961   0.3150  -0.5448  -0.2668   0.00    1.0
2173 285496.000  -1227801.9033  -4655145.2328   4172377.0539   2   8   0.4425   0.8481   0.6962   0.3149  -0.5447  -0.2667   0.00    1.1
2173 285497.000  -1227802.3437  -4655145.0075   4172376.9944   2   8   0.4425   0.8481   0.6962   0.3149  -0.5447  -0.2666   0.00    1.0
2173 285498.000  -1227802.0371  -4655144.8860   4172376.8588   2   8   0.4425   0.8480   0.6962   0.3149  -0.5446  -0.2665   0.00    1.0
2173 285499.000  -1227802.0158  -4655144.7820   4172376.9716   2   8   0.4425   0.8479   0.6962   0.3149  -0.5446  -0.2664   0.00    1.0
2173 285500.000  -1227802.0097  -4655145.1251   4172377.1025   2   8   0.4425   0.8479   0.6962   0.3148  -0.5446  -0.2664   0.00    1.0
2173 285501.000  -1227802.1926  -4655145.1546   4172376.7984   2   8   0.4424   0.8478   0.6962   0.3148  -0.5445  -0.2663   0.00    1.0
2173 285502.000  -1227802.1279  -4655145.2531   4172377.1612   2   8   0.4424   0.8478   0.6963   0.3148  -0.5445  -0.2662   0.00    1.0
2173 285503.000  -1227802.2580  -4655145.2969   4172377.2566   2   8   0.4424   0.8477   0.6963   0.3148  -0.5444  -0.2661   0.00    1.0
2173 285504.000  -1227802.4297  -4655145.0271   4172376.9588   2   8   0.4424   0.8477   0.6963   0.3148  -0.5444  -0.2660   0.00    1.0
2173 285505.000  -1227802.3691  -4655145.3880   4172377.1890   2   8   0.4424   0.8476   0.6963   0.3147  -0.5443  -0.2660   0.00    1.0
2173 285506.000  -1227802.2286  -4655145.2449   4172377.0506   2   8   0.4424   0.8476   0.6963   0.3147  -0.5443  -0.2659   0.00    1.1
2173 285507.000  -1227802.2950  -4655145.4761   4172377.3508   2   8   0.4424   0.8475   0.6963   0.3147  -0.5443  -0.2658   0.00    1.1
2173 285508.000  -1227802.2900  -4655145.0479   4172377.0382   2   8   0.4424   0.8475   0.6964   0.3147  -0.5442  -0.2657   0.00    1.1
2173 285509.000  -1227802.3978  -4655144.8273   4172376.9165   2   8   0.4423   0.8474   0.6964   0.3147  -0.5442  -0.2657   0.00    1.1
2173 285510.000  -1227802.2175  -4655145.0350   4172376.9740   2   8   0.4423   0.8474   0.6964   0.3146  -0.5441  -0.2656   0.00    1.0
2173 285511.000  -1227802.2768  -4655145.2714   4172376.9264   2   8   0.4423   0.8473   0.6964   0.3146  -0.5441  -0.2655   0.00    1.1
2173 285512.000  -1227802.2367  -4655145.5940   4172377.2744   2   8   0.4423   0.8473   0.6964   0.3146  -0.5440  -0.2654   0.00    1.0
2173 285513.000  -1227802.1296  -4655145.5261   4172376.9995   2   8   0.4423   0.8472   0.6965   0.3146  -0.5440  -0.2653   0.00    1.1
2173 285514.000  -1227802.4415  -4655145.4023   4172376.9613   2   8   0.4423   0.8472   0.6965   0.3146  -0.5440  -0.2653   0.00    1.0
2173 285515.000  -1227802.4579  -4655145.0702   4172377.1116   2   8   0.4423   0.8471   0.6965   0.3145  -0.5439  -0.2652   0.00    1.1
