% program   : rnx2rtkp ver.2.4.3 b31
% inp file  : ngs/21_08_31_20_18_54_gast.obs
% inp file  : ngs/21_08_31_20_18_54_gast_SNNC.obs
% inp file  : ngs/21_08_31_20_18_54_brdc.nav
% obs start : 2021/08/31 20:00:00.0 GPST (week2173 244800.0s)
% obs end   : 2021/08/31 20:59:59.0 GPST (week2173 248399.0s)
% ref pos   :   798151.3407  -5149063.3356   3666081.4130
%
% (x/y/z-ecef=WGS84,Q=1:fix,2:float,3:sbas,4:dgps,5:single,6:ppp,ns=# of satellites)
%  GPST              x-ecef(m)      y-ecef(m)      z-ecef(m)   Q  ns   sdx(m)   sdy(m)   sdz(m)  sdxy(m)  sdyz(m)  sdzx(m) age(s)  ratio
2173 245911.000    798178.0593  -5149235.7414   3666205.0089   1   7   0.0237   0.0540   0.0484   0.0224  -0.0411  -0.0211 -30.00    5.9
2173 245912.000    798178.0630  -5149235.7315   3666205.0054   1   7   0.0229   0.0523   0.0469   0.0217  -0.0398  -0.0204 -29.00    9.5
2173 245913.000    798178.0609  -5149235.7282   3666205.0062   1   7   0.0222   0.0506   0.0454   0.0209  -0.0385  -0.0197 -28.00   11.4
2173 245914.000    798178.0664  -5149235.7302   3666205.0058   1   7   0.0214   0.0489   0.0439   0.0202  -0.0372  -0.0190 -27.00   13.3
2173 245915.000    798178.0650  -5149235.7338   3666205.0056   1   7   0.0207   0.0472   0.0423   0.0194  -0.0359  -0.0183 -26.00   13.9
2173 245916.000    798178.0664  -5149235.7274   3666205.0120   1   7   0.0199   0.0454   0.0408   0.0187  -0.0346  -0.0176 -25.00   13.7
2173 245917.000    798178.0642  -5149235.7309   3666205.0081   1   7   0.0192   0.0437   0.0393   0.0179  -0.0333  -0.0169 -24.00   16.4
2173 245918.000    798178.0680  -5149235.7282   3666205.0056   1   7   0.0184   0.0420   0.0378   0.0172  -0.0320  -0.0162 -23.00   18.5
2173 245919.000    798178.0679  -5149235.7295   3666205.0116   1   7   0.0177   0.0403   0.0363   0.0164  -0.0307  -0.0155 -22.00   19.7
2173 245920.000    798178.0677  -5149235.7305   3666205.0042   1   7   0.0169   0.0386   0.0348   0.0157  -0.0294  -0.0148 -21.00   20.8
2173 245921.000    798178.0712  -5149235.7269   3666205.0008   1   7   0.0162   0.0369   0.0333   0.0150  -0.0281  -0.0141 -20.00   20.4
2173 245922.000    798178.0673  -5149235.7266   3666205.0006   1   7   0.0154   0.0352   0.0318   0.0142  -0.0268  -0.0134 -19.00   21.7
2173 245923.000    798178.0711  -5149235.7240   3666205.0031   1   7   0.0147   0.0336   0.0303   0.0135  -0.0255  -0.0127 -18.00   23.5
2173 245924.000    798178.0714  -5149235.7233   3666205.0042   1   7   0.0139   0.0319   0.0288   0.0127  -0.0242  -0.0120 -17.00   23.5
2173 245925.000    798178.0724  -5149235.7216   3666204.9976   1   7   0.0132   0.0302   0.0273   0.0120  -0.0230  -0.0114 -16.00   23.4
2173 245926.000    798178.0725  -5149235.7146   3666204.9928   1   7   0.0125   0.0286   0.0258   0.0112  -0.0217  -0.0106 -15.00   22.8
2173 245927.000    798178.0742  -5149235.7213   3666204.9934   1   7   0.0118   0.0269   0.0244   0.0105  -0.0205  -0.0099 -14.00   23.0
2173 245928.000    798178.0733  -5149235.7195   3666204.9968   1   7   0.0111   0.0253   0.0230   0.0097  -0.0192  -0.0093 -13.00   24.2
2173 245929.000    798178.0755  -5149235.7211   3666204.9972   1   7   0.0103   0.0237   0.0215   0.0090  -0.0180  -0.0085 -12.00   25.1
2173 245930.000    798178.0775  -5149235.7164   3666204.9982   1   7   0.0096   0.0221   0.0202   0.0083  -0.0168  -0.0079 -11.00   26.1
2173 245931.000    798178.0790  -5149235.7173   3666204.9998   1   7   0.0090   0.0206   0.0188   0.0076  -0.0156  -0.0072 -10.00   26.6
2173 245932.000    798178.0756  -5149235.7234   3666205.0008   1   7   0.0084   0.0190   0.0175   0.0068  -0.0145  -0.0065  -9.00   27.4
2173 245933.000    798178.0763  -5149235.7217   3666204.9974   1   7   0.0077   0.0175   0.0162   0.0062  -0.0133  -0.0057  -8.00   26.1
2173 245934.000    798178.0730  -5149235.7280   3666204.9995   1   7   0.0071   0.0161   0.0149   0.0055  -0.0123  -0.0051  -7.00   25.9
2173 245935.000    798178.0742  -5149235.7342   3666205.0018   1   7   0.0065   0.0147   0.0138   0.0048  -0.0112  -0.0044  -6.00   25.6
2173 245936.000    798178.0737  -5149235.7341   3666204.9984   1   7   0.0059   0.0134   0.0126   0.0043  -0.0103  -0.0036  -5.00   24.2
2173 245937.000    798178.0773  -5149235.7352   3666204.9984   1   7   0.0054   0.0122   0.0116   0.0035  -0.0095  -0.0030  -4.00   22.8
2173 245938.000    798178.0751  -5149235.7326   3666204.9979   1   7   0.0050   0.0111   0.0108   0.0031  -0.0088  -0.0023  -3.00   22.0
2173 245939.000    798178.0745  -5149235.7335   3666204.9974   1   7   0.0049   0.0103   0.0101   0.0024  -0.0081  -0.0019  -2.00   21.2
2173 245940.000    798178.0755  -5149235.7344   3666205.0027   1   7   0.0046   0.0098   0.0097   0.0017  -0.0077  -0.0017  -1.00   18.9
2173 245941.000    798178.0760  -5149235.7339   3666205.0027   1   7   0.0043   0.0096   0.0095   0.0025  -0.0076  -0.0009   0.00   16.6
2173 245942.000    798178.0786  -5149235.7367   3666205.0046   1   7   0.0040   0.0096   0.0095   0.0026  -0.0076  -0.0007   0.00   15.9
2173 245943.000    798178.0764  -5149235.7385   3666205.0035   1   7   0.0048   0.0097   0.0095   0.0021  -0.0075  -0.0015   0.00   15.1
2173 245944.000    798178.0779  -5149235.7384   3666205.0063   1   7   0.0043   0.0095   0.0095   0.0027  -0.0077  -0.0011   0.00   14.0
2173 245945.000    798178.0771  -5149235.7347   3666205.0016   1   7   0.0044   0.0096   0.0095   0.0021  -0.0076  -0.0011   0.00   13.5
2173 245946.000    798178.0775  -5149235.7372   3666205.0137   1   7   0.0045   0.0096   0.0095   0.0022  -0.0076  -0.0013   0.00   12.9
2173 245947.000    798178.0776  -5149235.7361   3666205.0082   1   7   0.0047   0.0096   0.0095   0.0025  -0.0076   0.0009   0.00   12.4
2173 245948.000    798178.0765  -5149235.7356   3666205.0065   1   7   0.0043   0.0097   0.0095   0.0020  -0.0076  -0.0010   0.00   12.1
2173 245949.000    798178.0764  -5149235.7430   3666205.0117   1   7   0.0047   0.0096   0.0095   0.0022  -0.0076  -0.0015   0.00   11.7
2173 245950.000    798178.0773  -5149235.7475   3666205.0167   1   7   0.0048   0.0097   0.0096   0.0023  -0.0075  -0.0012   0.00   11.5
2173 245951.000    798178.0771  -5149235.7386   3666205.0073   1   7   0.0045   0.0095   0.0095   0.0023  -0.0077  -0.0011   0.00   11.3
2173 245952.000    798178.0763  -5149235.7433   3666205.0069   1   7   0.0043   0.0096   0.0094   0.0024  -0.0076  -0.0007   0.00   11.3
2173 245953.000    798178.0790  -5149235.7397   3666205.0050   1   7   0.0039   0.0094   0.0095   0.0029  -0.0078   0.0009   0.00   11.1
2173 245954.000    798178.0761  -5149235.7388   3666205.0093   1   7   0.0045   0.0097   0.0094   0.0026  -0.0075  -0.0010   0.00   10.9
2173 245955.000    798178.0720  -5149235.7414   3666205.0163   1   7   0.0042   0.0097   0.0095   0.0025  -0.0076  -0.0014   0.00   10.7
2173 245956.000    798178.0748  -5149235.7470   3666205.0132   1   7   0.0039   0.0096   0.0095   0.0021  -0.0076  -0.0014   0.00   10.5
2173 245957.000    798178.0706  -5149235.7485   3666205.0144   1   7   0.0040   0.0095   0.0094   0.0022  -0.0077  -0.0010   0.00   10.3
2173 245958.000    798178.0743  -5149235.7398   3666205.0108   1   7   0.0044   0.0097   0.0095   0.0025  -0.0076  -0.0008   0.00   10.1
2173 245959.000    798178.0699  -5149235.7399   3666205.0084   1   7   0.0043   0.0095   0.0095   0.0026  -0.0077  -0.0007   0.00    9.9
2173 245960.000    798178.0727  -5149235.7441   3666205.0061   1   7   0.0046   0.0096   0.0095   0.0023  -0.0076   0.0005   0.00    9.8
2173 245961.000    798178.0729  -5149235.7446   3666205.0090   1   7   0.0046   0.0095   0.0094   0.0021  -0.0077  -0.0014   0.00    9.6
2173 245962.000    798178.0733  -5149235.7396   3666205.0037   1   7   0.0043   0.0094   0.0095   0.0025  -0.0078  -0.0008   0.00    9.5
2173 245963.000    798178.0740  -5149235.7421   3666205.0047   1   7   0.0047   0.0096   0.0095   0.0022  -0.0076  -0.0007   0.00    9.5
2173 245964.000    798178.0730  -5149235.7371   3666205.0026   1   7   0.0043   0.0096   0.0095   0.0024  -0.0076  -0.0011   0.00    9.5
2173 245965.000    798178.0723  -5149235.7387   3666204.9994   1   7   0.0043   0.0097   0.0095   0.0021  -0.0075  -0.0012   0.00    9.4
2173 245966.000    798178.0739  -5149235.7364   3666205.0028   1   7   0.0042   0.0095   0.0095   0.0026  -0.0077  -0.0013   0.00    9.3
2173 245967.000    798178.0707  -5149235.7392   3666205.0083   1   7   0.0044   0.0096   0.0094   0.0023  -0.0076  -0.0008   0.00    9.3
2173 245968.000    798178.0720  -5149235.7449   3666205.0078   1   7   0.0050   0.0098   0.0095   0.0018  -0.0075  -0.0013   0.00    9.3
2173 245969.000    798178.0707  -5149235.7395   3666205.0046   1   7   0.0047   0.0097   0.0096   0.0018  -0.0076  -0.0015   0.00    9.3
2173 245970.000    798178.0731  -5149235.7336   3666205.0005   1   7   0.0045   0.0095   0.0094   0.0024  -0.0077  -0.0005   0.00    9.1
2173 245971.000    798178.0696  -5149235.7361   3666205.0008   1   7   0.0041   0.0097   0.0095   0.0024  -0.0076  -0.0011   0.00    9.0
2173 245972.000    798178.0720  -5149235.7378   3666205.0033   1   7   0.0046   0.0097   0.0095   0.0021  -0.0076  -0.0006   0.00    8.9
2173 245973.000    798178.0702  -5149235.7367   3666205.0003   1   7   0.0038   0.0096   0.0096   0.0022  -0.0076  -0.0012   0.00    8.8
2173 245974.000    798178.0716  -5149235.7362   3666205.0011   1   7   0.0041   0.0096   0.0094   0.0026  -0.0077   0.0001   0.00    8.6
2173 245975.000    798178.0704  -5149235.7343   3666205.0010   1   7   0.0045   0.0097   0.0096   0.0018  -0.0075  -0.0017   0.00    8.5
2173 245976.000    798178.0707  -5149235.7325   3666205.0020   1   7   0.0047   0.0097   0.0095   0.0016  -0.0075  -0.0015   0.00    8.4
2173 245977.000    798178.0720  -5149235.7374   3666205.0044   1   7   0.0043   0.0096   0.0095   0.0021  -0.0077  -0.0008   0.00    8.3
2173 245978.000    798178.0715  -5149235.7385   3666205.0057   1   7   0.0042   0.0096   0.0095   0.0019  -0.0076  -0.0014   0.00    8.1
2173 245979.000    798178.0735  -5149235.7380   3666205.0043   1   7   0.0046   0.0097   0.0095   0.0016  -0.0076  -0.0014   0.00    8.0
2173 245980.000    798178.0733  -5149235.7456   3666205.0071   1   7   0.0045   0.0096   0.0095   0.0023  -0.0076  -0.0010   0.00    7.9
2173 245981.000    798178.0735  -5149235.7453   3666205.0032   1   7   0.0041   0.0096   0.0095   0.0023  -0.0076  -0.0012   0.00    7.7
2173 245982.000    798178.0716  -5149235.7448   3666205.0073   1   7   0.0042   0.0096   0.0094   0.0022  -0.0077  -0.0013   0.00    7.6
2173 245983.000    798178.0721  -5149235.7489   3666205.0110   1   7   0.0048   0.0097   0.0095   0.0015  -0.0076  -0.0012   0.00    7.5
2173 245984.000    798178.0719  -5149235.7443   3666205.0045   1   7   0.0040   0.0095   0.0095   0.0025  -0.0077  -0.0007   0.00    7.4
2173 245985.000    798178.0718  -5149235.7458   3666205.0063   1   7   0.0045   0.0096   0.0095   0.0023  -0.0076  -0.0013   0.00    7.4
2173 245986.000    798178.0719  -5149235.7513   3666205.0142   1   7   0.0044   0.0096   0.0095   0.0024  -0.0076  -0.0010   0.00    7.3
2173 245987.000    798178.0706  -5149235.7516   3666205.0147   1   7   0.0047   0.0096   0.0094   0.0018  -0.0077  -0.0016   0.00    7.3
2173 245988.000    798178.0722  -5149235.7472   3666205.0131   1   7   0.0042   0.0096   0.0095   0.0014  -0.0076  -0.0016   0.00    7.2
2173 245989.000    798178.0705  -5149235.7494   3666205.0121   1   7   0.0045   0.0097   0.0096   0.0024  -0.0076  -0.0015   0.00    7.2
2173 245990.000    798178.0737  -5149235.7423   3666205.0087   1   7   0.0044   0.0097   0.0095   0.0022  -0.0075  -0.0009   0.00    7.1
2173 245991.000    798178.0723  -5149235.7416   3666205.0095   1   7   0.0042   0.0095   0.0095   0.0024  -0.0076  -0.0012   0.00    7.1
2173 245992.000    798178.0733  -5149235.7439   3666205.0096   1   7   0.0048   0.0097   0.0096   0.0024  -0.0076  -0.0013   0.00    7.0
2173 245993.000    798178.0748  -5149235.7458   3666205.0151   1   7   0.0047   0.0096   0.0095   0.0023  -0.0076  -0.0012   0.00    6.9
2173 245994.000    798178.0748  -5149235.7459   3666205.0150   1   7   0.0040   0.0096   0.0094   0.0025  -0.0076   0.0002   0.00    6.8
2173 245995.000    798178.0708  -5149235.7422   3666205.0101   1   7   0.0041   0.0095   0.0095   0.0027  -0.0078   0.0006   0.00    6.8
2173 245996.000    798178.0739  -5149235.7444   3666205.0106   1   7   0.0045   0.0096   0.0095   0.0028  -0.0077   0.0007   0.00    6.7
2173 245997.000    798178.0743  -5149235.7426   3666205.0079   1   7   0.0042   0.0097   0.0095   0.0026  -0.0075   0.0002   0.00    6.7
2173 245998.000    798178.0750  -5149235.7454   3666205.0144   1   7   0.0047   0.0096   0.0095   0.0023  -0.0077  -0.0008   0.00    6.6
2173 245999.000    798178.0721  -5149235.7500   3666205.0149   1   7   0.0049   0.0098   0.0096   0.0017  -0.0075  -0.0020   0.00    6.5
2173 246000.000    798178.0738  -5149235.7423   3666205.0077   1   7   0.0044   0.0098   0.0096   0.0023  -0.0075  -0.0015   0.00    6.5
2173 246001.000    798178.0711  -5149235.7401   3666205.0014   1   7   0.0043   0.0096   0.0095   0.0028  -0.0076   0.0008   0.00    6.4
2173 246002.000    798178.0715  -5149235.7452   3666205.0093   1   7   0.0045   0.0097   0.0096   0.0019  -0.0076  -0.0013   0.00    6.4
2173 246003.000    798178.0737  -5149235.7479   3666205.0144   1   7   0.0041   0.0096   0.0095   0.0024  -0.0076  -0.0008   0.00    6.3
2173 246004.000    798178.0718  -5149235.7483   3666205.0142   1   7   0.0043   0.0096   0.0094   0.0026  -0.0077  -0.0009   0.00    6.3
2173 246005.000    798178.0744  -5149235.7440   3666205.0065   1   7   0.0045   0.0096   0.0095   0.0022  -0.0076  -0.0012   0.00    6.2
2173 246006.000    798178.0729  -5149235.7415   3666205.0112   1   7   0.0048   0.0096   0.0095   0.0018  -0.0077  -0.0016   0.00    6.1
2173 246007.000    798178.0709  -5149235.7409   3666205.0117   1   7   0.0041   0.0095   0.0094   0.0024  -0.0077  -0.0011   0.00    6.1
2173 246008.000    798178.0729  -5149235.7424   3666205.0071   1   7   0.0044   0.0097   0.0096   0.0019  -0.0076  -0.0015   0.00    6.0
2173 246009.000    798178.0715  -5149235.7440   3666205.0053   1   7   0.0045   0.0096   0.0095   0.0023  -0.0077  -0.0012   0.00    5.9
2173 246010.000    798178.0725  -5149235.7413   3666205.0057   1   7   0.0046   0.0096   0.0095   0.0027  -0.0077  -0.0011   0.00    5.8
2173 246011.000    798178.0711  -5149235.7390   3666205.0006   1   7   0.0043   0.0096   0.0095   0.0014  -0.0077  -0.0015   0.00    5.8
2173 246012.000    798178.0709  -5149235.7314   3666205.0029   1   7   0.0046   0.0097   0.0095   0.0019  -0.0076  -0.0018   0.00    5.7
2173 246013.000    798178.0731  -5149235.7343   3666205.0004   1   7   0.0046   0.0097   0.0095   0.0020  -0.0075  -0.0010   0.00    5.7
2173 246014.000    798178.0764  -5149235.7372   3666205.0011   1   7   0.0042   0.0095   0.0095   0.0026  -0.0077  -0.0008   0.00    5.6
2173 246015.000    798178.0735  -5149235.7355   3666204.9941   1   7   0.0043   0.0096   0.0095   0.0025  -0.0077  -0.0007   0.00    5.5
2173 246016.000    798178.0761  -5149235.7340   3666204.9958   1   7   0.0050   0.0098   0.0095   0.0018  -0.0075  -0.0015   0.00    5.4
2173 246017.000    798178.0794  -5149235.7306   3666204.9929   1   7   0.0046   0.0096   0.0095   0.0023  -0.0077  -0.0011   0.00    5.4
2173 246018.000    798178.0782  -5149235.7361   3666204.9960   1   7   0.0039   0.0096   0.0095   0.0021  -0.0077  -0.0013   0.00    5.3
2173 246019.000    798178.0780  -5149235.7391   3666204.9997   1   7   0.0043   0.0097   0.0095   0.0023  -0.0076  -0.0012   0.00    5.2
2173 246020.000    798178.0787  -5149235.7343   3666204.9964   1   7   0.0043   0.0096   0.0095   0.0022  -0.0076  -0.0010   0.00    5.1
2173 246021.000    798178.0781  -5149235.7329   3666204.9962   1   7   0.0047   0.0096   0.0095   0.0022  -0.0076  -0.0011   0.00    5.0
2173 246022.000    798178.0796  -5149235.7300   3666204.9944   1   7   0.0042   0.0095   0.0095   0.0027  -0.0077  -0.0005   0.00    4.9
2173 246023.000    798178.0786  -5149235.7291   3666204.9930   1   7   0.0044   0.0097   0.0095   0.0020  -0.0077  -0.0016   0.00    4.8
2173 246024.000    798178.0802  -5149235.7392   3666205.0004   1   7   0.0044   0.0095   0.0095   0.0023  -0.0077  -0.0015   0.00    4.7
2173 246025.000    798178.0791  -5149235.7311   3666204.9956   1   7   0.0047   0.0096   0.0094   0.0023  -0.0077  -0.0011   0.00    4.6
2173 246026.000    798178.0810  -5149235.7356   3666205.0022   1   7   0.0040   0.0096   0.0095   0.0018  -0.0077  -0.0016   0.00    4.6
2173 246027.000    798178.0812  -5149235.7309   3666204.9924   1   7   0.0044   0.0097   0.0095   0.0024  -0.0076  -0.0012   0.00    4.5
2173 246028.000    798178.0820  -5149235.7322   3666204.9916   1   7   0.0044   0.0097   0.0095   0.0024  -0.0076  -0.0012   0.00    4.4
2173 246029.000    798178.0825  -5149235.7235   3666204.9874   1   7   0.0046   0.0097   0.0096   0.0024  -0.0075  -0.0011   0.00    4.4
2173 246030.000    798178.0799  -5149235.7297   3666204.9965   1   7   0.0043   0.0097   0.0095   0.0019  -0.0076  -0.0013   0.00    4.3
2173 246031.000    798178.0777  -5149235.7316   3666204.9972   1   7   0.0048   0.0096   0.0095   0.0017  -0.0077  -0.0017   0.00    4.2
2173 246032.000    798178.0824  -5149235.7269   3666204.9971   1   7   0.0043   0.0095   0.0095   0.0020  -0.0078  -0.0014   0.00    4.2
2173 246033.000    798178.0808  -5149235.7248   3666204.9933   1   7   0.0044   0.0095   0.0095   0.0022  -0.0078  -0.0013   0.00    4.1
2173 246034.000    798178.0805  -5149235.7313   3666204.9917   1   7   0.0047   0.0097   0.0095   0.0025  -0.0076  -0.0011   0.00    4.1
2173 246035.000    798178.0805  -5149235.7357   3666205.0008   1   7   0.0047   0.0097   0.0095   0.0021  -0.0075  -0.0018   0.00    4.0
2173 246036.000    798178.0794  -5149235.7402   3666205.0030   1   7   0.0042   0.0095   0.0095   0.0022  -0.0078  -0.0016   0.00    4.0
2173 246037.000    798178.0810  -5149235.7343   3666205.0010   1   7   0.0044   0.0096   0.0095   0.0022  -0.0076  -0.0016   0.00    3.9
2173 246038.000    798178.0818  -5149235.7312   3666204.9939   1   7   0.0039   0.0095   0.0095   0.0026  -0.0077  -0.0007   0.00    3.9
2173 246039.000    798178.0827  -5149235.7308   3666204.9928   1   7   0.0041   0.0096   0.0095   0.0021  -0.0076  -0.0017   0.00    3.8
2173 246040.000    798178.0827  -5149235.7309   3666204.9978   1   7   0.0044   0.0097   0.0095   0.0025  -0.0076  -0.0004   0.00    3.8
2173 246041.000    798178.0823  -5149235.7343   3666204.9959   1   7   0.0043   0.0096   0.0095   0.0022  -0.0077  -0.0012   0.00    3.8
2173 246042.000    798178.0837  -5149235.7286   3666204.9912   1   7   0.0049   0.0097   0.0095   0.0022  -0.0076  -0.0011   0.00    3.7
2173 246043.000    798178.0831  -5149235.7358   3666204.9929   1   7   0.0045   0.0094   0.0095   0.0026  -0.0078  -0.0005   0.00    3.7
2173 246044.000    798178.0869  -5149235.7289   3666204.9854   1   7   0.0045   0.0096   0.0095   0.0023  -0.0078  -0.0010   0.00    3.6
2173 246045.000    798178.0837  -5149235.7249   3666204.9908   1   7   0.0048   0.0098   0.0096  -0.0007  -0.0075  -0.0019   0.00    3.6
2173 246046.000    798178.0833  -5149235.7259   3666204.9895   1   7   0.0046   0.0098   0.0095   0.0014  -0.0075  -0.0019   0.00    3.5
2173 246047.000    798178.0823  -5149235.7248   3666204.9872   1   7   0.0043   0.0095   0.0095   0.0030  -0.0078  -0.0009   0.00    3.5
2173 246048.000    798178.0842  -5149235.7218   3666204.9813   1   7   0.0045   0.0097   0.0095   0.0013  -0.0077  -0.0019   0.00    3.4
2173 246049.000    798178.0843  -5149235.7143   3666204.9753   1   7   0.0047   0.0097   0.0095   0.0023  -0.0076  -0.0015   0.00    3.4
2173 246050.000    798178.0820  -5149235.7175   3666204.9835   1   7   0.0044   0.0096   0.0095   0.0025  -0.0077  -0.0014   0.00    3.4
2173 246051.000    798178.0816  -5149235.7122   3666204.9792   1   7   0.0040   0.0096   0.0095   0.0029  -0.0076   0.0011   0.00    3.3
2173 246052.000    798178.0811  -5149235.7129   3666204.9748   1   7   0.0041   0.0095   0.0095   0.0022  -0.0077  -0.0016   0.00    3.3
2173 246053.000    798178.0807  -5149235.7138   3666204.9777   1   7   0.0046   0.0097   0.0095   0.0022  -0.0076  -0.0011   0.00    3.3
2173 246054.000    798178.0800  -5149235.7199   3666204.9795   1   7   0.0044   0.0096   0.0095   0.0018  -0.0077  -0.0015   0.00    3.3
2173 246055.000    798178.0814  -5149235.7161   3666204.9734   1   7   0.0044   0.0096   0.0095   0.0020  -0.0076  -0.0016   0.00    3.3
2173 246056.000    798178.0815  -5149235.7151   3666204.9787   1   7   0.0045   0.0097   0.0096   0.0016  -0.0077  -0.0018   0.00    3.3
2173 246057.000    798178.0830  -5149235.7165   3666204.9760   1   7   0.0048   0.0096   0.0095   0.0024  -0.0077  -0.0015   0.00    3.2
2173 246058.000    798178.0789  -5149235.7178   3666204.9768   1   7   0.0046   0.0096   0.0096   0.0022  -0.0077  -0.0017   0.00    3.2
2173 246059.000    798178.0785  -5149235.7136   3666204.9708   1   7   0.0046   0.0096   0.0095   0.0018  -0.0077  -0.0018   0.00    3.2
2173 246060.000    798178.0801  -5149235.7089   3666204.9707   1   7   0.0047   0.0096   0.0095   0.0021  -0.0077  -0.0016   0.00    3.2
2173 246061.000    798178.0792  -5149235.7141   3666204.9705   1   7   0.0047   0.0097   0.0095   0.0018  -0.0076  -0.0018   0.00    3.2
2173 246062.000    798178.0782  -5149235.7128   3666204.9648   1   7   0.0046   0.0096   0.0096   0.0024  -0.0076  -0.0011   0.00    3.2
2173 246063.000    798178.0794  -5149235.7190   3666204.9684   1   7   0.0046   0.0096   0.0095   0.0017  -0.0076  -0.0018   0.00    3.3
2173 246064.000    798178.0750  -5149235.7052   3666204.9674   1   7   0.0044   0.0096   0.0095   0.0027  -0.0078  -0.0005   0.00    3.3
2173 246065.000    798178.0739  -5149235.7066   3666204.9674   1   7   0.0041   0.0094   0.0095   0.0023  -0.0078  -0.0012   0.00    3.3
2173 246066.000    798178.0754  -5149235.7060   3666204.9648   1   7   0.0045   0.0095   0.0095   0.0016  -0.0077  -0.0018   0.00    3.3
2173 246067.000    798178.0717  -5149235.7101   3666204.9707   1   7   0.0046   0.0097   0.0095   0.0024  -0.0077  -0.0010   0.00    3.3
2173 246068.000    798178.0691  -5149235.7131   3666204.9706   1   7   0.0044   0.0096   0.0095   0.0027  -0.0077  -0.0007   0.00    3.3
2173 246069.000    798178.0728  -5149235.7120   3666204.9706   1   7   0.0045   0.0096   0.0095   0.0021  -0.0077  -0.0011   0.00    3.3
2173 246070.000    798178.0801  -5149235.7104   3666204.9637   1   7   0.0052   0.0097   0.0095   0.0024  -0.0077  -0.0013   0.00    3.3
2173 246071.000    798178.0740  -5149235.7157   3666204.9717   1   7   0.0044   0.0096   0.0095   0.0023  -0.0077  -0.0012   0.00    3.3
2173 246072.000    798178.0749  -5149235.7125   3666204.9637   1   7   0.0044   0.0096   0.0095   0.0017  -0.0077  -0.0014   0.00    3.3
2173 246073.000    798178.0739  -5149235.7155   3666204.9668   1   7   0.0045   0.0097   0.0095   0.0019  -0.0076  -0.0018   0.00    3.3
2173 246074.000    798178.0738  -5149235.7113   3666204.9687   1   7   0.0045   0.0095   0.0094   0.0022  -0.0077  -0.0009   0.00    3.3
2173 246075.000    798178.0677  -5149235.7049   3666204.9598   1   7   0.0045   0.0097   0.0095   0.0023  -0.0077  -0.0009   0.00    3.3
2173 246076.000    798178.0707  -5149235.7053   3666204.9592   1   7   0.0044   0.0098   0.0095   0.0023  -0.0076  -0.0013   0.00    3.3
2173 246077.000    798178.0689  -5149235.7110   3666204.9592   1   7   0.0044   0.0096   0.0095   0.0026  -0.0078  -0.0002   0.00    3.3
2173 246078.000    798178.0740  -5149235.7144   3666204.9654   1   7   0.0045   0.0096   0.0095   0.0029  -0.0077  -0.0007   0.00    3.3
2173 246079.000    798178.0739  -5149235.7103   3666204.9613   1   7   0.0041   0.0097   0.0095   0.0024  -0.0076  -0.0011   0.00    3.3
2173 246080.000    798178.0704  -5149235.7104   3666204.9601   1   7   0.0041   0.0096   0.0094   0.0021  -0.0077  -0.0011   0.00    3.3
2173 246081.000    798178.0714  -5149235.7101   3666204.9611   1   7   0.0044   0.0096   0.0096   0.0027  -0.0076  -0.0008   0.00    3.3
2173 246082.000    798178.0714  -5149235.7097   3666204.9622   1   7   0.0044   0.0096   0.0095   0.0023  -0.0078  -0.0012   0.00    3.4
2173 246083.000    798178.0701  -5149235.7131   3666204.9638   1   7   0.0045   0.0096   0.0095   0.0020  -0.0077  -0.0018   0.00    3.4
2173 246084.000    798178.0703  -5149235.7179   3666204.9660   1   7   0.0045   0.0096   0.0095   0.0019  -0.0077  -0.0017   0.00    3.4
2173 246085.000    798178.0724  -5149235.7109   3666204.9686   1   7   0.0044   0.0095   0.0096   0.0025  -0.0077  -0.0009   0.00    3.4
2173 246086.000    798178.0709  -5149235.7172   3666204.9654   1   7   0.0044   0.0097   0.0096   0.0022  -0.0076  -0.0009   0.00    3.4
2173 246087.000    798178.0703  -5149235.7127   3666204.9656   1   7   0.0042   0.0097   0.0095   0.0024  -0.0076  -0.0008   0.00    3.4
2173 246088.000    798178.0715  -5149235.7119   3666204.9639   1   7   0.0046   0.0095   0.0095   0.0018  -0.0077  -0.0017   0.00    3.4
2173 246089.000    798178.0733  -5149235.7106   3666204.9642   1   7   0.0045   0.0097   0.0095   0.0023  -0.0076  -0.0011   0.00    3.4
2173 246090.000    798178.0710  -5149235.7105   3666204.9634   1   7   0.0044   0.0096   0.0095   0.0027  -0.0077  -0.0010   0.00    3.4
2173 246091.000    798178.0725  -5149235.7075   3666204.9643   1   7   0.0044   0.0097   0.0096   0.0021  -0.0077  -0.0013   0.00    3.4
2173 246092.000    798178.0710  -5149235.7129   3666204.9664   1   7   0.0047   0.0096   0.0095   0.0022  -0.0077  -0.0014   0.00    3.4
2173 246093.000    798178.0716  -5149235.7084   3666204.9573   1   7   0.0041   0.0095   0.0095   0.0027  -0.0077  -0.0006   0.00    3.4
2173 246094.000    798178.0720  -5149235.7166   3666204.9657   1   7   0.0046   0.0095   0.0095   0.0024  -0.0078  -0.0012   0.00    3.4
2173 246095.000    798178.0694  -5149235.7145   3666204.9568   1   7   0.0043   0.0096   0.0095   0.0023  -0.0078  -0.0010   0.00    3.4
2173 246096.000    798178.0719  -5149235.7149   3666204.9573   1   7   0.0043   0.0096   0.0095   0.0016  -0.0077  -0.0015   0.00    3.4
2173 246097.000    798178.0720  -5149235.7183   3666204.9617   1   7   0.0045   0.0097   0.0096   0.0022  -0.0076  -0.0017   0.00    3.4
2173 246098.000    798178.0715  -5149235.7228   3666204.9658   1   7   0.0046   0.0097   0.0095   0.0022  -0.0076  -0.0016   0.00    3.4
2173 246099.000    798178.0736  -5149235.7221   3666204.9657   1   7   0.0047   0.0097   0.0096   0.0014  -0.0076  -0.0016   0.00    3.4
2173 246100.000    798178.0729  -5149235.7140   3666204.9596   1   7   0.0042   0.0096   0.0096   0.0021  -0.0077  -0.0015   0.00    3.3
2173 246101.000    798178.0723  -5149235.7142   3666204.9576   1   7   0.0045   0.0097   0.0096   0.0022  -0.0077  -0.0015   0.00    3.3
2173 246102.000    798178.0714  -5149235.7113   3666204.9571   1   7   0.0045   0.0096   0.0095   0.0022  -0.0077  -0.0015   0.00    3.3
2173 246103.000    798178.0719  -5149235.7256   3666204.9701   1   7   0.0044   0.0096   0.0095   0.0024  -0.0077  -0.0005   0.00    3.3
2173 246104.000    798178.0712  -5149235.7169   3666204.9613   1   7   0.0045   0.0096   0.0095   0.0023  -0.0077  -0.0010   0.00    3.3
2173 246105.000    798178.0729  -5149235.7220   3666204.9598   1   7   0.0042   0.0095   0.0095   0.0028  -0.0078  -0.0004   0.00    3.3
2173 246106.000    798178.0700  -5149235.7224   3666204.9632   1   7   0.0047   0.0097   0.0096   0.0021  -0.0076  -0.0018   0.00    3.3
2173 246107.000    798178.0710  -5149235.7164   3666204.9618   1   7   0.0038   0.0095   0.0095   0.0025  -0.0078  -0.0011   0.00    3.3
2173 246108.000    798178.0717  -5149235.7192   3666204.9633   1   7   0.0051   0.0096   0.0096   0.0021  -0.0076  -0.0018   0.00    3.3
2173 246109.000    798178.0715  -5149235.7213   3666204.9631   1   7   0.0043   0.0096   0.0095   0.0023  -0.0077  -0.0008   0.00    3.2
2173 246110.000    798178.0719  -5149235.7228   3666204.9614   1   7   0.0044   0.0096   0.0095   0.0023  -0.0078  -0.0013   0.00    3.2
2173 246111.000    798178.0717  -5149235.7197   3666204.9528   1   7   0.0041   0.0096   0.0095   0.0023  -0.0077  -0.0012   0.00    3.2
2173 246112.000    798178.0713  -5149235.7199   3666204.9562   1   7   0.0046   0.0097   0.0096   0.0017  -0.0076  -0.0018   0.00    3.2
2173 246113.000    798178.0759  -5149235.7185   3666204.9574   1   7   0.0043   0.0096   0.0095   0.0021  -0.0078  -0.0011   0.00    3.2
2173 246114.000    798178.0713  -5149235.7170   3666204.9559   1   7   0.0045   0.0097   0.0095   0.0026  -0.0076  -0.0010   0.00    3.2
2173 246115.000    798178.0734  -5149235.7140   3666204.9523   1   7   0.0037   0.0094   0.0095   0.0023  -0.0079   0.0005   0.00    3.2
2173 246116.000    798178.0708  -5149235.7198   3666204.9572   1   7   0.0043   0.0097   0.0095   0.0019  -0.0076  -0.0019   0.00    3.2
2173 246117.000    798178.0718  -5149235.7194   3666204.9597   1   7   0.0048   0.0097   0.0095   0.0022  -0.0077  -0.0014   0.00    3.2
2173 246118.000    798178.0725  -5149235.7159   3666204.9561   1   7   0.0044   0.0097   0.0095   0.0020  -0.0076  -0.0012   0.00    3.2
2173 246119.000    798178.0746  -5149235.7143   3666204.9499   1   7   0.0042   0.0096   0.0095   0.0025  -0.0078  -0.0010   0.00    3.1
2173 246120.000    798178.0715  -5149235.7135   3666204.9439   1   7   0.0041   0.0096   0.0095   0.0023  -0.0078  -0.0015   0.00    3.1
2173 246121.000    798178.0745  -5149235.7103   3666204.9513   1   7   0.0043   0.0096   0.0095   0.0029  -0.0077  -0.0007   0.00    3.1
2173 246122.000    798178.0753  -5149235.7161   3666204.9506   1   7   0.0045   0.0095   0.0095   0.0026  -0.0078  -0.0012   0.00    3.1
2173 246123.000    798178.0731  -5149235.7140   3666204.9454   1   7   0.0042   0.0095   0.0095   0.0024  -0.0078  -0.0013   0.00    3.1
2173 246124.000    798178.0758  -5149235.7102   3666204.9428   1   7   0.0042   0.0095   0.0095   0.0024  -0.0078  -0.0015   0.00    3.1
2173 246125.000    798178.0731  -5149235.7150   3666204.9490   1   7   0.0039   0.0094   0.0094   0.0023  -0.0079  -0.0006   0.00    3.1
2173 246126.000    798178.0748  -5149235.7192   3666204.9526   1   7   0.0046   0.0097   0.0096   0.0021  -0.0077  -0.0017   0.00    3.1
2173 246127.000    798178.0765  -5149235.7148   3666204.9479   1   7   0.0045   0.0096   0.0096   0.0021  -0.0077  -0.0014   0.00    3.1
2173 246128.000    798178.0727  -5149235.7089   3666204.9446   1   7   0.0043   0.0096   0.0095   0.0025  -0.0078  -0.0007   0.00    3.1
2173 246129.000    798178.0724  -5149235.7211   3666204.9531   1   7   0.0044   0.0097   0.0095   0.0014  -0.0077  -0.0016   0.00    3.1
2173 246130.000    798178.0730  -5149235.7169   3666204.9527   1   7   0.0042   0.0096   0.0095   0.0028  -0.0077  -0.0010   0.00    3.0
2173 246131.000    798178.0752  -5149235.7139   3666204.9454   1   7   0.0046   0.0095   0.0095   0.0025  -0.0077  -0.0014   0.00    3.0
2173 246132.000    798178.0729  -5149235.7152   3666204.9457   1   7   0.0047   0.0096   0.0096   0.0024  -0.0077  -0.0012   0.00    3.0
2173 246133.000    798178.0732  -5149235.7156   3666204.9483   1   7   0.0041   0.0097   0.0095   0.0022  -0.0076  -0.0012   0.00    3.0
2173 246134.000    798178.0703  -5149235.7092   3666204.9456   1   7   0.0045   0.0096   0.0095   0.0025  -0.0077  -0.0011   0.00    3.0
2173 246135.000    798178.0737  -5149235.7150   3666204.9583   1   7   0.0042   0.0096   0.0095   0.0021  -0.0078  -0.0017   0.00    3.0
2173 246136.000    798178.0714  -5149235.7108   3666204.9513   1   7   0.0045   0.0097   0.0096   0.0024  -0.0077  -0.0012   0.00    3.0
2173 246137.000    798178.0731  -5149235.7138   3666204.9563   1   7   0.0045   0.0098   0.0096   0.0017  -0.0076  -0.0018   0.00    3.0
2173 246138.000    798178.0700  -5149235.7180   3666204.9569   1   7   0.0042   0.0097   0.0095   0.0019  -0.0077  -0.0012   0.00    3.0
2173 246139.000    798178.0698  -5149235.7118   3666204.9491   1   7   0.0042   0.0095   0.0095   0.0022  -0.0078  -0.0012   0.00    3.0
2173 246140.000    798178.0699  -5149235.7171   3666204.9556   1   7   0.0044   0.0096   0.0095   0.0020  -0.0077  -0.0016   0.00    3.0
2173 246141.000    798178.0234  -5149235.5091   3666204.9835   2   7   0.0282   0.0539   0.0298   0.0110  -0.0287  -0.0089   0.00    3.0
2173 246142.000    798178.0237  -5149235.5116   3666204.9839   2   7   0.0282   0.0537   0.0296   0.0110  -0.0285  -0.0089   0.00    3.0
2173 246143.000    798178.0225  -5149235.5102   3666204.9788   2   7   0.0281   0.0536   0.0294   0.0109  -0.0284  -0.0089   0.00    3.0
2173 246144.000    798178.0213  -5149235.5146   3666204.9797   2   7   0.0280   0.0534   0.0293   0.0108  -0.0283  -0.0089   0.00    3.0
2173 246145.000    798178.0198  -5149235.5101   3666204.9773   2   7   0.0280   0.0533   0.0291   0.0108  -0.0282  -0.0088   0.00    3.0
2173 246146.000    798178.0192  -5149235.5251   3666204.9842   2   7   0.0279   0.0531   0.0290   0.0107  -0.0281  -0.0088   0.00    3.0
2173 246147.000    798178.0204  -5149235.5223   3666204.9758   2   7   0.0279   0.0530   0.0288   0.0107  -0.0280  -0.0088   0.00    3.0
2173 246148.000    798178.0206  -5149235.5162   3666204.9717   2   7   0.0278   0.0529   0.0287   0.0105  -0.0278  -0.0088   0.00    3.0
2173 246149.000    798178.0172  -5149235.5287   3666204.9749   2   7   0.0277   0.0527   0.0285   0.0104  -0.0277  -0.0088   0.00    3.0
2173 246150.000    798178.0140  -5149235.5258   3666204.9744   2   7   0.0276   0.0526   0.0284   0.0105  -0.0276  -0.0087   0.00    3.0
2173 246151.000    798178.0694  -5149235.7163   3666204.9538   1   7   0.0045   0.0097   0.0095   0.0016  -0.0077  -0.0017   0.00    3.0
2173 246152.000    798178.0702  -5149235.7143   3666204.9514   1   7   0.0046   0.0096   0.0096   0.0019  -0.0078  -0.0020   0.00    3.0
2173 246153.000    798178.0688  -5149235.7176   3666204.9518   1   7   0.0041   0.0096   0.0095   0.0025  -0.0078  -0.0014   0.00    3.0
2173 246154.000    798178.0711  -5149235.7222   3666204.9566   1   7   0.0048   0.0098   0.0095   0.0021  -0.0076  -0.0017   0.00    3.0
2173 246155.000    798178.0675  -5149235.7191   3666204.9515   1   7   0.0040   0.0095   0.0095   0.0026  -0.0078  -0.0010   0.00    3.0
2173 246156.000    798178.0696  -5149235.7227   3666204.9568   1   7   0.0046   0.0097   0.0096   0.0022  -0.0077  -0.0016   0.00    3.0
2173 246157.000    798178.0688  -5149235.7250   3666204.9570   1   7   0.0045   0.0096   0.0096   0.0022  -0.0078  -0.0015   0.00    3.0
2173 246158.000    798178.0706  -5149235.7213   3666204.9532   1   7   0.0043   0.0097   0.0096   0.0022  -0.0076  -0.0018   0.00    3.0
2173 246159.000    798178.0684  -5149235.7244   3666204.9586   1   7   0.0044   0.0096   0.0096   0.0019  -0.0077  -0.0015   0.00    3.1
2173 246160.000    798178.0686  -5149235.7175   3666204.9531   1   7   0.0044   0.0097   0.0096   0.0014  -0.0076  -0.0019   0.00    3.1
2173 246161.000    798178.0673  -5149235.7281   3666204.9651   1   7   0.0043   0.0096   0.0096   0.0022  -0.0078  -0.0015   0.00    3.1
2173 246162.000    798178.0654  -5149235.7244   3666204.9613   1   7   0.0043   0.0097   0.0096   0.0015  -0.0078  -0.0017   0.00    3.1
2173 246163.000    798178.0683  -5149235.7253   3666204.9595   1   7   0.0045   0.0097   0.0096   0.0022  -0.0077  -0.0018   0.00    3.1
2173 246164.000    798178.0671  -5149235.7225   3666204.9576   1   7   0.0048   0.0096   0.0095   0.0022  -0.0077  -0.0018   0.00    3.1
2173 246165.000    798178.0658  -5149235.7215   3666204.9607   1   7   0.0040   0.0096   0.0095   0.0024  -0.0077  -0.0015   0.00    3.1
2173 246166.000    798178.0683  -5149235.7220   3666204.9521   1   7   0.0048   0.0097   0.0095   0.0020  -0.0078  -0.0017   0.00    3.1
2173 246167.000    798178.0703  -5149235.7243   3666204.9566   1   7   0.0044   0.0096   0.0095   0.0021  -0.0077  -0.0020   0.00    3.1
2173 246168.000    798178.0673  -5149235.7251   3666204.9607   1   7   0.0045   0.0097   0.0096   0.0018  -0.0077  -0.0020   0.00    3.1
2173 246169.000    798178.0665  -5149235.7168   3666204.9538   1   7   0.0050   0.0097   0.0096   0.0017  -0.0077  -0.0017   0.00    3.1
2173 246170.000    798178.0684  -5149235.7254   3666204.9605   1   7   0.0042   0.0097   0.0096   0.0022  -0.0077  -0.0013   0.00    3.1
2173 246171.000    798178.0647  -5149235.7272   3666204.9638   1   7   0.0043   0.0096   0.0096   0.0022  -0.0077  -0.0017   0.00    3.1
2173 246172.000    798178.0615  -5149235.7238   3666204.9559   1   7   0.0044   0.0097   0.0095   0.0017  -0.0077  -0.0012   0.00    3.1
2173 246173.000    798178.0644  -5149235.7233   3666204.9593   1   7   0.0047   0.0097   0.0095   0.0027  -0.0077  -0.0012   0.00    3.1
2173 246174.000    798178.0662  -5149235.7253   3666204.9605   1   7   0.0047   0.0098   0.0095   0.0020  -0.0076  -0.0017   0.00    3.1
2173 246175.000    798178.0631  -5149235.7299   3666204.9633   1   7   0.0044   0.0096   0.0096   0.0019  -0.0077  -0.0019   0.00    3.2
2173 246176.000    798178.0632  -5149235.7189   3666204.9537   1   7   0.0044   0.0096   0.0096   0.0028  -0.0078  -0.0010   0.00    3.2
2173 246177.000    798178.0632  -5149235.7240   3666204.9590   1   7   0.0044   0.0097   0.0095   0.0025  -0.0077  -0.0014   0.00    3.2
2173 246178.000    798178.0585  -5149235.7251   3666204.9587   1   7   0.0046   0.0096   0.0096   0.0024  -0.0077  -0.0015   0.00    3.2
2173 246179.000    798178.0633  -5149235.7244   3666204.9579   1   7   0.0041   0.0095   0.0095   0.0024  -0.0079  -0.0013   0.00    3.2
2173 246180.000    798178.0603  -5149235.7251   3666204.9592   1   7   0.0044   0.0095   0.0096   0.0022  -0.0078  -0.0012   0.00    3.2
2173 246181.000    798178.0572  -5149235.7254   3666204.9535   1   7   0.0042   0.0096   0.0096   0.0025  -0.0078  -0.0016   0.00    3.2
2173 246182.000    798178.0574  -5149235.7260   3666204.9557   1   7   0.0041   0.0097   0.0096   0.0022  -0.0077  -0.0019   0.00    3.2
2173 246183.000    798178.0600  -5149235.7237   3666204.9536   1   7   0.0050   0.0097   0.0095   0.0021  -0.0077  -0.0015   0.00    3.2
2173 246184.000    798178.0529  -5149235.7214   3666204.9507   1   7   0.0047   0.0097   0.0095   0.0019  -0.0077  -0.0020   0.00    3.2
2173 246185.000    798178.0540  -5149235.7245   3666204.9605   1   7   0.0047   0.0096   0.0096   0.0021  -0.0078  -0.0018   0.00    3.3
2173 246186.000    798178.0568  -5149235.7226   3666204.9576   1   7   0.0044   0.0096   0.0096   0.0023  -0.0078  -0.0015   0.00    3.3
2173 246187.000    798178.0535  -5149235.7199   3666204.9595   1   7   0.0039   0.0095   0.0094   0.0028  -0.0079  -0.0012   0.00    3.3
2173 246188.000    798178.0525  -5149235.7264   3666204.9605   1   7   0.0043   0.0095   0.0096   0.0018  -0.0078  -0.0021   0.00    3.3
2173 246189.000    798178.0536  -5149235.7265   3666204.9673   1   7   0.0046   0.0097   0.0096   0.0022  -0.0076  -0.0012   0.00    3.3
2173 246190.000    798178.0538  -5149235.7303   3666204.9697   1   7   0.0040   0.0096   0.0095   0.0026  -0.0077  -0.0011   0.00    3.3
2173 246191.000    798178.0533  -5149235.7328   3666204.9689   1   7   0.0043   0.0096   0.0095   0.0024  -0.0078  -0.0012   0.00    3.3
2173 246192.000    798178.0539  -5149235.7279   3666204.9689   1   7   0.0044   0.0097   0.0096   0.0013  -0.0077  -0.0018   0.00    3.3
2173 246193.000    798178.0540  -5149235.7289   3666204.9706   1   7   0.0041   0.0096   0.0095   0.0026  -0.0078  -0.0014   0.00    3.3
2173 246194.000    798178.0558  -5149235.7260   3666204.9636   1   7   0.0046   0.0097   0.0096   0.0014  -0.0077  -0.0018   0.00    3.3
2173 246195.000    798178.0519  -5149235.7265   3666204.9638   1   7   0.0048   0.0097   0.0096   0.0019  -0.0077  -0.0015   0.00    3.3
2173 246196.000    798178.0529  -5149235.7261   3666204.9713   1   7   0.0038   0.0096   0.0096   0.0024  -0.0078  -0.0015   0.00    3.3
2173 246197.000    798178.0530  -5149235.7252   3666204.9692   1   7   0.0042   0.0097   0.0096   0.0024  -0.0077  -0.0006   0.00    3.4
2173 246198.000    798178.0518  -5149235.7286   3666204.9721   1   7   0.0047   0.0096   0.0096   0.0023  -0.0078  -0.0016   0.00    3.4
2173 246199.000    798178.0493  -5149235.7243   3666204.9673   1   7   0.0047   0.0097   0.0096   0.0017  -0.0077  -0.0021   0.00    3.4
2173 246200.000    798178.0529  -5149235.7243   3666204.9728   1   7   0.0040   0.0097   0.0096   0.0025  -0.0077  -0.0010   0.00    3.4
2173 246201.000    798178.0519  -5149235.7193   3666204.9642   1   7   0.0048   0.0098   0.0096   0.0013  -0.0076  -0.0020   0.00    3.4
2173 246202.000    798178.0516  -5149235.7226   3666204.9659   1   7   0.0044   0.0096   0.0096   0.0020  -0.0077  -0.0014   0.00    3.4
2173 246203.000    798178.0530  -5149235.7278   3666204.9749   1   7   0.0046   0.0096   0.0096   0.0020  -0.0078  -0.0015   0.00    3.4
2173 246204.000    798178.0494  -5149235.7234   3666204.9647   1   7   0.0044   0.0097   0.0095   0.0022  -0.0076  -0.0014   0.00    3.4
2173 246205.000    798178.0456  -5149235.7220   3666204.9664   1   7   0.0044   0.0096   0.0096   0.0024  -0.0078  -0.0011   0.00    3.4
2173 246206.000    798178.0476  -5149235.7234   3666204.9642   1   7   0.0046   0.0097   0.0096   0.0022  -0.0077  -0.0019   0.00    3.5
2173 246207.000    798178.0490  -5149235.7173   3666204.9644   1   7   0.0046   0.0096   0.0095   0.0022  -0.0078  -0.0017   0.00    3.5
2173 246208.000    798178.0475  -5149235.7168   3666204.9539   1   7   0.0041   0.0096   0.0095   0.0028  -0.0078  -0.0010   0.00    3.5
2173 246209.000    798178.0466  -5149235.7180   3666204.9681   1   7   0.0041   0.0096   0.0096   0.0021  -0.0077  -0.0016   0.00    3.5
2173 246210.000    798178.0467  -5149235.7106   3666204.9571   1   7   0.0042   0.0096   0.0096   0.0022  -0.0079  -0.0012   0.00    3.5
2173 246211.000    798178.0480  -5149235.7128   3666204.9626   1   7   0.0048   0.0097   0.0095   0.0026  -0.0077  -0.0016   0.00    3.5
2173 246212.000    798178.0478  -5149235.7127   3666204.9605   1   7   0.0043   0.0097   0.0096   0.0024  -0.0078  -0.0012   0.00    3.5
2173 246213.000    798178.0458  -5149235.7089   3666204.9628   1   7   0.0045   0.0096   0.0095   0.0022  -0.0079  -0.0016   0.00    3.6
2173 246214.000    798178.0465  -5149235.7008   3666204.9557   1   7   0.0048   0.0098   0.0096   0.0020  -0.0076  -0.0020   0.00    3.6
2173 246215.000    798178.0482  -5149235.7047   3666204.9588   1   7   0.0041   0.0097   0.0096   0.0020  -0.0077  -0.0013   0.00    3.6
2173 246216.000    798178.0489  -5149235.6997   3666204.9556   1   7   0.0040   0.0096   0.0096   0.0013  -0.0077  -0.0019   0.00    3.6
2173 246217.000    798178.0494  -5149235.7004   3666204.9596   1   7   0.0046   0.0098   0.0095   0.0020  -0.0077  -0.0015   0.00    3.6
2173 246218.000    798178.0482  -5149235.6963   3666204.9557   1   7   0.0046   0.0097   0.0096   0.0020  -0.0077  -0.0020   0.00    3.6
2173 246219.000    798178.0499  -5149235.7013   3666204.9582   1   7   0.0042   0.0096   0.0096   0.0022  -0.0078  -0.0016   0.00    3.6
2173 246220.000    798178.0496  -5149235.7028   3666204.9584   1   7   0.0047   0.0098   0.0096   0.0020  -0.0077  -0.0017   0.00    3.6
2173 246221.000    798178.0492  -5149235.6986   3666204.9554   1   7   0.0040   0.0097   0.0095   0.0021  -0.0077  -0.0016   0.00    3.7
2173 246222.000    798178.0475  -5149235.6948   3666204.9513   1   7   0.0043   0.0097   0.0096   0.0015  -0.0077  -0.0017   0.00    3.7
2173 246223.000    798178.0452  -5149235.6947   3666204.9508   1   7   0.0043   0.0096   0.0095   0.0027  -0.0079  -0.0016   0.00    3.7
2173 246224.000    798178.0449  -5149235.7016   3666204.9614   1   7   0.0045   0.0095   0.0096   0.0024  -0.0078  -0.0016   0.00    3.7
2173 246225.000    798178.0407  -5149235.6986   3666204.9614   1   7   0.0041   0.0096   0.0096   0.0026  -0.0078  -0.0014   0.00    3.7
2173 246226.000    798178.0433  -5149235.6981   3666204.9620   1   7   0.0048   0.0097   0.0096   0.0024  -0.0078  -0.0007   0.00    3.7
2173 246227.000    798178.0433  -5149235.6932   3666204.9609   1   7   0.0042   0.0095   0.0095   0.0021  -0.0079  -0.0015   0.00    3.8
2173 246228.000    798178.0407  -5149235.6942   3666204.9572   1   7   0.0048   0.0098   0.0096   0.0020  -0.0076  -0.0019   0.00    3.8
2173 246229.000    798178.0365  -5149235.7026   3666204.9687   1   7   0.0043   0.0096   0.0096   0.0020  -0.0079  -0.0015   0.00    3.8
2173 246230.000    798178.0380  -5149235.7003   3666204.9626   1   7   0.0045   0.0098   0.0096   0.0015  -0.0076  -0.0017   0.00    3.8
2173 246231.000    798178.0380  -5149235.7054   3666204.9646   1   7   0.0043   0.0097   0.0095   0.0023  -0.0077  -0.0012   0.00    3.9
2173 246232.000    798178.0378  -5149235.7015   3666204.9670   1   7   0.0043   0.0095   0.0095   0.0028  -0.0079  -0.0009   0.00    3.9
2173 246233.000    798178.0365  -5149235.7095   3666204.9722   1   7   0.0045   0.0097   0.0096   0.0024  -0.0077  -0.0018   0.00    3.9
2173 246234.000    798178.0329  -5149235.7078   3666204.9750   1   7   0.0046   0.0097   0.0096   0.0023  -0.0077  -0.0015   0.00    3.9
2173 246235.000    798178.0304  -5149235.7094   3666204.9784   1   7   0.0042   0.0095   0.0096   0.0024  -0.0078  -0.0014   0.00    4.0
2173 246236.000    798178.0320  -5149235.7082   3666204.9780   1   7   0.0047   0.0097   0.0096   0.0019  -0.0077  -0.0015   0.00    4.0
2173 246237.000    798178.0320  -5149235.7123   3666204.9741   1   7   0.0043   0.0096   0.0095   0.0022  -0.0077  -0.0013   0.00    4.0
2173 246238.000    798178.0327  -5149235.7051   3666204.9756   1   7   0.0040   0.0095   0.0095   0.0025  -0.0079   0.0006   0.00    4.0
2173 246239.000    798178.0307  -5149235.7111   3666204.9757   1   7   0.0045   0.0097   0.0096   0.0022  -0.0077  -0.0018   0.00    4.1
2173 246240.000    798178.0340  -5149235.7091   3666204.9756   1   7   0.0041   0.0096   0.0096   0.0024  -0.0078  -0.0010   0.00    4.1
2173 246241.000    798178.0348  -5149235.7133   3666204.9793   1   7   0.0043   0.0096   0.0096   0.0024  -0.0078  -0.0015   0.00    4.1
2173 246242.000    798178.0350  -5149235.7123   3666204.9826   1   7   0.0045   0.0096   0.0094   0.0022  -0.0078  -0.0015   0.00    4.1
2173 246243.000    798178.0347  -5149235.7122   3666204.9819   1   7   0.0039   0.0095   0.0096   0.0023  -0.0078  -0.0015   0.00    4.1
2173 246244.000    798178.0339  -5149235.7185   3666204.9874   1   7   0.0043   0.0095   0.0096   0.0019  -0.0079  -0.0014   0.00    4.2
2173 246245.000    798178.0336  -5149235.7194   3666204.9891   1   7   0.0045   0.0097   0.0096   0.0019  -0.0077  -0.0022   0.00    4.2
2173 246246.000    798178.0344  -5149235.7171   3666204.9887   1   7   0.0046   0.0096   0.0096   0.0020  -0.0078  -0.0017   0.00    4.2
2173 246247.000    798178.0353  -5149235.7114   3666204.9811   1   7   0.0046   0.0096   0.0095   0.0018  -0.0079  -0.0018   0.00    4.2
2173 246248.000    798178.0337  -5149235.7160   3666204.9856   1   7   0.0045   0.0097   0.0096   0.0020  -0.0077  -0.0019   0.00    4.2
2173 246249.000    798178.0358  -5149235.7161   3666204.9839   1   7   0.0041   0.0096   0.0095   0.0020  -0.0078  -0.0019   0.00    4.3
2173 246250.000    798178.0339  -5149235.7193   3666204.9848   1   7   0.0046   0.0097   0.0096   0.0026  -0.0078  -0.0016   0.00    4.3
2173 246251.000    798178.0328  -5149235.7195   3666204.9904   1   7   0.0043   0.0097   0.0095   0.0022  -0.0078  -0.0016   0.00    4.3
2173 246252.000    798178.0307  -5149235.7232   3666204.9964   1   7   0.0043   0.0096   0.0096   0.0021  -0.0078  -0.0019   0.00    4.3
2173 246253.000    798178.0294  -5149235.7226   3666204.9938   1   7   0.0043   0.0097   0.0095   0.0020  -0.0077  -0.0020   0.00    4.3
2173 246254.000    798178.0307  -5149235.7248   3666204.9942   1   7   0.0047   0.0098   0.0096   0.0012  -0.0077  -0.0024   0.00    4.3
2173 246255.000    798178.0303  -5149235.7233   3666204.9923   1   7   0.0046   0.0097   0.0096   0.0022  -0.0078  -0.0019   0.00    4.4
2173 246256.000    798178.0281  -5149235.7293   3666204.9977   1   7   0.0041   0.0096   0.0096   0.0022  -0.0079  -0.0017   0.00    4.4
2173 246257.000    798178.0291  -5149235.7241   3666204.9928   1   7   0.0045   0.0096   0.0096   0.0020  -0.0078  -0.0020   0.00    4.4
2173 246258.000    798178.0304  -5149235.7302   3666204.9946   1   7   0.0049   0.0097   0.0096   0.0023  -0.0078  -0.0019   0.00    4.4
2173 246259.000    798178.0271  -5149235.7221   3666204.9900   1   7   0.0043   0.0096   0.0096   0.0015  -0.0078  -0.0017   0.00    4.5
2173 246260.000    798178.0265  -5149235.7268   3666204.9969   1   7   0.0044   0.0097   0.0095   0.0025  -0.0078  -0.0013   0.00    4.5
2173 246261.000    798178.0279  -5149235.7289   3666204.9970   1   7   0.0045   0.0096   0.0095   0.0022  -0.0078  -0.0016   0.00    4.5
2173 246262.000    798178.0264  -5149235.7261   3666204.9918   1   7   0.0037   0.0095   0.0095   0.0026  -0.0079  -0.0014   0.00    4.6
2173 246263.000    798178.0295  -5149235.7297   3666204.9962   1   7   0.0046   0.0097   0.0095   0.0022  -0.0077  -0.0016   0.00    4.6
2173 246264.000    798178.0302  -5149235.7292   3666204.9935   1   7   0.0042   0.0096   0.0096   0.0025  -0.0079  -0.0014   0.00    4.6
2173 246265.000    798178.0300  -5149235.7311   3666204.9950   1   7   0.0038   0.0097   0.0096   0.0021  -0.0078  -0.0017   0.00    4.7
2173 246266.000    798178.0313  -5149235.7310   3666204.9963   1   7   0.0041   0.0095   0.0095   0.0027  -0.0079  -0.0013   0.00    4.7
2173 246267.000    798178.0271  -5149235.7306   3666204.9957   1   7   0.0045   0.0098   0.0096   0.0026  -0.0076  -0.0015   0.00    4.7
2173 246268.000    798178.0289  -5149235.7339   3666204.9978   1   7   0.0046   0.0098   0.0096   0.0019  -0.0076  -0.0015   0.00    4.8
2173 246269.000    798178.0280  -5149235.7382   3666205.0008   1   7   0.0044   0.0097   0.0095   0.0019  -0.0078  -0.0015   0.00    4.8
2173 246270.000    798178.0322  -5149235.7409   3666205.0034   1   7   0.0043   0.0097   0.0096   0.0030  -0.0078  -0.0005   0.00    4.8
2173 246271.000    798178.0267  -5149235.7401   3666205.0012   1   7   0.0044   0.0097   0.0096   0.0020  -0.0078  -0.0013   0.00    4.9
2173 246272.000    798178.0292  -5149235.7402   3666204.9995   1   7   0.0040   0.0096   0.0095   0.0024  -0.0079  -0.0015   0.00    4.9
2173 246273.000    798178.0299  -5149235.7372   3666205.0032   1   7   0.0046   0.0097   0.0096   0.0023  -0.0078  -0.0015   0.00    4.9
2173 246274.000    798178.0304  -5149235.7357   3666205.0076   1   7   0.0046   0.0097   0.0096   0.0027  -0.0078  -0.0013   0.00    5.0
2173 246275.000    798178.0287  -5149235.7333   3666205.0119   1   7   0.0045   0.0096   0.0096   0.0023  -0.0078  -0.0017   0.00    5.0
2173 246276.000    798178.0296  -5149235.7314   3666205.0076   1   7   0.0048   0.0097   0.0096   0.0022  -0.0078  -0.0017   0.00    5.0
2173 246277.000    798178.0291  -5149235.7387   3666205.0087   1   7   0.0046   0.0096   0.0096   0.0026  -0.0078  -0.0014   0.00    5.1
2173 246278.000    798178.0275  -5149235.7303   3666205.0073   1   7   0.0046   0.0098   0.0096   0.0024  -0.0077  -0.0014   0.00    5.1
2173 246279.000    798178.0308  -5149235.7342   3666205.0047   1   7   0.0046   0.0097   0.0096   0.0019  -0.0078  -0.0017   0.00    5.1
2173 246280.000    798178.0311  -5149235.7309   3666204.9989   1   7   0.0043   0.0097   0.0095   0.0019  -0.0077  -0.0018   0.00    5.2
2173 246281.000    798178.0296  -5149235.7369   3666205.0090   1   7   0.0047   0.0097   0.0096   0.0015  -0.0078  -0.0018   0.00    5.2
2173 246282.000    798178.0309  -5149235.7398   3666205.0114   1   7   0.0040   0.0096   0.0096   0.0023  -0.0078  -0.0015   0.00    5.2
2173 246283.000    798178.0300  -5149235.7320   3666205.0095   1   7   0.0048   0.0097   0.0096   0.0025  -0.0077  -0.0018   0.00    5.3
2173 246284.000    798178.0298  -5149235.7345   3666205.0058   1   7   0.0042   0.0097   0.0096   0.0026  -0.0077  -0.0014   0.00    5.3
2173 246285.000    798178.0311  -5149235.7277   3666204.9955   1   7   0.0048   0.0098   0.0095   0.0019  -0.0077  -0.0018   0.00    5.3
2173 246286.000    798178.0300  -5149235.7300   3666204.9998   1   7   0.0042   0.0096   0.0096   0.0022  -0.0079  -0.0013   0.00    5.3
2173 246287.000    798178.0309  -5149235.7332   3666205.0031   1   7   0.0044   0.0097   0.0097   0.0019  -0.0077  -0.0020   0.00    5.4
2173 246288.000    798178.0310  -5149235.7323   3666205.0045   1   7   0.0043   0.0096   0.0095   0.0022  -0.0078  -0.0011   0.00    5.4
2173 246289.000    798178.0313  -5149235.7378   3666205.0059   1   7   0.0049   0.0097   0.0096   0.0018  -0.0077  -0.0019   0.00    5.4
2173 246290.000    798178.0343  -5149235.7378   3666205.0133   1   7   0.0043   0.0096   0.0095   0.0027  -0.0079  -0.0008   0.00    5.5
2173 246291.000    798178.0345  -5149235.7416   3666205.0157   1   7   0.0047   0.0098   0.0097   0.0019  -0.0077  -0.0024   0.00    5.5
2173 246292.000    798178.0299  -5149235.7462   3666205.0180   1   7   0.0046   0.0097   0.0096   0.0021  -0.0077  -0.0017   0.00    5.5
2173 246293.000    798178.0292  -5149235.7387   3666205.0129   1   7   0.0041   0.0097   0.0096   0.0023  -0.0077  -0.0016   0.00    5.5
2173 246294.000    798178.0337  -5149235.7422   3666205.0162   1   7   0.0046   0.0096   0.0095   0.0020  -0.0078  -0.0016   0.00    5.6
2173 246295.000    798178.0338  -5149235.7398   3666205.0116   1   7   0.0050   0.0098   0.0097   0.0021  -0.0077  -0.0021   0.00    5.6
2173 246296.000    798178.0326  -5149235.7440   3666205.0106   1   7   0.0046   0.0097   0.0096   0.0022  -0.0077  -0.0017   0.00    5.6
2173 246297.000    798178.0329  -5149235.7450   3666205.0083   1   7   0.0046   0.0097   0.0096   0.0020  -0.0078  -0.0015   0.00    5.6
2173 246298.000    798178.0333  -5149235.7395   3666205.0057   1   7   0.0048   0.0097   0.0096   0.0022  -0.0077  -0.0017   0.00    5.7
2173 246299.000    798178.0348  -5149235.7462   3666205.0152   1   7   0.0045   0.0097   0.0096   0.0027  -0.0078  -0.0011   0.00    5.7
2173 246300.000    798178.0361  -5149235.7426   3666205.0077   1   7   0.0041   0.0096   0.0096   0.0022  -0.0079  -0.0015   0.00    5.7
2173 246301.000    798178.0348  -5149235.7447   3666205.0116   1   7   0.0043   0.0097   0.0096   0.0018  -0.0077  -0.0018   0.00    5.8
2173 246302.000    798178.0347  -5149235.7390   3666205.0101   1   7   0.0043   0.0097   0.0096   0.0024  -0.0077  -0.0015   0.00    5.8
2173 246303.000    798178.0361  -5149235.7371   3666205.0111   1   7   0.0043   0.0098   0.0096   0.0019  -0.0077  -0.0016   0.00    5.8
2173 246304.000    798178.0305  -5149235.7367   3666205.0046   1   7   0.0042   0.0094   0.0095   0.0025  -0.0081  -0.0016   0.00    5.8
2173 246305.000    798178.0340  -5149235.7419   3666205.0104   1   7   0.0043   0.0097   0.0096   0.0023  -0.0078  -0.0011   0.00    5.9
2173 246306.000    798178.0334  -5149235.7406   3666205.0089   1   7   0.0043   0.0096   0.0096   0.0023  -0.0079  -0.0018   0.00    5.9
2173 246307.000    798178.0360  -5149235.7439   3666205.0138   1   7   0.0038   0.0095   0.0095   0.0024  -0.0080  -0.0010   0.00    5.9
2173 246308.000    798178.0348  -5149235.7464   3666205.0141   1   7   0.0046   0.0097   0.0096   0.0017  -0.0077  -0.0021   0.00    5.9
2173 246309.000    798178.0308  -5149235.7467   3666205.0219   1   7   0.0039   0.0096   0.0095   0.0027  -0.0078  -0.0012   0.00    5.9
2173 246310.000    798178.0307  -5149235.7530   3666205.0246   1   7   0.0044   0.0098   0.0097   0.0020  -0.0077  -0.0020   0.00    5.9
2173 246311.000    798178.0316  -5149235.7537   3666205.0237   1   7   0.0043   0.0097   0.0096   0.0022  -0.0078  -0.0019   0.00    6.0
2173 246312.000    798178.0330  -5149235.7494   3666205.0231   1   7   0.0040   0.0097   0.0096   0.0020  -0.0078  -0.0016   0.00    6.0
2173 246313.000    798178.0328  -5149235.7489   3666205.0157   1   7   0.0039   0.0097   0.0096   0.0020  -0.0078  -0.0011   0.00    6.0
2173 246314.000    798178.0307  -5149235.7540   3666205.0155   1   7   0.0040   0.0095   0.0095   0.0025  -0.0079  -0.0015   0.00    6.0
2173 246315.000    798178.0359  -5149235.7539   3666205.0168   1   7   0.0039   0.0096   0.0096   0.0017  -0.0078  -0.0011   0.00    6.0
2173 246316.000    798178.0320  -5149235.7554   3666205.0197   1   7   0.0047   0.0097   0.0096   0.0021  -0.0078  -0.0020   0.00    6.1
2173 246317.000    798178.0341  -5149235.7512   3666205.0140   1   7   0.0040   0.0096   0.0096   0.0018  -0.0078  -0.0017   0.00    6.1
2173 246318.000    798178.0345  -5149235.7467   3666205.0121   1   7   0.0042   0.0098   0.0096   0.0021  -0.0077  -0.0017   0.00    6.1
2173 246319.000    798178.0359  -5149235.7493   3666205.0059   1   7   0.0046   0.0097   0.0096   0.0022  -0.0078  -0.0017   0.00    6.1
2173 246320.000    798178.0344  -5149235.7523   3666205.0079   1   7   0.0046   0.0097   0.0096   0.0020  -0.0079  -0.0016   0.00    6.1
2173 246321.000    798178.0373  -5149235.7549   3666205.0065   1   7   0.0044   0.0096   0.0096   0.0024  -0.0079  -0.0015   0.00    6.1
2173 246322.000    798178.0341  -5149235.7477   3666205.0074   1   7   0.0042   0.0096   0.0096   0.0024  -0.0079  -0.0015   0.00    6.1
2173 246323.000    798178.0337  -5149235.7511   3666205.0110   1   7   0.0044   0.0098   0.0097   0.0017  -0.0077  -0.0021   0.00    6.2
2173 246324.000    798178.0359  -5149235.7532   3666205.0067   1   7   0.0037   0.0095   0.0096   0.0019  -0.0079  -0.0018   0.00    6.2
2173 246325.000    798178.0346  -5149235.7599   3666205.0153   1   7   0.0044   0.0097   0.0096   0.0021  -0.0078  -0.0016   0.00    6.2
2173 246326.000    798178.0364  -5149235.7548   3666205.0129   1   7   0.0041   0.0096   0.0095   0.0025  -0.0079  -0.0011   0.00    6.2
2173 246327.000    798178.0346  -5149235.7527   3666205.0094   1   7   0.0040   0.0096   0.0095   0.0028  -0.0078  -0.0007   0.00    6.2
2173 246328.000    798178.0358  -5149235.7551   3666205.0114   1   7   0.0047   0.0096   0.0096   0.0022  -0.0080  -0.0022   0.00    6.2
2173 246329.000    798178.0367  -5149235.7569   3666205.0022   1   7   0.0038   0.0097   0.0096   0.0022  -0.0077  -0.0011   0.00    6.3
2173 246330.000    798178.0353  -5149235.7518   3666204.9992   1   7   0.0041   0.0095   0.0096   0.0021  -0.0080  -0.0016   0.00    6.3
2173 246331.000    798178.0384  -5149235.7478   3666204.9969   1   7   0.0041   0.0095   0.0096   0.0020  -0.0079  -0.0020   0.00    6.3
2173 246332.000    798178.0393  -5149235.7538   3666204.9956   1   7   0.0049   0.0097   0.0096   0.0022  -0.0078  -0.0018   0.00    6.3
2173 246333.000    798178.0378  -5149235.7511   3666205.0041   1   7   0.0043   0.0095   0.0096   0.0024  -0.0079  -0.0017   0.00    6.3
2173 246334.000    798178.0381  -5149235.7596   3666205.0050   1   7   0.0041   0.0097   0.0096   0.0026  -0.0078  -0.0015   0.00    6.3
2173 246335.000    798178.0387  -5149235.7509   3666205.0003   1   7   0.0043   0.0097   0.0096   0.0021  -0.0077  -0.0016   0.00    6.4
2173 246336.000    798178.0405  -5149235.7592   3666205.0090   1   7   0.0042   0.0097   0.0096   0.0018  -0.0078  -0.0016   0.00    6.4
2173 246337.000    798178.0401  -5149235.7595   3666205.0028   1   7   0.0042   0.0098   0.0097   0.0019  -0.0077  -0.0017   0.00    6.4
2173 246338.000    798178.0402  -5149235.7638   3666205.0062   1   7   0.0046   0.0098   0.0096   0.0016  -0.0078  -0.0022   0.00    6.4
2173 246339.000    798178.0422  -5149235.7547   3666204.9983   1   7   0.0044   0.0097   0.0096   0.0023  -0.0078  -0.0013   0.00    6.4
2173 246340.000    798178.0392  -5149235.7596   3666205.0097   1   7   0.0045   0.0096   0.0096   0.0023  -0.0078  -0.0013   0.00    6.4
2173 246341.000    798178.0420  -5149235.7554   3666205.0022   1   7   0.0043   0.0095   0.0095   0.0024  -0.0079  -0.0015   0.00    6.5
2173 246342.000    798178.0432  -5149235.7567   3666205.0015   1   7   0.0046   0.0097   0.0096   0.0019  -0.0077  -0.0019   0.00    6.5
2173 246343.000    798178.0420  -5149235.7586   3666205.0066   1   7   0.0044   0.0098   0.0096   0.0019  -0.0077  -0.0019   0.00    6.5
