     2.11           OBSERVATION DATA    M (MIXED)           RINEX VERSION / TYPE
CONVBIN 2.4.3                           20210901 005201 UTC PGM / RUN BY / DATE 
log: logs/21_08_31_22_54_17_ingy_SNIN.rtcm                  COMMENT             
format: RTCM 3, station ID: 3337                            COMMENT             
3337                                                        MARKER NAME         
                                                            MARKER NUMBER       
                                                            OBSERVER / AGENCY   
1705147             LEICA GR30          4.50                REC # / TYPE / VERS 
                    GPPNULLANTENNA                          ANT # / TYPE        
   229475.3424 -4771451.8904  4212083.7746                  APPROX POSITION XYZ 
        0.0000        0.0000        0.0000                  ANTENNA: DELTA H/E/N
     1     1                                                WAVELENGTH FACT L1/2
     7    C1    L1    C2    L2    P2    C5    L5            # / TYPES OF OBSERV 
  2021     8    31    22    54   24.0000000     GPS         TIME OF FIRST OBS   
  2021     8    31    23    25   11.0000000     GPS         TIME OF LAST OBS    
                                                            END OF HEADER       
 21  8 31 22 54 24.0000000  0 19G 1G10G12G21G23G25G31G32R 5R 7R 9R15
                                R16R21R22E 3E 5E15E25
  23831862.697   125237283.536    23831865.056    97587502.406    23831864.931  
  23831864.305    93521353.941  
  20552943.514   108006447.531    20552944.086    84160870.172    20552944.050  
  20552942.763    80654161.930  
  23466168.550   123315547.865    23466167.853    96090031.761    23466167.174  
                                
  23587150.806   123951313.742                    96585430.977    23587148.733  
                                
  22613606.015   118835301.407    22613605.890    92598935.022    22613605.747  
  22613610.250    88740663.506  
  23167907.020   121748172.403    23167909.826    94868715.306    23167909.290  
  23167910.362    90915855.959  
  22568074.886   118596033.798    22568074.315    92412488.374    22568073.689  
                                
  20547527.538   107977986.134    20547528.396    84138692.017    20547527.949  
  20547527.217    80632909.620  
  23100712.472   123486546.761    23100714.187    96045099.206    23100714.258  
                                
  21175469.093   113353943.352    21175468.950    88164177.830    21175468.896  
                                
  21878487.276   116829901.152    21878488.419    90867705.980    21878488.491  
                                
  22362831.414   119500190.575    22362832.486    92944596.641    22362832.629  
                                
  19979883.554   106728951.150    19979882.482    83011401.933    19979883.679  
                                
  23090024.723   123559385.412    23090025.956    96101749.344    23090025.974  
                                
  21813407.901   116441451.978    21813409.116    90565579.290    21813408.276  
                                
  23624893.238   124149652.011                                                  
  23624896.615    92709168.311  
  25255138.632   132716649.694                                                  
  25255142.599    99106603.754  
  24922616.396   130969233.438                                                  
  24922621.185    97801718.403  
  25998130.123   136621096.212                                                  
  25998134.912   102022265.208  
 21  8 31 22 54 25.0000000  0 19G 1G10G12G21G23G25G31G32R 5R 7R 9R15
                                R16R21R22E 3E 5E15E25
  23831379.966   125234746.761    23831382.306    97585525.700    23831382.181  
  23831381.556    93519459.585  
  20553151.116   108007538.503    20553151.688    84161720.283    20553151.670  
  20553150.366    80654976.622  
  23465929.462   123314291.513    23465928.765    96089052.784    23465928.086  
                                
  23586931.177   123950159.659                    96584531.692    23586929.122  
                                
  22614163.385   118838230.444    22614163.278    92601217.384    22614163.117  
  22614167.638    88742850.767  
  23167421.287   121745619.899    23167424.110    94866726.340    23167423.556  
  23167424.628    90913949.869  
  22567404.816   118592512.489    22567404.226    92409744.495    22567403.619  
                                
  20547464.335   107977654.063    20547465.193    84138433.258    20547464.764  
  20547464.014    80632661.647  
  23101235.730   123489343.818    23101237.428    96047274.695    23101237.499  
                                
  21175032.106   113351604.129    21175031.981    88162358.435    21175031.891  
                                
  21877728.646   116825850.158    21877729.790    90864555.211    21877729.879  
                                
  22363398.541   119503221.121    22363399.631    92946953.732    22363399.756  
                                
  19979696.734   106727953.223    19979695.662    83010625.768    19979696.877  
                                
  23090768.146   123563363.669    23090769.397    96104843.543    23090769.432  
                                
  21813718.500   116443109.982    21813719.715    90566868.846    21813718.893  
                                
  23624845.420   124149400.766                                                  
  23624848.815    92708980.696  
  25255456.808   132718321.710                                                  
  25255460.792    99107852.331  
  24922958.480   130971031.207                                                  
  24922963.287    97803060.898  
  25997674.016   136618699.372                                                  
  25997678.805   102020475.362  
 21  8 31 22 54 26.0000000  0 19G 1G10G12G21G23G25G31G32R 5R 7R 9R15
                                R16R21R22E 3E 5E15E25
  23830897.323   125232210.532    23830899.682    97583549.420    23830899.557  
  23830898.931    93517565.652  
  20553358.862   108008630.050    20553359.398    84162570.837    20553359.380  
  20553358.075    80655791.734  
  23465690.518   123313035.827    23465689.821    96088074.327    23465689.142  
                                
  23586711.692   123949006.163                    96583632.859    23586709.619  
                                
  22614720.827   118841159.845    22614720.720    92603500.039    22614720.595  
  22614725.080    88745038.305  
  23166935.660   121743067.830    23166938.448    94864737.719    23166937.912  
  23166939.002    90912044.107  
  22566734.799   118588991.577    22566734.227    92407000.929    22566733.602  
                                
  20547401.204   107977322.367    20547402.080    84138174.796    20547401.633  
  20547400.900    80632413.954  
  23101759.024   123492141.103    23101760.722    96049450.358    23101760.793  
                                
  21174595.137   113349265.128    21174595.029    88160539.212    21174594.958  
                                
  21876970.088   116821799.528    21876971.232    90861404.726    21876971.321  
                                
  22363965.793   119506252.321    22363966.865    92949311.332    22363967.008  
                                
  19979510.110   106726956.269    19979509.020    83009850.357    19979510.253  
                                
  23091511.658   123567342.263    23091512.891    96107937.998    23091512.909  
                                
  21814029.242   116444768.832    21814030.493    90568159.063    21814029.653  
                                
  23624797.656   124149149.748                                                  
  23624801.034    92708793.243  
  25255775.037   132719993.870                                                  
  25255778.986    99109101.016  
  24923300.690   130972829.449                                                  
  24923305.479    97804403.745  
  25997217.963   136616302.861                                                  
  25997222.752   102018685.766  
 21  8 31 22 54 27.0000000  0 19G 1G10G12G21G23G25G31G32R 5R 7R 9R15
                                R16R21R22E 3E 5E15E25
  23830414.752   125229674.581    23830417.111    97581573.357    23830417.004  
  23830416.343    93515671.932  
  20553566.625   108009721.891    20553567.161    84163421.622    20553567.143  
  20553565.838    80656607.069  
  23465451.627   123311780.497    23465450.930    96087096.148    23465450.251  
                                
  23586492.225   123947852.954                    96582734.257    23586490.170  
                                
  22615278.287   118844089.331    22615278.198    92605782.754    22615278.037  
  22615282.558    88747225.917  
  23166450.016   121740515.913    23166452.839    94862749.217    23166452.285  
  23166453.358    90910138.466  
  22566064.800   118585470.767    22566064.228    92404257.440    22566063.603  
                                
  20547338.109   107976990.763    20547338.966    84137916.403    20547338.538  
  20547337.787    80632166.325  
  23102282.301   123494938.363    23102283.998    96051626.005    23102284.088  
                                
  21174158.185   113346926.046    21174158.042    88158719.926    21174157.989  
                                
  21876211.548   116817749.026    21876212.710    90858254.340    21876212.781  
                                
  22364533.117   119509283.926    22364534.189    92951669.245    22364534.332  
                                
  19979323.611   106725960.025    19979322.521    83009075.502    19979323.754  
                                
  23092255.152   123571320.854    23092256.385    96111032.456    23092256.421  
                                
  21814340.128   116446428.245    21814341.343    90569449.718    21814340.521  
                                
  23624749.875   124148898.685                                                  
  23624753.270    92708605.767  
  25256093.177   132721665.901                                                  
  25256097.162    99110349.615  
  24923642.918   130974627.887                                                  
  24923647.724    97805746.730  
  25996761.945   136613906.406                                                  
  25996766.717   102016896.212  
 21  8 31 22 54 28.0000000  0 19G 1G10G12G21G23G25G31G32R 5R 7R 9R15
                                R16R21R22E 3E 5E15E25
  23829932.271   125227139.101    23829934.630    97579597.658    23829934.505  
  23829933.843    93513778.558  
  20553774.477   108010814.204    20553775.031    84164272.773    20553775.013  
  20553773.709    80657422.758  
  23465212.879   123310525.709    23465212.164    96086118.393    23465211.485  
                                
  23586272.883   123946700.203                    96581836.009    23586270.828  
                                
  22615835.819   118847019.102    22615835.694    92608065.690    22615835.568  
  22615840.089    88749413.726  
  23165964.461   121737964.334    23165967.284    94860760.976    23165966.730  
  23165967.803    90908233.068  
  22565394.873   118581950.227    22565394.301    92401514.165    22565393.675  
                                
  20547275.049   107976659.420    20547275.907    84137658.214    20547275.496  
  20547274.745    80631918.896  
  23102805.613   123497735.746    23102807.311    96053801.740    23102807.400  
                                
  21173721.252   113344587.096    21173721.109    88156900.749    21173721.055  
                                
  21875453.080   116813698.814    21875454.241    90855104.175    21875454.295  
                                
  22365100.547   119512316.128    22365101.637    92954027.622    22365101.762  
                                
  19979137.272   106724964.634    19979136.200    83008301.309    19979137.398  
                                
  23092998.664   123575299.580    23092999.915    96114127.020    23092999.951  
                                
  21814651.138   116448088.445    21814652.353    90570740.989    21814651.531  
                                
  23624702.128   124148647.740                                                  
  23624705.524    92708418.362  
  25256411.371   132723337.982                                                  
  25256415.356    99111598.244  
  24923985.217   130976426.672                                                  
  24923990.005    97807089.981  
  25996305.964   136611510.182                                                  
  25996310.735   102015106.815  
 21  8 31 22 54 29.0000000  0 19G 1G10G12G21G23G25G31G32R 5R 7R 9R15
                                R16R21R22E 3E 5E15E25
  23829449.879   125224604.174    23829452.237    97577622.389    23829452.130  
  23829451.469    93511885.578  
  20553982.437   108011907.046    20553983.009    84165124.337    20553982.991  
  20553981.668    80658238.843  
  23464974.202   123309271.549    23464973.505    96085141.135    23464972.826  
                                
  23586053.612   123945547.974                    96580938.184    23586051.539  
                                
  22616393.386   118849949.196    22616393.296    92610348.879    22616393.153  
  22616397.674    88751601.775  
  23165478.995   121735413.134    23165481.819    94858773.020    23165481.247  
  23165482.337    90906327.949  
  22564724.999   118578430.036    22564724.427    92398771.159    22564723.801  
                                
  20547212.078   107976328.414    20547212.936    84137400.289    20547212.489  
  20547211.757    80631671.714  
  23103328.943   123500533.322    23103330.659    96055977.650    23103330.748  
                                
  21173284.354   113342248.355    21173284.229    88155081.712    21173284.158  
                                
  21874694.683   116809648.950    21874695.826    90851954.279    21874695.898  
                                
  22365668.103   119515348.942    22365669.193    92956386.468    22365669.301  
                                
  19978951.095   106723970.123    19978950.023    83007527.801    19978951.220  
                                
  23093742.212   123579278.476    23093743.463    96117221.710    23093743.499  
                                
  21814962.274   116449749.453    21814963.524    90572032.873    21814962.685  
                                
  23624654.400   124148396.980                                                  
  23624657.795    92708231.113  
  25256729.600   132725010.184                                                  
  25256733.567    99112846.971  
  24924327.605   130978225.902                                                  
  24924332.394    97808433.551  
  25995850.018   136609114.246                                                  
  25995854.789   102013317.651  
 21  8 31 22 54 30.0000000  0 19G 1G10G12G21G23G25G31G32R 5R 7R 9R15
                                R16R21R22E 3E 5E15E25
  23828967.612   125222069.791    23828969.953    97575647.547    23828969.845  
  23828969.202    93509993.032  
  20554190.522   108013000.492    20554191.076    84165976.378    20554191.058  
  20554189.735    80659055.379  
  23464735.669   123308018.056    23464734.972    96084164.387    23464734.293  
                                
  23585834.466   123944396.335                    96580040.803    23585832.393  
                                
  22616951.060   118852879.695    22616950.953    92612632.385    22616950.792  
  22616955.313    88753790.136  
  23164993.619   121732862.435    23164996.425    94856785.472    23164995.871  
  23164996.943    90904423.204  
  22564055.196   118574910.256    22564054.624    92396028.478    22564053.999  
                                
  20547149.162   107975997.813    20547150.019    84137142.676    20547149.573  
  20547148.840    80631424.839  
  23103852.345   123503331.147    23103854.060    96058153.738    23103854.132  
                                
  21172847.510   113339909.877    21172847.385    88153262.898    21172847.314  
                                
  21873936.339   116805599.525    21873937.483    90848804.728    21873937.554  
                                
  22366235.784   119518382.460    22366236.874    92958745.868    22366237.017  
                                
  19978765.096   106722976.596    19978764.024    83006755.060    19978765.222  
                                
  23094485.814   123583257.683    23094487.083    96120316.646    23094487.100  
                                
  21815273.606   116451411.341    21815274.838    90573325.447    21815274.017  
                                
  23624606.744   124148146.480                                                  
  23624610.139    92708044.052  
  25257047.830   132726682.576                                                  
  25257051.815    99114095.828  
  24924670.065   130980025.611                                                  
  24924674.872    97809777.494  
  25995394.161   136606718.665                                                  
  25995398.932   102011528.745  
 21  8 31 22 54 31.0000000  0 19G 1G10G12G21G23G25G31G32R 5R 7R 9R15
                                R16R21R22E 3E 5E15E25
  23828485.452   125219536.044    23828487.811    97573673.201    23828487.685  
  23828487.024    93508100.947  
  20554398.696   108014094.571    20554399.268    84166828.903    20554399.250  
  20554397.945    80659872.383  
  23464497.278   123306765.257    23464496.581    96083188.183    23464495.902  
                                
  23585615.446   123943245.309                    96579143.900    23585613.355  
                                
  22617508.788   118855810.616    22617508.681    92614916.217    22617508.520  
  22617513.041    88755978.811  
  23164508.332   121730312.214    23164511.120    94854798.289    23164510.584  
  23164511.638    90902518.829  
  22563385.483   118571390.919    22563384.929    92393286.133    22563384.286  
                                
  20547086.316   107975667.632    20547087.174    84136885.392    20547086.763  
  20547086.012    80631178.273  
  23104375.782   123506129.237    23104377.515    96060330.025    23104377.587  
                                
  21172410.702   113337571.671    21172410.577    88151444.293    21172410.506  
                                
  21873178.103   116801550.567    21873179.247    90845655.546    21873179.318  
                                
  22366803.608   119521416.733    22366804.716    92961105.856    22366804.823  
                                
  19978579.312   106721984.135    19978578.222    83005983.145    19978579.419  
                                
  23095229.505   123587237.269    23095230.773    96123411.880    23095230.791  
                                
  21815585.116   116453074.164    21815586.349    90574618.754    21815585.527  
                                
  23624559.141   124147896.257                                                  
  23624562.518    92707857.194  
  25257366.131   132728355.164                                                  
  25257370.115    99115344.846  
  24925012.650   130981825.845                                                  
  24925017.421    97811121.829  
  25994938.358   136604323.468                                                  
  25994943.129   102009740.127  
 21  8 31 22 54 32.0000000  0 19G 1G10G12G21G23G25G31G32R 5R 7R 9R15
                                R16R21R22E 3E 5E15E25
  23828003.381   125217002.817    23828005.740    97571699.258    23828005.651  
  23828004.990    93506209.245  
  20554606.995   108015189.162    20554607.549    84167681.830    20554607.531  
  20554606.244    80660689.771  
  23464258.977   123305513.052    23464258.280    96082212.445    23464257.601  
                                
  23585396.514   123942094.809                    96578247.406    23585394.424  
                                
  22618066.587   118858741.860    22618066.480    92617200.301    22618066.337  
  22618070.858    88758167.727  
  23164023.099   121727762.375    23164025.904    94852811.413    23164025.350  
  23164026.423    90900614.733  
  22562715.859   118567871.908    22562715.270    92390544.046    22562714.662  
                                
  20547023.560   107975337.770    20547024.418    84136628.359    20547023.989  
  20547023.239    80630931.948  
  23104899.255   123508927.495    23104900.988    96062506.446    23104901.060  
                                
  21171973.947   113335233.620    21171973.822    88149625.807    21171973.733  
                                
  21872419.902   116797501.956    21872421.046    90842506.631    21872421.135  
                                
  22367371.539   119524451.621    22367372.647    92963466.324    22367372.772  
                                
  19978393.671   106720992.586    19978392.617    83005211.943    19978393.814  
                                
  23095973.231   123591217.091    23095974.482    96126507.295    23095974.536  
                                
  21815896.770   116454737.760    21815897.985    90575912.664    21815897.181  
                                
  23624511.555   124147646.213                                                  
  23624514.933    92707670.473  
  25257684.432   132730027.862                                                  
  25257688.416    99116593.940  
  24925355.288   130983626.482                                                  
  24925360.077    97812466.462  
  25994482.627   136601928.550                                                  
  25994487.398   102007951.712  
 21  8 31 22 54 33.0000000  0 19G 1G10G12G21G23G25G31G32R 5R 7R 9R15
                                R16R21R22E 3E 5E15E25
  23827521.454   125214470.259    23827523.812    97569725.838    23827523.723  
  23827523.062    93504318.051  
  20554815.437   108016284.450    20554815.991    84168535.304    20554815.973  
  20554814.669    80661507.682  
  23464020.836   123304261.621    23464020.121    96081237.309    23464019.442  
                                
  23585177.690   123940945.001                    96577351.457    23585175.617  
                                
  22618624.476   118861673.606    22618624.387    92619484.776    22618624.226  
  22618628.747    88760357.018  
  23163537.973   121725213.117    23163540.796    94850824.978    23163540.242  
  23163541.314    90898711.071  
  22562046.307   118564353.399    22562045.717    92387802.346    22562045.110  
                                
  20546960.858   107975008.402    20546961.751    84136371.709    20546961.305  
  20546960.572    80630685.995  
  23105422.817   123511726.098    23105424.533    96064683.133    23105424.622  
                                
  21171537.246   113332895.898    21171537.103    88147807.579    21171537.032  
                                
  21871661.827   116793453.873    21871662.971    90839358.128    21871663.042  
                                
  22367939.649   119527487.332    22367940.721    92965827.433    22367940.864  
                                
  19978208.280   106720002.176    19978207.190    83004441.627    19978208.387  
                                
  23096717.029   123595197.272    23096718.298    96129602.982    23096718.316  
                                
  21816208.602   116456402.404    21816209.835    90577207.386    21816209.031  
                                
  23624464.024   124147396.515                                                  
  23624467.419    92707484.012  
  25258002.786   132731700.844                                                  
  25258006.789    99117843.240  
  24925698.070   130985427.720                                                  
  24925702.841    97813811.536  
  25994026.966   136599534.093                                                  
  25994031.737   102006163.652  
 21  8 31 22 54 34.0000000  0 19G 1G10G12G21G23G25G31G32R 5R 7R 9R15
                                R16R21R22E 3E 5E15E25
  23827039.616   125211938.065    23827041.974    97567752.713    23827041.849  
  23827041.188    93502427.131  
  20555023.915   108017380.124    20555024.487    84169389.071    20555024.469  
  20555023.164    80662325.882  
  23463782.767   123303010.642    23463782.088    96080262.513    23463781.391  
                                
  23584958.955   123939795.545                    96576455.775    23584956.883  
                                
  22619182.419   118864605.530    22619182.311    92621769.398    22619182.151  
  22619186.671    88762546.440  
  23163052.918   121722664.091    23163055.724    94848838.724    23163055.188  
  23163056.242    90896807.584  
  22561376.790   118560835.083    22561376.201    92385060.806    22561375.593  
                                
  20546898.227   107974679.219    20546899.103    84136115.204    20546898.674  
  20546897.923    80630440.174  
  23105946.344   123514524.723    23105948.060    96066859.866    23105948.149  
                                
  21171100.545   113330558.182    21171100.402    88145989.372    21171100.349  
                                
  21870903.769   116789405.953    21870904.913    90836209.756    21870904.985  
                                
  22368507.831   119530523.530    22368508.903    92968188.927    22368509.046  
                                
  19978023.014   106719012.584    19978021.942    83003671.942    19978023.139  
                                
  23097460.828   123599177.480    23097462.078    96132698.699    23097462.114  
                                
  21816520.577   116458067.648    21816521.793    90578502.585    21816520.971  
                                
  23624416.528   124147146.855                                                  
  23624419.923    92707297.574  
  25258321.141   132733373.776                                                  
  25258325.125    99119092.508  
  24926040.869   130987229.227                                                  
  24926045.658    97815156.811  
  25993571.342   136597139.762                                                  
  25993576.113   102004375.676  
 21  8 31 22 54 35.0000000  0 19G 1G10G12G21G23G25G31G32R 5R 7R 9R15
                                R16R21R22E 3E 5E15E25
  23826557.867   125209406.516    23826560.225    97565780.074    23826560.136  
  23826559.475    93500536.700  
  20555232.554   108018476.445    20555233.108    84170243.348    20555233.090  
  20555231.785    80663144.557  
  23463544.859   123301760.394    23463544.162    96079288.294    23463543.483  
                                
  23584740.346   123938646.726                    96575560.589    23584738.273  
                                
  22619740.432   118867537.889    22619740.325    92624054.353    22619740.164  
  22619744.685    88764736.195  
  23162567.935   121720115.572    23162570.758    94846852.868    23162570.187  
  23162571.277    90894904.480  
  22560707.345   118557317.214    22560706.791    92382319.609    22560706.148  
                                
  20546835.667   107974350.469    20546836.543    84135859.036    20546836.114  
  20546835.364    80630194.680  
  23106469.942   123517323.649    23106471.658    96069036.809    23106471.747  
                                
  21170663.898   113328220.789    21170663.755    88144171.395    21170663.701  
                                
  21870145.819   116785358.517    21870146.963    90833061.752    21870147.034  
                                
  22369076.137   119533560.447    22369077.227    92970550.974    22369077.370  
                                
  19977837.962   106718024.080    19977836.890    83002903.108    19977838.087  
                                
  23098204.697   123603158.031    23098205.966    96135794.681    23098205.984  
                                
  21816832.696   116459733.840    21816833.929    90579798.514    21816833.107  
                                
  23624369.050   124146897.485                                                  
  23624372.463    92707111.360  
  25258639.531   132735046.945                                                  
  25258643.516    99120341.948  
  24926383.793   130989031.260                                                  
  24926388.564    97816502.490  
  25993115.789   136594745.837                                                  
  25993120.560   102002588.004  
 21  8 31 22 54 36.0000000  0 19G 1G10G12G21G23G25G31G32R 5R 7R 9R15
                                R16R21R22E 3E 5E15E25
  23826076.243   125206875.555    23826078.602    97563807.893    23826078.494  
  23826077.851    93498646.689  
  20555441.282   108019573.327    20555441.854    84171098.061    20555441.836  
  20555440.513    80663963.661  
  23463307.058   123300510.789    23463306.361    96078314.582    23463305.682  
                                
  23584521.843   123937498.488                    96574665.858    23584519.771  
                                
  22620298.518   118870470.633    22620298.411    92626339.610    22620298.250  
  22620302.771    88766926.227  
  23162083.077   121717567.535    23162085.882    94844867.389    23162085.346  
  23162086.401    90893001.710  
  22560037.990   118553799.740    22560037.418    92379578.725    22560036.792  
                                
  20546773.197   107974022.099    20546774.055    84135603.163    20546773.608  
  20546772.876    80629949.472  
  23106993.576   123520122.852    23106995.291    96071213.969    23106995.381  
                                
  21170227.304   113325883.614    21170227.161    88142353.592    21170227.090  
                                
  21869387.940   116781311.498    21869389.084    90829914.073    21869389.137  
                                
  22369644.604   119536598.041    22369645.676    92972913.547    22369645.801  
                                
  19977653.089   106717036.570    19977652.017    83002135.044    19977653.214  
                                
  23098948.620   123607138.909    23098949.889    96138890.912    23098949.907  
                                
  21817144.993   116461400.902    21817146.226    90581095.120    21817145.386  
                                
  23624321.643   124146648.359                                                  
  23624325.056    92706925.327  
  25258957.957   132736720.262                                                  
  25258961.924    99121591.505  
  24926726.789   130990833.778                                                  
  24926731.596    97817848.523  
  25992660.308   136592352.254                                                  
  25992665.061   102000800.590  
 21  8 31 22 54 37.0000000  0 19G 1G10G12G21G23G25G31G32R 5R 7R 9R15
                                R16R21R22E 3E 5E15E25
  23825594.691   125204344.963    23825597.049    97561836.003    23825596.942  
  23825596.281    93496756.964  
  20555650.081   108020670.612    20555650.635    84171953.088    20555650.617  
  20555649.331    80664783.062  
  23463069.364   123299261.626    23463068.667    96077341.209    23463067.971  
                                
  23584303.395   123936350.617                    96573771.411    23584301.340  
                                
  22620856.621   118873403.567    22620856.532    92628625.011    22620856.371  
  22620860.909    88769116.403  
  23161598.237   121715019.709    23161601.060    94842882.081    23161600.488  
  23161601.543    90891099.123  
  22559368.687   118550282.458    22559368.098    92376837.990    22559367.490  
                                
  20546710.727   107973693.913    20546711.585    84135347.434    20546711.156  
  20546710.406    80629704.396  
  23107517.228   123522922.080    23107518.961    96073391.148    23107519.033  
                                
  21169790.692   113323546.449    21169790.567    88140535.797    21169790.496  
                                
  21868630.097   116777264.714    21868631.241    90826766.575    21868631.312  
                                
  22370213.125   119539636.122    22370214.197    92975276.505    22370214.340  
                                
  19977468.377   106716049.806    19977467.287    83001367.561    19977468.484  
                                
  23099692.561   123611119.878    23099693.830    96141987.215    23099693.866  
                                
  21817457.415   116463068.623    21817458.630    90582392.239    21817457.808  
                                
  23624274.273   124146399.260                                                  
  23624277.650    92706739.309  
  25259276.365   132738393.560                                                  
  25259280.368    99122841.037  
  24927069.857   130992636.568                                                  
  24927074.646    97819194.756  
  25992204.862   136589958.815                                                  
  25992209.615   101999013.284  
 21  8 31 22 54 38.0000000  0 19G 1G10G12G21G23G25G31G32R 5R 7R 9R15
                                R16R21R22E 3E 5E15E25
  23825113.228   125201814.902    23825115.586    97559864.530    23825115.497  
  23825114.836    93494867.626  
  20555858.988   108021768.424    20555859.560    84172808.526    20555859.542  
  20555858.220    80665602.855  
  23462831.760   123298013.092    23462831.063    96076368.327    23462830.384  
                                
  23584085.089   123935203.260                    96572877.357    23584083.016  
                                
  22621414.796   118876336.824    22621414.706    92630910.666    22621414.563  
  22621419.084    88771306.822  
  23161113.486   121712472.305    23161116.273    94840897.094    23161115.737  
  23161116.792    90889196.841  
  22558699.421   118546765.512    22558698.849    92374097.518    22558698.224  
                                
  20546648.329   107973366.050    20546649.186    84135091.958    20546648.775  
  20546648.043    80629459.572  
  23108040.915   123525721.477    23108042.649    96075568.453    23108042.738  
                                
  21169354.134   113321209.468    21169353.991    88138718.145    21169353.920  
                                
  21867872.325   116773218.253    21867873.469    90823619.327    21867873.541  
                                
  22370781.771   119542674.856    22370782.861    92977639.967    22370782.986  
                                
  19977283.808   106715063.963    19977282.736    83000600.797    19977283.933  
                                
  23100436.538   123615101.027    23100437.807    96145083.660    23100437.843  
                                
  21817769.980   116464737.167    21817771.195    90583689.997    21817770.390  
                                
  23624226.884   124146150.351                                                  
  23624230.279    92706553.440  
  25259594.809   132740066.965                                                  
  25259598.811    99124090.662  
  24927412.996   130994439.786                                                  
  24927417.784    97820541.317  
  25991749.434   136587565.646                                                  
  25991754.188   101997226.184  
 21  8 31 22 54 39.0000000  0 19G 1G10G12G21G23G25G31G32R 5R 7R 9R15
                                R16R21R22E 3E 5E15E25
  23824631.854   125199285.187    23824634.195    97557893.319    23824634.088  
  23824633.427    93492978.558  
  20556067.966   108022866.588    20556068.538    84173664.239    20556068.520  
  20556067.216    80666422.908  
  23462594.263   123296764.951    23462593.548    96075395.752    23462592.869  
                                
  23583866.819   123934056.251                    96571983.593    23583864.728  
                                
  22621973.006   118879270.240    22621972.917    92633196.446    22621972.756  
  22621977.295    88773497.364  
  23160628.771   121709925.122    23160631.576    94838912.262    23160631.022  
  23160632.094    90887294.715  
  22558030.208   118543248.743    22558029.637    92371357.171    22558028.993  
                                
  20546586.001   107973038.366    20546586.859    84134836.618    20546586.412  
  20546585.680    80629214.860  
  23108564.603   123528520.896    23108566.336    96077745.779    23108566.407  
                                
  21168917.576   113318872.503    21168917.433    88136900.512    21168917.362  
                                
  21867114.607   116769172.006    21867115.751    90820472.260    21867115.805  
                                
  22371350.524   119545714.025    22371351.596    92980003.766    22371351.721  
                                
  19977099.400   106714078.863    19977098.328    82999834.608    19977099.525  
                                
  23101180.533   123619082.212    23101181.784    96148180.142    23101181.819  
                                
  21818082.687   116466406.384    21818083.902    90584988.277    21818083.081  
                                
  23624179.513   124145901.454                                                  
  23624182.908    92706367.575  
  25259913.235   132741740.305                                                  
  25259917.220    99125340.221  
  24927756.188   130996243.248                                                  
  24927760.977    97821888.052  
  25991294.060   136585172.615                                                  
  25991298.813   101995439.172  
 21  8 31 22 54 40.0000000  0 19G 1G10G12G21G23G25G31G32R 5R 7R 9R15
                                R16R21R22E 3E 5E15E25
  23824150.588   125196756.156    23824152.946    97555922.650    23824152.821  
  23824152.160    93491089.996  
  20556277.070   108023965.446    20556277.641    84174520.489    20556277.623  
  20556276.301    80667243.483  
  23462356.891   123295517.602    23462356.194    96074423.792    23462355.515  
                                
  23583648.656   123932909.933                    96571090.360    23583646.601  
                                
  22622531.324   118882204.151    22622531.216    92635482.606    22622531.056  
  22622535.612    88775688.265  
  23160144.145   121707378.479    23160146.933    94836927.862    23160146.397  
  23160147.469    90885393.016  
  22557361.067   118539732.461    22557360.495    92368617.216    22557359.870  
                                
  20546523.710   107972711.143    20546524.604    84134581.639    20546524.157  
  20546523.424    80628970.507  
  23109088.344   123531320.652    23109090.095    96079923.369    23109090.149  
                                
  21168481.072   113316535.851    21168480.929    88135083.119    21168480.857  
                                
  21866356.979   116765126.276    21866358.122    90817325.581    21866358.176  
                                
  22371919.402   119548753.977    22371920.492    92982368.173    22371920.600  
                                
  19976915.188   106713094.852    19976914.134    82999069.268    19976915.313  
                                
  23101924.581   123623063.753    23101925.850    96151276.888    23101925.868  
                                
  21818395.556   116468076.531    21818396.771    90586287.278    21818395.949  
                                
  23624132.232   124145652.898                                                  
  23624135.609    92706181.963  
  25260231.697   132743413.920                                                  
  25260235.717    99126589.997  
  24928099.488   130998047.268                                                  
  24928104.277    97823235.218  
  25990838.757   136582780.016                                                  
  25990843.529   101993652.499  
 21  8 31 22 54 41.0000000  0 19G 1G10G12G21G23G25G31G32R 5R 7R 9R15
                                R16R21R22E 3E 5E15E25
  23823669.357   125194227.351    23823671.716    97553952.155    23823671.626  
  23823670.965    93489201.600  
  20556486.226   108025064.540    20556486.780    84175376.926    20556486.763  
  20556485.458    80668064.238  
  23462119.590   123294270.584    23462118.893    96073452.090    23462118.214  
                                
  23583430.564   123931763.860                    96570197.319    23583428.509  
                                
  22623089.641   118885138.104    22623089.534    92637768.801    22623089.373  
  22623093.912    88777879.204  
  23159659.573   121704831.988    23159662.378    94834943.590    23159661.824  
  23159662.896    90883491.407  
  22556691.961   118536216.238    22556691.372    92365877.304    22556690.764  
                                
  20546461.454   107972383.978    20546462.330    84134326.705    20546461.901  
  20546461.151    80628726.198  
  23109612.085   123534120.324    23109613.818    96082100.885    23109613.907  
                                
  21168044.549   113314199.112    21168044.389    88133265.656    21168044.335  
                                
  21865599.368   116761080.628    21865600.494    90814178.964    21865600.565  
                                
  22372488.370   119551794.313    22372489.442    92984732.879    22372489.567  
                                
  19976731.119   106712111.532    19976730.029    82998304.462    19976731.209  
                                
  23102668.629   123627045.261    23102669.880    96154373.614    23102669.934  
                                
  21818708.532   116469747.242    21818709.765    90587586.724    21818708.943  
                                
  23624084.897   124145404.256                                                  
  23624088.310    92705996.282  
  25260550.158   132745087.357                                                  
  25260554.161    99127839.645  
  24928442.805   130999851.461                                                  
  24928447.576    97824582.501  
  25990383.473   136580387.440                                                  
  25990388.244   101991865.824  
 21  8 31 22 54 42.0000000  0 19G 1G10G12G21G23G25G31G32R 5R 7R 9R15
                                R16R21R22E 3E 5E15E25
  23823188.269   125191699.177    23823190.610    97551982.152    23823190.521  
  23823189.860    93487313.676  
  20556695.508   108026164.275    20556696.062    84176233.862    20556696.045  
  20556694.740    80668885.470  
  23461882.432   123293024.262    23461881.736    96072480.932    23461881.056  
                                
  23583212.598   123930618.413                    96569304.760    23583210.543  
                                
  22623648.030   118888072.482    22623647.923    92640055.324    22623647.762  
  22623652.301    88780070.462  
  23159175.054   121702285.960    23159177.860    94832959.680    23159177.324  
  23159178.378    90881590.168  
  22556022.927   118532700.454    22556022.338    92363137.735    22556021.730  
                                
  20546399.270   107972057.242    20546400.164    84134072.108    20546399.717  
  20546398.984    80628482.211  
  23110135.879   123536920.259    23110137.613    96084278.607    23110137.684  
                                
  21167608.063   113311862.649    21167607.938    88131448.409    21167607.866  
                                
  21864841.811   116757035.398    21864842.972    90811032.669    21864843.026  
                                
  22373057.462   119554835.393    22373058.535    92987098.161    22373058.660  
                                
  19976547.211   106711129.263    19976546.157    82997540.470    19976547.336  
                                
  23103412.731   123631027.118    23103414.000    96157470.607    23103414.018  
                                
  21819021.687   116471418.877    21819022.902    90588886.885    21819022.080  
                                
  23624037.633   124145155.875                                                  
  23624041.046    92705810.814  
  25260868.638   132746761.031                                                  
  25260872.658    99129089.456  
  24928786.230   131001656.164                                                  
  24928791.019    97825930.169  
  25989928.259   136577995.245                                                  
  25989933.012   101990079.449  
 21  8 31 22 54 43.0000000  0 19G 1G10G12G21G23G25G31G32R 5R 7R 9R15
                                R16R21R22E 3E 5E15E25
  23822707.235   125189171.282    23822709.594    97550012.358    23822709.469  
  23822708.808    93485425.977  
  20556904.826   108027264.308    20556905.380    84177091.029    20556905.380  
  20556904.058    80669706.924  
  23461645.328   123291778.313    23461644.631    96071510.067    23461643.952  
                                
  23582994.685   123929473.247                    96568412.421    23582992.630  
                                
  22624206.437   118891006.965    22624206.348    92642341.937    22624206.187  
  22624210.726    88782261.793  
  23158690.607   121699740.127    23158693.413    94830975.911    23158692.877  
  23158693.931    90879689.059  
  22555353.929   118529184.786    22555353.321    92360398.253    22555352.714  
                                
  20546337.122   107971730.597    20546337.997    84133817.577    20546337.551  
  20546336.818    80628238.284  
  23110659.674   123539720.125    23110661.390    96086456.283    23110661.461  
                                
  21167171.594   113309526.138    21167171.451    88129631.120    21167171.362  
                                
  21864084.289   116752990.288    21864085.433    90807886.470    21864085.504  
                                
  22373626.627   119557876.869    22373627.717    92989463.756    22373627.824  
                                
  19976363.464   106710147.668    19976362.410    82996777.012    19976363.553  
                                
  23104156.851   123635008.975    23104158.102    96160567.603    23104158.137  
                                
  21819334.949   116473091.072    21819336.164    90590187.479    21819335.342  
                                
  23623990.370   124144907.471                                                  
  23623993.765    92705625.313  
  25261187.100   132748434.553                                                  
  25261191.120    99130339.173  
  24929129.690   131003461.055                                                  
  24929134.479    97827277.973  
  25989473.028   136575603.097                                                  
  25989477.781   101988293.110  
 21  8 31 22 54 44.0000000  0 19G 1G10G12G21G23G25G31G32R 5R 7R 9R15
                                R16R21R22E 3E 5E15E25
  23822226.290   125186643.883    23822228.631    97548042.961    23822228.524  
  23822227.863    93483538.627  
  20557114.233   108028364.818    20557114.787    84177948.571    20557114.787  
  20557113.483    80670528.735  
  23461408.331   123290532.945    23461407.635    96070539.655    23461406.956  
                                
  23582776.844   123928328.528                    96567520.441    23582774.789  
                                
  22624764.916   118893941.719    22624764.826    92644628.754    22624764.666  
  22624769.204    88784453.323  
  23158206.232   121697194.634    23158209.019    94828992.408    23158208.465  
  23158209.537    90877788.201  
  22554684.966   118525669.387    22554684.377    92357658.974    22554683.751  
                                
  20546275.009   107971404.236    20546275.902    84133563.272    20546275.456  
  20546274.723    80627994.575  
  23111183.451   123542520.141    23111185.184    96088634.064    23111185.274  
                                
  21166735.125   113307189.764    21166734.982    88127813.945    21166734.929  
                                
  21863326.839   116748945.508    21863327.983    90804740.521    21863328.054  
                                
  22374195.916   119560918.918    22374196.970    92991829.789    22374197.113  
                                
  19976179.860   106709166.980    19976178.806    82996014.254    19976179.985  
                                
  23104900.988   123638991.024    23104902.239    96163664.740    23104902.275  
                                
  21819648.353   116474764.048    21819649.568    90591488.680    21819648.746  
                                
  23623943.124   124144659.182                                                  
  23623946.519    92705439.905  
  25261505.579   132750108.160                                                  
  25261509.600    99131588.944  
  24929473.222   131005266.331                                                  
  24929478.011    97828626.075  
  25989017.868   136573211.193                                                  
  25989022.621   101986506.956  
 21  8 31 22 54 45.0000000  0 19G 1G10G12G21G23G25G31G32R 5R 7R 9R15
                                R16R21R22E 3E 5E15E25
  23821745.381   125184116.768    23821747.740    97546073.781    23821747.651  
  23821746.990    93481651.500  
  20557323.730   108029465.655    20557324.301    84178806.366    20557324.266  
  20557322.979    80671350.787  
  23461171.424   123289287.932    23461170.727    96069569.515    23461170.030  
                                
  23582559.092   123927184.152                    96566628.719    23582557.019  
                                
  22625323.412   118896876.593    22625323.305    92646915.671    22625323.162  
  22625327.701    88786644.945  
  23157721.856   121694649.337    23157724.679    94827009.060    23157724.107  
  23157725.180    90875887.489  
  22554016.040   118522154.138    22554015.450    92354919.824    22554014.842  
                                
  20546212.932   107971077.996    20546213.825    84133309.059    20546213.379  
  20546212.628    80627750.952  
  23111707.246   123545320.144    23111708.997    96090811.845    23111709.068  
                                
  21166298.674   113304853.349    21166298.531    88125996.730    21166298.460  
                                
  21862569.407   116744900.833    21862570.551    90801594.672    21862570.604  
                                
  22374765.259   119563961.379    22374766.313    92994196.148    22374766.456  
                                
  19975996.416   106708187.008    19975995.344    82995252.051    19975996.524  
                                
  23105645.126   123642973.039    23105646.377    96166761.861    23105646.413  
                                
  21819961.883   116476437.632    21819963.098    90592790.354    21819962.276  
                                
  23623895.878   124144410.875                                                  
  23623899.273    92705254.476  
  25261824.041   132751781.653                                                  
  25261828.061    99132838.637  
  24929816.772   131007071.797                                                  
  24929821.561    97829974.315  
  25988562.709   136570819.354                                                  
  25988567.480   101984720.847  
 21  8 31 22 54 46.0000000  0 19G 1G10G12G21G23G25G31G32R 5R 7R 9R15
                                R16R21R22E 3E 5E15E25
  23821264.598   125181590.173    23821266.938    97544105.010    23821266.849  
  23821266.188    93479764.757  
  20557533.315   108030567.007    20557533.869    84179664.562    20557533.852  
  20557532.547    80672173.220  
  23460934.624   123288043.535    23460933.927    96068599.853    23460933.248  
                                
  23582341.430   123926040.280                    96565737.395    23582339.339  
                                
  22625881.944   118899811.778    22625881.855    92649202.826    22625881.694  
  22625886.233    88788836.813  
  23157237.570   121692104.399    23157240.375    94825025.988    23157239.821  
  23157240.893    90873987.058  
  22553347.166   118518639.211    22553346.577    92352180.922    22553345.951  
                                
  20546150.909   107970752.064    20546151.784    84133055.084    20546151.338  
  20546150.623    80627507.563  
  23112231.076   123548120.282    23112232.809    96092989.730    23112232.899  
                                
  21165862.241   113302517.112    21165862.098    88124179.660    21165862.027  
                                
  21861812.028   116740856.534    21861813.172    90798449.105    21861813.226  
                                
  22375334.744   119567004.464    22375335.799    92996562.989    22375335.942  
                                
  19975813.134   106707207.987    19975812.080    82994490.593    19975813.259  
                                
  23106389.299   123646955.264    23106390.550    96169859.145    23106390.604  
                                
  21820275.538   116478112.024    21820276.789    90594092.654    21820275.949  
                                
  23623848.650   124144162.726                                                  
  23623852.063    92705069.175  
  25262142.520   132753455.254                                                  
  25262146.541    99134088.397  
  24930160.429   131008877.680                                                  
  24930165.218    97831322.859  
  25988107.620   136568427.804                                                  
  25988112.373   101982934.950  
 21  8 31 22 54 47.0000000  0 19G 1G10G12G21G23G25G31G32R 5R 7R 9R15
                                R16R21R22E 3E 5E15E25
  23820783.921   125179064.196    23820786.280    97542136.721    23820786.154  
  23820785.493    93477878.478  
  20557743.008   108031668.974    20557743.580    84180523.238    20557743.545  
  20557742.258    80672996.120  
  23460697.948   123286799.813    23460697.269    96067630.721    23460696.590  
                                
  23582123.874   123924897.013                    96564846.529    23582121.801  
                                
  22626440.583   118902747.394    22626440.476    92651490.319    22626440.315  
  22626444.872    88791028.992  
  23156753.373   121689559.974    23156756.196    94823043.320    23156755.642  
  23156756.714    90872086.985  
  22552678.382   118515124.717    22552677.793    92349442.355    22552677.185  
                                
  20546088.975   107970426.557    20546089.832    84132801.442    20546089.403  
  20546088.671    80627264.492  
  23112754.960   123550920.689    23112756.675    96095167.828    23112756.747  
                                
  21165425.862   113300181.145    21165425.719    88122362.797    21165425.647  
                                
  21861054.739   116736812.705    21861055.883    90795303.910    21861055.954  
                                
  22375904.355   119570048.273    22375905.409    92998930.394    22375905.552  
                                
  19975630.066   106706230.019    19975629.011    82993729.949    19975630.155  
                                
  23107133.526   123650937.806    23107134.795    96172956.675    23107134.831  
                                
  21820589.390   116479787.313    21820590.623    90595395.657    21820589.783  
                                
  23623801.494   124143914.868                                                  
  23623804.889    92704884.086  
  25262461.018   132755129.051                                                  
  25262465.056    99135338.311  
  24930504.194   131010684.080                                                  
  24930508.947    97832671.798  
  25987652.603   136566036.637                                                  
  25987657.339   101981149.344  
 21  8 31 22 54 48.0000000  0 19G 1G10G12G21G23G25G31G32R 5R 7R 9R15
                                R16R21R22E 3E 5E15E25
  23820303.351   125176538.781    23820305.692    97540168.867    23820305.603  
  23820304.942    93475992.614  
  20557952.809   108032771.520    20557953.380    84181382.362    20557953.380  
  20557952.058    80673819.446  
  23460461.398   123285556.751    23460460.701    96066662.104    23460460.022  
                                
  23581906.426   123923754.313                    96563956.120    23581904.335  
                                
  22626999.276   118905683.374    22626999.187    92653778.098    22626999.026  
  22627003.565    88793221.442  
  23156269.265   121687015.980    23156272.089    94821060.991    23156271.535  
  23156272.607    90870187.256  
  22552009.670   118511610.606    22552009.080    92346704.087    22552008.473  
                                
  20546027.094   107970101.415    20546027.970    84132548.084    20546027.541  
  20546026.790    80627021.687  
  23113278.862   123553721.293    23113280.595    96097346.075    23113280.685  
                                
  21164989.518   113297845.363    21164989.375    88120546.080    21164989.304  
                                
  21860297.522   116732769.229    21860298.665    90792158.993    21860298.737  
                                
  22376474.091   119573092.761    22376475.145    93001298.329    22376475.288  
                                
  19975447.176   106705253.003    19975446.104    82992970.047    19975447.266  
                                
  23107877.807   123654920.610    23107879.093    96176054.404    23107879.111  
                                
  21820903.384   116481463.446    21820904.635    90596699.316    21820903.795  
                                
  23623754.356   124143667.230                                                  
  23623757.768    92704699.157  
  25262779.587   132756803.004                                                  
  25262783.607    99136588.341  
  24930848.029   131012490.940                                                  
  24930852.800    97834021.073  
  25987197.622   136563645.789                                                  
  25987202.376   101979363.973  
 21  8 31 22 54 49.0000000  0 19G 1G10G12G21G23G25G31G32R 5R 7R 9R15
                                R16R21R22E 3E 5E15E25
  23819822.871   125174013.814    23819825.212    97538201.365    23819825.105  
  23819824.444    93474107.091  
  20558162.698   108033874.511    20558163.270    84182241.836    20558163.252  
  20558161.948    80674643.110  
  23460224.955   123284314.244    23460224.259    96065693.919    23460223.580  
                                
  23581689.049   123922612.073                    96563066.065    23581686.977  
                                
  22627558.041   118908619.636    22627557.933    92656066.090    22627557.773  
  22627562.311    88795414.095  
  23155785.229   121684472.294    23155788.035    94819078.901    23155787.463  
  23155788.553    90868287.773  
  22551341.011   118508096.768    22551340.404    92343966.043    22551339.796  
                                
  20545965.267   107969776.518    20545966.125    84132294.914    20545965.714  
  20545964.964    80626779.071  
  23113802.782   123556522.007    23113804.533    96099524.418    23113804.604  
                                
  21164553.192   113295509.653    21164553.032    88118729.410    21164552.978  
                                
  21859540.375   116728726.056    21859541.501    90789014.306    21859541.573  
                                
  22377043.916   119576137.794    22377044.989    93003666.686    22377045.114  
