% program   : rnx2rtkp ver.2.4.3 b31
% inp file  : ngs/21_08_31_06_17_39_momf.obs
% inp file  : ngs/21_08_31_06_17_39_momf_P1.obs
% inp file  : ngs/21_08_31_06_17_39_brdc.nav
% obs start : 2021/08/31 06:00:00.0 GPST (week2173 194400.0s)
% obs end   : 2021/08/31 06:59:59.0 GPST (week2173 197999.0s)
% ref pos   :  -268272.3300  -5085518.9330   3827903.6440
%
% (x/y/z-ecef=WGS84,Q=1:fix,2:float,3:sbas,4:dgps,5:single,6:ppp,ns=# of satellites)
%  GPST              x-ecef(m)      y-ecef(m)      z-ecef(m)   Q  ns   sdx(m)   sdy(m)   sdz(m)  sdxy(m)  sdyz(m)  sdzx(m) age(s)  ratio
2173 195434.000   -261332.1000  -5070388.4671   3848247.3294   2   7   0.4589   0.9542   0.8658   0.1160  -0.7849  -0.1549 -30.00    1.1
2173 195435.000   -261331.9770  -5070388.5083   3848247.3323   2   7   0.3265   0.6793   0.6157   0.0833  -0.5585  -0.1106 -29.00    1.1
2173 195436.000   -261332.0719  -5070388.4542   3848247.1465   2   7   0.2673   0.5562   0.5039   0.0683  -0.4572  -0.0906 -28.00    1.4
2173 195437.000   -261332.1261  -5070388.5161   3848247.2282   2   7   0.2319   0.4825   0.4371   0.0591  -0.3966  -0.0785 -27.00    1.3
2173 195438.000   -261332.1540  -5070388.5113   3848247.2165   2   7   0.2077   0.4321   0.3914   0.0528  -0.3551  -0.0703 -26.00    1.4
2173 195439.000   -261332.1722  -5070388.5310   3848247.2861   2   7   0.1898   0.3948   0.3576   0.0481  -0.3245  -0.0642 -25.00    1.3
2173 195440.000   -261332.1656  -5070388.5036   3848247.3093   2   7   0.1758   0.3658   0.3313   0.0445  -0.3006  -0.0594 -24.00    1.3
2173 195441.000   -261332.1933  -5070388.4896   3848247.3507   2   7   0.1646   0.3423   0.3100   0.0415  -0.2813  -0.0556 -23.00    1.3
2173 195442.000   -261332.2055  -5070388.4924   3848247.3605   2   7   0.1552   0.3229   0.2923   0.0391  -0.2653  -0.0524 -22.00    1.3
2173 195443.000   -261332.1923  -5070388.5047   3848247.3697   2   7   0.1473   0.3064   0.2773   0.0370  -0.2517  -0.0497 -21.00    1.3
2173 195444.000   -261332.1846  -5070388.4792   3848247.3504   2   7   0.1405   0.2922   0.2644   0.0352  -0.2400  -0.0473 -20.00    1.4
2173 195445.000   -261332.1910  -5070388.4967   3848247.3755   2   7   0.1345   0.2797   0.2531   0.0336  -0.2297  -0.0453 -19.00    1.3
2173 195446.000   -261332.2037  -5070388.4992   3848247.3848   2   7   0.1293   0.2688   0.2431   0.0323  -0.2207  -0.0435 -18.00    1.4
2173 195447.000   -261332.2174  -5070388.5197   3848247.3943   2   7   0.1246   0.2590   0.2342   0.0310  -0.2126  -0.0419 -17.00    1.4
2173 195448.000   -261332.2105  -5070388.5264   3848247.4088   2   7   0.1203   0.2501   0.2262   0.0299  -0.2053  -0.0405 -16.00    1.4
2173 195449.000   -261332.2138  -5070388.5091   3848247.4034   2   7   0.1165   0.2422   0.2189   0.0289  -0.1987  -0.0392 -15.00    1.4
2173 195450.000   -261332.2194  -5070388.5400   3848247.4371   2   7   0.1130   0.2349   0.2122   0.0280  -0.1927  -0.0380 -14.00    1.4
2173 195451.000   -261332.2254  -5070388.5281   3848247.4193   2   7   0.1098   0.2282   0.2061   0.0272  -0.1872  -0.0369 -13.00    1.4
2173 195452.000   -261332.2206  -5070388.5334   3848247.4252   2   7   0.1068   0.2220   0.2005   0.0264  -0.1821  -0.0359 -12.00    1.5
2173 195453.000   -261332.2170  -5070388.5326   3848247.4139   2   7   0.1041   0.2163   0.1952   0.0257  -0.1774  -0.0350 -11.00    1.5
2173 195454.000   -261332.2018  -5070388.5369   3848247.4270   2   7   0.1015   0.2110   0.1904   0.0251  -0.1730  -0.0341 -10.00    1.6
2173 195455.000   -261332.1986  -5070388.5210   3848247.4224   2   7   0.0992   0.2061   0.1859   0.0245  -0.1690  -0.0333  -9.00    1.7
2173 195456.000   -261332.1973  -5070388.5128   3848247.4062   2   7   0.0969   0.2015   0.1817   0.0239  -0.1651  -0.0325  -8.00    1.8
2173 195457.000   -261332.1959  -5070388.5185   3848247.4053   2   7   0.0949   0.1972   0.1777   0.0234  -0.1616  -0.0319  -7.00    1.9
2173 195458.000   -261332.2006  -5070388.5296   3848247.4128   2   7   0.0929   0.1931   0.1740   0.0229  -0.1582  -0.0312  -6.00    2.1
2173 195459.000   -261332.2006  -5070388.5193   3848247.4011   2   7   0.0911   0.1893   0.1704   0.0224  -0.1550  -0.0306  -5.00    2.2
2173 195460.000   -261332.2001  -5070388.5235   3848247.3924   2   7   0.0894   0.1857   0.1671   0.0220  -0.1520  -0.0300  -4.00    2.4
2173 195461.000   -261332.2013  -5070388.5296   3848247.3976   2   7   0.0877   0.1823   0.1640   0.0215  -0.1492  -0.0295  -3.00    2.6
2173 195462.000   -261332.2021  -5070388.5280   3848247.4008   2   7   0.0862   0.1790   0.1610   0.0211  -0.1465  -0.0289  -2.00    2.8
2173 195463.000   -261332.2041  -5070388.5246   3848247.4112   2   7   0.0847   0.1760   0.1582   0.0207  -0.1440  -0.0284  -1.00    2.9
2173 195464.000   -261331.8799  -5070388.0622   3848246.5591   1   7   0.0046   0.0096   0.0086   0.0016  -0.0079  -0.0017   0.00    3.0
2173 195465.000   -261331.8786  -5070388.0631   3848246.5584   1   7   0.0046   0.0096   0.0087   0.0012  -0.0079  -0.0016   0.00    3.1
2173 195466.000   -261331.8782  -5070388.0540   3848246.5540   1   7   0.0046   0.0096   0.0087   0.0012  -0.0079  -0.0016   0.00    3.6
2173 195467.000   -261331.8738  -5070388.0600   3848246.5566   1   7   0.0046   0.0096   0.0087   0.0012  -0.0079  -0.0016   0.00    6.2
2173 195468.000   -261331.8800  -5070388.0537   3848246.5577   1   7   0.0046   0.0096   0.0087   0.0012  -0.0079  -0.0016   0.00    3.7
2173 195469.000   -261332.5229  -5070389.2733   3848248.0051   2   7   0.4590   0.9524   0.8595   0.1152  -0.7805  -0.1563   0.00    2.8
2173 195470.000   -261332.4476  -5070388.6209   3848247.9819   2   7   0.4590   0.9524   0.8594   0.1152  -0.7804  -0.1563   0.00    2.7
2173 195471.000   -261331.8789  -5070388.0566   3848246.5587   1   7   0.0046   0.0096   0.0087   0.0012  -0.0079  -0.0016   0.00    3.3
2173 195472.000   -261331.8766  -5070388.0596   3848246.5551   1   7   0.0046   0.0096   0.0087   0.0012  -0.0079  -0.0016   0.00    3.2
2173 195473.000   -261332.4692  -5070388.9024   3848247.7758   2   7   0.4591   0.9523   0.8589   0.1151  -0.7802  -0.1564   0.00    2.6
2173 195474.000   -261332.2006  -5070388.6587   3848247.9036   2   7   0.4591   0.9523   0.8588   0.1151  -0.7801  -0.1565   0.00    2.2
2173 195475.000   -261331.8811  -5070388.0610   3848246.5645   1   7   0.0046   0.0096   0.0087   0.0012  -0.0079  -0.0016   0.00    3.1
2173 195476.000   -261332.0614  -5070388.7608   3848247.9424   2   7   0.4591   0.9523   0.8585   0.1151  -0.7799  -0.1565   0.00    2.7
2173 195477.000   -261331.9842  -5070388.7698   3848247.7901   2   7   0.4592   0.9523   0.8584   0.1150  -0.7798  -0.1566   0.00    2.9
2173 195478.000   -261331.8789  -5070388.0617   3848246.5577   1   7   0.0046   0.0096   0.0087   0.0012  -0.0079  -0.0016   0.00    3.1
2173 195479.000   -261331.9168  -5070388.5764   3848247.9030   2   7   0.4592   0.9523   0.8581   0.1150  -0.7796  -0.1567   0.00    2.7
2173 195480.000   -261332.0459  -5070388.7729   3848247.9872   2   7   0.4592   0.9523   0.8580   0.1150  -0.7795  -0.1567   0.00    2.4
2173 195481.000   -261332.2051  -5070388.4199   3848247.9303   2   7   0.4593   0.9522   0.8578   0.1149  -0.7794  -0.1568   0.00    1.7
2173 195482.000   -261332.1038  -5070389.0819   3848248.3558   2   7   0.4593   0.9522   0.8577   0.1149  -0.7794  -0.1568   0.00    1.7
2173 195483.000   -261332.3204  -5070388.9254   3848248.3583   2   7   0.4593   0.9522   0.8576   0.1149  -0.7793  -0.1568   0.00    2.2
2173 195484.000   -261332.2266  -5070388.9877   3848247.9295   2   7   0.4593   0.9522   0.8574   0.1149  -0.7792  -0.1569   0.00    2.4
2173 195485.000   -261331.8952  -5070388.5097   3848247.8202   2   7   0.4594   0.9522   0.8573   0.1149  -0.7791  -0.1569   0.00    2.2
2173 195486.000   -261332.0375  -5070388.7865   3848247.6827   2   7   0.4594   0.9522   0.8571   0.1148  -0.7790  -0.1570   0.00    2.6
2173 195487.000   -261331.8794  -5070388.0614   3848246.5607   1   7   0.0046   0.0096   0.0087   0.0012  -0.0079  -0.0016   0.00    3.8
2173 195488.000   -261332.1966  -5070388.4547   3848247.4616   2   7   0.4594   0.9522   0.8569   0.1148  -0.7788  -0.1570   0.00    2.8
2173 195489.000   -261331.9914  -5070388.3261   3848247.3105   2   7   0.4595   0.9521   0.8567   0.1148  -0.7787  -0.1571   0.00    2.2
2173 195490.000   -261331.8099  -5070388.5481   3848247.3115   2   7   0.4595   0.9521   0.8566   0.1147  -0.7786  -0.1571   0.00    2.0
2173 195491.000   -261331.6745  -5070388.4637   3848247.5004   2   7   0.4595   0.9521   0.8564   0.1147  -0.7785  -0.1572   0.00    2.2
2173 195492.000   -261331.9074  -5070388.5512   3848247.6174   2   7   0.4595   0.9521   0.8563   0.1147  -0.7785  -0.1572   0.00    2.2
2173 195493.000   -261331.9544  -5070388.5479   3848247.5810   2   7   0.4596   0.9521   0.8562   0.1147  -0.7784  -0.1573   0.00    1.8
2173 195494.000   -261331.9682  -5070388.7258   3848247.6980   2   7   0.4596   0.9521   0.8560   0.1147  -0.7783  -0.1573   0.00    2.4
2173 195495.000   -261331.8163  -5070388.6110   3848247.7164   2   7   0.4596   0.9521   0.8559   0.1146  -0.7782  -0.1573   0.00    1.5
2173 195496.000   -261331.9401  -5070388.8976   3848247.8464   2   7   0.4596   0.9521   0.8558   0.1146  -0.7781  -0.1574   0.00    1.8
2173 195497.000   -261332.0988  -5070388.7165   3848247.6715   2   7   0.4597   0.9520   0.8556   0.1146  -0.7780  -0.1574   0.00    1.9
2173 195498.000   -261332.0853  -5070388.7097   3848247.5397   2   7   0.4597   0.9520   0.8555   0.1146  -0.7779  -0.1575   0.00    2.6
2173 195499.000   -261332.1420  -5070388.7636   3848247.5637   2   7   0.4597   0.9520   0.8553   0.1145  -0.7778  -0.1575   0.00    2.3
2173 195500.000   -261331.9243  -5070388.3609   3848247.5534   2   7   0.4597   0.9520   0.8552   0.1145  -0.7777  -0.1575   0.00    2.8
2173 195501.000   -261332.1131  -5070388.3892   3848247.4210   2   7   0.4598   0.9520   0.8551   0.1145  -0.7777  -0.1576   0.00    2.7
2173 195502.000   -261332.2946  -5070388.4088   3848247.3707   2   7   0.4598   0.9520   0.8549   0.1145  -0.7776  -0.1576   0.00    2.5
2173 195503.000   -261332.2416  -5070388.2406   3848247.3498   2   7   0.4598   0.9520   0.8548   0.1144  -0.7775  -0.1577   0.00    2.3
2173 195504.000   -261332.1766  -5070388.3613   3848247.2584   2   7   0.4598   0.9520   0.8547   0.1144  -0.7774  -0.1577   0.00    1.9
2173 195505.000   -261332.0552  -5070388.5281   3848247.6219   2   7   0.4599   0.9520   0.8545   0.1144  -0.7773  -0.1577   0.00    1.7
2173 195506.000   -261332.2029  -5070388.9295   3848247.6592   2   7   0.4599   0.9519   0.8544   0.1144  -0.7772  -0.1578   0.00    1.8
2173 195507.000   -261331.8799  -5070388.0554   3848246.5531   1   7   0.0046   0.0096   0.0086   0.0012  -0.0079  -0.0016   0.00    3.1
2173 195508.000   -261332.5608  -5070387.5404   3848247.2906   2   7   0.4599   0.9519   0.8541   0.1143  -0.7770  -0.1579   0.00    2.0
2173 195509.000   -261332.4664  -5070387.9753   3848247.5094   2   7   0.4600   0.9519   0.8540   0.1143  -0.7769  -0.1579   0.00    1.8
2173 195510.000   -261332.4614  -5070388.2714   3848247.7261   2   7   0.4600   0.9519   0.8538   0.1143  -0.7769  -0.1579   0.00    2.2
2173 195511.000   -261332.6827  -5070388.2341   3848248.1432   2   7   0.4600   0.9519   0.8537   0.1143  -0.7768  -0.1580   0.00    1.8
2173 195512.000   -261332.5588  -5070387.8836   3848247.5695   2   7   0.4600   0.9519   0.8536   0.1142  -0.7767  -0.1580   0.00    2.2
2173 195513.000   -261332.6034  -5070387.9474   3848247.4781   2   7   0.4601   0.9519   0.8534   0.1142  -0.7766  -0.1581   0.00    2.4
2173 195514.000   -261332.4478  -5070387.9438   3848247.7317   2   7   0.4601   0.9519   0.8533   0.1142  -0.7765  -0.1581   0.00    2.1
2173 195515.000   -261332.2930  -5070387.6582   3848247.4923   2   7   0.4601   0.9519   0.8532   0.1142  -0.7764  -0.1581   0.00    1.9
2173 195516.000   -261332.3945  -5070387.9795   3848247.4837   2   7   0.4601   0.9518   0.8530   0.1141  -0.7763  -0.1582   0.00    2.0
2173 195517.000   -261332.5620  -5070387.8117   3848247.5134   2   7   0.4602   0.9518   0.8529   0.1141  -0.7762  -0.1582   0.00    2.1
2173 195518.000   -261332.5243  -5070387.6656   3848247.1845   2   7   0.4602   0.9518   0.8528   0.1141  -0.7762  -0.1583   0.00    2.6
2173 195519.000   -261332.5608  -5070387.9977   3848247.3544   2   7   0.4602   0.9518   0.8526   0.1141  -0.7761  -0.1583   0.00    2.3
2173 195520.000   -261332.4840  -5070387.4956   3848247.1930   2   7   0.4602   0.9518   0.8525   0.1140  -0.7760  -0.1583   0.00    1.9
2173 195521.000   -261332.5547  -5070387.5197   3848247.1231   2   7   0.4603   0.9518   0.8524   0.1140  -0.7759  -0.1584   0.00    2.3
2173 195522.000   -261332.5910  -5070387.5750   3848246.9426   2   7   0.4603   0.9518   0.8522   0.1140  -0.7758  -0.1584   0.00    2.0
2173 195523.000   -261332.5400  -5070387.8223   3848247.1821   2   7   0.4603   0.9518   0.8521   0.1140  -0.7757  -0.1585   0.00    2.5
2173 195524.000   -261332.6035  -5070387.8698   3848246.9060   2   7   0.4603   0.9518   0.8519   0.1139  -0.7756  -0.1585   0.00    2.1
2173 195525.000   -261332.4904  -5070387.1995   3848246.6046   2   7   0.4604   0.9518   0.8518   0.1139  -0.7755  -0.1585   0.00    2.3
2173 195526.000   -261332.4869  -5070388.1639   3848247.4655   2   7   0.4604   0.9518   0.8517   0.1139  -0.7755  -0.1586   0.00    2.7
2173 195527.000   -261332.4968  -5070387.4254   3848246.7163   2   7   0.4604   0.9517   0.8515   0.1139  -0.7754  -0.1586   0.00    2.4
2173 195528.000   -261332.5476  -5070387.9939   3848247.3077   2   7   0.4604   0.9517   0.8514   0.1138  -0.7753  -0.1587   0.00    2.2
2173 195529.000   -261332.6749  -5070387.6060   3848247.3683   2   7   0.4605   0.9517   0.8513   0.1138  -0.7752  -0.1587   0.00    2.2
2173 195530.000   -261332.7391  -5070387.9503   3848247.6161   2   7   0.4605   0.9517   0.8511   0.1138  -0.7751  -0.1587   0.00    2.2
2173 195531.000   -261332.4803  -5070387.8888   3848247.1447   2   7   0.4605   0.9517   0.8510   0.1138  -0.7750  -0.1588   0.00    2.4
2173 195532.000   -261332.7784  -5070387.7787   3848247.3710   2   7   0.4605   0.9517   0.8509   0.1138  -0.7749  -0.1588   0.00    2.2
2173 195533.000   -261332.8380  -5070388.2206   3848247.6451   2   7   0.4606   0.9517   0.8507   0.1137  -0.7749  -0.1589   0.00    2.1
2173 195534.000   -261333.0835  -5070387.8710   3848247.1932   2   7   0.4606   0.9517   0.8506   0.1137  -0.7748  -0.1589   0.00    1.8
2173 195535.000   -261332.7397  -5070388.0712   3848247.4532   2   7   0.4606   0.9517   0.8505   0.1137  -0.7747  -0.1589   0.00    2.2
2173 195536.000   -261332.6401  -5070388.0380   3848247.6148   2   7   0.4607   0.9517   0.8503   0.1137  -0.7746  -0.1590   0.00    1.8
2173 195537.000   -261332.8782  -5070388.0641   3848247.3180   2   7   0.4607   0.9517   0.8502   0.1136  -0.7745  -0.1590   0.00    1.8
2173 195538.000   -261332.6928  -5070387.8466   3848247.2233   2   7   0.4607   0.9517   0.8501   0.1136  -0.7744  -0.1591   0.00    2.2
2173 195539.000   -261332.6324  -5070388.1691   3848247.3781   2   7   0.4607   0.9516   0.8499   0.1136  -0.7743  -0.1591   0.00    2.4
2173 195540.000   -261332.6448  -5070387.7697   3848246.8151   2   7   0.4608   0.9516   0.8498   0.1136  -0.7743  -0.1591   0.00    2.3
2173 195541.000   -261332.6587  -5070388.2609   3848247.1288   2   7   0.4608   0.9516   0.8497   0.1135  -0.7742  -0.1592   0.00    2.3
2173 195542.000   -261332.6071  -5070388.6579   3848247.2528   2   7   0.4608   0.9516   0.8495   0.1135  -0.7741  -0.1592   0.00    2.3
2173 195543.000   -261332.5372  -5070388.2460   3848246.9358   2   7   0.4608   0.9516   0.8494   0.1135  -0.7740  -0.1593   0.00    2.2
2173 195544.000   -261332.3094  -5070388.5198   3848246.9291   2   7   0.4609   0.9516   0.8493   0.1135  -0.7739  -0.1593   0.00    2.5
2173 195545.000   -261332.3055  -5070388.0449   3848246.4190   2   7   0.4609   0.9516   0.8491   0.1134  -0.7738  -0.1593   0.00    2.2
2173 195546.000   -261332.1108  -5070388.8514   3848247.1258   2   7   0.4609   0.9516   0.8490   0.1134  -0.7737  -0.1594   0.00    2.3
2173 195547.000   -261332.4050  -5070389.0563   3848247.6309   2   7   0.4609   0.9516   0.8489   0.1134  -0.7737  -0.1594   0.00    2.3
2173 195548.000   -261332.2158  -5070388.3891   3848247.0335   2   7   0.4610   0.9516   0.8487   0.1133  -0.7736  -0.1595   0.00    2.6
2173 195549.000   -261332.1972  -5070388.1112   3848246.8202   2   7   0.4610   0.9516   0.8486   0.1133  -0.7735  -0.1595   0.00    2.5
2173 195550.000   -261332.2224  -5070388.1398   3848246.7954   2   7   0.4610   0.9516   0.8485   0.1133  -0.7734  -0.1595   0.00    2.8
2173 195551.000   -261332.2265  -5070388.1223   3848247.0901   2   7   0.4610   0.9516   0.8484   0.1133  -0.7733  -0.1596   0.00    2.3
2173 195552.000   -261332.1786  -5070388.8048   3848247.2278   2   7   0.4611   0.9516   0.8482   0.1132  -0.7732  -0.1596   0.00    2.3
2173 195553.000   -261332.3827  -5070388.9430   3848247.7711   2   7   0.4611   0.9515   0.8481   0.1132  -0.7732  -0.1597   0.00    1.9
2173 195554.000   -261332.2476  -5070388.4857   3848247.4377   2   7   0.4611   0.9515   0.8480   0.1132  -0.7731  -0.1597   0.00    1.8
2173 195555.000   -261332.3821  -5070388.4862   3848247.3155   2   7   0.4611   0.9515   0.8478   0.1132  -0.7730  -0.1597   0.00    2.0
2173 195556.000   -261332.1726  -5070388.3943   3848247.4307   2   7   0.4612   0.9515   0.8477   0.1131  -0.7729  -0.1598   0.00    2.0
2173 195557.000   -261332.2936  -5070388.0379   3848246.9944   2   7   0.4612   0.9515   0.8476   0.1131  -0.7728  -0.1598   0.00    2.1
2173 195558.000   -261332.5826  -5070388.2540   3848247.1239   2   7   0.4612   0.9515   0.8474   0.1131  -0.7727  -0.1598   0.00    2.1
2173 195559.000   -261332.3451  -5070387.5627   3848246.5464   2   7   0.4612   0.9515   0.8473   0.1131  -0.7727  -0.1599   0.00    1.9
2173 195560.000   -261332.4635  -5070387.6786   3848246.7309   2   7   0.4613   0.9515   0.8472   0.1130  -0.7726  -0.1599   0.00    1.7
2173 195561.000   -261332.5264  -5070387.0832   3848246.4351   2   7   0.4613   0.9515   0.8470   0.1130  -0.7725  -0.1600   0.00    1.9
2173 195562.000   -261332.3606  -5070387.1892   3848246.2337   2   7   0.4613   0.9515   0.8469   0.1130  -0.7724  -0.1600   0.00    1.7
2173 195563.000   -261332.6210  -5070387.6350   3848246.8613   2   7   0.4613   0.9515   0.8468   0.1130  -0.7723  -0.1600   0.00    1.7
2173 195564.000   -261332.2138  -5070387.4174   3848246.4037   2   7   0.4614   0.9515   0.8466   0.1129  -0.7722  -0.1601   0.00    1.9
2173 195565.000   -261332.2755  -5070388.0970   3848247.0189   2   7   0.4614   0.9515   0.8465   0.1129  -0.7722  -0.1601   0.00    2.1
2173 195566.000   -261332.0797  -5070388.1180   3848246.6920   2   7   0.4614   0.9515   0.8464   0.1129  -0.7721  -0.1602   0.00    2.6
2173 195567.000   -261332.2785  -5070388.1779   3848247.2503   2   7   0.4615   0.9515   0.8463   0.1129  -0.7720  -0.1602   0.00    2.3
2173 195568.000   -261332.3852  -5070387.4915   3848246.4777   2   7   0.4615   0.9515   0.8461   0.1128  -0.7719  -0.1602   0.00    2.0
2173 195569.000   -261332.2493  -5070388.3124   3848247.1706   2   7   0.4615   0.9515   0.8460   0.1128  -0.7718  -0.1603   0.00    2.3
2173 195570.000   -261332.0518  -5070387.9288   3848246.8209   2   7   0.4615   0.9514   0.8459   0.1128  -0.7717  -0.1603   0.00    2.5
2173 195571.000   -261332.0887  -5070387.2070   3848246.2161   2   7   0.4616   0.9514   0.8457   0.1127  -0.7717  -0.1604   0.00    1.9
2173 195572.000   -261332.0840  -5070387.9138   3848246.6299   2   7   0.4616   0.9514   0.8456   0.1127  -0.7716  -0.1604   0.00    2.4
2173 195573.000   -261332.0797  -5070387.8227   3848246.5048   2   7   0.4616   0.9514   0.8455   0.1127  -0.7715  -0.1604   0.00    2.3
2173 195574.000   -261332.0529  -5070388.1728   3848246.5109   2   7   0.4616   0.9514   0.8453   0.1127  -0.7714  -0.1605   0.00    2.7
2173 195575.000   -261331.9488  -5070387.4351   3848246.1469   2   7   0.4617   0.9514   0.8452   0.1126  -0.7713  -0.1605   0.00    2.1
2173 195576.000   -261331.8846  -5070388.0512   3848246.3186   2   7   0.4617   0.9514   0.8451   0.1126  -0.7712  -0.1605   0.00    2.8
2173 195577.000   -261331.8446  -5070387.9287   3848246.6737   2   7   0.4617   0.9514   0.8450   0.1126  -0.7712  -0.1606   0.00    2.8
2173 195578.000   -261331.7822  -5070387.8717   3848246.4639   2   7   0.4617   0.9514   0.8448   0.1126  -0.7711  -0.1606   0.00    2.9
2173 195579.000   -261331.8789  -5070388.0630   3848246.5559   1   7   0.0047   0.0096   0.0085   0.0012  -0.0078  -0.0016   0.00    3.3
2173 195580.000   -261331.9901  -5070388.0122   3848246.3787   2   7   0.4618   0.9514   0.8446   0.1125  -0.7709  -0.1607   0.00    2.8
2173 195581.000   -261331.7559  -5070388.2392   3848246.6129   2   7   0.4618   0.9514   0.8444   0.1125  -0.7708  -0.1607   0.00    2.8
2173 195582.000   -261331.7891  -5070388.0554   3848246.5247   2   7   0.4618   0.9514   0.8443   0.1125  -0.7708  -0.1608   0.00    2.8
2173 195583.000   -261331.8153  -5070387.7595   3848246.2344   2   7   0.4619   0.9514   0.8442   0.1124  -0.7707  -0.1608   0.00    2.3
2173 195584.000   -261331.8709  -5070388.5005   3848247.2281   2   7   0.4619   0.9514   0.8441   0.1124  -0.7706  -0.1608   0.00    2.9
2173 195585.000   -261332.0147  -5070387.7105   3848246.5824   2   7   0.4619   0.9514   0.8439   0.1124  -0.7705  -0.1609   0.00    2.3
2173 195586.000   -261331.7847  -5070388.1042   3848246.9137   2   7   0.4619   0.9514   0.8438   0.1123  -0.7704  -0.1609   0.00    2.8
2173 195587.000   -261332.0902  -5070388.4821   3848247.2963   2   7   0.4620   0.9514   0.8437   0.1123  -0.7703  -0.1610   0.00    2.6
2173 195588.000   -261332.0732  -5070388.3227   3848247.3575   2   7   0.4620   0.9514   0.8435   0.1123  -0.7703  -0.1610   0.00    2.4
2173 195589.000   -261332.0107  -5070388.9600   3848247.4885   2   7   0.4620   0.9514   0.8434   0.1123  -0.7702  -0.1610   0.00    2.2
2173 195590.000   -261331.8478  -5070388.4888   3848247.2641   2   7   0.4621   0.9514   0.8433   0.1122  -0.7701  -0.1611   0.00    2.3
2173 195591.000   -261332.0152  -5070388.5049   3848247.0890   2   7   0.4621   0.9514   0.8432   0.1122  -0.7700  -0.1611   0.00    2.4
2173 195592.000   -261332.1132  -5070388.4739   3848247.0360   2   7   0.4621   0.9514   0.8430   0.1122  -0.7699  -0.1612   0.00    2.3
2173 195593.000   -261331.9150  -5070388.4575   3848247.0682   2   7   0.4621   0.9514   0.8429   0.1121  -0.7699  -0.1612   0.00    2.3
2173 195594.000   -261332.0457  -5070388.0490   3848247.0124   2   7   0.4622   0.9513   0.8428   0.1121  -0.7698  -0.1612   0.00    2.2
2173 195595.000   -261331.9924  -5070388.0902   3848246.6520   2   7   0.4622   0.9513   0.8426   0.1121  -0.7697  -0.1613   0.00    2.2
2173 195596.000   -261331.6769  -5070387.9370   3848246.6398   2   7   0.4622   0.9513   0.8425   0.1121  -0.7696  -0.1613   0.00    2.1
2173 195597.000   -261331.8090  -5070387.7084   3848246.3999   2   7   0.4622   0.9513   0.8424   0.1120  -0.7695  -0.1613   0.00    2.1
2173 195598.000   -261331.8183  -5070387.5458   3848246.2218   2   7   0.4623   0.9513   0.8423   0.1120  -0.7695  -0.1614   0.00    1.9
2173 195599.000   -261331.7863  -5070387.7318   3848246.7012   2   7   0.4623   0.9513   0.8421   0.1120  -0.7694  -0.1614   0.00    2.0
2173 195600.000   -261331.6755  -5070387.8354   3848246.7497   2   7   0.4623   0.9513   0.8420   0.1120  -0.7693  -0.1615   0.00    1.9
2173 195601.000   -261331.8289  -5070388.1444   3848246.8835   2   7   0.4623   0.9513   0.8419   0.1119  -0.7692  -0.1615   0.00    2.6
2173 195602.000   -261331.7117  -5070388.3674   3848246.6975   2   7   0.4624   0.9513   0.8418   0.1119  -0.7691  -0.1615   0.00    2.5
2173 195603.000   -261331.5518  -5070388.0940   3848246.6038   2   7   0.4624   0.9513   0.8416   0.1119  -0.7691  -0.1616   0.00    2.7
2173 195604.000   -261331.6738  -5070388.8725   3848247.2816   2   7   0.4624   0.9513   0.8415   0.1118  -0.7690  -0.1616   0.00    2.3
2173 195605.000   -261331.3189  -5070388.6259   3848246.8611   2   7   0.4625   0.9513   0.8414   0.1118  -0.7689  -0.1616   0.00    2.5
2173 195606.000   -261331.8746  -5070388.0680   3848246.5621   1   7   0.0047   0.0096   0.0085   0.0012  -0.0078  -0.0017   0.00    3.1
2173 195607.000   -261331.7014  -5070388.6234   3848246.8464   2   7   0.4625   0.9513   0.8411   0.1118  -0.7687  -0.1617   0.00    2.7
2173 195608.000   -261331.5466  -5070388.7709   3848246.9666   2   7   0.4625   0.9513   0.8410   0.1117  -0.7687  -0.1618   0.00    2.7
2173 195609.000   -261331.8935  -5070388.0110   3848246.6556   2   7   0.4626   0.9513   0.8409   0.1117  -0.7686  -0.1618   0.00    2.6
2173 195610.000   -261331.8717  -5070388.0643   3848246.5617   1   7   0.0047   0.0096   0.0085   0.0012  -0.0078  -0.0017   0.00    3.9
2173 195611.000   -261331.8744  -5070388.0668   3848246.5638   1   7   0.0047   0.0096   0.0085   0.0012  -0.0078  -0.0017   0.00    3.4
2173 195612.000   -261331.8736  -5070388.0666   3848246.5634   1   7   0.0047   0.0096   0.0085   0.0012  -0.0078  -0.0017   0.00    3.8
2173 195613.000   -261331.7361  -5070388.2594   3848247.4601   2   7   0.4627   0.9513   0.8404   0.1116  -0.7683  -0.1619   0.00    2.6
2173 195614.000   -261331.5583  -5070388.1094   3848246.7369   2   7   0.4627   0.9513   0.8402   0.1116  -0.7682  -0.1620   0.00    3.0
2173 195615.000   -261331.4949  -5070388.6100   3848247.1048   2   7   0.4627   0.9513   0.8401   0.1115  -0.7681  -0.1620   0.00    3.0
2173 195616.000   -261331.8707  -5070388.0667   3848246.5628   1   7   0.0047   0.0096   0.0085   0.0012  -0.0078  -0.0017   0.00    3.8
2173 195617.000   -261331.8700  -5070388.0657   3848246.5617   1   7   0.0047   0.0096   0.0085   0.0012  -0.0078  -0.0017   0.00    3.9
2173 195618.000   -261331.2865  -5070388.8366   3848247.0201   2   7   0.4628   0.9513   0.8397   0.1114  -0.7679  -0.1621   0.00    3.0
2173 195619.000   -261331.8713  -5070388.0720   3848246.5682   1   7   0.0047   0.0096   0.0085   0.0012  -0.0078  -0.0017   0.00    3.8
2173 195620.000   -261331.8726  -5070388.0687   3848246.5631   1   7   0.0047   0.0096   0.0085   0.0012  -0.0078  -0.0017   0.00    3.0
2173 195621.000   -261331.4422  -5070389.6083   3848247.5174   2   7   0.4629   0.9513   0.8394   0.1113  -0.7676  -0.1622   0.00    2.5
2173 195622.000   -261331.3380  -5070389.2879   3848247.1546   2   7   0.4629   0.9513   0.8392   0.1113  -0.7676  -0.1623   0.00    2.7
2173 195623.000   -261331.8706  -5070388.0744   3848246.5659   1   7   0.0047   0.0096   0.0085   0.0012  -0.0078  -0.0017   0.00    3.2
2173 195624.000   -261331.3722  -5070389.2067   3848247.2528   2   7   0.4630   0.9513   0.8390   0.1113  -0.7674  -0.1623   0.00    3.0
2173 195625.000   -261331.4421  -5070388.4783   3848246.4558   2   7   0.4630   0.9513   0.8389   0.1112  -0.7673  -0.1624   0.00    2.9
2173 195626.000   -261331.8739  -5070388.0652   3848246.5573   1   7   0.0047   0.0096   0.0085   0.0012  -0.0078  -0.0017   0.00    3.8
2173 195627.000   -261331.8753  -5070388.0657   3848246.5626   1   7   0.0047   0.0096   0.0085   0.0012  -0.0078  -0.0017   0.00    3.2
2173 195628.000   -261331.9641  -5070388.6345   3848246.9153   2   7   0.4631   0.9513   0.8385   0.1111  -0.7671  -0.1625   0.00    2.8
2173 195629.000   -261331.8744  -5070388.0699   3848246.5635   1   7   0.0047   0.0096   0.0085   0.0012  -0.0078  -0.0017   0.00    3.2
2173 195630.000   -261331.6350  -5070388.6182   3848246.6862   2   7   0.4631   0.9513   0.8382   0.1111  -0.7669  -0.1626   0.00    3.0
2173 195631.000   -261331.8735  -5070388.0631   3848246.5602   1   7   0.0047   0.0096   0.0085   0.0012  -0.0078  -0.0017   0.00    3.0
2173 195632.000   -261331.8755  -5070388.0641   3848246.5615   1   7   0.0047   0.0096   0.0085   0.0012  -0.0078  -0.0017   0.00    3.4
2173 195633.000   -261331.8732  -5070388.0716   3848246.5648   1   7   0.0047   0.0096   0.0085   0.0012  -0.0078  -0.0017   0.00    4.5
2173 195634.000   -261331.8750  -5070388.0643   3848246.5570   1   7   0.0047   0.0096   0.0085   0.0012  -0.0078  -0.0017   0.00    3.8
2173 195635.000   -261331.8747  -5070388.0654   3848246.5620   1   7   0.0047   0.0096   0.0085   0.0012  -0.0078  -0.0017   0.00    3.8
2173 195636.000   -261331.8752  -5070388.0644   3848246.5599   1   7   0.0047   0.0096   0.0085   0.0012  -0.0078  -0.0017   0.00    3.5
2173 195637.000   -261331.7603  -5070388.3039   3848246.7928   2   7   0.4633   0.9513   0.8374   0.1109  -0.7664  -0.1628   0.00    2.8
2173 195638.000   -261331.4449  -5070389.0493   3848247.0699   2   7   0.4633   0.9513   0.8372   0.1108  -0.7663  -0.1629   0.00    2.8
2173 195639.000   -261331.8762  -5070388.0676   3848246.5629   1   7   0.0047   0.0096   0.0085   0.0012  -0.0078  -0.0017   0.00    3.5
2173 195640.000   -261331.8766  -5070388.0706   3848246.5672   1   7   0.0047   0.0096   0.0085   0.0012  -0.0078  -0.0017   0.00    3.7
2173 195641.000   -261331.4323  -5070388.4520   3848246.1339   2   7   0.4634   0.9513   0.8369   0.1108  -0.7661  -0.1630   0.00    3.0
2173 195642.000   -261331.8743  -5070388.0638   3848246.5581   1   7   0.0047   0.0096   0.0084   0.0012  -0.0077  -0.0017   0.00    3.4
2173 195643.000   -261331.8774  -5070388.0569   3848246.5588   1   7   0.0047   0.0096   0.0084   0.0012  -0.0077  -0.0017   0.00    3.2
2173 195644.000   -261331.8747  -5070388.0632   3848246.5570   1   7   0.0047   0.0096   0.0084   0.0012  -0.0077  -0.0017   0.00    3.1
2173 195645.000   -261331.8740  -5070388.0655   3848246.5585   1   7   0.0047   0.0096   0.0084   0.0012  -0.0077  -0.0017   0.00    3.5
2173 195646.000   -261331.8733  -5070388.0611   3848246.5579   1   7   0.0047   0.0096   0.0084   0.0012  -0.0077  -0.0017   0.00    3.3
2173 195647.000   -261331.8726  -5070388.0697   3848246.5656   1   7   0.0047   0.0096   0.0084   0.0012  -0.0077  -0.0017   0.00    3.4
2173 195648.000   -261331.8727  -5070388.0673   3848246.5643   1   7   0.0047   0.0096   0.0084   0.0012  -0.0077  -0.0017   0.00    3.3
2173 195649.000   -261331.8778  -5070388.0637   3848246.5622   1   7   0.0047   0.0096   0.0084   0.0012  -0.0077  -0.0017   0.00    3.3
2173 195650.000   -261331.8750  -5070388.0673   3848246.5621   1   7   0.0047   0.0096   0.0084   0.0012  -0.0077  -0.0017   0.00    3.2
2173 195651.000   -261331.8731  -5070388.0679   3848246.5640   1   7   0.0047   0.0096   0.0084   0.0012  -0.0077  -0.0017   0.00    3.8
2173 195652.000   -261331.8730  -5070388.0724   3848246.5650   1   7   0.0047   0.0096   0.0084   0.0012  -0.0077  -0.0017   0.00    3.7
2173 195653.000   -261331.8752  -5070388.0644   3848246.5598   1   7   0.0047   0.0096   0.0084   0.0012  -0.0077  -0.0017   0.00    5.1
2173 195654.000   -261331.8747  -5070388.0743   3848246.5673   1   7   0.0047   0.0096   0.0084   0.0012  -0.0077  -0.0017   0.00    3.8
2173 195655.000   -261331.8735  -5070388.0592   3848246.5583   1   7   0.0047   0.0096   0.0084   0.0012  -0.0077  -0.0017   0.00    3.3
2173 195656.000   -261331.8731  -5070388.0662   3848246.5587   1   7   0.0047   0.0096   0.0084   0.0012  -0.0077  -0.0017   0.00    4.6
2173 195657.000   -261331.8730  -5070388.0682   3848246.5625   1   7   0.0047   0.0096   0.0084   0.0012  -0.0077  -0.0017   0.00    3.9
2173 195658.000   -261331.8758  -5070388.0648   3848246.5599   1   7   0.0047   0.0096   0.0084   0.0012  -0.0077  -0.0017   0.00    4.0
2173 195659.000   -261331.5483  -5070389.0106   3848247.0945   2   7   0.4639   0.9513   0.8347   0.1102  -0.7647  -0.1636   0.00    2.7
2173 195660.000   -261331.8727  -5070388.0661   3848246.5583   1   7   0.0047   0.0096   0.0084   0.0012  -0.0077  -0.0017   0.00    4.0
2173 195661.000   -261331.8720  -5070388.0617   3848246.5550   1   7   0.0047   0.0096   0.0084   0.0012  -0.0077  -0.0017   0.00    3.8
2173 195662.000   -261331.8709  -5070388.0638   3848246.5573   1   7   0.0047   0.0096   0.0084   0.0012  -0.0077  -0.0017   0.00    3.8
2173 195663.000   -261331.8719  -5070388.0702   3848246.5625   1   7   0.0047   0.0096   0.0084   0.0012  -0.0077  -0.0017   0.00    3.6
2173 195664.000   -261331.8743  -5070388.0668   3848246.5626   1   7   0.0047   0.0096   0.0084   0.0012  -0.0077  -0.0017   0.00    4.2
2173 195665.000   -261331.8713  -5070388.0626   3848246.5589   1   7   0.0047   0.0096   0.0084   0.0012  -0.0077  -0.0017   0.00    3.1
2173 195666.000   -261331.8673  -5070388.0640   3848246.5527   1   7   0.0047   0.0096   0.0084   0.0012  -0.0077  -0.0017   0.00    3.7
2173 195667.000   -261331.8721  -5070388.0659   3848246.5558   1   7   0.0047   0.0096   0.0084   0.0012  -0.0077  -0.0017   0.00    3.5
2173 195668.000   -261331.8705  -5070388.0694   3848246.5587   1   7   0.0047   0.0096   0.0084   0.0012  -0.0077  -0.0017   0.00    3.5
2173 195669.000   -261331.8700  -5070388.0684   3848246.5601   1   7   0.0047   0.0096   0.0084   0.0012  -0.0077  -0.0017   0.00    4.0
2173 195670.000   -261331.8734  -5070388.0710   3848246.5638   1   7   0.0047   0.0096   0.0084   0.0012  -0.0077  -0.0017   0.00    3.6
2173 195671.000   -261331.8698  -5070388.0680   3848246.5605   1   7   0.0047   0.0096   0.0084   0.0012  -0.0077  -0.0017   0.00    3.2
2173 195672.000   -261331.6587  -5070388.4148   3848246.3042   2   7   0.4643   0.9513   0.8331   0.1098  -0.7638  -0.1641   0.00    2.7
2173 195673.000   -261331.8713  -5070388.0710   3848246.5618   1   7   0.0047   0.0096   0.0084   0.0012  -0.0077  -0.0017   0.00    3.6
2173 195674.000   -261331.8684  -5070388.0624   3848246.5549   1   7   0.0047   0.0096   0.0084   0.0012  -0.0077  -0.0017   0.00    3.6
2173 195675.000   -261331.8683  -5070388.0681   3848246.5603   1   7   0.0047   0.0096   0.0084   0.0012  -0.0077  -0.0017   0.00    3.1
2173 195676.000   -261331.8645  -5070388.0619   3848246.5582   1   7   0.0047   0.0096   0.0084   0.0012  -0.0077  -0.0017   0.00    5.8
2173 195677.000   -261331.8699  -5070388.0666   3848246.5623   1   7   0.0047   0.0096   0.0084   0.0012  -0.0077  -0.0017   0.00    4.1
2173 195678.000   -261331.3455  -5070388.4266   3848246.7710   2   7   0.4644   0.9514   0.8324   0.1096  -0.7633  -0.1643   0.00    3.0
2173 195679.000   -261331.8687  -5070388.0718   3848246.5648   1   7   0.0047   0.0096   0.0084   0.0012  -0.0077  -0.0017   0.00    4.5
2173 195680.000   -261331.8673  -5070388.0696   3848246.5604   1   7   0.0047   0.0096   0.0084   0.0012  -0.0077  -0.0017   0.00    3.6
2173 195681.000   -261331.8710  -5070388.0706   3848246.5624   1   7   0.0047   0.0096   0.0084   0.0012  -0.0077  -0.0017   0.00    4.0
2173 195682.000   -261331.8696  -5070388.0656   3848246.5574   1   7   0.0047   0.0096   0.0084   0.0012  -0.0077  -0.0017   0.00    4.1
2173 195683.000   -261331.7104  -5070388.4917   3848246.5849   2   7   0.4646   0.9514   0.8318   0.1094  -0.7630  -0.1645   0.00    2.9
2173 195684.000   -261331.8702  -5070388.0689   3848246.5607   1   7   0.0047   0.0096   0.0084   0.0012  -0.0077  -0.0017   0.00    3.2
2173 195685.000   -261331.8713  -5070388.0710   3848246.5627   1   7   0.0047   0.0096   0.0084   0.0012  -0.0077  -0.0017   0.00    3.9
2173 195686.000   -261331.8702  -5070388.0671   3848246.5612   1   7   0.0047   0.0096   0.0084   0.0012  -0.0077  -0.0017   0.00    3.8
2173 195687.000   -261331.8679  -5070388.0733   3848246.5628   1   7   0.0047   0.0096   0.0084   0.0012  -0.0077  -0.0017   0.00    4.7
2173 195688.000   -261331.8677  -5070388.0690   3848246.5634   1   7   0.0047   0.0096   0.0084   0.0012  -0.0077  -0.0017   0.00    4.4
2173 195689.000   -261331.8700  -5070388.0697   3848246.5626   1   7   0.0047   0.0096   0.0084   0.0012  -0.0077  -0.0017   0.00    4.5
2173 195690.000   -261331.8691  -5070388.0701   3848246.5622   1   7   0.0047   0.0096   0.0084   0.0012  -0.0077  -0.0017   0.00    4.4
2173 195691.000   -261331.8673  -5070388.0730   3848246.5639   1   7   0.0047   0.0096   0.0084   0.0012  -0.0077  -0.0017   0.00    4.4
2173 195692.000   -261331.8716  -5070388.0685   3848246.5628   1   7   0.0047   0.0096   0.0084   0.0012  -0.0077  -0.0017   0.00    3.9
2173 195693.000   -261331.2328  -5070388.3189   3848246.2539   2   7   0.4648   0.9514   0.8306   0.1091  -0.7622  -0.1648   0.00    2.8
2173 195694.000   -261331.8672  -5070388.0709   3848246.5596   1   7   0.0047   0.0096   0.0084   0.0012  -0.0077  -0.0017   0.00    3.9
2173 195695.000   -261331.8699  -5070388.0693   3848246.5606   1   7   0.0047   0.0096   0.0084   0.0012  -0.0077  -0.0017   0.00    3.2
2173 195696.000   -261331.8720  -5070388.0628   3848246.5595   1   7   0.0047   0.0096   0.0084   0.0012  -0.0077  -0.0017   0.00    3.2
2173 195697.000   -261331.2268  -5070389.2672   3848247.1726   2   7   0.4650   0.9514   0.8301   0.1090  -0.7619  -0.1650   0.00    2.0
2173 195698.000   -261330.9225  -5070388.8603   3848246.3273   2   7   0.4650   0.9514   0.8300   0.1089  -0.7619  -0.1650   0.00    2.4
2173 195699.000   -261331.3405  -5070388.3557   3848246.4176   2   7   0.4650   0.9514   0.8299   0.1089  -0.7618  -0.1650   0.00    2.7
2173 195700.000   -261331.3455  -5070388.8653   3848246.7397   2   7   0.4650   0.9515   0.8298   0.1089  -0.7617  -0.1651   0.00    2.6
2173 195701.000   -261331.2276  -5070388.7510   3848246.7049   2   7   0.4651   0.9515   0.8297   0.1088  -0.7616  -0.1651   0.00    2.7
2173 195702.000   -261331.0878  -5070388.4431   3848246.3141   2   7   0.4651   0.9515   0.8295   0.1088  -0.7616  -0.1651   0.00    3.0
2173 195703.000   -261331.1760  -5070388.1680   3848246.6461   2   7   0.4651   0.9515   0.8294   0.1087  -0.7615  -0.1652   0.00    2.9
2173 195704.000   -261330.9304  -5070388.2736   3848246.4048   2   7   0.4651   0.9515   0.8293   0.1087  -0.7614  -0.1652   0.00    3.0
2173 195705.000   -261331.8726  -5070388.0600   3848246.5587   1   7   0.0047   0.0096   0.0084   0.0012  -0.0077  -0.0017   0.00    3.1
2173 195706.000   -261331.8721  -5070388.0630   3848246.5624   1   7   0.0047   0.0096   0.0084   0.0012  -0.0077  -0.0017   0.00    3.6
2173 195707.000   -261331.8708  -5070388.0634   3848246.5562   1   7   0.0047   0.0096   0.0084   0.0012  -0.0077  -0.0017   0.00    3.4
2173 195708.000   -261331.8721  -5070388.0618   3848246.5589   1   7   0.0047   0.0096   0.0084   0.0012  -0.0077  -0.0017   0.00    3.8
2173 195709.000   -261331.8688  -5070388.0606   3848246.5583   1   7   0.0047   0.0096   0.0084   0.0012  -0.0077  -0.0017   0.00    3.4
2173 195710.000   -261331.8706  -5070388.0602   3848246.5585   1   7   0.0047   0.0096   0.0084   0.0012  -0.0077  -0.0017   0.00    3.8
2173 195711.000   -261331.8712  -5070388.0662   3848246.5639   1   7   0.0047   0.0096   0.0084   0.0012  -0.0077  -0.0017   0.00    3.6
2173 195712.000   -261331.8693  -5070388.0599   3848246.5568   1   7   0.0047   0.0096   0.0084   0.0012  -0.0077  -0.0017   0.00    3.9
2173 195713.000   -261331.8691  -5070388.0648   3848246.5600   1   7   0.0047   0.0096   0.0084   0.0012  -0.0077  -0.0017   0.00    3.4
2173 195714.000   -261331.8735  -5070388.0576   3848246.5561   1   7   0.0047   0.0096   0.0084   0.0012  -0.0077  -0.0017   0.00    3.3
2173 195715.000   -261331.8712  -5070388.0633   3848246.5608   1   7   0.0047   0.0096   0.0084   0.0012  -0.0077  -0.0017   0.00    4.0
2173 195716.000   -261331.8686  -5070388.0611   3848246.5596   1   7   0.0047   0.0096   0.0084   0.0012  -0.0077  -0.0017   0.00    5.4
2173 195717.000   -261331.8700  -5070388.0546   3848246.5539   1   7   0.0047   0.0096   0.0084   0.0012  -0.0077  -0.0017   0.00    4.2
2173 195718.000   -261331.8694  -5070388.0654   3848246.5619   1   7   0.0047   0.0096   0.0084   0.0012  -0.0077  -0.0017   0.00    3.2
2173 195719.000   -261331.8688  -5070388.0582   3848246.5548   1   7   0.0047   0.0096   0.0084   0.0012  -0.0077  -0.0017   0.00    3.3
2173 195720.000   -261331.8710  -5070388.0614   3848246.5588   1   7   0.0047   0.0096   0.0084   0.0012  -0.0077  -0.0017   0.00    3.9
2173 195721.000   -261331.8686  -5070388.0613   3848246.5567   1   7   0.0047   0.0096   0.0084   0.0012  -0.0077  -0.0017   0.00    3.8
2173 195722.000   -261331.8652  -5070388.0658   3848246.5605   1   7   0.0047   0.0096   0.0084   0.0012  -0.0077  -0.0017   0.00    4.1
2173 195723.000   -261331.8680  -5070388.0623   3848246.5604   1   7   0.0047   0.0096   0.0084   0.0012  -0.0077  -0.0017   0.00    3.4
2173 195724.000   -261331.8667  -5070388.0584   3848246.5579   1   7   0.0047   0.0096   0.0084   0.0012  -0.0077  -0.0017   0.00    4.3
2173 195725.000   -261331.8697  -5070388.0676   3848246.5587   1   7   0.0047   0.0096   0.0084   0.0012  -0.0077  -0.0017   0.00    4.9
2173 195726.000   -261331.8670  -5070388.0662   3848246.5608   1   7   0.0047   0.0096   0.0083   0.0012  -0.0077  -0.0017   0.00    3.9
2173 195727.000   -261331.8693  -5070388.0655   3848246.5608   1   7   0.0047   0.0096   0.0083   0.0012  -0.0077  -0.0017   0.00    4.7
2173 195728.000   -261331.8689  -5070388.0647   3848246.5601   1   7   0.0047   0.0096   0.0083   0.0012  -0.0077  -0.0017   0.00    4.6
2173 195729.000   -261331.8665  -5070388.0669   3848246.5603   1   7   0.0047   0.0096   0.0083   0.0012  -0.0077  -0.0017   0.00    4.0
2173 195730.000   -261331.8674  -5070388.0722   3848246.5626   1   7   0.0047   0.0096   0.0083   0.0012  -0.0077  -0.0017   0.00    4.1
2173 195731.000   -261331.8687  -5070388.0674   3848246.5619   1   7   0.0047   0.0096   0.0083   0.0012  -0.0077  -0.0017   0.00    4.2
2173 195732.000   -261331.8699  -5070388.0554   3848246.5512   1   7   0.0047   0.0096   0.0083   0.0012  -0.0077  -0.0017   0.00    5.1
2173 195733.000   -261331.8691  -5070388.0653   3848246.5587   1   7   0.0047   0.0096   0.0083   0.0012  -0.0077  -0.0017   0.00    3.7
2173 195734.000   -261331.8725  -5070388.0685   3848246.5613   1   7   0.0047   0.0096   0.0083   0.0012  -0.0077  -0.0017   0.00    4.6
2173 195735.000   -261331.8689  -5070388.0687   3848246.5611   1   7   0.0047   0.0096   0.0083   0.0012  -0.0077  -0.0017   0.00    3.7
2173 195736.000   -261331.8667  -5070388.0659   3848246.5586   1   7   0.0047   0.0096   0.0083   0.0012  -0.0077  -0.0017   0.00    5.6
2173 195737.000   -261331.8697  -5070388.0695   3848246.5609   1   7   0.0047   0.0096   0.0083   0.0012  -0.0077  -0.0017   0.00    5.5
2173 195738.000   -261331.8683  -5070388.0655   3848246.5587   1   7   0.0047   0.0096   0.0083   0.0012  -0.0077  -0.0017   0.00    7.3
2173 195739.000   -261331.8696  -5070388.0693   3848246.5583   1   7   0.0047   0.0096   0.0083   0.0012  -0.0077  -0.0017   0.00    5.3
2173 195740.000   -261331.8690  -5070388.0669   3848246.5582   1   7   0.0047   0.0096   0.0083   0.0012  -0.0077  -0.0017   0.00    5.0
2173 195741.000   -261331.8683  -5070388.0732   3848246.5625   1   7   0.0047   0.0096   0.0083   0.0012  -0.0077  -0.0017   0.00    4.1
2173 195742.000   -261331.8688  -5070388.0659   3848246.5566   1   7   0.0047   0.0096   0.0083   0.0012  -0.0077  -0.0017   0.00    4.4
2173 195743.000   -261331.8700  -5070388.0668   3848246.5608   1   7   0.0047   0.0096   0.0083   0.0012  -0.0077  -0.0017   0.00    4.8
2173 195744.000   -261331.8680  -5070388.0665   3848246.5576   1   7   0.0047   0.0096   0.0083   0.0012  -0.0077  -0.0017   0.00    4.6
2173 195745.000   -261331.8688  -5070388.0709   3848246.5615   1   7   0.0047   0.0096   0.0083   0.0012  -0.0077  -0.0017   0.00    4.2
2173 195746.000   -261331.8729  -5070388.0651   3848246.5593   1   7   0.0047   0.0096   0.0083   0.0012  -0.0077  -0.0017   0.00    5.6
2173 195747.000   -261331.8710  -5070388.0663   3848246.5584   1   7   0.0047   0.0096   0.0083   0.0012  -0.0077  -0.0017   0.00    4.3
2173 195748.000   -261331.8730  -5070388.0691   3848246.5593   1   7   0.0047   0.0096   0.0083   0.0012  -0.0077  -0.0017   0.00    4.3
2173 195749.000   -261331.8702  -5070388.0656   3848246.5561   1   7   0.0047   0.0096   0.0083   0.0012  -0.0077  -0.0017   0.00    5.1
2173 195750.000   -261331.8704  -5070388.0638   3848246.5538   1   7   0.0047   0.0096   0.0083   0.0012  -0.0077  -0.0017   0.00    4.6
2173 195751.000   -261331.8729  -5070388.0599   3848246.5524   1   7   0.0047   0.0096   0.0083   0.0012  -0.0077  -0.0017   0.00    4.7
2173 195752.000   -261331.8736  -5070388.0649   3848246.5557   1   7   0.0047   0.0096   0.0083   0.0012  -0.0077  -0.0017   0.00    4.7
2173 195753.000   -261331.8711  -5070388.0655   3848246.5550   1   7   0.0047   0.0096   0.0083   0.0012  -0.0077  -0.0017   0.00    4.2
2173 195754.000   -261331.8723  -5070388.0609   3848246.5522   1   7   0.0047   0.0096   0.0083   0.0012  -0.0077  -0.0017   0.00    3.6
2173 195755.000   -261331.8709  -5070388.0715   3848246.5589   1   7   0.0047   0.0096   0.0083   0.0012  -0.0077  -0.0017   0.00    4.3
2173 195756.000   -261331.8720  -5070388.0705   3848246.5571   1   7   0.0047   0.0096   0.0083   0.0012  -0.0077  -0.0017   0.00    4.4
2173 195757.000   -261331.8698  -5070388.0667   3848246.5562   1   7   0.0047   0.0096   0.0083   0.0012  -0.0077  -0.0017   0.00    4.0
2173 195758.000   -261331.8703  -5070388.0697   3848246.5609   1   7   0.0047   0.0096   0.0083   0.0012  -0.0077  -0.0017   0.00    3.5
2173 195759.000   -261331.8693  -5070388.0688   3848246.5609   1   7   0.0047   0.0096   0.0083   0.0012  -0.0077  -0.0017   0.00    4.2
2173 195760.000   -261331.8699  -5070388.0705   3848246.5594   1   7   0.0047   0.0096   0.0083   0.0012  -0.0077  -0.0017   0.00    3.9
2173 195761.000   -261331.8701  -5070388.0715   3848246.5613   1   7   0.0047   0.0096   0.0083   0.0012  -0.0077  -0.0017   0.00    4.0
2173 195762.000   -261331.8709  -5070388.0733   3848246.5618   1   7   0.0047   0.0096   0.0083   0.0012  -0.0077  -0.0017   0.00    3.4
2173 195763.000   -261331.0757  -5070389.5532   3848247.0718   2   7   0.4668   0.9519   0.8226   0.1066  -0.7574  -0.1672   0.00    2.7
2173 195764.000   -261331.8698  -5070388.0671   3848246.5579   1   7   0.0047   0.0096   0.0083   0.0012  -0.0077  -0.0017   0.00    3.5
2173 195765.000   -261331.8691  -5070388.0690   3848246.5591   1   7   0.0047   0.0096   0.0083   0.0012  -0.0077  -0.0017   0.00    3.2
2173 195766.000   -261331.8701  -5070388.0703   3848246.5572   1   7   0.0047   0.0096   0.0083   0.0012  -0.0077  -0.0017   0.00    3.8
2173 195767.000   -261331.8704  -5070388.0653   3848246.5566   1   7   0.0047   0.0096   0.0083   0.0012  -0.0077  -0.0017   0.00    3.4
2173 195768.000   -261331.8687  -5070388.0677   3848246.5549   1   7   0.0047   0.0096   0.0083   0.0012  -0.0077  -0.0017   0.00    3.7
2173 195769.000   -261331.8726  -5070388.0673   3848246.5565   1   7   0.0047   0.0096   0.0083   0.0012  -0.0077  -0.0017   0.00    3.6
2173 195770.000   -261331.8720  -5070388.0705   3848246.5604   1   7   0.0047   0.0096   0.0083   0.0012  -0.0077  -0.0017   0.00    3.7
2173 195771.000   -261331.8712  -5070388.0669   3848246.5578   1   7   0.0047   0.0096   0.0083   0.0012  -0.0077  -0.0017   0.00    4.6
2173 195772.000   -261331.8681  -5070388.0673   3848246.5568   1   7   0.0047   0.0096   0.0083   0.0012  -0.0077  -0.0017   0.00    3.6
2173 195773.000   -261331.8696  -5070388.0679   3848246.5558   1   7   0.0047   0.0096   0.0083   0.0011  -0.0077  -0.0017   0.00    4.1
2173 195774.000   -261331.8677  -5070388.0681   3848246.5584   1   7   0.0047   0.0096   0.0083   0.0011  -0.0077  -0.0017   0.00    3.6
2173 195775.000   -261331.8705  -5070388.0734   3848246.5625   1   7   0.0047   0.0096   0.0083   0.0011  -0.0077  -0.0017   0.00    4.2
2173 195776.000   -261331.8704  -5070388.0725   3848246.5585   1   7   0.0047   0.0096   0.0083   0.0011  -0.0077  -0.0017   0.00    4.0
2173 195777.000   -261331.8706  -5070388.0738   3848246.5565   1   7   0.0047   0.0096   0.0083   0.0011  -0.0077  -0.0017   0.00    4.5
2173 195778.000   -261331.8709  -5070388.0745   3848246.5586   1   7   0.0047   0.0096   0.0083   0.0011  -0.0077  -0.0017   0.00    4.2
2173 195779.000   -261331.8713  -5070388.0749   3848246.5588   1   7   0.0047   0.0096   0.0083   0.0011  -0.0077  -0.0017   0.00    4.0
2173 195780.000   -261331.8699  -5070388.0791   3848246.5609   1   7   0.0047   0.0096   0.0083   0.0011  -0.0077  -0.0017   0.00    4.9
2173 195781.000   -261331.8727  -5070388.0734   3848246.5593   1   7   0.0047   0.0096   0.0083   0.0011  -0.0077  -0.0017   0.00    5.4
2173 195782.000   -261331.8723  -5070388.0727   3848246.5592   1   7   0.0047   0.0096   0.0083   0.0011  -0.0077  -0.0017   0.00    5.9
2173 195783.000   -261331.8724  -5070388.0779   3848246.5640   1   7   0.0047   0.0096   0.0083   0.0011  -0.0077  -0.0017   0.00    6.6
2173 195784.000   -261331.8684  -5070388.0690   3848246.5588   1   7   0.0047   0.0096   0.0083   0.0011  -0.0077  -0.0017   0.00    5.3
2173 195785.000   -261331.8701  -5070388.0742   3848246.5588   1   7   0.0047   0.0096   0.0083   0.0011  -0.0076  -0.0017   0.00    5.1
2173 195786.000   -261331.8707  -5070388.0803   3848246.5617   1   7   0.0047   0.0096   0.0083   0.0011  -0.0076  -0.0017   0.00    4.3
2173 195787.000   -261331.8708  -5070388.0734   3848246.5551   1   7   0.0047   0.0096   0.0083   0.0011  -0.0076  -0.0017   0.00    4.9
2173 195788.000   -261331.8709  -5070388.0726   3848246.5598   1   7   0.0047   0.0096   0.0083   0.0011  -0.0076  -0.0017   0.00    4.5
2173 195789.000   -261331.8715  -5070388.0733   3848246.5600   1   7   0.0047   0.0096   0.0083   0.0011  -0.0076  -0.0017   0.00    5.0
2173 195790.000   -261331.8678  -5070388.0751   3848246.5591   1   7   0.0047   0.0096   0.0083   0.0011  -0.0076  -0.0017   0.00    3.8
2173 195791.000   -261331.8674  -5070388.0762   3848246.5588   1   7   0.0047   0.0096   0.0083   0.0011  -0.0076  -0.0017   0.00    4.6
2173 195792.000   -261331.8673  -5070388.0768   3848246.5628   1   7   0.0047   0.0096   0.0083   0.0011  -0.0076  -0.0017   0.00    5.3
2173 195793.000   -261331.8704  -5070388.0716   3848246.5579   1   7   0.0047   0.0096   0.0083   0.0011  -0.0076  -0.0017   0.00    6.3
2173 195794.000   -261331.8680  -5070388.0765   3848246.5612   1   7   0.0047   0.0096   0.0083   0.0011  -0.0076  -0.0017   0.00    5.6
2173 195795.000   -261331.8684  -5070388.0698   3848246.5566   1   7   0.0047   0.0096   0.0083   0.0011  -0.0076  -0.0017   0.00    3.5
2173 195796.000   -261331.8682  -5070388.0764   3848246.5617   1   7   0.0047   0.0096   0.0083   0.0011  -0.0076  -0.0017   0.00    3.4
2173 195797.000   -261331.8665  -5070388.0783   3848246.5621   1   7   0.0047   0.0096   0.0083   0.0011  -0.0076  -0.0017   0.00    4.8
2173 195798.000   -261331.8702  -5070388.0708   3848246.5579   1   7   0.0047   0.0096   0.0083   0.0011  -0.0076  -0.0017   0.00    6.0
2173 195799.000   -261331.8674  -5070388.0740   3848246.5580   1   7   0.0047   0.0096   0.0083   0.0011  -0.0076  -0.0017   0.00    4.6
2173 195800.000   -261331.8683  -5070388.0709   3848246.5555   1   7   0.0047   0.0096   0.0083   0.0011  -0.0076  -0.0017   0.00    4.5
2173 195801.000   -261331.8696  -5070388.0786   3848246.5596   1   7   0.0047   0.0096   0.0083   0.0011  -0.0076  -0.0017   0.00    5.1
2173 195802.000   -261331.8688  -5070388.0739   3848246.5558   1   7   0.0047   0.0096   0.0083   0.0011  -0.0076  -0.0017   0.00    3.9
2173 195803.000   -261331.8699  -5070388.0727   3848246.5555   1   7   0.0047   0.0096   0.0083   0.0011  -0.0076  -0.0017   0.00    4.4
2173 195804.000   -261331.8706  -5070388.0782   3848246.5595   1   7   0.0047   0.0096   0.0083   0.0011  -0.0076  -0.0017   0.00    4.6
2173 195805.000   -261331.8687  -5070388.0735   3848246.5579   1   7   0.0047   0.0096   0.0083   0.0011  -0.0076  -0.0017   0.00    4.6
2173 195806.000   -261331.8694  -5070388.0824   3848246.5623   1   7   0.0047   0.0096   0.0083   0.0011  -0.0076  -0.0017   0.00    3.4
2173 195807.000   -261331.8679  -5070388.0772   3848246.5611   1   7   0.0047   0.0096   0.0083   0.0011  -0.0076  -0.0017   0.00    4.0
2173 195808.000   -261331.5591  -5070388.3852   3848247.2351   2   7   0.4681   0.9524   0.8176   0.1048  -0.7544  -0.1687   0.00    2.9
2173 195809.000   -261331.8686  -5070388.0788   3848246.5616   1   7   0.0047   0.0096   0.0083   0.0011  -0.0076  -0.0017   0.00    5.6
2173 195810.000   -261331.8678  -5070388.0778   3848246.5584   1   7   0.0047   0.0096   0.0083   0.0011  -0.0076  -0.0017   0.00    4.6
2173 195811.000   -261331.8663  -5070388.0795   3848246.5605   1   7   0.0047   0.0096   0.0083   0.0011  -0.0076  -0.0017   0.00    4.6
2173 195812.000   -261331.8672  -5070388.0775   3848246.5585   1   7   0.0047   0.0096   0.0083   0.0011  -0.0076  -0.0017   0.00    6.2
2173 195813.000   -261331.8666  -5070388.0752   3848246.5568   1   7   0.0047   0.0096   0.0083   0.0011  -0.0076  -0.0017   0.00    5.3
2173 195814.000   -261331.8673  -5070388.0747   3848246.5567   1   7   0.0047   0.0096   0.0083   0.0011  -0.0076  -0.0017   0.00    4.3
2173 195815.000   -261331.8686  -5070388.0783   3848246.5579   1   7   0.0047   0.0096   0.0083   0.0011  -0.0076  -0.0017   0.00    5.0
2173 195816.000   -261331.8677  -5070388.0683   3848246.5524   1   7   0.0047   0.0096   0.0082   0.0011  -0.0076  -0.0017   0.00    5.0
2173 195817.000   -261331.8663  -5070388.0744   3848246.5530   1   7   0.0047   0.0096   0.0082   0.0011  -0.0076  -0.0017   0.00    4.1
2173 195818.000   -261331.8659  -5070388.0761   3848246.5576   1   7   0.0047   0.0096   0.0082   0.0011  -0.0076  -0.0017   0.00    5.2
2173 195819.000   -261331.8684  -5070388.0739   3848246.5553   1   7   0.0047   0.0096   0.0082   0.0011  -0.0076  -0.0017   0.00    4.0
2173 195820.000   -261331.8666  -5070388.0707   3848246.5519   1   7   0.0047   0.0096   0.0082   0.0011  -0.0076  -0.0017   0.00    3.6
2173 195821.000   -261331.8669  -5070388.0707   3848246.5512   1   7   0.0047   0.0096   0.0082   0.0011  -0.0076  -0.0017   0.00    4.6
2173 195822.000   -261331.8676  -5070388.0746   3848246.5561   1   7   0.0047   0.0096   0.0082   0.0011  -0.0076  -0.0017   0.00    4.4
2173 195823.000   -261331.8658  -5070388.0747   3848246.5545   1   7   0.0047   0.0096   0.0082   0.0011  -0.0076  -0.0017   0.00    7.4
2173 195824.000   -261331.8650  -5070388.0758   3848246.5539   1   7   0.0047   0.0096   0.0082   0.0011  -0.0076  -0.0017   0.00    4.3
2173 195825.000   -261331.8668  -5070388.0783   3848246.5539   1   7   0.0047   0.0096   0.0082   0.0011  -0.0076  -0.0017   0.00    5.7
2173 195826.000   -261331.8687  -5070388.0743   3848246.5537   1   7   0.0047   0.0096   0.0082   0.0011  -0.0076  -0.0017   0.00    4.8
2173 195827.000   -261331.8685  -5070388.0739   3848246.5554   1   7   0.0047   0.0096   0.0082   0.0011  -0.0076  -0.0017   0.00    6.6
2173 195828.000   -261331.8663  -5070388.0733   3848246.5515   1   7   0.0047   0.0096   0.0082   0.0011  -0.0076  -0.0017   0.00    5.0
2173 195829.000   -261331.8684  -5070388.0735   3848246.5540   1   7   0.0047   0.0096   0.0082   0.0011  -0.0076  -0.0017   0.00    3.3
2173 195830.000   -261331.8666  -5070388.0762   3848246.5540   1   7   0.0047   0.0096   0.0082   0.0011  -0.0076  -0.0017   0.00    5.2
2173 195831.000   -261331.8687  -5070388.0745   3848246.5540   1   7   0.0047   0.0096   0.0082   0.0011  -0.0076  -0.0017   0.00    7.6
2173 195832.000   -261331.8685  -5070388.0742   3848246.5528   1   7   0.0047   0.0096   0.0082   0.0011  -0.0076  -0.0017   0.00    6.8
2173 195833.000   -261331.8662  -5070388.0731   3848246.5549   1   7   0.0047   0.0096   0.0082   0.0011  -0.0076  -0.0017   0.00    4.3
2173 195834.000   -261331.8700  -5070388.0725   3848246.5505   1   7   0.0047   0.0096   0.0082   0.0011  -0.0076  -0.0017   0.00    5.3
2173 195835.000   -261331.8666  -5070388.0727   3848246.5536   1   7   0.0047   0.0096   0.0082   0.0011  -0.0076  -0.0017   0.00    6.1
2173 195836.000   -261331.8687  -5070388.0745   3848246.5550   1   7   0.0047   0.0096   0.0082   0.0011  -0.0076  -0.0017   0.00    7.9
2173 195837.000   -261331.8705  -5070388.0702   3848246.5514   1   7   0.0047   0.0096   0.0082   0.0011  -0.0076  -0.0017   0.00    5.8
2173 195838.000   -261331.8666  -5070388.0748   3848246.5549   1   7   0.0047   0.0096   0.0082   0.0011  -0.0076  -0.0017   0.00    8.2
2173 195839.000   -261331.8709  -5070388.0733   3848246.5550   1   7   0.0047   0.0096   0.0082   0.0011  -0.0076  -0.0017   0.00    6.0
2173 195840.000   -261331.8694  -5070388.0681   3848246.5504   1   7   0.0047   0.0096   0.0082   0.0011  -0.0076  -0.0017   0.00    7.0
2173 195841.000   -261331.8710  -5070388.0723   3848246.5495   1   7   0.0047   0.0096   0.0082   0.0011  -0.0076  -0.0018   0.00    6.2
2173 195842.000   -261331.8702  -5070388.0720   3848246.5518   1   7   0.0047   0.0096   0.0082   0.0011  -0.0076  -0.0018   0.00    7.4
2173 195843.000   -261331.8710  -5070388.0679   3848246.5493   1   7   0.0047   0.0096   0.0082   0.0011  -0.0076  -0.0018   0.00    5.5
2173 195844.000   -261331.8696  -5070388.0708   3848246.5490   1   7   0.0047   0.0096   0.0082   0.0011  -0.0076  -0.0018   0.00    7.6
2173 195845.000   -261331.8716  -5070388.0769   3848246.5540   1   7   0.0047   0.0096   0.0082   0.0011  -0.0076  -0.0018   0.00    6.5
2173 195846.000   -261331.8689  -5070388.0719   3848246.5508   1   7   0.0047   0.0096   0.0082   0.0011  -0.0076  -0.0018   0.00    5.2
2173 195847.000   -261331.8704  -5070388.0759   3848246.5516   1   7   0.0047   0.0096   0.0082   0.0011  -0.0076  -0.0018   0.00    7.9
2173 195848.000   -261331.8700  -5070388.0747   3848246.5519   1   7   0.0047   0.0096   0.0082   0.0011  -0.0076  -0.0018   0.00    4.5
2173 195849.000   -261331.8703  -5070388.0725   3848246.5488   1   7   0.0047   0.0097   0.0082   0.0011  -0.0076  -0.0018   0.00    4.2
2173 195850.000   -261331.8727  -5070388.0734   3848246.5514   1   7   0.0047   0.0097   0.0082   0.0011  -0.0076  -0.0018   0.00    4.1
2173 195851.000   -261331.8711  -5070388.0723   3848246.5519   1   7   0.0047   0.0097   0.0082   0.0011  -0.0076  -0.0018   0.00    7.0
2173 195852.000   -261331.8719  -5070388.0713   3848246.5506   1   7   0.0047   0.0097   0.0082   0.0011  -0.0076  -0.0018   0.00    4.6
2173 195853.000   -261331.8707  -5070388.0744   3848246.5565   1   7   0.0047   0.0097   0.0082   0.0011  -0.0076  -0.0018   0.00    4.0
2173 195854.000   -261331.8693  -5070388.0733   3848246.5553   1   7   0.0047   0.0097   0.0082   0.0011  -0.0076  -0.0018   0.00    4.8
2173 195855.000   -261331.8723  -5070388.0679   3848246.5515   1   7   0.0047   0.0097   0.0082   0.0011  -0.0076  -0.0018   0.00    5.1
2173 195856.000   -261331.8720  -5070388.0681   3848246.5503   1   7   0.0047   0.0097   0.0082   0.0011  -0.0076  -0.0018   0.00    4.1
2173 195857.000   -261331.8714  -5070388.0719   3848246.5519   1   7   0.0047   0.0097   0.0082   0.0011  -0.0076  -0.0018   0.00    5.4
2173 195858.000   -261331.8734  -5070388.0637   3848246.5461   1   7   0.0047   0.0097   0.0082   0.0011  -0.0076  -0.0018   0.00    4.6
2173 195859.000   -261331.8720  -5070388.0644   3848246.5471   1   7   0.0047   0.0097   0.0082   0.0011  -0.0076  -0.0018   0.00    3.3
2173 195860.000   -261331.8727  -5070388.0649   3848246.5462   1   7   0.0047   0.0097   0.0082   0.0011  -0.0076  -0.0018   0.00    4.6
2173 195861.000   -261331.8720  -5070388.0653   3848246.5479   1   7   0.0047   0.0097   0.0082   0.0011  -0.0076  -0.0018   0.00    6.0
2173 195862.000   -261331.8714  -5070388.0708   3848246.5519   1   7   0.0047   0.0097   0.0082   0.0011  -0.0076  -0.0018   0.00    5.4
2173 195863.000   -261331.8726  -5070388.0640   3848246.5453   1   7   0.0047   0.0097   0.0082   0.0011  -0.0076  -0.0018   0.00    5.9
2173 195864.000   -261331.8714  -5070388.0631   3848246.5459   1   7   0.0047   0.0097   0.0082   0.0011  -0.0076  -0.0018   0.00    5.0
2173 195865.000   -261331.8712  -5070388.0700   3848246.5485   1   7   0.0047   0.0097   0.0082   0.0011  -0.0076  -0.0018   0.00    5.1
2173 195866.000   -261331.8706  -5070388.0622   3848246.5449   1   7   0.0047   0.0097   0.0082   0.0011  -0.0076  -0.0018   0.00    5.6
