% program   : rnx2rtkp ver.2.4.3 b31
% inp file  : ngs/21_08_31_19_18_39_pbch.obs
% inp file  : ngs/21_08_31_19_18_39_pbch_VZ.obs
% inp file  : ngs/21_08_31_19_18_39_brdc.nav
% obs start : 2021/08/31 19:00:00.0 GPST (week2173 241200.0s)
% obs end   : 2021/08/31 19:59:59.0 GPST (week2173 244799.0s)
% ref pos   :   985851.1159  -5610687.0229   2859057.0320
%
% (x/y/z-ecef=WGS84,Q=1:fix,2:float,3:sbas,4:dgps,5:single,6:ppp,ns=# of satellites)
%  GPST              x-ecef(m)      y-ecef(m)      z-ecef(m)   Q  ns   sdx(m)   sdy(m)   sdz(m)  sdxy(m)  sdyz(m)  sdzx(m) age(s)  ratio
2173 242308.000    967386.1958  -5611812.3812   2863022.8484   2   7   0.6060   1.3092   0.6823  -0.6833  -0.8225   0.4615 -30.00    1.0
2173 242309.000    967386.1916  -5611812.3763   2863022.8493   2   7   0.4308   0.9310   0.4849  -0.4855  -0.5846   0.3280 -29.00    1.0
2173 242310.000    967386.1869  -5611812.3678   2863022.8472   2   7   0.3526   0.7621   0.3970  -0.3974  -0.4785   0.2684 -28.00    1.0
2173 242311.000    967386.1891  -5611812.3724   2863022.8495   2   7   0.3059   0.6610   0.3444  -0.3447  -0.4151   0.2329 -27.00    1.0
2173 242312.000    967386.1880  -5611812.3754   2863022.8533   2   7   0.2740   0.5919   0.3084  -0.3087  -0.3717   0.2086 -26.00    1.0
2173 242313.000    967386.1884  -5611812.3713   2863022.8507   2   7   0.2504   0.5408   0.2818  -0.2821  -0.3396   0.1906 -25.00    1.0
2173 242314.000    967386.1888  -5611812.3765   2863022.8527   2   7   0.2320   0.5010   0.2611  -0.2614  -0.3146   0.1765 -24.00    1.0
2173 242315.000    967386.1886  -5611812.3735   2863022.8527   2   7   0.2172   0.4688   0.2443  -0.2446  -0.2944   0.1652 -23.00    1.0
2173 242316.000    967386.1878  -5611812.3745   2863022.8525   2   7   0.2048   0.4421   0.2304  -0.2307  -0.2776   0.1558 -22.00    1.0
2173 242317.000    967386.1835  -5611812.3689   2863022.8533   2   7   0.1944   0.4194   0.2186  -0.2189  -0.2634   0.1478 -21.00    1.0
2173 242318.000    967386.1861  -5611812.3712   2863022.8538   2   7   0.1854   0.3999   0.2084  -0.2087  -0.2511   0.1409 -20.00    1.0
2173 242319.000    967386.1860  -5611812.3683   2863022.8525   2   7   0.1775   0.3828   0.1995  -0.1997  -0.2403   0.1349 -19.00    1.0
2173 242320.000    967386.1880  -5611812.3730   2863022.8534   2   7   0.1705   0.3676   0.1916  -0.1918  -0.2308   0.1296 -18.00    1.0
2173 242321.000    967386.1856  -5611812.3714   2863022.8534   2   7   0.1642   0.3541   0.1846  -0.1848  -0.2223   0.1248 -17.00    1.0
2173 242322.000    967386.1856  -5611812.3693   2863022.8519   2   7   0.1586   0.3419   0.1782  -0.1784  -0.2146   0.1205 -16.00    1.0
2173 242323.000    967386.1879  -5611812.3719   2863022.8539   2   7   0.1535   0.3308   0.1725  -0.1726  -0.2076   0.1166 -15.00    1.0
2173 242324.000    967386.1882  -5611812.3702   2863022.8524   2   7   0.1489   0.3207   0.1672  -0.1673  -0.2013   0.1130 -14.00    1.0
2173 242325.000    967386.1905  -5611812.3719   2863022.8525   2   7   0.1446   0.3115   0.1624  -0.1625  -0.1954   0.1097 -13.00    1.0
2173 242326.000    967386.1896  -5611812.3745   2863022.8548   2   7   0.1407   0.3029   0.1579  -0.1580  -0.1900   0.1067 -12.00    1.1
2173 242327.000    967386.1928  -5611812.3778   2863022.8533   2   7   0.1370   0.2950   0.1538  -0.1538  -0.1850   0.1039 -11.00    1.1
2173 242328.000    967386.1949  -5611812.3801   2863022.8546   2   7   0.1336   0.2876   0.1499  -0.1499  -0.1804   0.1013 -10.00    1.1
2173 242329.000    967386.1943  -5611812.3765   2863022.8521   2   7   0.1305   0.2807   0.1463  -0.1463  -0.1760   0.0988  -9.00    1.1
2173 242330.000    967386.1924  -5611812.3763   2863022.8527   2   7   0.1275   0.2742   0.1430  -0.1429  -0.1719   0.0965  -8.00    1.0
2173 242331.000    967386.1925  -5611812.3719   2863022.8481   2   7   0.1247   0.2681   0.1398  -0.1397  -0.1681   0.0944  -7.00    1.0
2173 242332.000    967386.1916  -5611812.3658   2863022.8461   2   7   0.1221   0.2624   0.1368  -0.1367  -0.1645   0.0924  -6.00    1.0
2173 242333.000    967386.1893  -5611812.3584   2863022.8417   2   7   0.1197   0.2570   0.1340  -0.1339  -0.1610   0.0904  -5.00    1.0
2173 242334.000    967386.1871  -5611812.3488   2863022.8361   2   7   0.1173   0.2518   0.1313  -0.1312  -0.1578   0.0886  -4.00    1.0
2173 242335.000    967386.1861  -5611812.3436   2863022.8328   2   7   0.1152   0.2470   0.1288  -0.1286  -0.1547   0.0869  -3.00    1.0
2173 242336.000    967386.1822  -5611812.3312   2863022.8260   2   7   0.1131   0.2423   0.1264  -0.1262  -0.1518   0.0853  -2.00    1.0
2173 242337.000    967386.1822  -5611812.3243   2863022.8206   2   7   0.1111   0.2379   0.1242  -0.1239  -0.1490   0.0837  -1.00    1.0
2173 242338.000    967386.1810  -5611812.3182   2863022.8151   2   7   0.1093   0.2338   0.1220  -0.1217  -0.1464   0.0822   0.00    1.0
2173 242339.000    967386.1789  -5611812.3245   2863022.8190   2   7   0.1075   0.2298   0.1200  -0.1197  -0.1439   0.0808   0.00    1.0
2173 242340.000    967386.1792  -5611812.3194   2863022.8138   2   7   0.1058   0.2261   0.1181  -0.1177  -0.1415   0.0795   0.00    1.1
2173 242341.000    967386.1804  -5611812.3224   2863022.8143   2   7   0.1042   0.2224   0.1162  -0.1158  -0.1392   0.0782   0.00    1.1
2173 242342.000    967386.1792  -5611812.3251   2863022.8143   2   7   0.1027   0.2189   0.1144  -0.1140  -0.1370   0.0770   0.00    1.1
2173 242343.000    967386.1822  -5611812.3256   2863022.8151   2   7   0.1012   0.2156   0.1127  -0.1122  -0.1348   0.0758   0.00    1.1
2173 242344.000    967386.1780  -5611812.3294   2863022.8191   2   7   0.0997   0.2123   0.1110  -0.1105  -0.1328   0.0746   0.00    1.1
2173 242345.000    967386.1823  -5611812.3274   2863022.8170   2   7   0.0984   0.2092   0.1094  -0.1089  -0.1308   0.0735   0.00    1.1
2173 242346.000    967386.1797  -5611812.3224   2863022.8164   2   7   0.0970   0.2062   0.1079  -0.1073  -0.1289   0.0724   0.00    1.2
2173 242347.000    967386.1859  -5611812.3319   2863022.8213   2   7   0.0957   0.2032   0.1064  -0.1057  -0.1270   0.0714   0.00    1.2
2173 242348.000    967386.1835  -5611812.3371   2863022.8237   2   7   0.0945   0.2004   0.1049  -0.1042  -0.1252   0.0704   0.00    1.2
2173 242349.000    967386.1860  -5611812.3409   2863022.8255   2   7   0.0933   0.1976   0.1035  -0.1028  -0.1234   0.0694   0.00    1.2
2173 242350.000    967386.1905  -5611812.3487   2863022.8294   2   7   0.0921   0.1949   0.1021  -0.1013  -0.1217   0.0685   0.00    1.2
2173 242351.000    967386.1916  -5611812.3588   2863022.8331   2   7   0.0910   0.1922   0.1008  -0.0999  -0.1200   0.0675   0.00    1.2
2173 242352.000    967386.1938  -5611812.3562   2863022.8312   2   7   0.0899   0.1897   0.0995  -0.0986  -0.1183   0.0666   0.00    1.2
2173 242353.000    967386.1930  -5611812.3510   2863022.8286   2   7   0.0889   0.1871   0.0982  -0.0972  -0.1167   0.0657   0.00    1.2
2173 242354.000    967386.1947  -5611812.3552   2863022.8295   2   7   0.0879   0.1847   0.0970  -0.0959  -0.1151   0.0648   0.00    1.2
2173 242355.000    967386.1935  -5611812.3551   2863022.8309   2   7   0.0868   0.1823   0.0958  -0.0947  -0.1136   0.0639   0.00    1.2
2173 242356.000    967386.1947  -5611812.3603   2863022.8329   2   7   0.0858   0.1799   0.0946  -0.0934  -0.1121   0.0631   0.00    1.3
2173 242357.000    967386.1965  -5611812.3645   2863022.8316   2   7   0.0849   0.1776   0.0934  -0.0922  -0.1106   0.0623   0.00    1.3
2173 242358.000    967386.1978  -5611812.3657   2863022.8336   2   7   0.0840   0.1753   0.0923  -0.0910  -0.1091   0.0615   0.00    1.3
2173 242359.000    967386.2001  -5611812.3747   2863022.8379   2   7   0.0831   0.1731   0.0912  -0.0898  -0.1077   0.0607   0.00    1.3
2173 242360.000    967386.2025  -5611812.3831   2863022.8411   2   7   0.0822   0.1709   0.0901  -0.0886  -0.1063   0.0599   0.00    1.3
2173 242361.000    967386.1989  -5611812.3743   2863022.8381   2   7   0.0813   0.1688   0.0890  -0.0875  -0.1049   0.0591   0.00    1.3
2173 242362.000    967386.2047  -5611812.3836   2863022.8400   2   7   0.0805   0.1667   0.0880  -0.0864  -0.1035   0.0584   0.00    1.3
2173 242363.000    967386.2039  -5611812.3975   2863022.8454   2   7   0.0797   0.1646   0.0870  -0.0853  -0.1022   0.0576   0.00    1.3
2173 242364.000    967386.2063  -5611812.3933   2863022.8456   2   7   0.0789   0.1626   0.0860  -0.0842  -0.1009   0.0569   0.00    1.3
2173 242365.000    967386.2108  -5611812.4046   2863022.8492   2   7   0.0781   0.1606   0.0850  -0.0831  -0.0996   0.0562   0.00    1.3
2173 242366.000    967386.2097  -5611812.4126   2863022.8538   2   7   0.0773   0.1586   0.0840  -0.0821  -0.0983   0.0555   0.00    1.3
2173 242367.000    967386.2155  -5611812.4255   2863022.8618   2   7   0.0766   0.1567   0.0831  -0.0810  -0.0971   0.0547   0.00    1.3
2173 242368.000    967386.2150  -5611812.4290   2863022.8614   2   7   0.0758   0.1548   0.0821  -0.0800  -0.0958   0.0541   0.00    1.3
2173 242369.000    967386.2142  -5611812.4289   2863022.8602   2   7   0.0751   0.1529   0.0812  -0.0790  -0.0946   0.0534   0.00    1.3
2173 242370.000    967386.2194  -5611812.4326   2863022.8629   2   7   0.0744   0.1511   0.0803  -0.0780  -0.0934   0.0527   0.00    1.3
2173 242371.000    967386.2189  -5611812.4474   2863022.8687   2   7   0.0737   0.1493   0.0794  -0.0770  -0.0922   0.0521   0.00    1.3
2173 242372.000    967386.2190  -5611812.4441   2863022.8671   2   7   0.0730   0.1475   0.0786  -0.0761  -0.0910   0.0514   0.00    1.3
2173 242373.000    967386.2231  -5611812.4612   2863022.8740   2   7   0.0724   0.1457   0.0777  -0.0751  -0.0899   0.0508   0.00    1.3
2173 242374.000    967386.2208  -5611812.4635   2863022.8756   2   7   0.0717   0.1440   0.0768  -0.0742  -0.0888   0.0501   0.00    1.3
2173 242375.000    967386.2220  -5611812.4640   2863022.8786   2   7   0.0710   0.1423   0.0760  -0.0733  -0.0876   0.0495   0.00    1.3
2173 242376.000    967386.2245  -5611812.4674   2863022.8794   2   7   0.0704   0.1406   0.0752  -0.0724  -0.0865   0.0489   0.00    1.3
2173 242377.000    967386.2231  -5611812.4737   2863022.8815   2   7   0.0698   0.1389   0.0743  -0.0715  -0.0854   0.0483   0.00    1.4
2173 242378.000    967386.2203  -5611812.4661   2863022.8834   2   7   0.0692   0.1373   0.0736  -0.0706  -0.0844   0.0477   0.00    1.4
2173 242379.000    967386.2236  -5611812.4628   2863022.8830   2   7   0.0686   0.1357   0.0728  -0.0697  -0.0833   0.0471   0.00    1.4
2173 242380.000    967386.2244  -5611812.4772   2863022.8906   2   7   0.0680   0.1341   0.0720  -0.0689  -0.0823   0.0465   0.00    1.4
2173 242381.000    967386.2283  -5611812.4745   2863022.8894   2   7   0.0675   0.1325   0.0713  -0.0680  -0.0812   0.0459   0.00    1.4
2173 242382.000    967386.2319  -5611812.4842   2863022.8963   2   7   0.0669   0.1310   0.0705  -0.0672  -0.0802   0.0454   0.00    1.4
2173 242383.000    967386.2346  -5611812.4857   2863022.8951   2   7   0.0663   0.1294   0.0698  -0.0664  -0.0792   0.0449   0.00    1.4
2173 242384.000    967386.2404  -5611812.5053   2863022.9005   2   7   0.0658   0.1279   0.0691  -0.0655  -0.0782   0.0443   0.00    1.4
2173 242385.000    967386.2384  -5611812.5007   2863022.9018   2   7   0.0652   0.1265   0.0684  -0.0647  -0.0773   0.0437   0.00    1.4
2173 242386.000    967386.2374  -5611812.5024   2863022.9005   2   7   0.0647   0.1250   0.0676  -0.0639  -0.0763   0.0432   0.00    1.4
2173 242387.000    967386.2381  -5611812.5053   2863022.9022   2   7   0.0642   0.1236   0.0670  -0.0632  -0.0753   0.0427   0.00    1.4
2173 242388.000    967386.2381  -5611812.5104   2863022.9054   2   7   0.0637   0.1221   0.0662  -0.0624  -0.0744   0.0422   0.00    1.4
2173 242389.000    967386.2391  -5611812.5136   2863022.9042   2   7   0.0632   0.1208   0.0656  -0.0616  -0.0735   0.0417   0.00    1.4
2173 242390.000    967386.2411  -5611812.5158   2863022.9049   2   7   0.0627   0.1194   0.0649  -0.0609  -0.0726   0.0411   0.00    1.4
2173 242391.000    967386.2433  -5611812.5237   2863022.9081   2   7   0.0622   0.1180   0.0643  -0.0601  -0.0717   0.0406   0.00    1.4
2173 242392.000    967386.2426  -5611812.5299   2863022.9106   2   7   0.0617   0.1167   0.0637  -0.0594  -0.0708   0.0402   0.00    1.4
2173 242393.000    967386.2405  -5611812.5287   2863022.9117   2   7   0.0613   0.1154   0.0631  -0.0587  -0.0699   0.0396   0.00    1.4
2173 242394.000    967386.2420  -5611812.5222   2863022.9101   2   7   0.0608   0.1141   0.0624  -0.0580  -0.0691   0.0392   0.00    1.4
2173 242395.000    967386.2445  -5611812.5252   2863022.9105   2   7   0.0604   0.1128   0.0618  -0.0573  -0.0682   0.0387   0.00    1.4
2173 242396.000    967386.2456  -5611812.5326   2863022.9144   2   7   0.0599   0.1115   0.0612  -0.0566  -0.0674   0.0382   0.00    1.4
2173 242397.000    967386.2492  -5611812.5332   2863022.9142   2   7   0.0595   0.1103   0.0606  -0.0559  -0.0666   0.0378   0.00    1.4
2173 242398.000    967386.2497  -5611812.5426   2863022.9181   2   7   0.0591   0.1091   0.0600  -0.0552  -0.0658   0.0374   0.00    1.4
2173 242399.000    967386.2493  -5611812.5434   2863022.9168   2   7   0.0586   0.1079   0.0594  -0.0546  -0.0650   0.0369   0.00    1.4
2173 242400.000    967386.2523  -5611812.5436   2863022.9164   2   7   0.0582   0.1067   0.0589  -0.0539  -0.0642   0.0364   0.00    1.4
2173 242401.000    967386.2498  -5611812.5500   2863022.9182   2   7   0.0578   0.1055   0.0583  -0.0533  -0.0634   0.0360   0.00    1.4
2173 242402.000    967386.2557  -5611812.5629   2863022.9202   2   7   0.0574   0.1043   0.0578  -0.0527  -0.0626   0.0356   0.00    1.4
2173 242403.000    967386.2568  -5611812.5721   2863022.9243   2   7   0.0570   0.1032   0.0572  -0.0520  -0.0619   0.0352   0.00    1.4
2173 242404.000    967386.2594  -5611812.5831   2863022.9282   2   7   0.0567   0.1021   0.0566  -0.0514  -0.0611   0.0347   0.00    1.4
2173 242405.000    967386.2596  -5611812.5935   2863022.9314   2   7   0.0563   0.1010   0.0561  -0.0508  -0.0604   0.0343   0.00    1.4
2173 242406.000    967386.2615  -5611812.5920   2863022.9329   2   7   0.0559   0.0999   0.0556  -0.0502  -0.0597   0.0339   0.00    1.3
2173 242407.000    967386.2623  -5611812.5955   2863022.9323   2   7   0.0555   0.0988   0.0551  -0.0496  -0.0589   0.0335   0.00    1.3
2173 242408.000    967386.2628  -5611812.5940   2863022.9323   2   7   0.0552   0.0978   0.0546  -0.0490  -0.0582   0.0331   0.00    1.3
2173 242409.000    967386.2655  -5611812.6066   2863022.9363   2   7   0.0548   0.0967   0.0541  -0.0485  -0.0576   0.0327   0.00    1.3
2173 242410.000    967386.2636  -5611812.6056   2863022.9361   2   7   0.0544   0.0957   0.0536  -0.0479  -0.0569   0.0324   0.00    1.3
2173 242411.000    967386.2651  -5611812.6064   2863022.9321   2   7   0.0541   0.0947   0.0531  -0.0473  -0.0562   0.0320   0.00    1.3
2173 242412.000    967386.2639  -5611812.6102   2863022.9312   2   7   0.0537   0.0937   0.0526  -0.0468  -0.0555   0.0316   0.00    1.3
2173 242413.000    967386.2689  -5611812.6258   2863022.9342   2   7   0.0535   0.0927   0.0521  -0.0462  -0.0549   0.0312   0.00    1.3
2173 242414.000    967386.2675  -5611812.6245   2863022.9315   2   7   0.0531   0.0917   0.0517  -0.0457  -0.0543   0.0309   0.00    1.3
2173 242415.000    967386.2702  -5611812.6385   2863022.9377   2   7   0.0528   0.0908   0.0512  -0.0452  -0.0536   0.0305   0.00    1.3
2173 242416.000    967386.2696  -5611812.6417   2863022.9392   2   7   0.0524   0.0898   0.0508  -0.0447  -0.0530   0.0302   0.00    1.3
2173 242417.000    967386.2700  -5611812.6436   2863022.9392   2   7   0.0521   0.0889   0.0504  -0.0442  -0.0524   0.0299   0.00    1.3
2173 242418.000    967386.2716  -5611812.6519   2863022.9432   2   7   0.0518   0.0880   0.0499  -0.0436  -0.0518   0.0295   0.00    1.3
2173 242419.000    967386.2698  -5611812.6520   2863022.9408   2   7   0.0515   0.0871   0.0495  -0.0432  -0.0512   0.0291   0.00    1.3
2173 242420.000    967386.2766  -5611812.6577   2863022.9429   2   7   0.0512   0.0862   0.0490  -0.0427  -0.0506   0.0288   0.00    1.3
2173 242421.000    967386.2762  -5611812.6650   2863022.9444   2   8   0.0508   0.0853   0.0486  -0.0420  -0.0500   0.0285   0.00    1.0
2173 242422.000    967386.2784  -5611812.6703   2863022.9452   2   8   0.0504   0.0842   0.0481  -0.0414  -0.0492   0.0279   0.00    1.0
2173 242423.000    967386.2785  -5611812.6758   2863022.9457   2   8   0.0500   0.0833   0.0477  -0.0407  -0.0486   0.0276   0.00    1.0
2173 242424.000    967386.2777  -5611812.6802   2863022.9477   2   8   0.0496   0.0824   0.0472  -0.0402  -0.0480   0.0272   0.00    1.0
2173 242425.000    967386.2808  -5611812.6872   2863022.9514   2   8   0.0493   0.0815   0.0468  -0.0396  -0.0474   0.0269   0.00    1.0
2173 242426.000    967386.2798  -5611812.6976   2863022.9545   2   8   0.0490   0.0807   0.0464  -0.0391  -0.0469   0.0265   0.00    1.0
2173 242427.000    967386.2828  -5611812.7056   2863022.9571   2   8   0.0487   0.0798   0.0461  -0.0385  -0.0463   0.0261   0.00    1.0
2173 242428.000    967386.2829  -5611812.7063   2863022.9593   2   8   0.0483   0.0790   0.0457  -0.0380  -0.0457   0.0257   0.00    1.1
2173 242429.000    967386.2831  -5611812.7109   2863022.9590   2   8   0.0480   0.0782   0.0452  -0.0375  -0.0452   0.0254   0.00    1.1
2173 242430.000    967386.2868  -5611812.7115   2863022.9610   2   8   0.0477   0.0774   0.0449  -0.0371  -0.0447   0.0251   0.00    1.1
2173 242431.000    967386.2838  -5611812.7278   2863022.9690   2   8   0.0474   0.0766   0.0445  -0.0365  -0.0441   0.0248   0.00    1.1
2173 242432.000    967386.2854  -5611812.7253   2863022.9703   2   8   0.0471   0.0758   0.0441  -0.0361  -0.0436   0.0244   0.00    1.1
2173 242433.000    967386.2845  -5611812.7262   2863022.9719   2   8   0.0468   0.0751   0.0438  -0.0356  -0.0431   0.0241   0.00    1.1
2173 242434.000    967386.2860  -5611812.7364   2863022.9747   2   8   0.0465   0.0743   0.0434  -0.0352  -0.0426   0.0239   0.00    1.1
2173 242435.000    967386.2867  -5611812.7434   2863022.9788   2   8   0.0462   0.0736   0.0431  -0.0347  -0.0421   0.0235   0.00    1.1
2173 242436.000    967386.2868  -5611812.7380   2863022.9763   2   8   0.0460   0.0729   0.0428  -0.0343  -0.0416   0.0232   0.00    1.1
2173 242437.000    967386.2878  -5611812.7550   2863022.9817   2   8   0.0457   0.0722   0.0424  -0.0338  -0.0412   0.0229   0.00    1.1
2173 242438.000    967386.2893  -5611812.7550   2863022.9820   2   8   0.0455   0.0715   0.0420  -0.0334  -0.0407   0.0227   0.00    1.1
2173 242439.000    967386.2893  -5611812.7667   2863022.9873   2   8   0.0452   0.0708   0.0417  -0.0330  -0.0403   0.0224   0.00    1.1
2173 242440.000    967386.2898  -5611812.7723   2863022.9907   2   8   0.0449   0.0701   0.0413  -0.0326  -0.0399   0.0221   0.00    1.1
2173 242441.000    967386.2929  -5611812.7775   2863022.9930   2   8   0.0446   0.0695   0.0410  -0.0322  -0.0394   0.0218   0.00    1.1
2173 242442.000    967386.2927  -5611812.7764   2863022.9885   2   8   0.0444   0.0688   0.0408  -0.0318  -0.0390   0.0215   0.00    1.1
2173 242443.000    967386.2949  -5611812.7880   2863022.9957   2   8   0.0442   0.0682   0.0404  -0.0314  -0.0385   0.0213   0.00    1.1
2173 242444.000    967386.2972  -5611812.7975   2863022.9981   2   8   0.0439   0.0675   0.0401  -0.0310  -0.0381   0.0210   0.00    1.1
2173 242445.000    967386.2967  -5611812.8124   2863023.0026   2   8   0.0437   0.0669   0.0398  -0.0306  -0.0377   0.0208   0.00    1.1
2173 242446.000    967386.2992  -5611812.8172   2863023.0064   2   8   0.0435   0.0663   0.0395  -0.0303  -0.0373   0.0205   0.00    1.1
2173 242447.000    967386.3020  -5611812.8249   2863023.0082   2   8   0.0432   0.0657   0.0391  -0.0299  -0.0369   0.0204   0.00    1.1
2173 242448.000    967386.3048  -5611812.8327   2863023.0110   2   8   0.0430   0.0651   0.0390  -0.0296  -0.0365   0.0201   0.00    1.1
2173 242449.000    967386.3058  -5611812.8460   2863023.0153   2   8   0.0428   0.0645   0.0386  -0.0292  -0.0361   0.0198   0.00    1.1
2173 242450.000    967386.3094  -5611812.8506   2863023.0155   2   8   0.0426   0.0640   0.0383  -0.0289  -0.0358   0.0196   0.00    1.1
2173 242451.000    967386.3109  -5611812.8624   2863023.0197   2   8   0.0423   0.0634   0.0380  -0.0285  -0.0354   0.0194   0.00    1.1
2173 242452.000    967386.3094  -5611812.8626   2863023.0196   2   8   0.0421   0.0628   0.0377  -0.0282  -0.0350   0.0192   0.00    1.1
2173 242453.000    967386.3119  -5611812.8746   2863023.0272   2   8   0.0419   0.0623   0.0375  -0.0278  -0.0347   0.0190   0.00    1.1
2173 242454.000    967386.3129  -5611812.8737   2863023.0253   2   8   0.0417   0.0617   0.0372  -0.0275  -0.0343   0.0187   0.00    1.1
2173 242455.000    967386.3186  -5611812.8811   2863023.0294   2   8   0.0415   0.0612   0.0370  -0.0272  -0.0340   0.0185   0.00    1.0
2173 242456.000    967386.3204  -5611812.8902   2863023.0307   2   8   0.0413   0.0607   0.0367  -0.0269  -0.0336   0.0183   0.00    1.0
2173 242457.000    967386.3221  -5611812.9055   2863023.0355   2   8   0.0411   0.0602   0.0364  -0.0267  -0.0333   0.0181   0.00    1.0
2173 242458.000    967386.3208  -5611812.9151   2863023.0389   2   8   0.0409   0.0596   0.0362  -0.0263  -0.0329   0.0179   0.00    1.0
2173 242459.000    967386.3242  -5611812.9303   2863023.0430   2   8   0.0407   0.0591   0.0359  -0.0260  -0.0326   0.0177   0.00    1.0
2173 242460.000    967386.3279  -5611812.9306   2863023.0423   2   8   0.0405   0.0587   0.0356  -0.0257  -0.0323   0.0175   0.00    1.0
2173 242461.000    967386.3308  -5611812.9413   2863023.0438   2   8   0.0403   0.0582   0.0354  -0.0255  -0.0319   0.0174   0.00    1.0
2173 242462.000    967386.3301  -5611812.9444   2863023.0492   2   8   0.0402   0.0577   0.0352  -0.0251  -0.0317   0.0171   0.00    1.0
2173 242463.000    967386.3350  -5611812.9550   2863023.0516   2   8   0.0400   0.0572   0.0350  -0.0248  -0.0313   0.0169   0.00    1.0
2173 242464.000    967386.3360  -5611812.9586   2863023.0528   2   8   0.0398   0.0567   0.0347  -0.0246  -0.0310   0.0167   0.00    1.0
2173 242465.000    967386.3344  -5611812.9712   2863023.0569   2   8   0.0397   0.0563   0.0344  -0.0242  -0.0307   0.0165   0.00    1.0
2173 242466.000    967386.3359  -5611812.9708   2863023.0536   2   8   0.0395   0.0558   0.0342  -0.0240  -0.0304   0.0163   0.00    1.0
2173 242467.000    967386.3395  -5611812.9867   2863023.0603   2   8   0.0393   0.0554   0.0340  -0.0238  -0.0301   0.0162   0.00    1.0
2173 242468.000    967386.3375  -5611812.9980   2863023.0621   2   8   0.0391   0.0549   0.0338  -0.0235  -0.0298   0.0160   0.00    1.0
2173 242469.000    967386.3411  -5611813.0003   2863023.0632   2   8   0.0390   0.0545   0.0335  -0.0233  -0.0295   0.0159   0.00    1.0
2173 242470.000    967386.3413  -5611813.0066   2863023.0657   2   8   0.0388   0.0541   0.0334  -0.0230  -0.0293   0.0156   0.00    1.0
2173 242471.000    967386.3447  -5611813.0128   2863023.0667   2   8   0.0386   0.0536   0.0332  -0.0228  -0.0290   0.0155   0.00    1.0
2173 242472.000    967386.3450  -5611813.0173   2863023.0683   2   8   0.0385   0.0532   0.0329  -0.0225  -0.0287   0.0152   0.00    1.0
2173 242473.000    967386.3484  -5611813.0282   2863023.0709   2   8   0.0383   0.0528   0.0327  -0.0223  -0.0285   0.0152   0.00    1.0
2173 242474.000    967386.3511  -5611813.0305   2863023.0718   2   8   0.0382   0.0524   0.0324  -0.0220  -0.0282   0.0150   0.00    1.0
2173 242475.000    967386.3494  -5611813.0361   2863023.0730   2   8   0.0380   0.0520   0.0323  -0.0217  -0.0279   0.0149   0.00    1.0
2173 242476.000    967386.3555  -5611813.0363   2863023.0723   2   8   0.0379   0.0516   0.0320  -0.0215  -0.0277   0.0146   0.00    1.0
2173 242477.000    967386.3546  -5611813.0469   2863023.0721   2   8   0.0377   0.0512   0.0319  -0.0213  -0.0274   0.0145   0.00    1.0
2173 242478.000    967386.3561  -5611813.0559   2863023.0740   2   8   0.0376   0.0508   0.0317  -0.0211  -0.0272   0.0144   0.00    1.0
2173 242479.000    967386.3547  -5611813.0645   2863023.0779   2   8   0.0374   0.0504   0.0314  -0.0209  -0.0270   0.0142   0.00    1.0
2173 242480.000    967386.3552  -5611813.0704   2863023.0790   2   8   0.0373   0.0501   0.0312  -0.0207  -0.0267   0.0141   0.00    1.0
2173 242481.000    967386.3548  -5611813.0697   2863023.0799   2   8   0.0371   0.0497   0.0310  -0.0205  -0.0265   0.0139   0.00    1.0
2173 242482.000    967386.3561  -5611813.0694   2863023.0798   2   8   0.0370   0.0493   0.0308  -0.0202  -0.0262   0.0137   0.00    1.0
2173 242483.000    967386.3572  -5611813.0686   2863023.0785   2   8   0.0368   0.0490   0.0306  -0.0201  -0.0260   0.0137   0.00    1.0
2173 242484.000    967386.3621  -5611813.0860   2863023.0849   2   8   0.0367   0.0486   0.0305  -0.0198  -0.0257   0.0135   0.00    1.0
2173 242485.000    967386.3597  -5611813.0888   2863023.0841   2   8   0.0366   0.0483   0.0303  -0.0196  -0.0255   0.0133   0.00    1.0
2173 242486.000    967386.3635  -5611813.0912   2863023.0847   2   8   0.0365   0.0479   0.0301  -0.0194  -0.0253   0.0133   0.00    1.0
2173 242487.000    967386.3620  -5611813.0984   2863023.0865   2   8   0.0363   0.0476   0.0299  -0.0192  -0.0251   0.0132   0.00    1.0
2173 242488.000    967386.3595  -5611813.1063   2863023.0884   2   8   0.0362   0.0472   0.0297  -0.0190  -0.0249   0.0129   0.00    1.0
2173 242489.000    967386.3620  -5611813.1045   2863023.0880   2   8   0.0361   0.0469   0.0296  -0.0188  -0.0247   0.0129   0.00    1.0
2173 242490.000    967386.3628  -5611813.1114   2863023.0903   2   8   0.0360   0.0466   0.0294  -0.0186  -0.0244   0.0125   0.00    1.0
2173 242491.000    967386.3664  -5611813.1130   2863023.0918   2   8   0.0358   0.0463   0.0292  -0.0184  -0.0242   0.0126   0.00    1.0
2173 242492.000    967386.3669  -5611813.1105   2863023.0907   2   8   0.0357   0.0459   0.0291  -0.0183  -0.0241   0.0125   0.00    1.0
2173 242493.000    967386.3671  -5611813.1180   2863023.0916   2   8   0.0356   0.0456   0.0288  -0.0181  -0.0238   0.0123   0.00    1.0
2173 242494.000    967386.3686  -5611813.1279   2863023.0964   2   8   0.0354   0.0453   0.0286  -0.0179  -0.0236   0.0122   0.00    1.0
2173 242495.000    967386.3673  -5611813.1326   2863023.0974   2   8   0.0353   0.0450   0.0285  -0.0177  -0.0234   0.0120   0.00    1.0
2173 242496.000    967386.3694  -5611813.1385   2863023.1018   2   8   0.0352   0.0447   0.0284  -0.0175  -0.0232   0.0119   0.00    1.1
2173 242497.000    967386.3682  -5611813.1386   2863023.0999   2   8   0.0350   0.0444   0.0281  -0.0174  -0.0230   0.0119   0.00    1.1
2173 242498.000    967386.3713  -5611813.1504   2863023.1075   2   8   0.0350   0.0441   0.0280  -0.0171  -0.0229   0.0116   0.00    1.1
2173 242499.000    967386.3718  -5611813.1477   2863023.1047   2   8   0.0348   0.0438   0.0279  -0.0171  -0.0227   0.0115   0.00    1.1
2173 242500.000    967386.3749  -5611813.1553   2863023.1077   2   8   0.0347   0.0435   0.0277  -0.0169  -0.0225   0.0114   0.00    1.1
2173 242501.000    967386.3766  -5611813.1662   2863023.1147   2   8   0.0346   0.0432   0.0274  -0.0167  -0.0224   0.0114   0.00    1.1
2173 242502.000    967386.3784  -5611813.1605   2863023.1124   2   8   0.0345   0.0429   0.0273  -0.0165  -0.0221   0.0112   0.00    1.1
2173 242503.000    967386.3793  -5611813.1732   2863023.1180   2   8   0.0344   0.0427   0.0272  -0.0164  -0.0220   0.0111   0.00    1.1
2173 242504.000    967386.3813  -5611813.1809   2863023.1233   2   8   0.0343   0.0424   0.0270  -0.0162  -0.0218   0.0111   0.00    1.1
2173 242505.000    967386.3835  -5611813.1857   2863023.1254   2   8   0.0342   0.0421   0.0269  -0.0160  -0.0216   0.0108   0.00    1.1
2173 242506.000    967386.3827  -5611813.1886   2863023.1272   2   8   0.0340   0.0418   0.0267  -0.0159  -0.0215   0.0109   0.00    1.1
2173 242507.000    967386.3869  -5611813.1915   2863023.1297   2   8   0.0340   0.0416   0.0266  -0.0157  -0.0213   0.0107   0.00    1.1
2173 242508.000    967386.3887  -5611813.1938   2863023.1315   2   8   0.0339   0.0413   0.0264  -0.0155  -0.0212   0.0106   0.00    1.1
2173 242509.000    967386.3910  -5611813.2023   2863023.1342   2   8   0.0337   0.0410   0.0264  -0.0154  -0.0209   0.0104   0.00    1.1
2173 242510.000    967386.3886  -5611813.2108   2863023.1387   2   8   0.0336   0.0408   0.0260  -0.0153  -0.0208   0.0105   0.00    1.1
2173 242511.000    967386.3940  -5611813.2089   2863023.1415   2   8   0.0336   0.0405   0.0261  -0.0151  -0.0206   0.0102   0.00    1.1
2173 242512.000    967386.3934  -5611813.2100   2863023.1439   2   8   0.0334   0.0403   0.0259  -0.0150  -0.0204   0.0102   0.00    1.1
2173 242513.000    967386.3956  -5611813.2101   2863023.1436   2   8   0.0333   0.0400   0.0257  -0.0149  -0.0203   0.0101   0.00    1.1
2173 242514.000    967386.3980  -5611813.2324   2863023.1530   2   8   0.0332   0.0398   0.0255  -0.0146  -0.0202   0.0100   0.00    1.1
2173 242515.000    967386.3982  -5611813.2244   2863023.1493   2   8   0.0331   0.0395   0.0255  -0.0146  -0.0200   0.0099   0.00    1.1
2173 242516.000    967386.3966  -5611813.2233   2863023.1508   2   8   0.0330   0.0393   0.0253  -0.0144  -0.0199   0.0098   0.00    1.1
2173 242517.000    967386.4016  -5611813.2324   2863023.1559   2   8   0.0329   0.0390   0.0251  -0.0143  -0.0198   0.0098   0.00    1.1
2173 242518.000    967386.4009  -5611813.2389   2863023.1602   2   8   0.0328   0.0388   0.0251  -0.0141  -0.0196   0.0096   0.00    1.1
2173 242519.000    967386.4033  -5611813.2427   2863023.1638   2   8   0.0327   0.0386   0.0249  -0.0139  -0.0195   0.0095   0.00    1.1
2173 242520.000    967386.4044  -5611813.2428   2863023.1642   2   8   0.0326   0.0383   0.0248  -0.0139  -0.0193   0.0095   0.00    1.2
2173 242521.000    967386.4044  -5611813.2507   2863023.1706   2   8   0.0326   0.0381   0.0246  -0.0137  -0.0192   0.0094   0.00    1.2
2173 242522.000    967386.4059  -5611813.2537   2863023.1722   2   8   0.0324   0.0379   0.0245  -0.0137  -0.0190   0.0091   0.00    1.2
2173 242523.000    967386.4062  -5611813.2555   2863023.1741   2   8   0.0323   0.0377   0.0245  -0.0135  -0.0189   0.0092   0.00    1.2
2173 242524.000    967386.4089  -5611813.2625   2863023.1774   2   8   0.0322   0.0374   0.0242  -0.0134  -0.0188   0.0090   0.00    1.2
2173 242525.000    967386.4086  -5611813.2622   2863023.1773   2   8   0.0321   0.0372   0.0242  -0.0133  -0.0186   0.0090   0.00    1.2
2173 242526.000    967386.4130  -5611813.2737   2863023.1868   2   8   0.0321   0.0370   0.0241  -0.0132  -0.0185   0.0089   0.00    1.2
2173 242527.000    967386.4127  -5611813.2757   2863023.1890   2   8   0.0319   0.0368   0.0238  -0.0130  -0.0183   0.0089   0.00    1.2
2173 242528.000    967386.4164  -5611813.2794   2863023.1919   2   8   0.0319   0.0366   0.0238  -0.0129  -0.0182   0.0088   0.00    1.2
2173 242529.000    967386.4164  -5611813.2777   2863023.1941   2   8   0.0318   0.0364   0.0236  -0.0127  -0.0182   0.0087   0.00    1.2
2173 242530.000    967386.4214  -5611813.2848   2863023.1970   2   8   0.0317   0.0362   0.0235  -0.0126  -0.0180   0.0086   0.00    1.2
2173 242531.000    967386.4203  -5611813.2918   2863023.2016   2   8   0.0316   0.0360   0.0234  -0.0125  -0.0179   0.0084   0.00    1.2
2173 242532.000    967386.4234  -5611813.2875   2863023.2026   2   8   0.0315   0.0358   0.0233  -0.0124  -0.0178   0.0084   0.00    1.2
2173 242533.000    967386.4248  -5611813.2983   2863023.2095   2   8   0.0314   0.0356   0.0231  -0.0123  -0.0177   0.0084   0.00    1.2
2173 242534.000    967386.4288  -5611813.2953   2863023.2122   2   8   0.0313   0.0354   0.0230  -0.0122  -0.0175   0.0083   0.00    1.2
2173 242535.000    967386.4302  -5611813.2931   2863023.2140   2   8   0.0312   0.0352   0.0229  -0.0121  -0.0174   0.0083   0.00    1.2
2173 242536.000    967386.4298  -5611813.3057   2863023.2189   2   8   0.0312   0.0350   0.0228  -0.0120  -0.0173   0.0082   0.00    1.2
2173 242537.000    967386.4302  -5611813.3027   2863023.2198   2   8   0.0312   0.0348   0.0228  -0.0117  -0.0172   0.0079   0.00    1.2
2173 242538.000    967386.4312  -5611813.3062   2863023.2225   2   8   0.0311   0.0346   0.0226  -0.0117  -0.0171   0.0081   0.00    1.2
2173 242539.000    967386.4354  -5611813.3039   2863023.2235   2   8   0.0309   0.0344   0.0225  -0.0117  -0.0170   0.0080   0.00    1.2
2173 242540.000    967386.4378  -5611813.3112   2863023.2282   2   8   0.0308   0.0342   0.0223  -0.0116  -0.0169   0.0079   0.00    1.2
2173 242541.000    967386.4382  -5611813.3126   2863023.2291   2   8   0.0308   0.0341   0.0222  -0.0114  -0.0168   0.0078   0.00    1.2
2173 242542.000    967386.4397  -5611813.3203   2863023.2329   2   8   0.0307   0.0339   0.0221  -0.0114  -0.0167   0.0079   0.00    1.2
2173 242543.000    967386.4405  -5611813.3194   2863023.2364   2   8   0.0306   0.0337   0.0221  -0.0114  -0.0166   0.0075   0.00    1.2
2173 242544.000    967386.4435  -5611813.3161   2863023.2367   2   8   0.0306   0.0335   0.0219  -0.0111  -0.0165   0.0074   0.00    1.2
2173 242545.000    967386.4455  -5611813.3269   2863023.2432   2   8   0.0305   0.0334   0.0218  -0.0110  -0.0163   0.0074   0.00    1.2
2173 242546.000    967386.4446  -5611813.3195   2863023.2420   2   8   0.0304   0.0332   0.0218  -0.0110  -0.0162   0.0075   0.00    1.2
2173 242547.000    967386.4501  -5611813.3202   2863023.2440   2   8   0.0303   0.0330   0.0217  -0.0110  -0.0161   0.0073   0.00    1.2
2173 242548.000    967386.4487  -5611813.3259   2863023.2482   2   8   0.0302   0.0328   0.0215  -0.0107  -0.0160   0.0073   0.00    1.2
2173 242549.000    967386.4516  -5611813.3290   2863023.2500   2   8   0.0302   0.0327   0.0215  -0.0107  -0.0159   0.0073   0.00    1.2
2173 242550.000    967386.4525  -5611813.3278   2863023.2557   2   8   0.0301   0.0325   0.0215  -0.0104  -0.0158   0.0070   0.00    1.2
2173 242551.000    967386.4521  -5611813.3363   2863023.2564   2   8   0.0300   0.0323   0.0213  -0.0104  -0.0157   0.0071   0.00    1.2
2173 242552.000    967386.4515  -5611813.3377   2863023.2594   2   8   0.0299   0.0322   0.0210  -0.0104  -0.0157   0.0071   0.00    1.2
2173 242553.000    967386.4545  -5611813.3465   2863023.2647   2   8   0.0299   0.0320   0.0212  -0.0103  -0.0156   0.0068   0.00    1.2
2173 242554.000    967386.4552  -5611813.3382   2863023.2642   2   8   0.0298   0.0319   0.0210  -0.0101  -0.0154   0.0070   0.00    1.2
2173 242555.000    967386.4573  -5611813.3409   2863023.2670   2   8   0.0297   0.0317   0.0209  -0.0101  -0.0154   0.0068   0.00    1.2
2173 242556.000    967386.4556  -5611813.3457   2863023.2698   2   8   0.0296   0.0315   0.0208  -0.0101  -0.0152   0.0068   0.00    1.2
2173 242557.000    967386.4578  -5611813.3433   2863023.2700   2   8   0.0296   0.0314   0.0207  -0.0099  -0.0152   0.0066   0.00    1.2
2173 242558.000    967386.4571  -5611813.3403   2863023.2717   2   8   0.0296   0.0313   0.0206  -0.0097  -0.0151   0.0066   0.00    1.2
2173 242559.000    967386.4617  -5611813.3398   2863023.2730   2   8   0.0294   0.0311   0.0205  -0.0098  -0.0150   0.0065   0.00    1.2
2173 242560.000    967386.4613  -5611813.3453   2863023.2759   2   8   0.0293   0.0310   0.0203  -0.0097  -0.0149   0.0066   0.00    1.2
2173 242561.000    967386.4642  -5611813.3487   2863023.2791   2   8   0.0293   0.0308   0.0203  -0.0094  -0.0149   0.0065   0.00    1.2
2173 242562.000    967386.4646  -5611813.3433   2863023.2786   2   8   0.0292   0.0306   0.0201  -0.0095  -0.0148   0.0065   0.00    1.2
2173 242563.000    967386.4661  -5611813.3424   2863023.2781   2   8   0.0291   0.0305   0.0201  -0.0094  -0.0146   0.0064   0.00    1.2
2173 242564.000    967386.4694  -5611813.3416   2863023.2781   2   8   0.0291   0.0303   0.0200  -0.0093  -0.0146   0.0061   0.00    1.2
2173 242565.000    967386.4697  -5611813.3529   2863023.2809   2   8   0.0290   0.0302   0.0201  -0.0092  -0.0145   0.0062   0.00    1.2
2173 242566.000    967386.4744  -5611813.3609   2863023.2865   2   8   0.0290   0.0301   0.0199  -0.0091  -0.0144   0.0062   0.00    1.2
2173 242567.000    967386.4722  -5611813.3623   2863023.2881   2   8   0.0289   0.0299   0.0198  -0.0092  -0.0143   0.0061   0.00    1.2
2173 242568.000    967386.4718  -5611813.3598   2863023.2900   2   8   0.0288   0.0298   0.0198  -0.0091  -0.0142   0.0059   0.00    1.2
2173 242569.000    967386.4728  -5611813.3581   2863023.2900   2   8   0.0288   0.0297   0.0196  -0.0089  -0.0143   0.0060   0.00    1.2
2173 242570.000    967386.4745  -5611813.3591   2863023.2925   2   8   0.0287   0.0295   0.0195  -0.0086  -0.0142   0.0059   0.00    1.2
2173 242571.000    967386.4749  -5611813.3544   2863023.2937   2   8   0.0286   0.0294   0.0194  -0.0086  -0.0141   0.0057   0.00    1.2
2173 242572.000    967386.4782  -5611813.3604   2863023.2959   2   8   0.0286   0.0292   0.0194  -0.0086  -0.0141   0.0061   0.00    1.2
2173 242573.000    967386.4773  -5611813.3627   2863023.2985   2   8   0.0285   0.0291   0.0192  -0.0085  -0.0139   0.0057   0.00    1.2
2173 242574.000    967386.4792  -5611813.3605   2863023.2994   2   8   0.0284   0.0290   0.0193  -0.0085  -0.0138   0.0057   0.00    1.2
2173 242575.000    967386.4770  -5611813.3618   2863023.2997   2   8   0.0283   0.0289   0.0192  -0.0085  -0.0138   0.0057   0.00    1.2
2173 242576.000    967386.4785  -5611813.3570   2863023.3012   2   8   0.0283   0.0287   0.0191  -0.0084  -0.0137   0.0057   0.00    1.2
2173 242577.000    967386.4785  -5611813.3585   2863023.3043   2   8   0.0283   0.0286   0.0190  -0.0084  -0.0137   0.0055   0.00    1.2
2173 242578.000    967386.4828  -5611813.3646   2863023.3078   2   8   0.0282   0.0285   0.0188  -0.0083  -0.0136   0.0058   0.00    1.2
2173 242579.000    967386.4812  -5611813.3561   2863023.3070   2   8   0.0281   0.0283   0.0189  -0.0082  -0.0135   0.0055   0.00    1.2
2173 242580.000    967386.4831  -5611813.3589   2863023.3072   2   8   0.0281   0.0282   0.0187  -0.0081  -0.0135   0.0053   0.00    1.2
2173 242581.000    967386.4841  -5611813.3640   2863023.3109   2   8   0.0280   0.0281   0.0185  -0.0080  -0.0134   0.0055   0.00    1.2
2173 242582.000    967386.4840  -5611813.3683   2863023.3117   2   8   0.0279   0.0280   0.0186  -0.0080  -0.0133   0.0054   0.00    1.1
2173 242583.000    967386.4833  -5611813.3699   2863023.3133   2   8   0.0279   0.0278   0.0185  -0.0078  -0.0133   0.0051   0.00    1.1
2173 242584.000    967386.4833  -5611813.3578   2863023.3120   2   8   0.0278   0.0277   0.0184  -0.0078  -0.0132   0.0053   0.00    1.1
2173 242585.000    967386.4874  -5611813.3512   2863023.3105   2   8   0.0278   0.0276   0.0183  -0.0078  -0.0131   0.0052   0.00    1.1
2173 242586.000    967386.4879  -5611813.3564   2863023.3114   2   8   0.0277   0.0275   0.0182  -0.0077  -0.0131   0.0053   0.00    1.1
2173 242587.000    967386.4904  -5611813.3580   2863023.3126   2   8   0.0276   0.0274   0.0181  -0.0077  -0.0129   0.0052   0.00    1.1
2173 242588.000    967386.4912  -5611813.3574   2863023.3137   2   8   0.0276   0.0273   0.0182  -0.0074  -0.0128   0.0051   0.00    1.1
2173 242589.000    967386.4894  -5611813.3653   2863023.3179   2   8   0.0275   0.0271   0.0180  -0.0074  -0.0129   0.0050   0.00    1.1
2173 242590.000    967386.4886  -5611813.3658   2863023.3188   2   8   0.0275   0.0270   0.0180  -0.0074  -0.0128   0.0047   0.00    1.1
2173 242591.000    967386.4901  -5611813.3534   2863023.3150   2   8   0.0274   0.0270   0.0180  -0.0073  -0.0128   0.0046   0.00    1.1
2173 242592.000    967386.4913  -5611813.3554   2863023.3189   2   8   0.0273   0.0268   0.0177  -0.0073  -0.0127   0.0052   0.00    1.1
2173 242593.000    967386.4923  -5611813.3562   2863023.3162   2   8   0.0272   0.0267   0.0178  -0.0073  -0.0126   0.0048   0.00    1.1
2173 242594.000    967386.4921  -5611813.3504   2863023.3150   2   8   0.0273   0.0266   0.0177  -0.0070  -0.0125   0.0047   0.00    1.1
2173 242595.000    967386.4924  -5611813.3609   2863023.3204   2   8   0.0272   0.0265   0.0177  -0.0071  -0.0125   0.0048   0.00    1.1
2173 242596.000    967386.4914  -5611813.3543   2863023.3203   2   8   0.0271   0.0264   0.0175  -0.0067  -0.0125   0.0047   0.00    1.1
2173 242597.000    967386.4934  -5611813.3488   2863023.3171   2   8   0.0271   0.0263   0.0175  -0.0069  -0.0124   0.0047   0.00    1.1
2173 242598.000    967386.4919  -5611813.3468   2863023.3208   2   8   0.0270   0.0262   0.0172  -0.0070  -0.0124   0.0048   0.00    1.1
2173 242599.000    967386.4949  -5611813.3441   2863023.3181   2   8   0.0270   0.0261   0.0173  -0.0068  -0.0122   0.0048   0.00    1.1
2173 242600.000    967386.4917  -5611813.3371   2863023.3179   2   8   0.0269   0.0260   0.0171  -0.0068  -0.0122   0.0045   0.00    1.1
2173 242601.000    967386.4919  -5611813.3340   2863023.3168   2   8   0.0268   0.0259   0.0172  -0.0068  -0.0122   0.0048   0.00    1.1
2173 242602.000    967386.4970  -5611813.3375   2863023.3201   2   8   0.0268   0.0258   0.0172  -0.0064  -0.0122   0.0047   0.00    1.1
2173 242603.000    967386.4918  -5611813.3335   2863023.3154   2   8   0.0268   0.0257   0.0172  -0.0066  -0.0120   0.0043   0.00    1.1
2173 242604.000    967386.4943  -5611813.3292   2863023.3143   2   8   0.0267   0.0256   0.0170  -0.0064  -0.0122   0.0043   0.00    1.1
2173 242605.000    967386.4935  -5611813.3288   2863023.3162   2   8   0.0267   0.0255   0.0169  -0.0064  -0.0119   0.0044   0.00    1.1
2173 242606.000    967386.4964  -5611813.3248   2863023.3131   2   8   0.0266   0.0254   0.0169  -0.0065  -0.0120   0.0044   0.00    1.1
2173 242607.000    967386.4925  -5611813.3271   2863023.3134   2   8   0.0265   0.0253   0.0168  -0.0064  -0.0119   0.0044   0.00    1.1
2173 242608.000    967386.4951  -5611813.3240   2863023.3139   2   8   0.0265   0.0252   0.0168  -0.0062  -0.0119   0.0042   0.00    1.1
2173 242609.000    967386.4933  -5611813.3187   2863023.3114   2   8   0.0264   0.0251   0.0167  -0.0063  -0.0118   0.0043   0.00    1.1
2173 242610.000    967386.4963  -5611813.3198   2863023.3128   2   8   0.0263   0.0250   0.0166  -0.0062  -0.0118   0.0044   0.00    1.1
2173 242611.000    967386.4930  -5611813.3186   2863023.3122   2   8   0.0263   0.0249   0.0166  -0.0062  -0.0117   0.0045   0.00    1.1
2173 242612.000    967386.4933  -5611813.3091   2863023.3103   2   8   0.0263   0.0249   0.0165  -0.0059  -0.0117   0.0040   0.00    1.1
2173 242613.000    967386.4915  -5611813.3192   2863023.3139   2   8   0.0263   0.0247   0.0165  -0.0060  -0.0116   0.0043   0.00    1.1
2173 242614.000    967386.4911  -5611813.3176   2863023.3131   2   8   0.0262   0.0246   0.0162  -0.0059  -0.0116   0.0043   0.00    1.1
2173 242615.000    967386.4929  -5611813.3139   2863023.3121   2   8   0.0260   0.0245   0.0162  -0.0061  -0.0115   0.0043   0.00    1.1
2173 242616.000    967386.4916  -5611813.3126   2863023.3136   2   8   0.0261   0.0245   0.0163  -0.0060  -0.0114   0.0039   0.00    1.1
2173 242617.000    967386.4888  -5611813.3101   2863023.3100   2   8   0.0260   0.0246   0.0163  -0.0054  -0.0116   0.0036   0.00    1.0
2173 242618.000    967386.4861  -5611813.3114   2863023.3101   2   8   0.0260   0.0249   0.0163  -0.0049  -0.0119   0.0029   0.00    1.0
2173 242619.000    967386.4880  -5611813.3027   2863023.3116   2   8   0.0260   0.0244   0.0163  -0.0053  -0.0116   0.0033   0.00    1.0
2173 242620.000    967386.4850  -5611813.3007   2863023.3093   2   8   0.0259   0.0242   0.0161  -0.0055  -0.0115   0.0036   0.00    1.0
2173 242621.000    967386.4851  -5611813.3023   2863023.3104   2   8   0.0259   0.0241   0.0160  -0.0053  -0.0113   0.0035   0.00    1.0
2173 242622.000    967386.4825  -5611813.2901   2863023.3072   2   8   0.0259   0.0240   0.0160  -0.0054  -0.0113   0.0035   0.00    1.0
2173 242623.000    967386.4813  -5611813.2822   2863023.3032   2   8   0.0258   0.0239   0.0160  -0.0053  -0.0112   0.0033   0.00    1.0
2173 242624.000    967386.4809  -5611813.2809   2863023.3043   2   8   0.0258   0.0238   0.0159  -0.0052  -0.0112   0.0030   0.00    1.0
2173 242625.000    967386.4800  -5611813.2804   2863023.3035   2   8   0.0257   0.0237   0.0158  -0.0055  -0.0110   0.0030   0.00    1.0
2173 242626.000    967386.4806  -5611813.2867   2863023.3034   2   8   0.0257   0.0236   0.0157  -0.0053  -0.0111   0.0030   0.00    1.0
2173 242627.000    967386.4781  -5611813.2754   2863023.2993   2   8   0.0256   0.0235   0.0157  -0.0053  -0.0110   0.0031   0.00    1.0
2173 242628.000    967386.4766  -5611813.2779   2863023.2993   2   8   0.0256   0.0235   0.0156  -0.0054  -0.0109   0.0027   0.00    1.0
2173 242629.000    967386.4751  -5611813.2784   2863023.3007   2   8   0.0255   0.0234   0.0158  -0.0056  -0.0108   0.0031   0.00    1.0
2173 242630.000    967386.4746  -5611813.2699   2863023.2973   2   8   0.0255   0.0233   0.0157  -0.0052  -0.0108   0.0027   0.00    1.0
2173 242631.000    967386.4712  -5611813.2665   2863023.2951   2   8   0.0255   0.0232   0.0154  -0.0052  -0.0108   0.0025   0.00    1.0
2173 242632.000    967386.4688  -5611813.2639   2863023.2935   2   8   0.0254   0.0232   0.0155  -0.0055  -0.0106   0.0027   0.00    1.0
2173 242633.000    967386.4675  -5611813.2695   2863023.2951   2   8   0.0253   0.0231   0.0154  -0.0054  -0.0107   0.0026   0.00    1.0
2173 242634.000    967386.4658  -5611813.2565   2863023.2907   2   8   0.0253   0.0230   0.0155  -0.0054  -0.0106   0.0024   0.00    1.0
2173 242635.000    967386.4685  -5611813.2515   2863023.2890   2   8   0.0253   0.0230   0.0154  -0.0052  -0.0105   0.0020   0.00    1.0
2173 242636.000    967386.4640  -5611813.2496   2863023.2860   2   8   0.0253   0.0229   0.0154  -0.0054  -0.0105   0.0021   0.00    1.0
2173 242637.000    967386.4639  -5611813.2473   2863023.2866   2   8   0.0252   0.0228   0.0154  -0.0052  -0.0105   0.0019   0.00    1.0
2173 242638.000    967386.4625  -5611813.2401   2863023.2849   2   8   0.0252   0.0227   0.0153  -0.0053  -0.0104   0.0024   0.00    1.0
2173 242639.000    967386.4621  -5611813.2420   2863023.2840   2   8   0.0251   0.0227   0.0152  -0.0053  -0.0104   0.0022   0.00    1.0
2173 242640.000    967386.4565  -5611813.2448   2863023.2850   2   8   0.0251   0.0226   0.0151  -0.0053  -0.0103   0.0021   0.00    1.0
2173 242641.000    967386.4567  -5611813.2433   2863023.2855   2   8   0.0250   0.0225   0.0151  -0.0054  -0.0103   0.0017   0.00    1.0
2173 242642.000    967386.4560  -5611813.2334   2863023.2819   2   8   0.0251   0.0225   0.0151  -0.0053  -0.0102   0.0016   0.00    1.0
2173 242643.000    967386.4541  -5611813.2344   2863023.2821   2   8   0.0250   0.0224   0.0151  -0.0053  -0.0101   0.0011   0.00    1.0
2173 242644.000    967386.4517  -5611813.2306   2863023.2821   2   8   0.0249   0.0224   0.0151  -0.0053  -0.0101   0.0015   0.00    1.0
2173 242645.000    967386.4495  -5611813.2352   2863023.2820   2   8   0.0249   0.0223   0.0149  -0.0052  -0.0101   0.0020   0.00    1.0
2173 242646.000    967386.4524  -5611813.2315   2863023.2828   2   8   0.0249   0.0222   0.0147  -0.0053  -0.0100   0.0024   0.00    1.0
2173 242647.000    967386.4499  -5611813.2199   2863023.2803   2   8   0.0248   0.0222   0.0149  -0.0052  -0.0100   0.0022   0.00    1.0
2173 242648.000    967386.4488  -5611813.2176   2863023.2781   2   8   0.0249   0.0221   0.0148  -0.0051  -0.0098  -0.0016   0.00    1.0
2173 242649.000    967386.4460  -5611813.2148   2863023.2761   2   8   0.0248   0.0220   0.0148  -0.0053  -0.0099   0.0011   0.00    1.0
2173 242650.000    967386.4465  -5611813.2167   2863023.2793   2   8   0.0246   0.0220   0.0147  -0.0053  -0.0098   0.0016   0.00    1.0
2173 242651.000    967386.4432  -5611813.2152   2863023.2815   2   8   0.0247   0.0219   0.0146  -0.0050  -0.0098   0.0014   0.00    1.0
2173 242652.000    967386.4455  -5611813.2077   2863023.2782   2   8   0.0247   0.0219   0.0147  -0.0051  -0.0097  -0.0012   0.00    1.0
2173 242653.000    967386.4419  -5611813.2006   2863023.2761   2   8   0.0246   0.0218   0.0146  -0.0052  -0.0096   0.0005   0.00    1.0
2173 242654.000    967386.4414  -5611813.1976   2863023.2740   2   8   0.0246   0.0218   0.0148  -0.0052  -0.0096  -0.0008   0.00    1.0
2173 242655.000    967386.4415  -5611813.1941   2863023.2728   2   8   0.0245   0.0217   0.0145  -0.0052  -0.0096  -0.0010   0.00    1.0
2173 242656.000    967386.4395  -5611813.1888   2863023.2736   2   8   0.0245   0.0217   0.0144  -0.0049  -0.0096  -0.0012   0.00    1.0
2173 242657.000    967386.4368  -5611813.1786   2863023.2710   2   8   0.0244   0.0216   0.0143  -0.0050  -0.0096  -0.0011   0.00    1.0
2173 242658.000    967386.4335  -5611813.1843   2863023.2730   2   8   0.0244   0.0215   0.0144  -0.0051  -0.0096  -0.0017   0.00    1.0
2173 242659.000    967386.4341  -5611813.1885   2863023.2743   2   8   0.0244   0.0215   0.0143  -0.0051  -0.0094  -0.0011   0.00    1.0
2173 242660.000    967386.4298  -5611813.1820   2863023.2714   2   8   0.0243   0.0214   0.0142  -0.0052  -0.0094   0.0008   0.00    1.0
2173 242661.000    967386.4296  -5611813.1697   2863023.2687   2   8   0.0244   0.0214   0.0144  -0.0050  -0.0095  -0.0010   0.00    1.0
2173 242662.000    967386.4280  -5611813.1751   2863023.2716   2   8   0.0243   0.0213   0.0143  -0.0051  -0.0094  -0.0020   0.00    1.0
2173 242663.000    967386.4276  -5611813.1684   2863023.2699   2   7   0.0243   0.0221   0.0143  -0.0041  -0.0100  -0.0025   0.00    1.2
2173 242664.000    967386.4266  -5611813.1638   2863023.2694   2   7   0.0243   0.0220   0.0143  -0.0039  -0.0100  -0.0021   0.00    1.2
2173 242665.000    967386.4268  -5611813.1558   2863023.2673   2   8   0.0242   0.0220   0.0143  -0.0040  -0.0099  -0.0023   0.00    1.0
2173 242666.000    967386.4200  -5611813.1583   2863023.2668   2   8   0.0242   0.0215   0.0142  -0.0045  -0.0096  -0.0028   0.00    1.0
2173 242667.000    967386.4224  -5611813.1511   2863023.2666   2   8   0.0242   0.0213   0.0140  -0.0046  -0.0093  -0.0026   0.00    1.0
2173 242668.000    967386.4172  -5611813.1470   2863023.2650   2   8   0.0241   0.0212   0.0142  -0.0047  -0.0093  -0.0024   0.00    1.0
2173 242669.000    967386.4197  -5611813.1417   2863023.2652   2   8   0.0241   0.0211   0.0141  -0.0047  -0.0092  -0.0029   0.00    1.0
2173 242670.000    967386.4162  -5611813.1287   2863023.2597   2   8   0.0239   0.0210   0.0141  -0.0049  -0.0091  -0.0020   0.00    1.0
2173 242671.000    967386.4191  -5611813.1231   2863023.2566   2   8   0.0240   0.0209   0.0139  -0.0047  -0.0091  -0.0025   0.00    1.0
2173 242672.000    967386.4136  -5611813.1146   2863023.2566   2   8   0.0240   0.0208   0.0139  -0.0050  -0.0091  -0.0024   0.00    1.0
2173 242673.000    967386.4126  -5611813.1136   2863023.2570   2   8   0.0239   0.0208   0.0139  -0.0049  -0.0091  -0.0029   0.00    1.0
2173 242674.000    967386.4063  -5611813.1251   2863023.2601   2   8   0.0239   0.0207   0.0140  -0.0048  -0.0090  -0.0027   0.00    1.0
2173 242675.000    967386.4062  -5611813.1122   2863023.2574   2   8   0.0239   0.0207   0.0138  -0.0049  -0.0089  -0.0022   0.00    1.0
2173 242676.000    967386.4026  -5611813.1216   2863023.2582   2   8   0.0238   0.0206   0.0137  -0.0049  -0.0090  -0.0022   0.00    1.0
2173 242677.000    967386.4043  -5611813.1091   2863023.2555   2   8   0.0237   0.0206   0.0138  -0.0050  -0.0088  -0.0029   0.00    1.0
2173 242678.000    967386.4014  -5611813.1037   2863023.2553   2   8   0.0237   0.0205   0.0137  -0.0051  -0.0088  -0.0023   0.00    1.0
2173 242679.000    967386.4032  -5611813.0882   2863023.2503   2   8   0.0238   0.0205   0.0136  -0.0049  -0.0088  -0.0030   0.00    1.0
2173 242680.000    967386.3970  -5611813.0802   2863023.2481   2   8   0.0237   0.0204   0.0134  -0.0049  -0.0088  -0.0029   0.00    1.0
2173 242681.000    967386.3997  -5611813.0740   2863023.2457   2   8   0.0237   0.0204   0.0135  -0.0048  -0.0088  -0.0026   0.00    1.0
2173 242682.000    967386.3940  -5611813.0757   2863023.2474   2   8   0.0237   0.0203   0.0135  -0.0049  -0.0087  -0.0027   0.00    1.0
2173 242683.000    967386.3939  -5611813.0774   2863023.2476   2   8   0.0236   0.0203   0.0136  -0.0049  -0.0087  -0.0030   0.00    1.0
2173 242684.000    967386.3887  -5611813.0779   2863023.2461   2   8   0.0236   0.0202   0.0137  -0.0050  -0.0086  -0.0032   0.00    1.0
2173 242685.000    967386.3893  -5611813.0722   2863023.2451   2   8   0.0235   0.0201   0.0134  -0.0050  -0.0086  -0.0024   0.00    1.0
2173 242686.000    967386.3887  -5611813.0684   2863023.2459   2   8   0.0235   0.0201   0.0135  -0.0049  -0.0085  -0.0030   0.00    1.0
2173 242687.000    967386.3832  -5611813.0667   2863023.2459   2   7   0.0235   0.0209   0.0136  -0.0039  -0.0092  -0.0034   0.00    1.3
2173 242688.000    967386.3822  -5611813.0576   2863023.2424   2   7   0.0235   0.0209   0.0136  -0.0039  -0.0092  -0.0035   0.00    1.3
2173 242689.000    967386.3825  -5611813.0500   2863023.2421   2   8   0.0235   0.0208   0.0136  -0.0038  -0.0093  -0.0036   0.00    1.0
2173 242690.000    967386.3807  -5611813.0485   2863023.2388   2   8   0.0234   0.0203   0.0134  -0.0045  -0.0089  -0.0032   0.00    1.0
2173 242691.000    967386.3774  -5611813.0433   2863023.2386   2   8   0.0234   0.0201   0.0133  -0.0045  -0.0087  -0.0033   0.00    1.0
2173 242692.000    967386.3786  -5611813.0418   2863023.2389   2   8   0.0233   0.0200   0.0134  -0.0046  -0.0086  -0.0033   0.00    1.0
2173 242693.000    967386.3749  -5611813.0315   2863023.2344   2   8   0.0233   0.0199   0.0132  -0.0046  -0.0085  -0.0035   0.00    1.0
2173 242694.000    967386.3726  -5611813.0233   2863023.2305   2   8   0.0233   0.0199   0.0131  -0.0046  -0.0085  -0.0034   0.00    1.0
2173 242695.000    967386.3677  -5611813.0260   2863023.2314   2   8   0.0233   0.0198   0.0133  -0.0046  -0.0084  -0.0037   0.00    1.0
2173 242696.000    967386.3670  -5611813.0134   2863023.2285   2   8   0.0231   0.0197   0.0131  -0.0049  -0.0084  -0.0030   0.00    1.0
2173 242697.000    967386.3638  -5611813.0099   2863023.2246   2   8   0.0232   0.0196   0.0132  -0.0048  -0.0084  -0.0037   0.00    1.0
2173 242698.000    967386.3638  -5611813.0098   2863023.2242   2   8   0.0231   0.0196   0.0129  -0.0048  -0.0084  -0.0033   0.00    1.0
2173 242699.000    967386.3602  -5611812.9996   2863023.2217   2   8   0.0231   0.0195   0.0130  -0.0048  -0.0083  -0.0028   0.00    1.0
2173 242700.000    967386.3612  -5611813.0054   2863023.2226   2   8   0.0231   0.0195   0.0130  -0.0048  -0.0083  -0.0034   0.00    1.0
2173 242701.000    967386.3560  -5611812.9931   2863023.2189   2   8   0.0230   0.0195   0.0129  -0.0048  -0.0082  -0.0033   0.00    1.0
2173 242702.000    967386.3572  -5611812.9889   2863023.2174   2   8   0.0230   0.0194   0.0130  -0.0048  -0.0082  -0.0036   0.00    1.0
2173 242703.000    967386.3538  -5611812.9844   2863023.2157   2   8   0.0229   0.0194   0.0129  -0.0048  -0.0081  -0.0035   0.00    1.0
2173 242704.000    967386.3547  -5611812.9785   2863023.2155   2   8   0.0229   0.0193   0.0127  -0.0048  -0.0081  -0.0030   0.00    1.0
2173 242705.000    967386.3499  -5611812.9750   2863023.2129   2   8   0.0229   0.0193   0.0127  -0.0048  -0.0081  -0.0034   0.00    1.0
2173 242706.000    967386.3459  -5611812.9783   2863023.2160   2   8   0.0229   0.0192   0.0128  -0.0047  -0.0081  -0.0033   0.00    1.0
2173 242707.000    967386.3449  -5611812.9694   2863023.2138   2   8   0.0228   0.0192   0.0129  -0.0048  -0.0080  -0.0036   0.00    1.0
2173 242708.000    967386.3437  -5611812.9614   2863023.2109   2   8   0.0229   0.0191   0.0127  -0.0047  -0.0080  -0.0039   0.00    1.0
2173 242709.000    967386.3399  -5611812.9608   2863023.2118   2   8   0.0228   0.0191   0.0128  -0.0048  -0.0080  -0.0036   0.00    1.0
2173 242710.000    967386.3415  -5611812.9455   2863023.2061   2   8   0.0228   0.0191   0.0126  -0.0048  -0.0079  -0.0036   0.00    1.0
2173 242711.000    967386.3383  -5611812.9468   2863023.2064   2   8   0.0228   0.0190   0.0128  -0.0047  -0.0080  -0.0040   0.00    1.0
2173 242712.000    967386.3369  -5611812.9455   2863023.2052   2   8   0.0227   0.0190   0.0126  -0.0047  -0.0081  -0.0034   0.00    1.0
2173 242713.000    967386.3373  -5611812.9421   2863023.2052   2   8   0.0227   0.0189   0.0126  -0.0047  -0.0079  -0.0034   0.00    1.0
2173 242714.000    967386.3328  -5611812.9327   2863023.2026   2   8   0.0227   0.0189   0.0127  -0.0048  -0.0079  -0.0038   0.00    1.0
2173 242715.000    967386.3311  -5611812.9291   2863023.1993   2   8   0.0227   0.0190   0.0127  -0.0048  -0.0079  -0.0035   1.00    1.0
2173 242716.000    967386.3287  -5611812.9235   2863023.1974   2   8   0.0227   0.0192   0.0127  -0.0048  -0.0081  -0.0037   2.00    1.0
2173 242717.000    967386.3288  -5611812.9185   2863023.1934   2   8   0.0228   0.0196   0.0130  -0.0050  -0.0087  -0.0038   3.00    1.0
2173 242718.000    967386.3249  -5611812.9091   2863023.1886   2   8   0.0228   0.0201   0.0132  -0.0056  -0.0091  -0.0030   4.00    1.0
2173 242719.000    967386.3240  -5611812.9089   2863023.1885   2   8   0.0229   0.0207   0.0137  -0.0059  -0.0097  -0.0030   5.00    1.0
2173 242720.000    967386.3234  -5611812.9042   2863023.1858   2   8   0.0230   0.0215   0.0142  -0.0063  -0.0104  -0.0026   6.00    1.0
2173 242721.000    967386.3219  -5611812.8987   2863023.1823   2   8   0.0231   0.0223   0.0147  -0.0068  -0.0111  -0.0020   7.00    1.0
2173 242722.000    967386.3242  -5611812.8956   2863023.1815   2   8   0.0232   0.0232   0.0153  -0.0072  -0.0119  -0.0011   8.00    1.0
2173 242723.000    967386.3220  -5611812.8906   2863023.1796   2   8   0.0234   0.0242   0.0159  -0.0076  -0.0127   0.0010   9.00    1.0
2173 242724.000    967386.3224  -5611812.8870   2863023.1774   2   8   0.0236   0.0252   0.0166  -0.0081  -0.0136   0.0022  10.00    1.0
2173 242725.000    967386.3235  -5611812.8794   2863023.1744   2   8   0.0238   0.0263   0.0174  -0.0086  -0.0144   0.0029  11.00    1.0
2173 242726.000    967386.3254  -5611812.8787   2863023.1748   2   8   0.0240   0.0275   0.0181  -0.0091  -0.0153   0.0035  12.00    1.0
2173 242727.000    967386.3248  -5611812.8711   2863023.1721   2   8   0.0242   0.0287   0.0190  -0.0096  -0.0162   0.0041  13.00    1.0
2173 242728.000    967386.3239  -5611812.8697   2863023.1720   2   8   0.0245   0.0299   0.0198  -0.0101  -0.0172   0.0046  14.00    1.0
2173 242729.000    967386.3240  -5611812.8648   2863023.1696   2   8   0.0247   0.0312   0.0206  -0.0106  -0.0181   0.0050  15.00    1.0
2173 242730.000    967386.3243  -5611812.8620   2863023.1676   2   8   0.0250   0.0325   0.0215  -0.0111  -0.0191   0.0055  16.00    1.0
2173 242731.000    967386.3250  -5611812.8589   2863023.1658   2   8   0.0253   0.0338   0.0224  -0.0116  -0.0201   0.0059  17.00    1.0
2173 242732.000    967386.3253  -5611812.8572   2863023.1646   2   8   0.0256   0.0352   0.0233  -0.0122  -0.0210   0.0064  18.00    1.0
2173 242733.000    967386.3259  -5611812.8527   2863023.1624   2   8   0.0259   0.0365   0.0242  -0.0127  -0.0220   0.0068  19.00    1.0
2173 242734.000    967386.3256  -5611812.8513   2863023.1608   2   8   0.0263   0.0379   0.0252  -0.0132  -0.0230   0.0072  20.00    1.0
2173 242735.000    967386.3261  -5611812.8485   2863023.1595   2   8   0.0266   0.0393   0.0261  -0.0138  -0.0240   0.0077  21.00    1.0
2173 242736.000    967386.3270  -5611812.8470   2863023.1579   2   8   0.0270   0.0408   0.0271  -0.0143  -0.0250   0.0081  22.00    1.0
2173 242737.000    967386.3283  -5611812.8447   2863023.1567   2   8   0.0274   0.0422   0.0280  -0.0149  -0.0261   0.0085  23.00    1.0
2173 242738.000    967386.3291  -5611812.8432   2863023.1537   2   8   0.0278   0.0436   0.0290  -0.0154  -0.0271   0.0089  24.00    1.0
2173 242739.000    967386.3280  -5611812.8406   2863023.1524   2   8   0.0282   0.0451   0.0300  -0.0160  -0.0281   0.0094  25.00    1.0
2173 242740.000    967386.3287  -5611812.8380   2863023.1507   2   8   0.0286   0.0466   0.0310  -0.0165  -0.0291   0.0098  26.00    1.0
