% program   : rnx2rtkp ver.2.4.3 b31
% inp file  : ngs/21_09_01_09_12_17_pass.obs
% inp file  : ngs/21_09_01_09_12_17_pass_SNPA.obs
% inp file  : ngs/21_09_01_09_12_17_brdc.nav
% obs start : 2021/09/01 09:00:00.0 GPST (week2173 291600.0s)
% obs end   : 2021/09/01 09:59:59.0 GPST (week2173 295199.0s)
% ref pos   :  1159548.2401  -4706036.6509   4132097.1447
%
% (x/y/z-ecef=WGS84,Q=1:fix,2:float,3:sbas,4:dgps,5:single,6:ppp,ns=# of satellites)
%  GPST              x-ecef(m)      y-ecef(m)      z-ecef(m)   Q  ns   sdx(m)   sdy(m)   sdz(m)  sdxy(m)  sdyz(m)  sdzx(m) age(s)  ratio
2173 292314.000   1159578.1988  -4706158.5963   4132205.3514   2   9   0.4791   0.9455   0.7443  -0.5211  -0.6681   0.3399 -30.00    2.2
2173 292315.000   1159578.2196  -4706158.6568   4132205.3273   2   9   0.3409   0.6739   0.5303  -0.3709  -0.4766   0.2422 -29.00    2.4
2173 292316.000   1159578.2571  -4706158.6778   4132205.3225   2   9   0.2792   0.5520   0.4343  -0.3038  -0.3905   0.1984 -28.00    2.5
2173 292317.000   1159578.2402  -4706158.6593   4132205.3204   2   9   0.2422   0.4790   0.3767  -0.2636  -0.3388   0.1722 -27.00    2.6
2173 292318.000   1159578.2501  -4706158.6944   4132205.3538   2   9   0.2170   0.4290   0.3374  -0.2361  -0.3034   0.1542 -26.00    2.8
2173 292319.000   1159578.3300  -4706158.7650   4132205.0854   1   9   0.0210   0.0361   0.0292  -0.0223  -0.0223   0.0124 -25.00    3.0
2173 292320.000   1159578.3304  -4706158.7607   4132205.0817   1   9   0.0203   0.0348   0.0281  -0.0215  -0.0215   0.0119 -24.00    3.2
2173 292321.000   1159578.3298  -4706158.7603   4132205.0824   1   9   0.0195   0.0335   0.0270  -0.0207  -0.0207   0.0115 -23.00    3.3
2173 292322.000   1159578.3328  -4706158.7602   4132205.0809   1   9   0.0187   0.0322   0.0260  -0.0198  -0.0199   0.0110 -22.00    3.5
2173 292323.000   1159578.3317  -4706158.7594   4132205.0831   1   9   0.0180   0.0309   0.0249  -0.0190  -0.0191   0.0106 -21.00    3.7
2173 292324.000   1159578.3343  -4706158.7602   4132205.0792   1   9   0.0172   0.0296   0.0239  -0.0182  -0.0183   0.0101 -20.00    3.8
2173 292325.000   1159578.3342  -4706158.7629   4132205.0795   1   9   0.0165   0.0283   0.0228  -0.0174  -0.0176   0.0097 -19.00    3.9
2173 292326.000   1159578.3342  -4706158.7605   4132205.0775   1   9   0.0157   0.0270   0.0218  -0.0166  -0.0168   0.0093 -18.00    4.0
2173 292327.000   1159578.3311  -4706158.7569   4132205.0756   1   9   0.0149   0.0257   0.0207  -0.0158  -0.0160   0.0088 -17.00    4.1
2173 292328.000   1159578.3330  -4706158.7567   4132205.0751   1   9   0.0142   0.0245   0.0197  -0.0150  -0.0153   0.0084 -16.00    4.2
2173 292329.000   1159578.3339  -4706158.7524   4132205.0728   1   9   0.0135   0.0232   0.0187  -0.0142  -0.0145   0.0080 -15.00    4.4
2173 292330.000   1159578.3353  -4706158.7546   4132205.0762   1   9   0.0127   0.0220   0.0177  -0.0134  -0.0138   0.0076 -14.00    4.6
2173 292331.000   1159578.3335  -4706158.7488   4132205.0743   1   9   0.0120   0.0208   0.0167  -0.0127  -0.0131   0.0072 -13.00    4.9
2173 292332.000   1159578.3324  -4706158.7432   4132205.0724   1   9   0.0113   0.0196   0.0157  -0.0119  -0.0124   0.0068 -12.00    5.3
2173 292333.000   1159578.3333  -4706158.7441   4132205.0736   1   9   0.0105   0.0184   0.0147  -0.0111  -0.0117   0.0064 -11.00    6.0
2173 292334.000   1159578.3331  -4706158.7419   4132205.0727   1   9   0.0099   0.0173   0.0138  -0.0104  -0.0110   0.0060 -10.00    6.8
2173 292335.000   1159578.3333  -4706158.7438   4132205.0707   1   9   0.0091   0.0161   0.0129  -0.0097  -0.0104   0.0057  -9.00    7.7
2173 292336.000   1159578.3357  -4706158.7488   4132205.0744   1   9   0.0085   0.0151   0.0120  -0.0089  -0.0098   0.0055  -8.00    8.4
2173 292337.000   1159578.3350  -4706158.7494   4132205.0761   1   9   0.0078   0.0141   0.0111  -0.0083  -0.0092   0.0050  -7.00    9.3
2173 292338.000   1159578.3346  -4706158.7495   4132205.0766   1   9   0.0073   0.0131   0.0104  -0.0077  -0.0087   0.0045  -6.00   10.2
2173 292339.000   1159578.3356  -4706158.7465   4132205.0751   1   9   0.0067   0.0122   0.0095  -0.0071  -0.0082   0.0043  -5.00   11.0
2173 292340.000   1159578.3358  -4706158.7489   4132205.0772   1   9   0.0060   0.0113   0.0090  -0.0066  -0.0077   0.0040  -4.00   11.8
2173 292341.000   1159578.3362  -4706158.7503   4132205.0785   1   9   0.0060   0.0107   0.0085  -0.0061  -0.0073   0.0039  -3.00   12.8
2173 292342.000   1159578.3346  -4706158.7462   4132205.0779   1   9   0.0055   0.0101   0.0077  -0.0056  -0.0071   0.0036  -2.00   14.0
2173 292343.000   1159578.3364  -4706158.7469   4132205.0770   1   9   0.0038   0.0097   0.0076  -0.0053  -0.0069   0.0037  -1.00   15.0
2173 292344.000   1159578.3367  -4706158.7465   4132205.0767   1   9   0.0053   0.0096   0.0076  -0.0053  -0.0068   0.0033   0.00   16.5
2173 292345.000   1159578.3320  -4706158.7410   4132205.0729   1   9   0.0050   0.0096   0.0077  -0.0053  -0.0068   0.0038   0.00   17.6
2173 292346.000   1159578.3346  -4706158.7454   4132205.0762   1   9   0.0053   0.0097   0.0076  -0.0054  -0.0067   0.0035   0.00   19.1
2173 292347.000   1159578.3338  -4706158.7457   4132205.0761   1   9   0.0057   0.0096   0.0078  -0.0053  -0.0066   0.0033   0.00   19.5
2173 292348.000   1159578.3354  -4706158.7478   4132205.0781   1   9   0.0048   0.0096   0.0075  -0.0054  -0.0068   0.0036   0.00   20.1
2173 292349.000   1159578.3351  -4706158.7442   4132205.0780   1   9   0.0055   0.0096   0.0077  -0.0055  -0.0068   0.0035   0.00   20.4
2173 292350.000   1159578.3346  -4706158.7438   4132205.0796   1   9   0.0046   0.0096   0.0074  -0.0053  -0.0068   0.0028   0.00   20.7
2173 292351.000   1159578.3361  -4706158.7471   4132205.0755   1   9   0.0047   0.0096   0.0074  -0.0052  -0.0068   0.0036   0.00   21.1
2173 292352.000   1159578.3355  -4706158.7449   4132205.0797   1   9   0.0049   0.0096   0.0076  -0.0053  -0.0067   0.0037   0.00   21.5
2173 292353.000   1159578.3350  -4706158.7479   4132205.0791   1   9   0.0047   0.0096   0.0074  -0.0052  -0.0068   0.0034   0.00   21.5
2173 292354.000   1159578.3349  -4706158.7451   4132205.0754   1   9   0.0050   0.0096   0.0077  -0.0053  -0.0067   0.0034   0.00   21.4
2173 292355.000   1159578.3339  -4706158.7445   4132205.0799   1   9   0.0043   0.0096   0.0075  -0.0052  -0.0068   0.0038   0.00   21.5
2173 292356.000   1159578.3351  -4706158.7488   4132205.0803   1   9   0.0047   0.0096   0.0075  -0.0055  -0.0068   0.0031   0.00   21.7
2173 292357.000   1159578.3349  -4706158.7473   4132205.0780   1   9   0.0049   0.0096   0.0074  -0.0054  -0.0069   0.0032   0.00   21.6
2173 292358.000   1159578.3357  -4706158.7479   4132205.0784   1   9   0.0049   0.0097   0.0075  -0.0051  -0.0068   0.0036   0.00   21.8
2173 292359.000   1159578.3323  -4706158.7440   4132205.0783   1   9   0.0045   0.0096   0.0076  -0.0054  -0.0068   0.0035   0.00   22.1
2173 292360.000   1159578.3365  -4706158.7452   4132205.0797   1   9   0.0049   0.0095   0.0073  -0.0053  -0.0068   0.0031   0.00   22.7
2173 292361.000   1159578.3342  -4706158.7467   4132205.0792   1   9   0.0054   0.0096   0.0074  -0.0053  -0.0067   0.0030   0.00   23.3
2173 292362.000   1159578.3354  -4706158.7445   4132205.0805   1   9   0.0052   0.0096   0.0075  -0.0054  -0.0067   0.0035   0.00   23.5
2173 292363.000   1159578.3345  -4706158.7439   4132205.0794   1   9   0.0045   0.0096   0.0073  -0.0054  -0.0068   0.0034   0.00   23.8
2173 292364.000   1159578.3352  -4706158.7487   4132205.0824   1   9   0.0053   0.0096   0.0075  -0.0055  -0.0068   0.0025   0.00   24.1
2173 292365.000   1159578.3367  -4706158.7494   4132205.0774   1   9   0.0049   0.0096   0.0076  -0.0053  -0.0068   0.0037   0.00   24.3
2173 292366.000   1159578.3358  -4706158.7497   4132205.0775   1   9   0.0044   0.0097   0.0077  -0.0052  -0.0067   0.0038   0.00   24.6
2173 292367.000   1159578.3353  -4706158.7510   4132205.0818   1   9   0.0047   0.0096   0.0075  -0.0053  -0.0067   0.0035   0.00   24.8
2173 292368.000   1159578.3333  -4706158.7483   4132205.0815   1   9   0.0049   0.0095   0.0074  -0.0052  -0.0069   0.0034   0.00   25.1
2173 292369.000   1159578.3325  -4706158.7428   4132205.0774   1   9   0.0045   0.0096   0.0077  -0.0052  -0.0068   0.0038   0.00   25.0
2173 292370.000   1159578.3344  -4706158.7497   4132205.0807   1   9   0.0050   0.0097   0.0075  -0.0052  -0.0068   0.0038   0.00   25.3
2173 292371.000   1159578.3362  -4706158.7474   4132205.0823   1   9   0.0053   0.0096   0.0075  -0.0055  -0.0068   0.0036   0.00   25.3
2173 292372.000   1159578.3353  -4706158.7510   4132205.0816   1   9   0.0056   0.0097   0.0076  -0.0054  -0.0067   0.0032   0.00   25.4
2173 292373.000   1159578.3351  -4706158.7486   4132205.0819   1   9   0.0043   0.0096   0.0075  -0.0049  -0.0068   0.0042   0.00   25.6
2173 292374.000   1159578.3355  -4706158.7474   4132205.0806   1   9   0.0049   0.0096   0.0075  -0.0053  -0.0068   0.0032   0.00   26.1
2173 292375.000   1159578.3352  -4706158.7481   4132205.0801   1   9   0.0054   0.0097   0.0073  -0.0055  -0.0068   0.0027   0.00   26.2
2173 292376.000   1159578.3377  -4706158.7494   4132205.0807   1   9   0.0042   0.0096   0.0073  -0.0052  -0.0069   0.0036   0.00   26.3
2173 292377.000   1159578.3345  -4706158.7446   4132205.0813   1   9   0.0042   0.0096   0.0074  -0.0053  -0.0068   0.0031   0.00   26.4
2173 292378.000   1159578.3357  -4706158.7497   4132205.0846   1   9   0.0049   0.0096   0.0075  -0.0052  -0.0067   0.0036   0.00   26.6
2173 292379.000   1159578.3341  -4706158.7472   4132205.0806   1   9   0.0052   0.0095   0.0075  -0.0053  -0.0068   0.0034   0.00   26.6
2173 292380.000   1159578.3356  -4706158.7487   4132205.0809   1   9   0.0052   0.0097   0.0075  -0.0053  -0.0067   0.0037   0.00   26.5
2173 292381.000   1159578.3352  -4706158.7524   4132205.0823   1   9   0.0053   0.0096   0.0076  -0.0055  -0.0067   0.0030   0.00   26.9
2173 292382.000   1159578.3340  -4706158.7501   4132205.0819   1   9   0.0046   0.0096   0.0073  -0.0055  -0.0069   0.0032   0.00   26.9
2173 292383.000   1159578.3355  -4706158.7492   4132205.0814   1   9   0.0038   0.0096   0.0076  -0.0053  -0.0067   0.0035   0.00   27.0
2173 292384.000   1159578.3330  -4706158.7443   4132205.0781   1   9   0.0047   0.0096   0.0073  -0.0052  -0.0068   0.0035   0.00   27.0
2173 292385.000   1159578.3367  -4706158.7485   4132205.0803   1   9   0.0052   0.0096   0.0076  -0.0052  -0.0067   0.0038   0.00   27.2
2173 292386.000   1159578.3328  -4706158.7468   4132205.0817   1   9   0.0049   0.0096   0.0074  -0.0055  -0.0068   0.0031   0.00   27.2
2173 292387.000   1159578.3343  -4706158.7417   4132205.0780   1   9   0.0048   0.0095   0.0073  -0.0055  -0.0068   0.0032   0.00   27.4
2173 292388.000   1159578.3366  -4706158.7453   4132205.0779   1   9   0.0053   0.0097   0.0074  -0.0054  -0.0067   0.0024   0.00   27.6
2173 292389.000   1159578.3339  -4706158.7450   4132205.0800   1   9   0.0051   0.0096   0.0075  -0.0054  -0.0068   0.0036   0.00   27.6
2173 292390.000   1159578.3345  -4706158.7454   4132205.0788   1   9   0.0047   0.0096   0.0075  -0.0053  -0.0068   0.0034   0.00   27.6
2173 292391.000   1159578.3372  -4706158.7506   4132205.0821   1   9   0.0052   0.0096   0.0075  -0.0055  -0.0067   0.0033   0.00   27.7
2173 292392.000   1159578.3362  -4706158.7466   4132205.0791   1   9   0.0052   0.0096   0.0076  -0.0052  -0.0067   0.0037   0.00   27.7
2173 292393.000   1159578.3337  -4706158.7438   4132205.0778   1   9   0.0051   0.0097   0.0076  -0.0053  -0.0068   0.0038   0.00   28.1
2173 292394.000   1159578.3349  -4706158.7454   4132205.0757   1   9   0.0037   0.0096   0.0074  -0.0054  -0.0068   0.0028   0.00   27.9
2173 292395.000   1159578.3358  -4706158.7455   4132205.0780   1   9   0.0045   0.0096   0.0074  -0.0055  -0.0068   0.0034   0.00   27.9
2173 292396.000   1159578.3336  -4706158.7430   4132205.0774   1   9   0.0049   0.0095   0.0074  -0.0054  -0.0069   0.0033   0.00   27.9
2173 292397.000   1159578.3356  -4706158.7469   4132205.0791   1   9   0.0050   0.0096   0.0073  -0.0056  -0.0068   0.0030   0.00   28.1
2173 292398.000   1159578.3354  -4706158.7442   4132205.0787   1   9   0.0052   0.0096   0.0073  -0.0057  -0.0069   0.0028   0.00   28.4
2173 292399.000   1159578.3356  -4706158.7473   4132205.0780   1   9   0.0048   0.0097   0.0075  -0.0052  -0.0067   0.0033   0.00   28.5
2173 292400.000   1159578.3345  -4706158.7485   4132205.0818   1   9   0.0049   0.0096   0.0073  -0.0055  -0.0069   0.0033   0.00   28.8
2173 292401.000   1159578.3351  -4706158.7473   4132205.0814   1   9   0.0047   0.0096   0.0075  -0.0054  -0.0068   0.0032   0.00   29.0
2173 292402.000   1159578.3325  -4706158.7397   4132205.0768   1   9   0.0052   0.0096   0.0075  -0.0054  -0.0068   0.0034   0.00   29.1
2173 292403.000   1159578.3340  -4706158.7428   4132205.0774   1   9   0.0052   0.0097   0.0075  -0.0054  -0.0068   0.0029   0.00   29.4
2173 292404.000   1159578.3359  -4706158.7457   4132205.0813   1   9   0.0055   0.0097   0.0077  -0.0053  -0.0067   0.0034   0.00   29.5
2173 292405.000   1159578.3337  -4706158.7412   4132205.0795   1   9   0.0045   0.0097   0.0076  -0.0053  -0.0067   0.0039   0.00   29.7
2173 292406.000   1159578.3320  -4706158.7442   4132205.0808   1   9   0.0049   0.0096   0.0073  -0.0056  -0.0069   0.0030   0.00   29.9
2173 292407.000   1159578.3340  -4706158.7425   4132205.0822   1   9   0.0046   0.0096   0.0073  -0.0052  -0.0068   0.0034   0.00   30.0
2173 292408.000   1159578.3332  -4706158.7428   4132205.0778   1   9   0.0048   0.0096   0.0074  -0.0054  -0.0068   0.0031   0.00   30.2
2173 292409.000   1159578.3339  -4706158.7457   4132205.0815   1   9   0.0043   0.0096   0.0075  -0.0054  -0.0069   0.0036   0.00   30.5
2173 292410.000   1159578.3342  -4706158.7452   4132205.0812   1   9   0.0042   0.0096   0.0074  -0.0055  -0.0068   0.0037   0.00   30.5
2173 292411.000   1159578.3344  -4706158.7493   4132205.0837   1   9   0.0038   0.0096   0.0073  -0.0053  -0.0068   0.0038   0.00   30.8
2173 292412.000   1159578.3335  -4706158.7433   4132205.0807   1   9   0.0048   0.0096   0.0072  -0.0052  -0.0068   0.0038   0.00   31.0
2173 292413.000   1159578.3343  -4706158.7430   4132205.0780   1   9   0.0049   0.0097   0.0074  -0.0052  -0.0067   0.0034   0.00   31.2
2173 292414.000   1159578.3346  -4706158.7484   4132205.0813   1   9   0.0055   0.0096   0.0074  -0.0055  -0.0069   0.0036   0.00   31.5
2173 292415.000   1159578.3357  -4706158.7452   4132205.0798   1   9   0.0034   0.0097   0.0073  -0.0051  -0.0069   0.0037   0.00   31.8
2173 292416.000   1159578.3363  -4706158.7479   4132205.0846   1   9   0.0050   0.0098   0.0074  -0.0052  -0.0067   0.0030   0.00   32.0
2173 292417.000   1159578.3336  -4706158.7405   4132205.0777   1   9   0.0040   0.0097   0.0074  -0.0052  -0.0067   0.0034   0.00   32.3
2173 292418.000   1159578.3358  -4706158.7479   4132205.0817   1   9   0.0052   0.0097   0.0073  -0.0052  -0.0068   0.0036   0.00   32.3
2173 292419.000   1159578.3353  -4706158.7444   4132205.0800   1   9   0.0043   0.0096   0.0075  -0.0053  -0.0068   0.0036   0.00   32.4
2173 292420.000   1159578.3353  -4706158.7432   4132205.0788   1   9   0.0048   0.0097   0.0074  -0.0051  -0.0067   0.0040   0.00   32.5
2173 292421.000   1159578.3337  -4706158.7442   4132205.0809   1   9   0.0052   0.0097   0.0075  -0.0054  -0.0068   0.0036   0.00   32.7
2173 292422.000   1159578.3357  -4706158.7450   4132205.0791   1   9   0.0039   0.0097   0.0075  -0.0053  -0.0068   0.0034   0.00   32.8
2173 292423.000   1159578.3372  -4706158.7500   4132205.0831   1   9   0.0052   0.0097   0.0075  -0.0052  -0.0067   0.0038   0.00   33.1
2173 292424.000   1159578.3342  -4706158.7459   4132205.0796   1   9   0.0051   0.0097   0.0074  -0.0054  -0.0067   0.0035   0.00   33.4
2173 292425.000   1159578.3362  -4706158.7466   4132205.0818   1   9   0.0054   0.0096   0.0075  -0.0055  -0.0068   0.0031   0.00   33.6
2173 292426.000   1159578.3354  -4706158.7481   4132205.0817   1   9   0.0046   0.0096   0.0075  -0.0053  -0.0068   0.0038   0.00   34.0
2173 292427.000   1159578.3358  -4706158.7490   4132205.0836   1   9   0.0052   0.0098   0.0078  -0.0053  -0.0066   0.0033   0.00   34.3
2173 292428.000   1159578.3356  -4706158.7436   4132205.0799   1   9   0.0048   0.0096   0.0075  -0.0054  -0.0067   0.0037   0.00   34.5
2173 292429.000   1159578.3364  -4706158.7460   4132205.0790   1   9   0.0039   0.0097   0.0075  -0.0051  -0.0067   0.0041   0.00   34.8
2173 292430.000   1159578.3357  -4706158.7446   4132205.0823   1   9   0.0053   0.0097   0.0074  -0.0055  -0.0067   0.0030   0.00   34.9
2173 292431.000   1159578.3357  -4706158.7471   4132205.0827   1   9   0.0050   0.0097   0.0074  -0.0052  -0.0067   0.0036   0.00   35.0
2173 292432.000   1159578.3364  -4706158.7464   4132205.0807   1   9   0.0044   0.0097   0.0075  -0.0051  -0.0067   0.0043   0.00   35.2
2173 292433.000   1159578.3354  -4706158.7458   4132205.0855   1   9   0.0048   0.0097   0.0075  -0.0054  -0.0068   0.0037   0.00   35.4
2173 292434.000   1159578.3372  -4706158.7494   4132205.0841   1   9   0.0049   0.0097   0.0077  -0.0054  -0.0067   0.0037   0.00   35.7
2173 292435.000   1159578.3384  -4706158.7481   4132205.0818   1   9   0.0053   0.0097   0.0075  -0.0053  -0.0068   0.0036   0.00   36.1
2173 292436.000   1159578.3370  -4706158.7486   4132205.0864   1   9   0.0045   0.0097   0.0075  -0.0054  -0.0067   0.0027   0.00   36.4
2173 292437.000   1159578.3379  -4706158.7470   4132205.0834   1   9   0.0049   0.0096   0.0075  -0.0057  -0.0068   0.0026   0.00   36.7
2173 292438.000   1159578.3375  -4706158.7485   4132205.0853   1   9   0.0049   0.0097   0.0075  -0.0052  -0.0068   0.0038   0.00   37.0
2173 292439.000   1159578.3355  -4706158.7486   4132205.0852   1   9   0.0058   0.0097   0.0074  -0.0055  -0.0067   0.0030   0.00   37.2
2173 292440.000   1159578.3349  -4706158.7490   4132205.0896   1   9   0.0056   0.0096   0.0075  -0.0055  -0.0068   0.0034   0.00   37.6
2173 292441.000   1159578.3352  -4706158.7469   4132205.0869   1   9   0.0048   0.0097   0.0076  -0.0052  -0.0067   0.0042   0.00   37.9
2173 292442.000   1159578.3351  -4706158.7440   4132205.0842   1   9   0.0043   0.0097   0.0072  -0.0054  -0.0068   0.0030   0.00   38.4
2173 292443.000   1159578.3345  -4706158.7439   4132205.0837   1   9   0.0049   0.0096   0.0074  -0.0053  -0.0067   0.0036   0.00   38.9
2173 292444.000   1159578.3334  -4706158.7438   4132205.0851   1   9   0.0045   0.0096   0.0073  -0.0054  -0.0068   0.0035   0.00   39.5
2173 292445.000   1159578.3367  -4706158.7514   4132205.0875   1   9   0.0044   0.0096   0.0073  -0.0055  -0.0068   0.0031   0.00   39.9
2173 292446.000   1159578.3340  -4706158.7456   4132205.0861   1   9   0.0045   0.0097   0.0074  -0.0053  -0.0068   0.0035   0.00   40.6
2173 292447.000   1159578.3321  -4706158.7420   4132205.0834   1   9   0.0052   0.0096   0.0075  -0.0054  -0.0068   0.0040   0.00   41.2
2173 292448.000   1159578.3343  -4706158.7441   4132205.0826   1   9   0.0049   0.0097   0.0075  -0.0053  -0.0067   0.0037   0.00   41.7
2173 292449.000   1159578.3351  -4706158.7449   4132205.0853   1   9   0.0041   0.0097   0.0074  -0.0052  -0.0068   0.0039   0.00   42.0
2173 292450.000   1159578.3336  -4706158.7439   4132205.0848   1   9   0.0044   0.0097   0.0074  -0.0053  -0.0068   0.0037   0.00   42.8
2173 292451.000   1159578.3365  -4706158.7444   4132205.0851   1   9   0.0053   0.0097   0.0077  -0.0056  -0.0067   0.0035   0.00   43.2
2173 292452.000   1159578.3332  -4706158.7392   4132205.0797   1   9   0.0045   0.0096   0.0074  -0.0056  -0.0067   0.0024   0.00   43.8
2173 292453.000   1159578.3337  -4706158.7402   4132205.0787   1   9   0.0051   0.0097   0.0076  -0.0053  -0.0067   0.0031   0.00   44.5
2173 292454.000   1159578.3345  -4706158.7452   4132205.0831   1   9   0.0052   0.0096   0.0075  -0.0054  -0.0067   0.0036   0.00   45.1
2173 292455.000   1159578.3344  -4706158.7427   4132205.0837   1   9   0.0047   0.0097   0.0074  -0.0054  -0.0067   0.0033   0.00   45.7
2173 292456.000   1159578.3338  -4706158.7444   4132205.0832   1   9   0.0052   0.0097   0.0074  -0.0053  -0.0068   0.0036   0.00   46.1
2173 292457.000   1159578.3358  -4706158.7426   4132205.0842   1   9   0.0048   0.0097   0.0074  -0.0053  -0.0067   0.0037   0.00   46.8
2173 292458.000   1159578.3348  -4706158.7444   4132205.0869   1   9   0.0048   0.0097   0.0076  -0.0053  -0.0067   0.0036   0.00   47.7
2173 292459.000   1159578.3360  -4706158.7414   4132205.0838   1   9   0.0051   0.0097   0.0074  -0.0054  -0.0068   0.0033   0.00   48.3
2173 292460.000   1159578.3340  -4706158.7419   4132205.0824   1   9   0.0043   0.0097   0.0075  -0.0055  -0.0067   0.0037   0.00   48.8
2173 292461.000   1159578.3344  -4706158.7408   4132205.0842   1   9   0.0049   0.0097   0.0075  -0.0055  -0.0068   0.0035   0.00   49.3
2173 292462.000   1159578.3334  -4706158.7393   4132205.0855   1   9   0.0031   0.0096   0.0072  -0.0053  -0.0069   0.0039   0.00   50.0
2173 292463.000   1159578.3341  -4706158.7398   4132205.0849   1   9   0.0058   0.0097   0.0076  -0.0057  -0.0067   0.0031   0.00   50.7
2173 292464.000   1159578.3342  -4706158.7386   4132205.0837   1   9   0.0044   0.0096   0.0075  -0.0054  -0.0067   0.0035   0.00   51.2
2173 292465.000   1159578.3348  -4706158.7391   4132205.0825   1   9   0.0038   0.0096   0.0072  -0.0053  -0.0068   0.0035   0.00   51.8
2173 292466.000   1159578.3323  -4706158.7376   4132205.0819   1   9   0.0047   0.0097   0.0074  -0.0054  -0.0067   0.0035   0.00   52.4
2173 292467.000   1159578.3339  -4706158.7425   4132205.0855   1   9   0.0041   0.0097   0.0075  -0.0054  -0.0067   0.0034   0.00   53.1
2173 292468.000   1159578.3330  -4706158.7365   4132205.0832   1   9   0.0038   0.0097   0.0074  -0.0051  -0.0067   0.0037   0.00   53.6
2173 292469.000   1159578.3344  -4706158.7414   4132205.0844   1   9   0.0046   0.0096   0.0072  -0.0054  -0.0068   0.0036   0.00   54.4
2173 292470.000   1159578.3334  -4706158.7401   4132205.0823   1   9   0.0044   0.0097   0.0073  -0.0055  -0.0068   0.0035   0.00   54.9
2173 292471.000   1159578.3334  -4706158.7368   4132205.0810   1   9   0.0052   0.0097   0.0077  -0.0055  -0.0067   0.0036   0.00   55.3
2173 292472.000   1159578.3331  -4706158.7403   4132205.0846   1   9   0.0055   0.0096   0.0073  -0.0057  -0.0068   0.0031   0.00   55.8
2173 292473.000   1159578.3325  -4706158.7328   4132205.0796   1   9   0.0041   0.0096   0.0074  -0.0053  -0.0067   0.0036   0.00   56.3
2173 292474.000   1159578.3328  -4706158.7380   4132205.0791   1   9   0.0047   0.0097   0.0075  -0.0055  -0.0067   0.0032   0.00   56.7
2173 292475.000   1159578.3336  -4706158.7390   4132205.0815   1   9   0.0054   0.0097   0.0073  -0.0054  -0.0068   0.0036   0.00   57.4
2173 292476.000   1159578.3340  -4706158.7412   4132205.0798   1   9   0.0046   0.0097   0.0072  -0.0054  -0.0067   0.0033   0.00   58.1
2173 292477.000   1159578.3347  -4706158.7444   4132205.0805   1   9   0.0047   0.0097   0.0075  -0.0052  -0.0066   0.0038   0.00   58.5
2173 292478.000   1159578.3337  -4706158.7419   4132205.0806   1   9   0.0053   0.0096   0.0075  -0.0055  -0.0067   0.0035   0.00   59.1
2173 292479.000   1159578.3319  -4706158.7392   4132205.0788   1   9   0.0049   0.0097   0.0073  -0.0056  -0.0068   0.0032   0.00   59.7
2173 292480.000   1159578.3313  -4706158.7399   4132205.0823   1   9   0.0054   0.0097   0.0073  -0.0056  -0.0067   0.0032   0.00   60.4
2173 292481.000   1159578.3324  -4706158.7405   4132205.0814   1   9   0.0047   0.0097   0.0074  -0.0054  -0.0067   0.0035   0.00   60.8
2173 292482.000   1159578.3314  -4706158.7390   4132205.0803   1   9   0.0044   0.0097   0.0073  -0.0056  -0.0068   0.0032   0.00   61.4
2173 292483.000   1159578.3333  -4706158.7398   4132205.0805   1   9   0.0051   0.0097   0.0075  -0.0055  -0.0068   0.0037   0.00   61.7
2173 292484.000   1159578.3321  -4706158.7437   4132205.0863   1   9   0.0048   0.0097   0.0074  -0.0054  -0.0068   0.0037   0.00   62.1
2173 292485.000   1159578.3332  -4706158.7413   4132205.0807   1   9   0.0048   0.0097   0.0073  -0.0056  -0.0067   0.0028   0.00   62.8
2173 292486.000   1159578.3323  -4706158.7390   4132205.0810   1   9   0.0050   0.0098   0.0075  -0.0051  -0.0067   0.0041   0.00   63.0
2173 292487.000   1159578.3335  -4706158.7427   4132205.0818   1   9   0.0047   0.0097   0.0074  -0.0056  -0.0068   0.0031   0.00   63.6
2173 292488.000   1159578.3316  -4706158.7384   4132205.0812   1   9   0.0044   0.0096   0.0072  -0.0053  -0.0068   0.0034   0.00   64.1
2173 292489.000   1159578.3332  -4706158.7437   4132205.0832   1   9   0.0048   0.0097   0.0073  -0.0055  -0.0068   0.0033   0.00   64.8
2173 292490.000   1159578.3326  -4706158.7416   4132205.0791   1   9   0.0052   0.0096   0.0074  -0.0057  -0.0068   0.0030   0.00   65.6
2173 292491.000   1159578.3323  -4706158.7394   4132205.0783   1   9   0.0047   0.0097   0.0073  -0.0052  -0.0067   0.0039   0.00   66.4
2173 292492.000   1159578.3332  -4706158.7392   4132205.0771   1   9   0.0053   0.0098   0.0075  -0.0053  -0.0066   0.0036   0.00   67.1
2173 292493.000   1159578.3306  -4706158.7340   4132205.0750   1   9   0.0051   0.0097   0.0075  -0.0054  -0.0067   0.0037   0.00   67.8
2173 292494.000   1159578.3327  -4706158.7389   4132205.0767   1   9   0.0056   0.0097   0.0075  -0.0055  -0.0067   0.0034   0.00   68.4
2173 292495.000   1159578.3301  -4706158.7333   4132205.0731   1   9   0.0056   0.0097   0.0075  -0.0056  -0.0068   0.0036   0.00   68.8
2173 292496.000   1159578.3318  -4706158.7367   4132205.0767   1   9   0.0047   0.0098   0.0076  -0.0055  -0.0066   0.0035   0.00   69.4
2173 292497.000   1159578.3331  -4706158.7375   4132205.0761   1   9   0.0049   0.0097   0.0073  -0.0054  -0.0068   0.0032   0.00   70.3
2173 292498.000   1159578.3330  -4706158.7382   4132205.0745   1   9   0.0051   0.0097   0.0076  -0.0054  -0.0067   0.0037   0.00   71.0
2173 292499.000   1159578.3337  -4706158.7358   4132205.0757   1   9   0.0046   0.0097   0.0074  -0.0054  -0.0067   0.0033   0.00   72.1
2173 292500.000   1159578.3342  -4706158.7380   4132205.0782   1   9   0.0044   0.0097   0.0073  -0.0053  -0.0068   0.0038   0.00   73.1
2173 292501.000   1159578.3337  -4706158.7404   4132205.0785   1   9   0.0046   0.0097   0.0075  -0.0054  -0.0067   0.0038   0.00   74.0
2173 292502.000   1159578.3342  -4706158.7379   4132205.0749   1   9   0.0052   0.0096   0.0073  -0.0057  -0.0067   0.0033   0.00   75.2
2173 292503.000   1159578.3342  -4706158.7371   4132205.0720   1   9   0.0045   0.0097   0.0074  -0.0056  -0.0068   0.0034   0.00   76.2
2173 292504.000   1159578.3306  -4706158.7307   4132205.0728   1   9   0.0053   0.0097   0.0073  -0.0055  -0.0067   0.0029   0.00   77.6
2173 292505.000   1159578.3337  -4706158.7350   4132205.0734   1   9   0.0050   0.0097   0.0074  -0.0054  -0.0067   0.0031   0.00   78.7
2173 292506.000   1159578.3341  -4706158.7374   4132205.0785   1   9   0.0053   0.0097   0.0074  -0.0053  -0.0067   0.0036   0.00   79.5
2173 292507.000   1159578.3337  -4706158.7385   4132205.0758   1   9   0.0047   0.0096   0.0072  -0.0056  -0.0069   0.0035   0.00   80.4
2173 292508.000   1159578.3335  -4706158.7389   4132205.0775   1   9   0.0049   0.0097   0.0073  -0.0055  -0.0068   0.0034   0.00   81.8
2173 292509.000   1159578.3335  -4706158.7356   4132205.0746   1   9   0.0048   0.0098   0.0074  -0.0055  -0.0066   0.0031   0.00   82.6
2173 292510.000   1159578.3350  -4706158.7385   4132205.0756   1   9   0.0045   0.0097   0.0071  -0.0056  -0.0068   0.0033   0.00   83.8
2173 292511.000   1159578.3315  -4706158.7355   4132205.0744   1   9   0.0045   0.0097   0.0073  -0.0054  -0.0067   0.0039   0.00   84.9
2173 292512.000   1159578.3313  -4706158.7339   4132205.0757   1   9   0.0054   0.0097   0.0071  -0.0054  -0.0068   0.0030   0.00   85.6
2173 292513.000   1159578.3320  -4706158.7343   4132205.0741   1   9   0.0055   0.0098   0.0076  -0.0052  -0.0066   0.0039   0.00   86.1
2173 292514.000   1159578.3333  -4706158.7322   4132205.0760   1   9   0.0053   0.0098   0.0075  -0.0053  -0.0066   0.0038   0.00   86.6
2173 292515.000   1159578.3276  -4706158.7289   4132205.0756   1   9   0.0043   0.0097   0.0073  -0.0053  -0.0067   0.0031   0.00   87.8
2173 292516.000   1159578.3300  -4706158.7292   4132205.0716   1   9   0.0039   0.0096   0.0069  -0.0055  -0.0069   0.0030   0.00   89.3
2173 292517.000   1159578.3320  -4706158.7360   4132205.0769   1   9   0.0048   0.0098   0.0073  -0.0052  -0.0066   0.0034   0.00   90.1
2173 292518.000   1159578.3298  -4706158.7336   4132205.0743   1   9   0.0056   0.0098   0.0073  -0.0056  -0.0067   0.0030   0.00   91.3
2173 292519.000   1159578.3314  -4706158.7393   4132205.0758   1   9   0.0054   0.0098   0.0074  -0.0056  -0.0066   0.0029   0.00   92.2
2173 292520.000   1159578.3298  -4706158.7360   4132205.0779   1   9   0.0047   0.0096   0.0073  -0.0055  -0.0068   0.0031   0.00   93.4
2173 292521.000   1159578.3308  -4706158.7362   4132205.0732   1   9   0.0054   0.0098   0.0074  -0.0055  -0.0067   0.0038   0.00   94.2
2173 292522.000   1159578.3308  -4706158.7377   4132205.0732   1   9   0.0051   0.0098   0.0075  -0.0053  -0.0066   0.0036   0.00   94.9
2173 292523.000   1159578.3291  -4706158.7342   4132205.0722   1   9   0.0053   0.0098   0.0074  -0.0054  -0.0067   0.0040   0.00   95.8
2173 292524.000   1159578.3297  -4706158.7350   4132205.0739   1   9   0.0054   0.0098   0.0075  -0.0055  -0.0066   0.0033   0.00   96.2
2173 292525.000   1159578.3292  -4706158.7345   4132205.0751   1   9   0.0047   0.0097   0.0074  -0.0053  -0.0067   0.0038   0.00   97.0
2173 292526.000   1159578.3307  -4706158.7380   4132205.0735   1   9   0.0052   0.0097   0.0074  -0.0054  -0.0067   0.0036   0.00   97.8
2173 292527.000   1159578.3311  -4706158.7377   4132205.0750   1   9   0.0046   0.0097   0.0074  -0.0054  -0.0068   0.0034   0.00   98.6
2173 292528.000   1159578.3271  -4706158.7350   4132205.0728   1   9   0.0055   0.0097   0.0074  -0.0055  -0.0067   0.0035   0.00   99.5
2173 292529.000   1159578.3318  -4706158.7386   4132205.0729   1   9   0.0050   0.0097   0.0074  -0.0053  -0.0067   0.0039   0.00  100.6
2173 292530.000   1159578.3286  -4706158.7364   4132205.0735   1   9   0.0054   0.0098   0.0075  -0.0055  -0.0067   0.0031   0.00  101.2
2173 292531.000   1159578.3278  -4706158.7346   4132205.0703   1   9   0.0050   0.0098   0.0073  -0.0054  -0.0066   0.0033   0.00  102.2
2173 292532.000   1159578.3268  -4706158.7350   4132205.0706   1   9   0.0055   0.0097   0.0074  -0.0055  -0.0068   0.0034   0.00  103.5
2173 292533.000   1159578.3305  -4706158.7412   4132205.0719   1   9   0.0048   0.0098   0.0073  -0.0054  -0.0067   0.0032   0.00  104.6
2173 292534.000   1159578.3264  -4706158.7356   4132205.0713   1   9   0.0053   0.0098   0.0074  -0.0054  -0.0067   0.0038   0.00  105.3
2173 292535.000   1159578.3285  -4706158.7344   4132205.0723   1   9   0.0056   0.0097   0.0073  -0.0056  -0.0068   0.0035   0.00  106.2
2173 292536.000   1159578.3305  -4706158.7387   4132205.0724   1   9   0.0049   0.0098   0.0073  -0.0053  -0.0067   0.0037   0.00  107.1
2173 292537.000   1159578.3292  -4706158.7390   4132205.0736   1   9   0.0050   0.0096   0.0072  -0.0056  -0.0068   0.0036   0.00  108.1
2173 292538.000   1159578.3276  -4706158.7362   4132205.0718   1   9   0.0052   0.0098   0.0074  -0.0055  -0.0067   0.0038   0.00  109.2
2173 292539.000   1159578.3285  -4706158.7375   4132205.0703   1   9   0.0054   0.0098   0.0076  -0.0053  -0.0066   0.0040   0.00  110.8
2173 292540.000   1159578.3270  -4706158.7346   4132205.0703   1   9   0.0049   0.0098   0.0074  -0.0054  -0.0067   0.0041   0.00  111.8
2173 292541.000   1159578.3290  -4706158.7363   4132205.0716   1   9   0.0048   0.0097   0.0074  -0.0054  -0.0067   0.0033   0.00  112.8
2173 292542.000   1159578.3282  -4706158.7343   4132205.0694   1   9   0.0050   0.0098   0.0073  -0.0055  -0.0067   0.0035   0.00  114.0
2173 292543.000   1159578.3272  -4706158.7350   4132205.0688   1   9   0.0051   0.0097   0.0077  -0.0057  -0.0066   0.0035   0.00  115.1
2173 292544.000   1159578.3280  -4706158.7355   4132205.0692   1   9   0.0061   0.0098   0.0076  -0.0058  -0.0067   0.0026   0.00  115.7
2173 292545.000   1159578.3277  -4706158.7360   4132205.0719   1   9   0.0055   0.0098   0.0074  -0.0055  -0.0066   0.0034   0.00  117.1
2173 292546.000   1159578.3280  -4706158.7369   4132205.0713   1   9   0.0052   0.0097   0.0073  -0.0055  -0.0067   0.0037   0.00  118.3
2173 292547.000   1159578.3280  -4706158.7364   4132205.0674   1   9   0.0046   0.0097   0.0074  -0.0057  -0.0068   0.0030   0.00  119.7
2173 292548.000   1159578.3298  -4706158.7368   4132205.0703   1   9   0.0046   0.0098   0.0074  -0.0053  -0.0067   0.0036   0.00  121.4
2173 292549.000   1159578.3270  -4706158.7352   4132205.0674   1   9   0.0055   0.0098   0.0074  -0.0054  -0.0067   0.0034   0.00  122.4
2173 292550.000   1159578.3290  -4706158.7365   4132205.0711   1   9   0.0054   0.0097   0.0073  -0.0054  -0.0067   0.0036   0.00  123.7
2173 292551.000   1159578.3262  -4706158.7301   4132205.0656   1   9   0.0048   0.0098   0.0076  -0.0054  -0.0066   0.0036   0.00  124.9
2173 292552.000   1159578.3288  -4706158.7352   4132205.0676   1   9   0.0055   0.0097   0.0073  -0.0055  -0.0067   0.0034   0.00  125.9
2173 292553.000   1159578.3281  -4706158.7385   4132205.0724   1   9   0.0050   0.0097   0.0074  -0.0054  -0.0068   0.0037   0.00  127.0
2173 292554.000   1159578.3276  -4706158.7394   4132205.0731   1   9   0.0048   0.0097   0.0072  -0.0056  -0.0068   0.0033   0.00  128.1
2173 292555.000   1159578.3302  -4706158.7432   4132205.0742   1   9   0.0045   0.0097   0.0073  -0.0054  -0.0067   0.0037   0.00  129.5
2173 292556.000   1159578.3274  -4706158.7390   4132205.0738   1   9   0.0048   0.0098   0.0075  -0.0051  -0.0066   0.0039   0.00  130.6
2173 292557.000   1159578.3270  -4706158.7379   4132205.0708   1   9   0.0050   0.0098   0.0072  -0.0054  -0.0067   0.0034   0.00  132.3
2173 292558.000   1159578.3264  -4706158.7380   4132205.0727   1   9   0.0054   0.0097   0.0071  -0.0055  -0.0068   0.0026   0.00  133.8
2173 292559.000   1159578.3315  -4706158.7426   4132205.0740   1   9   0.0048   0.0097   0.0072  -0.0055  -0.0068   0.0031   0.00  134.5
2173 292560.000   1159578.3288  -4706158.7405   4132205.0725   1   9   0.0052   0.0098   0.0073  -0.0055  -0.0067   0.0034   0.00  135.6
2173 292561.000   1159578.3283  -4706158.7383   4132205.0712   1   9   0.0049   0.0097   0.0073  -0.0054  -0.0067   0.0037   0.00  136.9
2173 292562.000   1159578.3275  -4706158.7411   4132205.0747   1   9   0.0055   0.0097   0.0073  -0.0054  -0.0067   0.0037   0.00  137.9
2173 292563.000   1159578.3253  -4706158.7387   4132205.0714   1   9   0.0055   0.0097   0.0074  -0.0057  -0.0067   0.0035   0.00  139.5
2173 292564.000   1159578.3254  -4706158.7352   4132205.0687   1   9   0.0057   0.0098   0.0074  -0.0057  -0.0067   0.0032   0.00  141.1
2173 292565.000   1159578.3260  -4706158.7330   4132205.0682   1   9   0.0046   0.0098   0.0073  -0.0056  -0.0066   0.0031   0.00  142.0
2173 292566.000   1159578.3278  -4706158.7378   4132205.0718   1   9   0.0050   0.0097   0.0073  -0.0055  -0.0068   0.0042   0.00  143.1
2173 292567.000   1159578.3267  -4706158.7335   4132205.0689   1   9   0.0049   0.0097   0.0075  -0.0054  -0.0066   0.0035   0.00  144.3
2173 292568.000   1159578.3267  -4706158.7359   4132205.0722   1   9   0.0042   0.0097   0.0072  -0.0053  -0.0069   0.0037   0.00  145.4
2173 292569.000   1159578.3270  -4706158.7383   4132205.0769   1   9   0.0049   0.0098   0.0074  -0.0056  -0.0066   0.0033   0.00  147.1
2173 292570.000   1159578.3284  -4706158.7400   4132205.0764   1   9   0.0052   0.0098   0.0074  -0.0052  -0.0065   0.0042   0.00  147.8
2173 292571.000   1159578.3294  -4706158.7397   4132205.0764   1   9   0.0046   0.0097   0.0070  -0.0057  -0.0069   0.0034   0.00  148.6
2173 292572.000   1159578.3269  -4706158.7351   4132205.0720   1   9   0.0054   0.0097   0.0072  -0.0056  -0.0067   0.0033   0.00  148.2
2173 292573.000   1159578.3262  -4706158.7352   4132205.0730   1   9   0.0051   0.0097   0.0073  -0.0054  -0.0067   0.0037   0.00  148.8
2173 292574.000   1159578.3269  -4706158.7383   4132205.0730   1   9   0.0051   0.0098   0.0070  -0.0055  -0.0068   0.0034   0.00  149.3
2173 292575.000   1159578.3286  -4706158.7393   4132205.0715   1   9   0.0049   0.0098   0.0072  -0.0058  -0.0067   0.0026   0.00  149.2
2173 292576.000   1159578.3307  -4706158.7417   4132205.0735   1   9   0.0046   0.0098   0.0072  -0.0055  -0.0068   0.0033   0.00  150.1
2173 292577.000   1159578.3288  -4706158.7392   4132205.0732   1   9   0.0046   0.0098   0.0074  -0.0055  -0.0067   0.0035   0.00  151.0
2173 292578.000   1159578.3271  -4706158.7397   4132205.0717   1   9   0.0049   0.0098   0.0074  -0.0054  -0.0067   0.0035   0.00  151.0
2173 292579.000   1159578.3276  -4706158.7395   4132205.0758   1   9   0.0051   0.0097   0.0071  -0.0057  -0.0068   0.0037   0.00  151.2
2173 292580.000   1159578.3277  -4706158.7403   4132205.0731   1   9   0.0044   0.0098   0.0074  -0.0054  -0.0067   0.0036   0.00  152.0
2173 292581.000   1159578.3269  -4706158.7382   4132205.0744   1   9   0.0050   0.0098   0.0072  -0.0056  -0.0068   0.0032   0.00  152.8
2173 292582.000   1159578.3282  -4706158.7396   4132205.0745   1   9   0.0037   0.0097   0.0073  -0.0054  -0.0068   0.0035   0.00  153.5
2173 292583.000   1159578.3304  -4706158.7407   4132205.0731   1   9   0.0048   0.0098   0.0075  -0.0054  -0.0066   0.0038   0.00  153.4
2173 292584.000   1159578.3289  -4706158.7417   4132205.0757   1   9   0.0051   0.0098   0.0072  -0.0057  -0.0068   0.0032   0.00  153.9
2173 292585.000   1159578.3276  -4706158.7381   4132205.0718   1   9   0.0054   0.0097   0.0073  -0.0057  -0.0067   0.0030   0.00  155.0
2173 292586.000   1159578.3292  -4706158.7408   4132205.0722   1   9   0.0047   0.0097   0.0071  -0.0058  -0.0068   0.0029   0.00  155.4
2173 292587.000   1159578.3305  -4706158.7424   4132205.0705   1   9   0.0049   0.0097   0.0073  -0.0057  -0.0068   0.0031   0.00  155.1
2173 292588.000   1159578.3293  -4706158.7401   4132205.0729   1   9   0.0050   0.0097   0.0074  -0.0057  -0.0068   0.0031   0.00  155.7
2173 292589.000   1159578.3287  -4706158.7389   4132205.0710   1   9   0.0043   0.0097   0.0074  -0.0055  -0.0067   0.0035   0.00  156.2
2173 292590.000   1159578.3297  -4706158.7390   4132205.0699   1   9   0.0042   0.0098   0.0072  -0.0054  -0.0067   0.0035   0.00  156.9
2173 292591.000   1159578.3303  -4706158.7418   4132205.0718   1   9   0.0039   0.0098   0.0074  -0.0052  -0.0067   0.0042   0.00  157.8
2173 292592.000   1159578.3313  -4706158.7406   4132205.0675   1   9   0.0058   0.0098   0.0073  -0.0057  -0.0067   0.0030   0.00  158.2
2173 292593.000   1159578.3321  -4706158.7431   4132205.0739   1   9   0.0046   0.0098   0.0074  -0.0055  -0.0067   0.0034   0.00  158.2
2173 292594.000   1159578.3308  -4706158.7423   4132205.0730   1   9   0.0042   0.0098   0.0074  -0.0055  -0.0066   0.0036   0.00  158.5
2173 292595.000   1159578.3312  -4706158.7430   4132205.0729   1   9   0.0050   0.0098   0.0076  -0.0054  -0.0066   0.0036   0.00  159.1
2173 292596.000   1159578.3294  -4706158.7418   4132205.0738   1   9   0.0055   0.0097   0.0074  -0.0055  -0.0067   0.0033   0.00  159.4
2173 292597.000   1159578.3328  -4706158.7472   4132205.0768   1   9   0.0040   0.0098   0.0073  -0.0056  -0.0069   0.0033   0.00  159.5
2173 292598.000   1159578.3308  -4706158.7416   4132205.0756   1   9   0.0040   0.0098   0.0073  -0.0053  -0.0067   0.0038   0.00  159.7
2173 292599.000   1159578.3317  -4706158.7474   4132205.0758   1   9   0.0053   0.0098   0.0073  -0.0054  -0.0067   0.0038   0.00  159.6
2173 292600.000   1159578.3295  -4706158.7419   4132205.0742   1   9   0.0056   0.0098   0.0074  -0.0056  -0.0066   0.0034   0.00  161.1
2173 292601.000   1159578.3307  -4706158.7432   4132205.0762   1   9   0.0052   0.0098   0.0074  -0.0056  -0.0067   0.0037   0.00  161.8
2173 292602.000   1159578.3291  -4706158.7408   4132205.0752   1   9   0.0054   0.0097   0.0075  -0.0056  -0.0067   0.0033   0.00  162.2
2173 292603.000   1159578.3335  -4706158.7444   4132205.0730   1   9   0.0054   0.0097   0.0073  -0.0059  -0.0068   0.0029   0.00  162.3
2173 292604.000   1159578.3344  -4706158.7435   4132205.0770   1   9   0.0050   0.0098   0.0072  -0.0056  -0.0067   0.0036   0.00  162.3
2173 292605.000   1159578.3321  -4706158.7431   4132205.0728   1   9   0.0046   0.0098   0.0073  -0.0056  -0.0068   0.0036   0.00  161.9
2173 292606.000   1159578.3317  -4706158.7407   4132205.0719   1   9   0.0045   0.0097   0.0072  -0.0056  -0.0068   0.0034   0.00  162.0
2173 292607.000   1159578.3341  -4706158.7467   4132205.0750   1   9   0.0054   0.0098   0.0073  -0.0054  -0.0067   0.0037   0.00  161.6
2173 292608.000   1159578.3318  -4706158.7411   4132205.0732   1   9   0.0048   0.0098   0.0073  -0.0056  -0.0067   0.0037   0.00  161.9
2173 292609.000   1159578.3341  -4706158.7442   4132205.0740   1   9   0.0050   0.0098   0.0073  -0.0058  -0.0067   0.0029   0.00  161.7
2173 292610.000   1159578.3330  -4706158.7446   4132205.0756   1   9   0.0052   0.0098   0.0075  -0.0055  -0.0067   0.0037   0.00  161.5
2173 292611.000   1159578.3325  -4706158.7439   4132205.0735   1   9   0.0039   0.0098   0.0074  -0.0055  -0.0068   0.0039   0.00  161.5
2173 292612.000   1159578.3325  -4706158.7412   4132205.0776   1   9   0.0058   0.0098   0.0073  -0.0057  -0.0066   0.0029   0.00  162.2
2173 292613.000   1159578.3307  -4706158.7376   4132205.0735   1   9   0.0051   0.0097   0.0070  -0.0058  -0.0068   0.0031   0.00  162.2
2173 292614.000   1159578.3323  -4706158.7353   4132205.0707   1   9   0.0046   0.0098   0.0072  -0.0055  -0.0067   0.0032   0.00  162.0
2173 292615.000   1159578.3333  -4706158.7405   4132205.0738   1   9   0.0044   0.0098   0.0073  -0.0054  -0.0067   0.0040   0.00  162.1
2173 292616.000   1159578.3326  -4706158.7412   4132205.0770   1   9   0.0057   0.0098   0.0073  -0.0057  -0.0068   0.0037   0.00  162.4
2173 292617.000   1159578.3303  -4706158.7363   4132205.0745   1   9   0.0055   0.0098   0.0073  -0.0054  -0.0066   0.0035   0.00  162.5
2173 292618.000   1159578.3297  -4706158.7368   4132205.0748   1   9   0.0051   0.0097   0.0074  -0.0056  -0.0067   0.0033   0.00  162.9
2173 292619.000   1159578.3319  -4706158.7438   4132205.0761   1   9   0.0049   0.0098   0.0073  -0.0058  -0.0067   0.0034   0.00  163.0
2173 292620.000   1159578.3303  -4706158.7409   4132205.0740   1   9   0.0051   0.0098   0.0072  -0.0054  -0.0067   0.0038   0.00  163.0
2173 292621.000   1159578.3305  -4706158.7390   4132205.0755   1   9   0.0053   0.0098   0.0072  -0.0059  -0.0068   0.0024   0.00  162.9
2173 292622.000   1159578.3332  -4706158.7416   4132205.0746   1   9   0.0045   0.0098   0.0071  -0.0054  -0.0068   0.0032   0.00  161.8
2173 292623.000   1159578.3320  -4706158.7414   4132205.0747   1   9   0.0054   0.0099   0.0074  -0.0054  -0.0066   0.0037   0.00  160.8
2173 292624.000   1159578.3318  -4706158.7424   4132205.0766   1   9   0.0051   0.0098   0.0073  -0.0056  -0.0067   0.0036   0.00  160.4
2173 292625.000   1159578.3327  -4706158.7444   4132205.0764   1   9   0.0039   0.0098   0.0071  -0.0054  -0.0069   0.0037   0.00  160.1
2173 292626.000   1159578.3329  -4706158.7400   4132205.0761   1   9   0.0052   0.0098   0.0073  -0.0055  -0.0067   0.0037   0.00  159.8
2173 292627.000   1159578.3340  -4706158.7457   4132205.0768   1   9   0.0057   0.0098   0.0075  -0.0057  -0.0067   0.0033   0.00  158.8
2173 292628.000   1159578.3305  -4706158.7400   4132205.0727   1   9   0.0053   0.0098   0.0072  -0.0056  -0.0067   0.0030   0.00  158.4
2173 292629.000   1159578.3344  -4706158.7482   4132205.0788   1   9   0.0049   0.0098   0.0072  -0.0056  -0.0068   0.0038   0.00  157.7
2173 292630.000   1159578.3299  -4706158.7396   4132205.0728   1   9   0.0049   0.0098   0.0073  -0.0056  -0.0067   0.0035   0.00  157.4
2173 292631.000   1159578.3342  -4706158.7450   4132205.0778   1   9   0.0044   0.0098   0.0074  -0.0054  -0.0067   0.0038   0.00  157.3
2173 292632.000   1159578.3343  -4706158.7456   4132205.0766   1   9   0.0052   0.0098   0.0072  -0.0056  -0.0067   0.0027   0.00  156.6
2173 292633.000   1159578.3335  -4706158.7402   4132205.0746   1   9   0.0052   0.0098   0.0073  -0.0055  -0.0067   0.0038   0.00  156.6
2173 292634.000   1159578.3333  -4706158.7391   4132205.0736   1   9   0.0049   0.0099   0.0072  -0.0054  -0.0067   0.0034   0.00  156.9
2173 292635.000   1159578.3314  -4706158.7420   4132205.0744   1   9   0.0046   0.0098   0.0072  -0.0056  -0.0068   0.0036   0.00  157.3
2173 292636.000   1159578.3339  -4706158.7443   4132205.0761   1   9   0.0050   0.0098   0.0071  -0.0056  -0.0068   0.0034   0.00  157.5
2173 292637.000   1159578.3319  -4706158.7448   4132205.0789   1   9   0.0050   0.0099   0.0072  -0.0054  -0.0067   0.0034   0.00  157.7
2173 292638.000   1159578.3342  -4706158.7461   4132205.0777   1   9   0.0051   0.0098   0.0073  -0.0056  -0.0067   0.0034   0.00  157.8
2173 292639.000   1159578.3322  -4706158.7425   4132205.0739   1   9   0.0054   0.0098   0.0072  -0.0056  -0.0068   0.0034   0.00  157.4
2173 292640.000   1159578.3335  -4706158.7447   4132205.0759   1   9   0.0052   0.0099   0.0074  -0.0057  -0.0066   0.0033   0.00  157.1
2173 292641.000   1159578.3352  -4706158.7456   4132205.0790   1   9   0.0048   0.0098   0.0071  -0.0057  -0.0069   0.0035   0.00  157.4
2173 292642.000   1159578.3328  -4706158.7385   4132205.0762   1   9   0.0058   0.0098   0.0072  -0.0056  -0.0067   0.0028   0.00  157.6
2173 292643.000   1159578.3313  -4706158.7422   4132205.0792   1   9   0.0052   0.0098   0.0072  -0.0057  -0.0068   0.0036   0.00  158.5
2173 292644.000   1159578.3337  -4706158.7406   4132205.0758   1   9   0.0048   0.0099   0.0072  -0.0052  -0.0067   0.0036   0.00  158.7
2173 292645.000   1159578.3311  -4706158.7355   4132205.0754   1   9   0.0051   0.0098   0.0072  -0.0055  -0.0068   0.0037   0.00  159.5
2173 292646.000   1159578.3340  -4706158.7440   4132205.0786   1   9   0.0057   0.0099   0.0074  -0.0058  -0.0065   0.0033   0.00  160.4
2173 292647.000   1159578.3339  -4706158.7447   4132205.0803   1   9   0.0061   0.0098   0.0072  -0.0057  -0.0067   0.0028   0.00  161.1
2173 292648.000   1159578.3352  -4706158.7485   4132205.0800   1   9   0.0048   0.0098   0.0071  -0.0057  -0.0068   0.0031   0.00  160.7
2173 292649.000   1159578.3368  -4706158.7489   4132205.0770   1   9   0.0049   0.0098   0.0072  -0.0055  -0.0067   0.0031   0.00  161.4
2173 292650.000   1159578.3359  -4706158.7460   4132205.0781   1   9   0.0048   0.0098   0.0074  -0.0055  -0.0067   0.0038   0.00  161.9
2173 292651.000   1159578.3314  -4706158.7384   4132205.0762   1   9   0.0046   0.0099   0.0074  -0.0055  -0.0067   0.0033   0.00  162.5
2173 292652.000   1159578.3337  -4706158.7451   4132205.0802   1   9   0.0052   0.0099   0.0073  -0.0057  -0.0066   0.0032   0.00  162.2
2173 292653.000   1159578.3337  -4706158.7436   4132205.0799   1   9   0.0050   0.0099   0.0073  -0.0056  -0.0066   0.0032   0.00  163.2
2173 292654.000   1159578.3364  -4706158.7453   4132205.0759   1   9   0.0051   0.0099   0.0071  -0.0054  -0.0067   0.0028   0.00  162.9
2173 292655.000   1159578.3345  -4706158.7425   4132205.0737   1   9   0.0050   0.0098   0.0070  -0.0054  -0.0068   0.0036   0.00  163.0
2173 292656.000   1159578.3365  -4706158.7459   4132205.0750   1   9   0.0049   0.0098   0.0073  -0.0056  -0.0066   0.0035   0.00  164.3
2173 292657.000   1159578.3332  -4706158.7407   4132205.0741   1   9   0.0045   0.0098   0.0073  -0.0057  -0.0067   0.0033   0.00  165.8
2173 292658.000   1159578.3349  -4706158.7463   4132205.0791   1   9   0.0047   0.0098   0.0073  -0.0056  -0.0067   0.0032   0.00  167.1
2173 292659.000   1159578.3344  -4706158.7438   4132205.0762   1   9   0.0044   0.0098   0.0070  -0.0053  -0.0067   0.0040   0.00  167.9
2173 292660.000   1159578.3344  -4706158.7427   4132205.0781   1   9   0.0053   0.0098   0.0073  -0.0056  -0.0067   0.0035   0.00  168.6
2173 292661.000   1159578.3355  -4706158.7448   4132205.0794   1   9   0.0054   0.0098   0.0072  -0.0057  -0.0067   0.0029   0.00  169.3
2173 292662.000   1159578.3327  -4706158.7442   4132205.0799   1   9   0.0053   0.0098   0.0074  -0.0056  -0.0067   0.0037   0.00  170.0
2173 292663.000   1159578.3321  -4706158.7414   4132205.0757   1   9   0.0054   0.0098   0.0072  -0.0057  -0.0067   0.0033   0.00  170.4
2173 292664.000   1159578.3335  -4706158.7439   4132205.0789   1   9   0.0051   0.0098   0.0073  -0.0057  -0.0067   0.0036   0.00  171.8
2173 292665.000   1159578.3339  -4706158.7483   4132205.0848   1   9   0.0052   0.0098   0.0072  -0.0056  -0.0067   0.0037   0.00  172.9
2173 292666.000   1159578.3321  -4706158.7443   4132205.0790   1   9   0.0051   0.0097   0.0071  -0.0057  -0.0068   0.0035   0.00  173.6
2173 292667.000   1159578.3350  -4706158.7437   4132205.0803   1   9   0.0047   0.0099   0.0074  -0.0055  -0.0067   0.0038   0.00  173.9
2173 292668.000   1159578.3324  -4706158.7451   4132205.0803   1   9   0.0045   0.0098   0.0073  -0.0055  -0.0067   0.0038   0.00  174.3
2173 292669.000   1159578.3317  -4706158.7451   4132205.0802   1   9   0.0052   0.0098   0.0073  -0.0057  -0.0067   0.0031   0.00  174.8
2173 292670.000   1159578.3322  -4706158.7451   4132205.0796   1   9   0.0051   0.0098   0.0074  -0.0057  -0.0066   0.0032   0.00  174.1
2173 292671.000   1159578.3351  -4706158.7498   4132205.0836   1   9   0.0048   0.0099   0.0073  -0.0054  -0.0066   0.0040   0.00  174.8
2173 292672.000   1159578.3357  -4706158.7503   4132205.0830   1   9   0.0048   0.0098   0.0072  -0.0056  -0.0068   0.0039   0.00  174.2
2173 292673.000   1159578.3327  -4706158.7449   4132205.0812   1   9   0.0049   0.0099   0.0075  -0.0056  -0.0067   0.0038   0.00  173.9
2173 292674.000   1159578.3331  -4706158.7480   4132205.0812   1   9   0.0046   0.0099   0.0072  -0.0056  -0.0068   0.0033   0.00  173.3
2173 292675.000   1159578.3320  -4706158.7494   4132205.0837   1   9   0.0045   0.0099   0.0073  -0.0054  -0.0066   0.0041   0.00  172.5
2173 292676.000   1159578.3328  -4706158.7443   4132205.0772   1   9   0.0044   0.0099   0.0073  -0.0053  -0.0066   0.0038   0.00  171.7
2173 292677.000   1159578.3327  -4706158.7433   4132205.0798   1   9   0.0051   0.0099   0.0072  -0.0056  -0.0067   0.0032   0.00  171.0
2173 292678.000   1159578.3298  -4706158.7425   4132205.0784   1   9   0.0051   0.0099   0.0070  -0.0056  -0.0068   0.0032   0.00  170.7
2173 292679.000   1159578.3347  -4706158.7469   4132205.0779   1   9   0.0049   0.0098   0.0071  -0.0055  -0.0068   0.0038   0.00  170.7
2173 292680.000   1159578.3355  -4706158.7495   4132205.0798   1   9   0.0053   0.0098   0.0073  -0.0058  -0.0067   0.0031   0.00  169.9
2173 292681.000   1159578.3337  -4706158.7502   4132205.0836   1   9   0.0059   0.0100   0.0075  -0.0057  -0.0066   0.0035   0.00  169.8
2173 292682.000   1159578.3351  -4706158.7472   4132205.0789   1   9   0.0043   0.0098   0.0071  -0.0054  -0.0067   0.0032   0.00  170.0
2173 292683.000   1159578.3340  -4706158.7477   4132205.0781   1   9   0.0055   0.0099   0.0073  -0.0055  -0.0067   0.0034   0.00  169.1
2173 292684.000   1159578.3341  -4706158.7470   4132205.0787   1   9   0.0053   0.0099   0.0073  -0.0055  -0.0066   0.0037   0.00  167.9
2173 292685.000   1159578.3327  -4706158.7474   4132205.0787   1   9   0.0053   0.0099   0.0074  -0.0053  -0.0066   0.0041   0.00  168.4
2173 292686.000   1159578.3297  -4706158.7452   4132205.0778   1   9   0.0047   0.0098   0.0074  -0.0055  -0.0066   0.0043   0.00  168.6
2173 292687.000   1159578.3339  -4706158.7452   4132205.0772   1   9   0.0048   0.0098   0.0073  -0.0055  -0.0067   0.0038   0.00  167.7
2173 292688.000   1159578.3338  -4706158.7481   4132205.0810   1   9   0.0057   0.0098   0.0072  -0.0059  -0.0068   0.0026   0.00  167.4
2173 292689.000   1159578.3363  -4706158.7512   4132205.0820   1   9   0.0048   0.0099   0.0075  -0.0054  -0.0066   0.0037   0.00  167.4
2173 292690.000   1159578.3320  -4706158.7505   4132205.0833   1   9   0.0053   0.0099   0.0074  -0.0057  -0.0066   0.0037   0.00  167.1
2173 292691.000   1159578.3343  -4706158.7500   4132205.0806   1   9   0.0051   0.0099   0.0073  -0.0058  -0.0067   0.0035   0.00  166.9
2173 292692.000   1159578.3328  -4706158.7473   4132205.0798   1   9   0.0049   0.0099   0.0071  -0.0056  -0.0067   0.0036   0.00  166.2
2173 292693.000   1159578.3345  -4706158.7482   4132205.0826   1   9   0.0054   0.0098   0.0073  -0.0058  -0.0067   0.0035   0.00  165.4
2173 292694.000   1159578.3320  -4706158.7441   4132205.0807   1   9   0.0047   0.0098   0.0071  -0.0056  -0.0068   0.0035   0.00  164.5
2173 292695.000   1159578.3303  -4706158.7432   4132205.0810   1   9   0.0043   0.0098   0.0075  -0.0056  -0.0066   0.0038   0.00  164.4
2173 292696.000   1159578.3305  -4706158.7408   4132205.0748   1   9   0.0052   0.0098   0.0074  -0.0056  -0.0067   0.0036   0.00  163.5
2173 292697.000   1159578.3342  -4706158.7475   4132205.0823   1   9   0.0057   0.0099   0.0074  -0.0057  -0.0067   0.0029   0.00  163.1
2173 292698.000   1159578.3317  -4706158.7460   4132205.0798   1   9   0.0053   0.0099   0.0072  -0.0054  -0.0067   0.0037   0.00  162.8
2173 292699.000   1159578.3308  -4706158.7388   4132205.0755   1   9   0.0053   0.0099   0.0073  -0.0055  -0.0067   0.0041   0.00  162.6
2173 292700.000   1159578.3331  -4706158.7478   4132205.0826   1   9   0.0045   0.0099   0.0073  -0.0054  -0.0066   0.0035   0.00  162.0
2173 292701.000   1159578.3302  -4706158.7421   4132205.0777   1   9   0.0046   0.0099   0.0074  -0.0057  -0.0068   0.0034   0.00  161.1
2173 292702.000   1159578.3330  -4706158.7451   4132205.0782   1   9   0.0042   0.0099   0.0071  -0.0054  -0.0067   0.0036   0.00  159.9
2173 292703.000   1159578.3320  -4706158.7448   4132205.0799   1   9   0.0046   0.0099   0.0072  -0.0056  -0.0067   0.0035   0.00  159.5
2173 292704.000   1159578.3289  -4706158.7379   4132205.0754   1   9   0.0050   0.0099   0.0071  -0.0057  -0.0067   0.0037   0.00  158.3
2173 292705.000   1159578.3323  -4706158.7402   4132205.0753   1   9   0.0050   0.0098   0.0071  -0.0056  -0.0067   0.0039   0.00  156.9
2173 292706.000   1159578.3322  -4706158.7413   4132205.0782   1   9   0.0051   0.0098   0.0072  -0.0057  -0.0068   0.0038   0.00  155.4
2173 292707.000   1159578.3321  -4706158.7431   4132205.0785   1   9   0.0052   0.0099   0.0075  -0.0055  -0.0066   0.0040   0.00  154.5
2173 292708.000   1159578.3316  -4706158.7423   4132205.0775   1   9   0.0047   0.0099   0.0072  -0.0055  -0.0066   0.0035   0.00  153.7
2173 292709.000   1159578.3314  -4706158.7445   4132205.0780   1   9   0.0049   0.0099   0.0073  -0.0056  -0.0067   0.0038   0.00  152.9
2173 292710.000   1159578.3307  -4706158.7417   4132205.0772   1   9   0.0047   0.0099   0.0074  -0.0056  -0.0066   0.0036   0.00  151.8
2173 292711.000   1159578.3318  -4706158.7458   4132205.0786   1   9   0.0050   0.0099   0.0073  -0.0054  -0.0066   0.0038   0.00  151.2
2173 292712.000   1159578.3330  -4706158.7477   4132205.0784   1   9   0.0049   0.0098   0.0073  -0.0055  -0.0066   0.0040   0.00  150.6
2173 292713.000   1159578.3313  -4706158.7491   4132205.0821   1   9   0.0051   0.0098   0.0073  -0.0057  -0.0067   0.0038   0.00  149.5
2173 292714.000   1159578.3349  -4706158.7493   4132205.0814   1   9   0.0047   0.0099   0.0073  -0.0055  -0.0066   0.0035   0.00  148.7
2173 292715.000   1159578.3324  -4706158.7478   4132205.0786   1   9   0.0047   0.0098   0.0071  -0.0056  -0.0068   0.0034   0.00  147.9
2173 292716.000   1159578.3342  -4706158.7514   4132205.0848   1   9   0.0051   0.0099   0.0074  -0.0054  -0.0066   0.0042   0.00  146.9
2173 292717.000   1159578.3324  -4706158.7457   4132205.0791   1   9   0.0042   0.0098   0.0070  -0.0056  -0.0068   0.0036   0.00  145.3
2173 292718.000   1159578.3325  -4706158.7490   4132205.0823   1   9   0.0051   0.0099   0.0072  -0.0055  -0.0066   0.0038   0.00  144.6
2173 292719.000   1159578.3324  -4706158.7498   4132205.0841   1   9   0.0051   0.0098   0.0070  -0.0056  -0.0068   0.0034   0.00  143.7
2173 292720.000   1159578.3317  -4706158.7486   4132205.0822   1   9   0.0058   0.0099   0.0073  -0.0060  -0.0067   0.0031   0.00  142.9
2173 292721.000   1159578.3324  -4706158.7480   4132205.0836   1   9   0.0061   0.0099   0.0072  -0.0058  -0.0066   0.0026   0.00  141.9
2173 292722.000   1159578.3324  -4706158.7478   4132205.0834   1   9   0.0057   0.0099   0.0073  -0.0057  -0.0067   0.0037   0.00  140.4
2173 292723.000   1159578.3303  -4706158.7461   4132205.0832   1   9   0.0042   0.0099   0.0072  -0.0054  -0.0067   0.0043   0.00  139.4
2173 292724.000   1159578.3317  -4706158.7463   4132205.0814   1   9   0.0051   0.0098   0.0071  -0.0057  -0.0067   0.0030   0.00  138.4
2173 292725.000   1159578.3313  -4706158.7461   4132205.0823   1   9   0.0052   0.0098   0.0070  -0.0058  -0.0068   0.0033   0.00  137.6
2173 292726.000   1159578.3308  -4706158.7479   4132205.0837   1   9   0.0052   0.0099   0.0072  -0.0053  -0.0067   0.0038   0.00  136.7
2173 292727.000   1159578.3311  -4706158.7507   4132205.0855   1   9   0.0056   0.0098   0.0073  -0.0058  -0.0066   0.0031   0.00  135.7
2173 292728.000   1159578.3293  -4706158.7451   4132205.0839   1   9   0.0054   0.0099   0.0074  -0.0057  -0.0067   0.0039   0.00  134.8
2173 292729.000   1159578.3311  -4706158.7447   4132205.0807   1   9   0.0047   0.0100   0.0072  -0.0056  -0.0066   0.0038   0.00  133.3
2173 292730.000   1159578.3287  -4706158.7443   4132205.0812   1   9   0.0046   0.0098   0.0075  -0.0057  -0.0067   0.0040   0.00  132.5
2173 292731.000   1159578.3310  -4706158.7445   4132205.0806   1   9   0.0051   0.0099   0.0073  -0.0054  -0.0066   0.0036   0.00  131.6
2173 292732.000   1159578.3308  -4706158.7458   4132205.0814   1   9   0.0053   0.0099   0.0072  -0.0058  -0.0067   0.0025   0.00  130.5
2173 292733.000   1159578.3294  -4706158.7447   4132205.0800   1   9   0.0048   0.0099   0.0073  -0.0056  -0.0067   0.0041   0.00  129.5
2173 292734.000   1159578.3336  -4706158.7503   4132205.0854   1   9   0.0045   0.0098   0.0071  -0.0057  -0.0068   0.0034   0.00  128.2
2173 292735.000   1159578.3293  -4706158.7455   4132205.0818   1   9   0.0050   0.0099   0.0070  -0.0057  -0.0068   0.0035   0.00  127.2
2173 292736.000   1159578.3287  -4706158.7460   4132205.0832   1   9   0.0054   0.0100   0.0074  -0.0055  -0.0066   0.0041   0.00  126.6
2173 292737.000   1159578.3310  -4706158.7465   4132205.0846   1   9   0.0047   0.0099   0.0073  -0.0058  -0.0067   0.0030   0.00  125.5
2173 292738.000   1159578.3292  -4706158.7470   4132205.0814   1   9   0.0048   0.0098   0.0069  -0.0059  -0.0070   0.0029   0.00  124.5
2173 292739.000   1159578.3290  -4706158.7465   4132205.0807   1   9   0.0049   0.0100   0.0073  -0.0057  -0.0066   0.0035   0.00  123.8
2173 292740.000   1159578.3289  -4706158.7425   4132205.0801   1   9   0.0047   0.0099   0.0070  -0.0056  -0.0067   0.0035   0.00  122.8
2173 292741.000   1159578.3304  -4706158.7446   4132205.0807   1   9   0.0044   0.0099   0.0073  -0.0053  -0.0067   0.0043   0.00  121.6
2173 292742.000   1159578.3300  -4706158.7451   4132205.0819   1   9   0.0050   0.0098   0.0072  -0.0058  -0.0069   0.0034   0.00  120.5
2173 292743.000   1159578.3291  -4706158.7426   4132205.0837   1   9   0.0054   0.0100   0.0073  -0.0057  -0.0067   0.0033   0.00  119.3
2173 292744.000   1159578.3311  -4706158.7466   4132205.0861   1   9   0.0056   0.0100   0.0074  -0.0057  -0.0066   0.0034   0.00  118.2
2173 292745.000   1159578.3305  -4706158.7450   4132205.0826   1   9   0.0052   0.0099   0.0070  -0.0056  -0.0068   0.0036   0.00  117.0
2173 292746.000   1159578.3308  -4706158.7443   4132205.0836   1   9   0.0056   0.0099   0.0073  -0.0057  -0.0067   0.0034   0.00  115.8
