% program   : rnx2rtkp ver.2.4.3 b31
% inp file  : ngs/21_08_29_06_17_07_wihu.obs
% inp file  : ngs/21_08_29_06_17_07_wihu_SW.obs
% inp file  : ngs/21_08_29_06_17_07_brdc.nav
% obs start : 2021/08/29 06:00:00.0 GPST (week2173  21600.0s)
% obs end   : 2021/08/29 06:59:59.0 GPST (week2173  25199.0s)
% ref pos   :  -209101.3917  -4586024.7361   4412982.4301
%
% (x/y/z-ecef=WGS84,Q=1:fix,2:float,3:sbas,4:dgps,5:single,6:ppp,ns=# of satellites)
%  GPST              x-ecef(m)      y-ecef(m)      z-ecef(m)   Q  ns   sdx(m)   sdy(m)   sdz(m)  sdxy(m)  sdyz(m)  sdzx(m) age(s)  ratio
2173  22602.000   -205922.6142  -4516298.9489   4484349.7965   2   6   0.5076   1.2086   1.0734   0.4859  -1.0116  -0.3793 -30.00    1.0
2173  22603.000   -205922.7457  -4516299.2215   4484350.1434   2   6   0.3607   0.8597   0.7634   0.3450  -0.7195  -0.2694 -29.00    1.1
2173  22604.000   -205922.7885  -4516299.2232   4484350.0775   2   6   0.2953   0.7038   0.6249   0.2824  -0.5891  -0.2206 -28.00    1.0
2173  22605.000   -205922.8638  -4516299.2260   4484350.0924   2   6   0.2563   0.6106   0.5420   0.2450  -0.5110  -0.1914 -27.00    1.1
2173  22606.000   -205922.8468  -4516299.2206   4484350.1642   2   6   0.2295   0.5469   0.4854   0.2195  -0.4576  -0.1714 -26.00    1.1
2173  22607.000   -205922.8151  -4516299.2334   4484350.1765   2   6   0.2098   0.4997   0.4434   0.2006  -0.4181  -0.1567 -25.00    1.0
2173  22608.000   -205922.7929  -4516299.2045   4484350.1875   2   6   0.1944   0.4630   0.4108   0.1859  -0.3874  -0.1452 -24.00    1.1
2173  22609.000   -205922.8656  -4516299.2820   4484350.2414   2   6   0.1820   0.4334   0.3844   0.1740  -0.3625  -0.1359 -23.00    1.0
2173  22610.000   -205922.8697  -4516299.2932   4484350.2603   2   6   0.1717   0.4087   0.3625   0.1641  -0.3419  -0.1282 -22.00    1.1
2173  22611.000   -205922.8937  -4516299.3160   4484350.3232   2   6   0.1629   0.3879   0.3440   0.1557  -0.3244  -0.1216 -21.00    1.1
2173  22612.000   -205922.8954  -4516299.3139   4484350.3284   2   6   0.1553   0.3698   0.3280   0.1485  -0.3093  -0.1160 -20.00    1.2
2173  22613.000   -205922.9101  -4516299.3022   4484350.3348   2   6   0.1487   0.3541   0.3139   0.1421  -0.2961  -0.1110 -19.00    1.2
2173  22614.000   -205922.9337  -4516299.3271   4484350.3769   2   6   0.1429   0.3402   0.3016   0.1365  -0.2845  -0.1066 -18.00    1.2
2173  22615.000   -205922.9422  -4516299.3179   4484350.4077   2   6   0.1376   0.3277   0.2905   0.1315  -0.2741  -0.1027 -17.00    1.1
2173  22616.000   -205922.9505  -4516299.2932   4484350.4127   2   6   0.1329   0.3165   0.2805   0.1269  -0.2647  -0.0992 -16.00    1.1
2173  22617.000   -205922.9621  -4516299.3509   4484350.4745   2   6   0.1286   0.3064   0.2715   0.1228  -0.2562  -0.0960 -15.00    1.2
2173  22618.000   -205922.9606  -4516299.3700   4484350.4920   2   6   0.1247   0.2971   0.2632   0.1190  -0.2484  -0.0930 -14.00    1.1
2173  22619.000   -205922.9559  -4516299.3657   4484350.5021   2   6   0.1211   0.2886   0.2557   0.1156  -0.2413  -0.0903 -13.00    1.1
2173  22620.000   -205922.9599  -4516299.3892   4484350.5286   2   6   0.1178   0.2808   0.2487   0.1124  -0.2347  -0.0879 -12.00    1.1
2173  22621.000   -205922.9546  -4516299.3979   4484350.5564   2   6   0.1148   0.2735   0.2422   0.1094  -0.2286  -0.0856 -11.00    1.1
2173  22622.000   -205922.9540  -4516299.4178   4484350.5710   2   6   0.1119   0.2668   0.2362   0.1067  -0.2229  -0.0834 -10.00    1.1
2173  22623.000   -205922.9627  -4516299.4359   4484350.5918   2   6   0.1093   0.2605   0.2306   0.1041  -0.2177  -0.0814  -9.00    1.0
2173  22624.000   -205922.9645  -4516299.4336   4484350.5944   2   6   0.1068   0.2546   0.2253   0.1017  -0.2127  -0.0795  -8.00    1.0
2173  22625.000   -205922.9703  -4516299.4438   4484350.6170   2   6   0.1045   0.2491   0.2204   0.0995  -0.2081  -0.0778  -7.00    1.1
2173  22626.000   -205922.9769  -4516299.4526   4484350.6249   2   6   0.1023   0.2439   0.2158   0.0973  -0.2037  -0.0761  -6.00    1.1
2173  22627.000   -205922.9733  -4516299.4461   4484350.6260   2   6   0.1003   0.2390   0.2114   0.0954  -0.1996  -0.0746  -5.00    1.2
2173  22628.000   -205922.9782  -4516299.4593   4484350.6395   2   6   0.0983   0.2344   0.2073   0.0935  -0.1957  -0.0731  -4.00    1.3
2173  22629.000   -205922.9849  -4516299.4771   4484350.6431   2   6   0.0965   0.2301   0.2034   0.0917  -0.1920  -0.0717  -3.00    1.3
2173  22630.000   -205922.9925  -4516299.4875   4484350.6457   2   6   0.0948   0.2259   0.1997   0.0901  -0.1886  -0.0704  -2.00    1.4
2173  22631.000   -205923.0029  -4516299.5008   4484350.6453   2   6   0.0932   0.2220   0.1961   0.0885  -0.1852  -0.0692  -1.00    1.4
2173  22632.000   -205922.9978  -4516299.4810   4484350.6309   2   6   0.0917   0.2183   0.1928   0.0870  -0.1821  -0.0681   0.00    1.3
2173  22633.000   -205923.0058  -4516299.4964   4484350.6412   2   6   0.0902   0.2148   0.1897   0.0856  -0.1791  -0.0669   0.00    1.3
2173  22634.000   -205923.0158  -4516299.5146   4484350.6446   2   7   0.0880   0.2086   0.1855   0.0816  -0.1743  -0.0639   0.00    1.4
2173  22635.000   -205923.0311  -4516299.5492   4484350.6521   2   7   0.0858   0.2028   0.1817   0.0779  -0.1698  -0.0611   0.00    1.3
2173  22636.000   -205923.0373  -4516299.5738   4484350.6720   2   7   0.0839   0.1976   0.1781   0.0747  -0.1657  -0.0587   0.00    1.2
2173  22637.000   -205923.0400  -4516299.5867   4484350.6776   2   7   0.0821   0.1928   0.1747   0.0717  -0.1619  -0.0564   0.00    1.2
2173  22638.000   -205923.0506  -4516299.5895   4484350.6770   2   7   0.0805   0.1883   0.1716   0.0690  -0.1584  -0.0543   0.00    1.1
2173  22639.000   -205923.0645  -4516299.5950   4484350.6772   2   7   0.0789   0.1842   0.1686   0.0665  -0.1551  -0.0524   0.00    1.0
2173  22640.000   -205923.0681  -4516299.5886   4484350.6631   2   7   0.0775   0.1803   0.1657   0.0641  -0.1520  -0.0506   0.00    1.0
2173  22641.000   -205923.0705  -4516299.5768   4484350.6509   2   7   0.0761   0.1767   0.1630   0.0620  -0.1490  -0.0490   0.00    1.0
2173  22642.000   -205923.0773  -4516299.5931   4484350.6566   2   7   0.0748   0.1732   0.1604   0.0600  -0.1462  -0.0475   0.00    1.1
2173  22643.000   -205923.0791  -4516299.5903   4484350.6508   2   7   0.0736   0.1700   0.1579   0.0581  -0.1436  -0.0460   0.00    1.1
2173  22644.000   -205923.0843  -4516299.5908   4484350.6441   2   7   0.0724   0.1669   0.1555   0.0563  -0.1411  -0.0447   0.00    1.1
2173  22645.000   -205923.0914  -4516299.6097   4484350.6550   2   7   0.0714   0.1640   0.1532   0.0546  -0.1387  -0.0434   0.00    1.2
2173  22646.000   -205923.0936  -4516299.6219   4484350.6752   2   7   0.0703   0.1613   0.1510   0.0531  -0.1364  -0.0423   0.00    1.2
2173  22647.000   -205923.0988  -4516299.6366   4484350.6924   2   7   0.0693   0.1586   0.1489   0.0517  -0.1342  -0.0411   0.00    1.3
2173  22648.000   -205923.1049  -4516299.6402   4484350.6925   2   7   0.0683   0.1561   0.1469   0.0503  -0.1321  -0.0400   0.00    1.3
2173  22649.000   -205923.1040  -4516299.6286   4484350.6827   2   7   0.0674   0.1537   0.1448   0.0490  -0.1301  -0.0390   0.00    1.4
2173  22650.000   -205923.1036  -4516299.6319   4484350.6780   2   7   0.0665   0.1514   0.1429   0.0477  -0.1282  -0.0381   0.00    1.4
2173  22651.000   -205923.1033  -4516299.6204   4484350.6592   2   7   0.0657   0.1492   0.1410   0.0465  -0.1263  -0.0372   0.00    1.4
2173  22652.000   -205923.1000  -4516299.6104   4484350.6427   2   7   0.0649   0.1470   0.1392   0.0454  -0.1245  -0.0364   0.00    1.4
2173  22653.000   -205923.1022  -4516299.6013   4484350.6272   2   7   0.0641   0.1450   0.1374   0.0444  -0.1228  -0.0355   0.00    1.5
2173  22654.000   -205923.1037  -4516299.6005   4484350.6218   2   7   0.0634   0.1430   0.1357   0.0433  -0.1211  -0.0347   0.00    1.5
2173  22655.000   -205923.1038  -4516299.5967   4484350.6122   2   7   0.0626   0.1411   0.1341   0.0424  -0.1194  -0.0340   0.00    1.5
2173  22656.000   -205923.1042  -4516299.6005   4484350.6111   2   7   0.0619   0.1393   0.1324   0.0415  -0.1178  -0.0332   0.00    1.5
2173  22657.000   -205923.1006  -4516299.6009   4484350.6065   2   7   0.0613   0.1375   0.1308   0.0405  -0.1163  -0.0325   0.00    1.5
2173  22658.000   -205923.0985  -4516299.6137   4484350.6163   2   7   0.0606   0.1358   0.1292   0.0397  -0.1148  -0.0318   0.00    1.6
2173  22659.000   -205923.1005  -4516299.6276   4484350.6272   2   7   0.0600   0.1341   0.1277   0.0389  -0.1133  -0.0312   0.00    1.6
2173  22660.000   -205923.1044  -4516299.6452   4484350.6425   2   7   0.0594   0.1325   0.1262   0.0381  -0.1119  -0.0306   0.00    1.6
2173  22661.000   -205923.1046  -4516299.6649   4484350.6603   2   7   0.0588   0.1310   0.1248   0.0373  -0.1105  -0.0301   0.00    1.6
2173  22662.000   -205923.1031  -4516299.6635   4484350.6612   2   7   0.0582   0.1294   0.1233   0.0366  -0.1092  -0.0294   0.00    1.6
2173  22663.000   -205923.1053  -4516299.6764   4484350.6686   2   7   0.0577   0.1280   0.1219   0.0359  -0.1078  -0.0289   0.00    1.6
2173  22664.000   -205923.1098  -4516299.6856   4484350.6775   2   7   0.0571   0.1265   0.1205   0.0353  -0.1065  -0.0283   0.00    1.6
2173  22665.000   -205923.1065  -4516299.6823   4484350.6749   2   7   0.0566   0.1251   0.1192   0.0346  -0.1053  -0.0279   0.00    1.6
2173  22666.000   -205923.1069  -4516299.6763   4484350.6728   2   7   0.0561   0.1238   0.1179   0.0340  -0.1041  -0.0273   0.00    1.6
2173  22667.000   -205923.1108  -4516299.6518   4484350.6506   2   7   0.0556   0.1224   0.1166   0.0334  -0.1029  -0.0269   0.00    1.6
2173  22668.000   -205923.1130  -4516299.6355   4484350.6329   2   7   0.0551   0.1211   0.1153   0.0328  -0.1017  -0.0264   0.00    1.6
2173  22669.000   -205923.1139  -4516299.6228   4484350.6162   2   7   0.0547   0.1199   0.1140   0.0322  -0.1005  -0.0260   0.00    1.6
2173  22670.000   -205923.1111  -4516299.5871   4484350.5781   2   7   0.0542   0.1186   0.1128   0.0317  -0.0994  -0.0255   0.00    1.6
2173  22671.000   -205923.1095  -4516299.5645   4484350.5468   2   7   0.0538   0.1175   0.1116   0.0311  -0.0983  -0.0251   0.00    1.6
2173  22672.000   -205923.1095  -4516299.5291   4484350.4954   2   7   0.0533   0.1163   0.1104   0.0307  -0.0972  -0.0246   0.00    1.5
2173  22673.000   -205923.1126  -4516299.5042   4484350.4671   2   7   0.0529   0.1151   0.1092   0.0302  -0.0961  -0.0241   0.00    1.5
2173  22674.000   -205923.1137  -4516299.4753   4484350.4291   2   7   0.0525   0.1140   0.1081   0.0297  -0.0951  -0.0239   0.00    1.4
2173  22675.000   -205923.1129  -4516299.4406   4484350.3946   2   7   0.0520   0.1129   0.1069   0.0292  -0.0940  -0.0235   0.00    1.4
2173  22676.000   -205923.1125  -4516299.4128   4484350.3585   2   7   0.0517   0.1118   0.1058   0.0288  -0.0930  -0.0231   0.00    1.3
2173  22677.000   -205923.1126  -4516299.4045   4484350.3452   2   7   0.0513   0.1108   0.1047   0.0283  -0.0920  -0.0227   0.00    1.3
2173  22678.000   -205923.1101  -4516299.3890   4484350.3245   2   7   0.0509   0.1098   0.1036   0.0279  -0.0910  -0.0224   0.00    1.3
2173  22679.000   -205923.1099  -4516299.3552   4484350.2928   2   7   0.0505   0.1088   0.1026   0.0275  -0.0901  -0.0221   0.00    1.2
2173  22680.000   -205923.1042  -4516299.3392   4484350.2713   2   7   0.0502   0.1078   0.1015   0.0271  -0.0891  -0.0218   0.00    1.2
2173  22681.000   -205923.1037  -4516299.3250   4484350.2543   2   7   0.0498   0.1068   0.1004   0.0267  -0.0882  -0.0214   0.00    1.2
2173  22682.000   -205923.1088  -4516299.3118   4484350.2373   2   7   0.0495   0.1059   0.0994   0.0263  -0.0873  -0.0211   0.00    1.2
2173  22683.000   -205923.1073  -4516299.3003   4484350.2216   2   7   0.0492   0.1049   0.0984   0.0260  -0.0864  -0.0208   0.00    1.2
2173  22684.000   -205923.1092  -4516299.3054   4484350.2240   2   7   0.0488   0.1040   0.0974   0.0256  -0.0855  -0.0206   0.00    1.1
2173  22685.000   -205923.1136  -4516299.3085   4484350.2248   2   7   0.0485   0.1031   0.0964   0.0252  -0.0847  -0.0202   0.00    1.1
2173  22686.000   -205923.1093  -4516299.3238   4484350.2399   2   7   0.0482   0.1022   0.0955   0.0250  -0.0838  -0.0199   0.00    1.1
2173  22687.000   -205923.1087  -4516299.3188   4484350.2329   2   7   0.0478   0.1014   0.0945   0.0246  -0.0830  -0.0196   0.00    1.1
2173  22688.000   -205923.1101  -4516299.3270   4484350.2490   2   7   0.0476   0.1005   0.0936   0.0243  -0.0821  -0.0194   0.00    1.1
2173  22689.000   -205923.1072  -4516299.3219   4484350.2417   2   7   0.0472   0.0997   0.0926   0.0240  -0.0813  -0.0191   0.00    1.1
2173  22690.000   -205923.1092  -4516299.3200   4484350.2398   2   7   0.0470   0.0989   0.0917   0.0237  -0.0805  -0.0188   0.00    1.1
2173  22691.000   -205923.1113  -4516299.3208   4484350.2463   2   7   0.0467   0.0981   0.0908   0.0234  -0.0797  -0.0186   0.00    1.1
2173  22692.000   -205923.1110  -4516299.3210   4484350.2506   2   7   0.0464   0.0973   0.0899   0.0230  -0.0789  -0.0183   0.00    1.1
2173  22693.000   -205923.1126  -4516299.3276   4484350.2627   2   7   0.0461   0.0965   0.0890   0.0228  -0.0782  -0.0181   0.00    1.1
2173  22694.000   -205923.1000  -4516299.3256   4484350.2658   2   7   0.0458   0.0958   0.0882   0.0225  -0.0774  -0.0178   0.00    1.1
2173  22695.000   -205923.1053  -4516299.3347   4484350.2770   2   7   0.0456   0.0950   0.0873   0.0222  -0.0767  -0.0176   0.00    1.1
2173  22696.000   -205923.1013  -4516299.3379   4484350.2861   2   7   0.0453   0.0943   0.0865   0.0220  -0.0759  -0.0174   0.00    1.1
2173  22697.000   -205923.1049  -4516299.3427   4484350.2911   2   7   0.0450   0.0936   0.0857   0.0217  -0.0752  -0.0172   0.00    1.1
2173  22698.000   -205923.1062  -4516299.3467   4484350.2938   2   7   0.0448   0.0928   0.0848   0.0215  -0.0745  -0.0170   0.00    1.1
2173  22699.000   -205923.1090  -4516299.3504   4484350.2981   2   7   0.0445   0.0921   0.0840   0.0212  -0.0738  -0.0167   0.00    1.1
2173  22700.000   -205923.1080  -4516299.3452   4484350.2915   2   7   0.0443   0.0915   0.0832   0.0210  -0.0731  -0.0165   0.00    1.1
2173  22701.000   -205923.1141  -4516299.3388   4484350.2864   2   7   0.0440   0.0908   0.0824   0.0208  -0.0724  -0.0163   0.00    1.1
2173  22702.000   -205923.1153  -4516299.3397   4484350.2838   2   7   0.0439   0.0901   0.0816   0.0205  -0.0717  -0.0160   0.00    1.1
2173  22703.000   -205923.1153  -4516299.3268   4484350.2698   2   7   0.0436   0.0895   0.0808   0.0203  -0.0711  -0.0159   0.00    1.0
2173  22704.000   -205923.1167  -4516299.3237   4484350.2661   2   7   0.0434   0.0888   0.0801   0.0201  -0.0704  -0.0156   0.00    1.0
2173  22705.000   -205923.1159  -4516299.3305   4484350.2698   2   7   0.0431   0.0882   0.0793   0.0199  -0.0698  -0.0155   0.00    1.0
2173  22706.000   -205923.1161  -4516299.3343   4484350.2714   2   7   0.0429   0.0876   0.0786   0.0196  -0.0692  -0.0152   0.00    1.0
2173  22707.000   -205923.1163  -4516299.3454   4484350.2848   2   7   0.0426   0.0869   0.0779   0.0195  -0.0685  -0.0151   0.00    1.0
2173  22708.000   -205923.1153  -4516299.3571   4484350.2977   2   7   0.0424   0.0863   0.0771   0.0193  -0.0679  -0.0149   0.00    1.0
2173  22709.000   -205923.1177  -4516299.3735   4484350.3136   2   7   0.0422   0.0857   0.0764   0.0190  -0.0673  -0.0147   0.00    1.0
2173  22710.000   -205923.1196  -4516299.3707   4484350.3159   2   7   0.0420   0.0852   0.0757   0.0189  -0.0667  -0.0144   0.00    1.0
2173  22711.000   -205923.1201  -4516299.3700   4484350.3133   2   7   0.0418   0.0846   0.0750   0.0187  -0.0661  -0.0144   0.00    1.0
2173  22712.000   -205923.1217  -4516299.3711   4484350.3105   2   7   0.0416   0.0840   0.0743   0.0185  -0.0655  -0.0142   0.00    1.0
2173  22713.000   -205923.1186  -4516299.3645   4484350.3030   2   7   0.0414   0.0834   0.0736   0.0183  -0.0649  -0.0141   0.00    1.0
2173  22714.000   -205923.1162  -4516299.3631   4484350.2963   2   7   0.0412   0.0829   0.0730   0.0181  -0.0644  -0.0139   0.00    1.0
2173  22715.000   -205923.1127  -4516299.3646   4484350.2943   2   7   0.0410   0.0823   0.0723   0.0180  -0.0638  -0.0139   0.00    1.0
2173  22716.000   -205923.1094  -4516299.3677   4484350.2889   2   7   0.0409   0.0818   0.0717   0.0178  -0.0632  -0.0136   0.00    1.0
2173  22717.000   -205923.1130  -4516299.3584   4484350.2766   2   7   0.0406   0.0813   0.0710   0.0176  -0.0627  -0.0134   0.00    1.0
2173  22718.000   -205923.1142  -4516299.3491   4484350.2605   2   7   0.0405   0.0808   0.0704   0.0174  -0.0622  -0.0133   0.00    1.0
2173  22719.000   -205923.1096  -4516299.3435   4484350.2504   2   7   0.0402   0.0802   0.0698   0.0173  -0.0616  -0.0132   0.00    1.0
2173  22720.000   -205923.1112  -4516299.3394   4484350.2432   2   7   0.0401   0.0797   0.0691   0.0171  -0.0611  -0.0130   0.00    1.0
2173  22721.000   -205923.1123  -4516299.3396   4484350.2398   2   7   0.0399   0.0792   0.0685   0.0170  -0.0606  -0.0129   0.00    1.0
2173  22722.000   -205923.1112  -4516299.3377   4484350.2339   2   7   0.0398   0.0787   0.0679   0.0169  -0.0601  -0.0126   0.00    1.0
2173  22723.000   -205923.1088  -4516299.3376   4484350.2307   2   7   0.0396   0.0783   0.0673   0.0167  -0.0596  -0.0126   0.00    1.0
2173  22724.000   -205923.1120  -4516299.3277   4484350.2192   2   7   0.0393   0.0778   0.0667   0.0167  -0.0591  -0.0122   0.00    1.0
2173  22725.000   -205923.1122  -4516299.3234   4484350.2103   2   7   0.0392   0.0773   0.0661   0.0165  -0.0586  -0.0122   0.00    1.0
2173  22726.000   -205923.1134  -4516299.3197   4484350.2012   2   7   0.0390   0.0768   0.0656   0.0163  -0.0581  -0.0123   0.00    1.0
2173  22727.000   -205923.1114  -4516299.3175   4484350.1932   2   7   0.0389   0.0764   0.0650   0.0161  -0.0576  -0.0120   0.00    1.0
2173  22728.000   -205923.1111  -4516299.3108   4484350.1850   2   7   0.0387   0.0759   0.0644   0.0160  -0.0572  -0.0120   0.00    1.0
2173  22729.000   -205923.1110  -4516299.3170   4484350.1848   2   7   0.0385   0.0755   0.0639   0.0159  -0.0567  -0.0118   0.00    1.0
2173  22730.000   -205923.1088  -4516299.3182   4484350.1841   2   7   0.0384   0.0750   0.0633   0.0158  -0.0562  -0.0117   0.00    1.0
2173  22731.000   -205923.1068  -4516299.3215   4484350.1831   2   7   0.0382   0.0746   0.0628   0.0157  -0.0558  -0.0114   0.00    1.0
2173  22732.000   -205923.1050  -4516299.3198   4484350.1816   2   7   0.0380   0.0741   0.0622   0.0156  -0.0553  -0.0114   0.00    1.0
2173  22733.000   -205923.1037  -4516299.3320   4484350.1850   2   7   0.0379   0.0737   0.0617   0.0154  -0.0549  -0.0114   0.00    1.0
2173  22734.000   -205923.0992  -4516299.3407   4484350.1913   2   7   0.0377   0.0733   0.0612   0.0153  -0.0545  -0.0111   0.00    1.0
2173  22735.000   -205923.0987  -4516299.3601   4484350.2062   2   7   0.0376   0.0729   0.0607   0.0152  -0.0540  -0.0111   0.00    1.0
2173  22736.000   -205923.0962  -4516299.3750   4484350.2179   2   7   0.0374   0.0725   0.0601   0.0151  -0.0536  -0.0110   0.00    1.0
2173  22737.000   -205923.0949  -4516299.3919   4484350.2363   2   7   0.0373   0.0721   0.0597   0.0150  -0.0532  -0.0109   0.00    1.0
2173  22738.000   -205923.0941  -4516299.4049   4484350.2465   2   7   0.0371   0.0717   0.0591   0.0149  -0.0528  -0.0106   0.00    1.0
2173  22739.000   -205923.0949  -4516299.4102   4484350.2530   2   7   0.0370   0.0713   0.0587   0.0148  -0.0524  -0.0107   0.00    1.0
2173  22740.000   -205923.0924  -4516299.4158   4484350.2561   2   7   0.0369   0.0709   0.0582   0.0146  -0.0519  -0.0105   0.00    1.0
2173  22741.000   -205923.0932  -4516299.4255   4484350.2609   2   7   0.0368   0.0705   0.0577   0.0146  -0.0516  -0.0103   0.00    1.0
2173  22742.000   -205923.0897  -4516299.4313   4484350.2665   2   7   0.0366   0.0701   0.0573   0.0145  -0.0512  -0.0104   0.00    1.0
2173  22743.000   -205923.0863  -4516299.4406   4484350.2741   2   7   0.0364   0.0698   0.0568   0.0144  -0.0508  -0.0103   0.00    1.0
2173  22744.000   -205923.0731  -4516299.4790   4484350.3332   2   7   0.0363   0.0694   0.0563   0.0143  -0.0504  -0.0102   0.00    1.0
2173  22745.000   -205923.0720  -4516299.5040   4484350.3559   2   7   0.0362   0.0690   0.0559   0.0142  -0.0500  -0.0101   0.00    1.0
2173  22746.000   -205923.0729  -4516299.5269   4484350.3818   2   7   0.0361   0.0687   0.0554   0.0141  -0.0497  -0.0099   0.00    1.0
2173  22747.000   -205923.0733  -4516299.5442   4484350.3977   2   7   0.0359   0.0683   0.0550   0.0141  -0.0493  -0.0100   0.00    1.0
2173  22748.000   -205923.0719  -4516299.5557   4484350.4129   2   7   0.0358   0.0680   0.0545   0.0140  -0.0489  -0.0098   0.00    1.0
2173  22749.000   -205923.0738  -4516299.5722   4484350.4230   2   7   0.0357   0.0676   0.0541   0.0139  -0.0486  -0.0097   0.00    1.0
2173  22750.000   -205923.0738  -4516299.5839   4484350.4323   2   7   0.0354   0.0673   0.0537   0.0138  -0.0482  -0.0096   0.00    1.0
2173  22751.000   -205923.0719  -4516299.5908   4484350.4344   2   7   0.0354   0.0669   0.0532   0.0137  -0.0479  -0.0094   0.00    1.0
2173  22752.000   -205923.0704  -4516299.6034   4484350.4461   2   7   0.0353   0.0666   0.0528   0.0136  -0.0475  -0.0094   0.00    1.0
2173  22753.000   -205923.0676  -4516299.6166   4484350.4556   2   7   0.0351   0.0663   0.0524   0.0136  -0.0472  -0.0094   0.00    1.0
2173  22754.000   -205923.0655  -4516299.6225   4484350.4621   2   7   0.0349   0.0659   0.0520   0.0136  -0.0469  -0.0092   0.00    1.0
2173  22755.000   -205923.0616  -4516299.6344   4484350.4610   2   7   0.0349   0.0656   0.0516   0.0134  -0.0465  -0.0090   0.00    1.0
2173  22756.000   -205923.0565  -4516299.6363   4484350.4598   2   7   0.0348   0.0653   0.0512   0.0133  -0.0462  -0.0090   0.00    1.0
2173  22757.000   -205923.0580  -4516299.6356   4484350.4520   2   7   0.0347   0.0650   0.0508   0.0133  -0.0458  -0.0088   0.00    1.0
2173  22758.000   -205923.0590  -4516299.6371   4484350.4464   2   7   0.0345   0.0647   0.0504   0.0133  -0.0456  -0.0089   0.00    1.0
2173  22759.000   -205923.0552  -4516299.6483   4484350.4488   2   7   0.0344   0.0644   0.0500   0.0131  -0.0452  -0.0089   0.00    1.0
2173  22760.000   -205923.0528  -4516299.6554   4484350.4535   2   7   0.0343   0.0641   0.0496   0.0130  -0.0449  -0.0087   0.00    1.0
2173  22761.000   -205923.0486  -4516299.6771   4484350.4674   2   7   0.0341   0.0638   0.0493   0.0130  -0.0446  -0.0088   0.00    1.0
2173  22762.000   -205923.0501  -4516299.6858   4484350.4684   2   7   0.0340   0.0635   0.0489   0.0129  -0.0443  -0.0086   0.00    1.0
2173  22763.000   -205923.0498  -4516299.7048   4484350.4777   2   7   0.0340   0.0632   0.0485   0.0128  -0.0440  -0.0084   0.00    1.0
2173  22764.000   -205923.0489  -4516299.7103   4484350.4781   2   7   0.0337   0.0629   0.0482   0.0129  -0.0437  -0.0085   0.00    1.0
2173  22765.000   -205923.0462  -4516299.7172   4484350.4789   2   7   0.0336   0.0626   0.0478   0.0127  -0.0434  -0.0084   0.00    1.0
2173  22766.000   -205923.0486  -4516299.7148   4484350.4758   2   7   0.0337   0.0623   0.0475   0.0126  -0.0431  -0.0083   0.00    1.0
2173  22767.000   -205923.0482  -4516299.7131   4484350.4668   2   7   0.0335   0.0620   0.0471   0.0126  -0.0428  -0.0083   0.00    1.0
2173  22768.000   -205923.0479  -4516299.7117   4484350.4579   2   7   0.0334   0.0617   0.0468   0.0125  -0.0425  -0.0082   0.00    1.0
2173  22769.000   -205923.0458  -4516299.7067   4484350.4453   2   7   0.0333   0.0615   0.0465   0.0125  -0.0422  -0.0081   0.00    1.0
2173  22770.000   -205923.0473  -4516299.7044   4484350.4361   2   7   0.0332   0.0612   0.0461   0.0124  -0.0419  -0.0082   0.00    1.1
2173  22771.000   -205923.0447  -4516299.7149   4484350.4336   2   7   0.0330   0.0609   0.0458   0.0125  -0.0417  -0.0078   0.00    1.1
2173  22772.000   -205923.0447  -4516299.7299   4484350.4427   2   7   0.0329   0.0606   0.0454   0.0124  -0.0414  -0.0079   0.00    1.1
2173  22773.000   -205923.0431  -4516299.7397   4484350.4442   2   7   0.0329   0.0604   0.0451   0.0123  -0.0412  -0.0078   0.00    1.1
2173  22774.000   -205923.0425  -4516299.7436   4484350.4409   2   7   0.0327   0.0601   0.0448   0.0123  -0.0409  -0.0078   0.00    1.1
2173  22775.000   -205923.0426  -4516299.7532   4484350.4446   2   7   0.0327   0.0599   0.0444   0.0123  -0.0406  -0.0077   0.00    1.1
2173  22776.000   -205923.0421  -4516299.7551   4484350.4408   2   7   0.0325   0.0596   0.0441   0.0122  -0.0404  -0.0078   0.00    1.1
2173  22777.000   -205923.0458  -4516299.7585   4484350.4383   2   7   0.0325   0.0593   0.0439   0.0121  -0.0401  -0.0077   0.00    1.1
2173  22778.000   -205923.0427  -4516299.7646   4484350.4361   2   7   0.0324   0.0591   0.0435   0.0121  -0.0399  -0.0075   0.00    1.1
2173  22779.000   -205923.0427  -4516299.7713   4484350.4341   2   7   0.0322   0.0588   0.0432   0.0120  -0.0396  -0.0072   0.00    1.2
2173  22780.000   -205923.0440  -4516299.7743   4484350.4318   2   7   0.0320   0.0586   0.0430   0.0121  -0.0394  -0.0076   0.00    1.2
2173  22781.000   -205923.0421  -4516299.7688   4484350.4214   2   7   0.0320   0.0584   0.0427   0.0120  -0.0392  -0.0077   0.00    1.2
2173  22782.000   -205923.0422  -4516299.7648   4484350.4095   2   7   0.0319   0.0581   0.0424   0.0119  -0.0389  -0.0073   0.00    1.2
2173  22783.000   -205923.0415  -4516299.7671   4484350.4034   2   7   0.0319   0.0579   0.0421   0.0119  -0.0386  -0.0073   0.00    1.2
2173  22784.000   -205923.0411  -4516299.7678   4484350.3923   2   7   0.0318   0.0576   0.0418   0.0120  -0.0384  -0.0072   0.00    1.2
2173  22785.000   -205923.0390  -4516299.7695   4484350.3903   2   7   0.0318   0.0574   0.0414   0.0120  -0.0382  -0.0068   0.00    1.2
2173  22786.000   -205923.0355  -4516299.7686   4484350.3795   2   7   0.0316   0.0572   0.0412   0.0117  -0.0380  -0.0072   0.00    1.2
2173  22787.000   -205923.0320  -4516299.7720   4484350.3735   2   7   0.0315   0.0570   0.0409   0.0118  -0.0377  -0.0071   0.00    1.2
2173  22788.000   -205923.0306  -4516299.7715   4484350.3639   2   7   0.0314   0.0567   0.0407   0.0118  -0.0375  -0.0070   0.00    1.3
2173  22789.000   -205923.0239  -4516299.7778   4484350.3566   2   7   0.0314   0.0565   0.0404   0.0118  -0.0373  -0.0068   0.00    1.3
2173  22790.000   -205923.0209  -4516299.7781   4484350.3514   2   7   0.0312   0.0563   0.0402   0.0115  -0.0371  -0.0073   0.00    1.3
2173  22791.000   -205923.0175  -4516299.7806   4484350.3456   2   7   0.0310   0.0561   0.0399   0.0116  -0.0369  -0.0069   0.00    1.3
2173  22792.000   -205923.0142  -4516299.7873   4484350.3402   2   7   0.0311   0.0558   0.0396   0.0115  -0.0366  -0.0069   0.00    1.3
2173  22793.000   -205923.0088  -4516299.8011   4484350.3448   2   7   0.0310   0.0556   0.0394   0.0116  -0.0364  -0.0068   0.00    1.3
2173  22794.000   -205923.0103  -4516299.8016   4484350.3398   2   7   0.0308   0.0554   0.0391   0.0116  -0.0362  -0.0067   0.00    1.3
2173  22795.000   -205923.0083  -4516299.8003   4484350.3379   2   7   0.0307   0.0552   0.0389   0.0115  -0.0360  -0.0068   0.00    1.3
2173  22796.000   -205923.0084  -4516299.8084   4484350.3407   2   7   0.0307   0.0550   0.0386   0.0115  -0.0358  -0.0067   0.00    1.3
2173  22797.000   -205923.0052  -4516299.8098   4484350.3342   2   7   0.0306   0.0548   0.0384   0.0114  -0.0356  -0.0067   0.00    1.3
2173  22798.000   -205923.0048  -4516299.8110   4484350.3337   2   7   0.0305   0.0546   0.0381   0.0113  -0.0354  -0.0066   0.00    1.3
2173  22799.000   -205923.0004  -4516299.8222   4484350.3350   2   7   0.0305   0.0544   0.0379   0.0114  -0.0352  -0.0067   0.00    1.3
2173  22800.000   -205922.9998  -4516299.8428   4484350.3448   2   7   0.0303   0.0542   0.0376   0.0113  -0.0350  -0.0065   0.00    1.3
2173  22801.000   -205922.9987  -4516299.8521   4484350.3482   2   7   0.0302   0.0539   0.0374   0.0112  -0.0348  -0.0065   0.00    1.3
2173  22802.000   -205922.9983  -4516299.8638   4484350.3541   2   7   0.0302   0.0538   0.0372   0.0113  -0.0346  -0.0068   0.00    1.3
2173  22803.000   -205922.9979  -4516299.8772   4484350.3577   2   7   0.0300   0.0536   0.0369   0.0112  -0.0345  -0.0067   0.00    1.3
2173  22804.000   -205922.9969  -4516299.8848   4484350.3566   2   7   0.0300   0.0534   0.0367   0.0112  -0.0342  -0.0064   0.00    1.3
2173  22805.000   -205922.9962  -4516299.8833   4484350.3521   2   7   0.0300   0.0532   0.0365   0.0112  -0.0341  -0.0063   0.00    1.3
2173  22806.000   -205922.9982  -4516299.8838   4484350.3401   2   7   0.0299   0.0530   0.0362   0.0112  -0.0339  -0.0061   0.00    1.3
2173  22807.000   -205922.9977  -4516299.8813   4484350.3323   2   7   0.0298   0.0528   0.0360   0.0110  -0.0337  -0.0063   0.00    1.3
2173  22808.000   -205922.9979  -4516299.8791   4484350.3259   2   7   0.0297   0.0526   0.0359   0.0112  -0.0335  -0.0063   0.00    1.3
2173  22809.000   -205922.9926  -4516299.8785   4484350.3160   2   7   0.0296   0.0524   0.0356   0.0111  -0.0334  -0.0061   0.00    1.3
2173  22810.000   -205922.9922  -4516299.8855   4484350.3171   2   7   0.0296   0.0522   0.0354   0.0112  -0.0332  -0.0061   0.00    1.3
2173  22811.000   -205922.9900  -4516299.9045   4484350.3302   2   7   0.0295   0.0520   0.0352   0.0110  -0.0330  -0.0062   0.00    1.3
2173  22812.000   -205922.9852  -4516299.9175   4484350.3358   2   7   0.0294   0.0518   0.0349   0.0111  -0.0329  -0.0060   0.00    1.3
2173  22813.000   -205922.9830  -4516299.9362   4484350.3472   2   7   0.0293   0.0517   0.0348   0.0111  -0.0327  -0.0061   0.00    1.3
2173  22814.000   -205922.9815  -4516299.9512   4484350.3550   2   7   0.0292   0.0515   0.0346   0.0110  -0.0325  -0.0063   0.00    1.3
2173  22815.000   -205922.9862  -4516299.9921   4484350.3876   2   7   0.0292   0.0513   0.0343   0.0110  -0.0323  -0.0058   0.00    1.3
2173  22816.000   -205922.9889  -4516300.0036   4484350.4022   2   7   0.0290   0.0511   0.0342   0.0110  -0.0322  -0.0060   0.00    1.3
2173  22817.000   -205922.9878  -4516300.0071   4484350.4097   2   7   0.0291   0.0510   0.0340   0.0109  -0.0320  -0.0058   0.00    1.3
2173  22818.000   -205922.9890  -4516300.0066   4484350.4103   2   7   0.0288   0.0508   0.0337   0.0111  -0.0319  -0.0058   0.00    1.3
2173  22819.000   -205922.9885  -4516300.0140   4484350.4135   2   7   0.0289   0.0506   0.0336   0.0109  -0.0317  -0.0058   0.00    1.3
2173  22820.000   -205922.9919  -4516300.0099   4484350.4091   2   7   0.0287   0.0504   0.0334   0.0109  -0.0315  -0.0060   0.00    1.3
2173  22821.000   -205922.9923  -4516300.0107   4484350.4126   2   7   0.0287   0.0503   0.0332   0.0109  -0.0313  -0.0058   0.00    1.3
2173  22822.000   -205922.9958  -4516300.0030   4484350.4057   2   7   0.0287   0.0501   0.0330   0.0109  -0.0313  -0.0057   0.00    1.3
2173  22823.000   -205922.9968  -4516299.9986   4484350.3995   2   7   0.0287   0.0499   0.0327   0.0110  -0.0311  -0.0056   0.00    1.3
2173  22824.000   -205922.9963  -4516299.9906   4484350.3930   2   7   0.0285   0.0498   0.0326   0.0110  -0.0309  -0.0057   0.00    1.3
2173  22825.000   -205922.9980  -4516299.9872   4484350.3891   2   7   0.0284   0.0496   0.0324   0.0109  -0.0308  -0.0056   0.00    1.3
2173  22826.000   -205922.9968  -4516299.9850   4484350.3861   2   7   0.0284   0.0495   0.0323   0.0108  -0.0306  -0.0056   0.00    1.3
2173  22827.000   -205922.9945  -4516299.9923   4484350.3883   2   7   0.0282   0.0493   0.0321   0.0108  -0.0305  -0.0055   0.00    1.3
2173  22828.000   -205922.9947  -4516300.0018   4484350.3932   2   7   0.0282   0.0491   0.0319   0.0109  -0.0303  -0.0058   0.00    1.3
2173  22829.000   -205922.9932  -4516300.0068   4484350.3942   2   7   0.0282   0.0490   0.0317   0.0108  -0.0302  -0.0053   0.00    1.3
2173  22830.000   -205922.9938  -4516300.0101   4484350.3950   2   7   0.0281   0.0488   0.0316   0.0108  -0.0300  -0.0057   0.00    1.4
2173  22831.000   -205922.9969  -4516300.0171   4484350.3992   2   7   0.0280   0.0486   0.0313   0.0109  -0.0299  -0.0053   0.00    1.4
2173  22832.000   -205922.9957  -4516300.0214   4484350.4049   2   7   0.0280   0.0485   0.0312   0.0108  -0.0298  -0.0056   0.00    1.4
2173  22833.000   -205922.9984  -4516300.0264   4484350.4082   2   7   0.0279   0.0483   0.0310   0.0107  -0.0296  -0.0054   0.00    1.4
2173  22834.000   -205922.9967  -4516300.0254   4484350.4063   2   7   0.0278   0.0482   0.0309   0.0108  -0.0295  -0.0054   0.00    1.4
2173  22835.000   -205922.9991  -4516300.0284   4484350.4061   2   7   0.0277   0.0480   0.0307   0.0108  -0.0293  -0.0054   0.00    1.4
2173  22836.000   -205923.0029  -4516300.0274   4484350.4052   2   7   0.0277   0.0479   0.0305   0.0107  -0.0292  -0.0053   0.00    1.4
2173  22837.000   -205923.0076  -4516300.0169   4484350.3941   2   7   0.0277   0.0477   0.0304   0.0108  -0.0291  -0.0054   0.00    1.4
2173  22838.000   -205923.0074  -4516300.0118   4484350.3892   2   7   0.0275   0.0476   0.0303   0.0108  -0.0290  -0.0053   0.00    1.4
2173  22839.000   -205923.0066  -4516300.0114   4484350.3871   2   7   0.0274   0.0474   0.0301   0.0107  -0.0288  -0.0053   0.00    1.4
2173  22840.000   -205923.0061  -4516300.0196   4484350.3924   2   7   0.0275   0.0473   0.0300   0.0108  -0.0287  -0.0054   0.00    1.4
2173  22841.000   -205923.0057  -4516300.0247   4484350.3963   2   7   0.0274   0.0471   0.0298   0.0108  -0.0286  -0.0052   0.00    1.4
2173  22842.000   -205923.0064  -4516300.0263   4484350.3977   2   7   0.0273   0.0470   0.0295   0.0107  -0.0285  -0.0050   0.00    1.4
2173  22843.000   -205923.0064  -4516300.0268   4484350.4027   2   7   0.0272   0.0468   0.0294   0.0108  -0.0284  -0.0053   0.00    1.4
2173  22844.000   -205923.0084  -4516300.0246   4484350.4009   2   7   0.0271   0.0467   0.0293   0.0107  -0.0282  -0.0051   0.00    1.4
2173  22845.000   -205923.0092  -4516300.0219   4484350.3973   2   7   0.0271   0.0466   0.0292   0.0107  -0.0281  -0.0052   0.00    1.4
2173  22846.000   -205923.0079  -4516300.0139   4484350.3874   2   7   0.0270   0.0464   0.0290   0.0107  -0.0280  -0.0051   0.00    1.4
2173  22847.000   -205923.0072  -4516300.0183   4484350.3869   2   7   0.0269   0.0463   0.0288   0.0107  -0.0278  -0.0051   0.00    1.4
2173  22848.000   -205923.0085  -4516300.0182   4484350.3822   2   7   0.0269   0.0462   0.0286   0.0107  -0.0277  -0.0049   0.00    1.4
2173  22849.000   -205923.0061  -4516300.0109   4484350.3728   2   7   0.0268   0.0460   0.0285   0.0107  -0.0276  -0.0049   0.00    1.4
2173  22850.000   -205923.0083  -4516300.0049   4484350.3666   2   7   0.0269   0.0459   0.0284   0.0108  -0.0275  -0.0048   0.00    1.4
2173  22851.000   -205923.0102  -4516300.0018   4484350.3614   2   7   0.0268   0.0458   0.0284   0.0106  -0.0273  -0.0052   0.00    1.4
2173  22852.000   -205923.0097  -4516299.9871   4484350.3527   2   7   0.0267   0.0456   0.0281   0.0106  -0.0272  -0.0048   0.00    1.4
2173  22853.000   -205923.0138  -4516299.9785   4484350.3434   2   7   0.0267   0.0455   0.0281   0.0107  -0.0271  -0.0053   0.00    1.4
2173  22854.000   -205923.0127  -4516299.9739   4484350.3383   2   7   0.0265   0.0453   0.0278   0.0107  -0.0271  -0.0050   0.00    1.4
2173  22855.000   -205923.0123  -4516299.9727   4484350.3379   2   7   0.0265   0.0452   0.0278   0.0106  -0.0269  -0.0052   0.00    1.4
2173  22856.000   -205923.0244  -4516299.9657   4484350.3622   2   7   0.0265   0.0451   0.0276   0.0105  -0.0268  -0.0050   0.00    1.4
2173  22857.000   -205923.0248  -4516299.9716   4484350.3694   2   7   0.0265   0.0450   0.0275   0.0107  -0.0267  -0.0047   0.00    1.4
2173  22858.000   -205923.0234  -4516299.9777   4484350.3774   2   7   0.0264   0.0448   0.0273   0.0106  -0.0266  -0.0051   0.00    1.5
2173  22859.000   -205923.0248  -4516299.9812   4484350.3789   2   7   0.0263   0.0447   0.0271   0.0107  -0.0265  -0.0048   0.00    1.5
2173  22860.000   -205923.0237  -4516299.9786   4484350.3764   2   7   0.0262   0.0446   0.0271   0.0107  -0.0264  -0.0048   0.00    1.5
2173  22861.000   -205923.0261  -4516299.9843   4484350.3820   2   7   0.0261   0.0444   0.0270   0.0106  -0.0263  -0.0049   0.00    1.5
2173  22862.000   -205923.0290  -4516299.9847   4484350.3809   2   7   0.0261   0.0443   0.0268   0.0107  -0.0262  -0.0050   0.00    1.5
2173  22863.000   -205923.0310  -4516299.9797   4484350.3795   2   7   0.0261   0.0442   0.0267   0.0106  -0.0261  -0.0050   0.00    1.5
2173  22864.000   -205923.0325  -4516299.9803   4484350.3818   2   7   0.0259   0.0441   0.0266   0.0105  -0.0259  -0.0052   0.00    1.5
2173  22865.000   -205923.0348  -4516299.9813   4484350.3844   2   7   0.0259   0.0439   0.0265   0.0106  -0.0258  -0.0050   0.00    1.5
2173  22866.000   -205923.0342  -4516299.9809   4484350.3862   2   7   0.0258   0.0438   0.0264   0.0105  -0.0257  -0.0049   0.00    1.5
2173  22867.000   -205923.0346  -4516299.9773   4484350.3811   2   7   0.0259   0.0437   0.0262   0.0105  -0.0257  -0.0050   0.00    1.5
2173  22868.000   -205923.0368  -4516299.9667   4484350.3798   2   7   0.0257   0.0436   0.0260   0.0106  -0.0256  -0.0047   0.00    1.5
2173  22869.000   -205923.0406  -4516299.9602   4484350.3709   2   7   0.0257   0.0435   0.0260   0.0106  -0.0255  -0.0047   0.00    1.5
2173  22870.000   -205923.0369  -4516299.9637   4484350.3724   2   7   0.0257   0.0433   0.0260   0.0105  -0.0253  -0.0051   0.00    1.5
2173  22871.000   -205923.0358  -4516299.9657   4484350.3723   2   7   0.0256   0.0432   0.0258   0.0106  -0.0253  -0.0048   0.00    1.5
2173  22872.000   -205923.0353  -4516299.9583   4484350.3681   2   7   0.0255   0.0431   0.0256   0.0107  -0.0252  -0.0045   0.00    1.5
2173  22873.000   -205923.0358  -4516299.9505   4484350.3608   2   7   0.0255   0.0430   0.0256   0.0106  -0.0251  -0.0049   0.00    1.5
2173  22874.000   -205923.0363  -4516299.9474   4484350.3541   2   7   0.0254   0.0429   0.0254   0.0106  -0.0250  -0.0048   0.00    1.5
2173  22875.000   -205923.0390  -4516299.9464   4484350.3513   2   7   0.0255   0.0428   0.0254   0.0105  -0.0248  -0.0049   0.00    1.5
2173  22876.000   -205923.0401  -4516299.9393   4484350.3475   2   7   0.0253   0.0426   0.0252   0.0107  -0.0248  -0.0047   0.00    1.5
2173  22877.000   -205923.0386  -4516299.9422   4484350.3450   2   7   0.0253   0.0425   0.0251   0.0106  -0.0247  -0.0047   0.00    1.5
2173  22878.000   -205923.0373  -4516299.9462   4484350.3326   2   7   0.0252   0.0424   0.0250   0.0106  -0.0246  -0.0044   0.00    1.5
2173  22879.000   -205923.0362  -4516299.9472   4484350.3360   2   7   0.0253   0.0423   0.0248   0.0106  -0.0245  -0.0046   0.00    1.5
2173  22880.000   -205923.0366  -4516299.9502   4484350.3408   2   7   0.0252   0.0422   0.0247   0.0105  -0.0245  -0.0044   0.00    1.5
2173  22881.000   -205923.0375  -4516299.9499   4484350.3450   2   7   0.0251   0.0421   0.0247   0.0105  -0.0244  -0.0049   0.00    1.5
2173  22882.000   -205923.0388  -4516299.9428   4484350.3422   2   7   0.0250   0.0420   0.0246   0.0105  -0.0243  -0.0046   0.00    1.5
2173  22883.000   -205923.0371  -4516299.9485   4484350.3477   2   7   0.0250   0.0418   0.0245   0.0105  -0.0242  -0.0046   0.00    1.5
2173  22884.000   -205923.0347  -4516299.9582   4484350.3554   2   7   0.0251   0.0417   0.0244   0.0105  -0.0241  -0.0049   0.00    1.5
2173  22885.000   -205923.0338  -4516299.9651   4484350.3643   2   7   0.0249   0.0416   0.0243   0.0105  -0.0239  -0.0047   0.00    1.5
2173  22886.000   -205923.0334  -4516299.9638   4484350.3646   2   7   0.0248   0.0415   0.0242   0.0105  -0.0239  -0.0047   0.00    1.6
2173  22887.000   -205923.0341  -4516299.9679   4484350.3706   2   7   0.0248   0.0414   0.0240   0.0106  -0.0238  -0.0044   0.00    1.6
2173  22888.000   -205923.0342  -4516299.9709   4484350.3790   2   7   0.0247   0.0413   0.0239   0.0106  -0.0238  -0.0044   0.00    1.6
2173  22889.000   -205923.0376  -4516299.9680   4484350.3786   2   7   0.0248   0.0412   0.0239   0.0104  -0.0237  -0.0046   0.00    1.6
2173  22890.000   -205923.0370  -4516299.9605   4484350.3768   2   7   0.0247   0.0411   0.0238   0.0105  -0.0235  -0.0044   0.00    1.6
2173  22891.000   -205923.0407  -4516299.9615   4484350.3806   2   7   0.0245   0.0410   0.0237   0.0105  -0.0235  -0.0050   0.00    1.6
2173  22892.000   -205923.0393  -4516299.9621   4484350.3827   2   7   0.0246   0.0409   0.0236   0.0105  -0.0234  -0.0046   0.00    1.6
2173  22893.000   -205923.0414  -4516299.9527   4484350.3796   2   7   0.0244   0.0408   0.0235   0.0106  -0.0234  -0.0044   0.00    1.6
2173  22894.000   -205923.0431  -4516299.9511   4484350.3818   2   7   0.0245   0.0407   0.0234   0.0105  -0.0232  -0.0044   0.00    1.6
2173  22895.000   -205923.0447  -4516299.9497   4484350.3826   2   7   0.0244   0.0406   0.0233   0.0106  -0.0232  -0.0047   0.00    1.6
2173  22896.000   -205923.0458  -4516299.9557   4484350.3890   2   7   0.0245   0.0405   0.0233   0.0105  -0.0230  -0.0047   0.00    1.6
2173  22897.000   -205923.0448  -4516299.9505   4484350.3881   2   7   0.0243   0.0404   0.0231   0.0107  -0.0230  -0.0041   0.00    1.6
2173  22898.000   -205923.0439  -4516299.9610   4484350.4009   2   7   0.0242   0.0403   0.0231   0.0105  -0.0229  -0.0048   0.00    1.6
2173  22899.000   -205923.0456  -4516299.9707   4484350.4091   2   7   0.0242   0.0402   0.0230   0.0105  -0.0228  -0.0047   0.00    1.6
2173  22900.000   -205923.0432  -4516299.9770   4484350.4169   2   7   0.0242   0.0401   0.0229   0.0104  -0.0227  -0.0046   0.00    1.6
2173  22901.000   -205923.0450  -4516299.9841   4484350.4270   2   7   0.0242   0.0400   0.0228   0.0107  -0.0227  -0.0045   0.00    1.6
2173  22902.000   -205923.0409  -4516299.9944   4484350.4391   2   7   0.0240   0.0399   0.0225   0.0106  -0.0227  -0.0043   0.00    1.6
2173  22903.000   -205923.0459  -4516299.9928   4484350.4409   2   7   0.0240   0.0398   0.0226   0.0105  -0.0226  -0.0044   0.00    1.6
2173  22904.000   -205923.0490  -4516299.9963   4484350.4457   2   7   0.0241   0.0397   0.0225   0.0106  -0.0225  -0.0044   0.00    1.6
2173  22905.000   -205923.0508  -4516299.9947   4484350.4478   2   7   0.0239   0.0396   0.0225   0.0106  -0.0224  -0.0045   0.00    1.6
2173  22906.000   -205923.0478  -4516299.9974   4484350.4494   2   7   0.0240   0.0395   0.0223   0.0104  -0.0223  -0.0044   0.00    1.6
2173  22907.000   -205923.0533  -4516300.0005   4484350.4584   2   7   0.0239   0.0394   0.0223   0.0105  -0.0223  -0.0046   0.00    1.6
2173  22908.000   -205923.0482  -4516300.0042   4484350.4627   2   7   0.0238   0.0393   0.0221   0.0105  -0.0223  -0.0051   0.00    1.6
2173  22909.000   -205923.0508  -4516300.0101   4484350.4668   2   7   0.0238   0.0392   0.0221   0.0106  -0.0221  -0.0044   0.00    1.6
2173  22910.000   -205923.0503  -4516300.0112   4484350.4663   2   7   0.0237   0.0391   0.0220   0.0106  -0.0221  -0.0045   0.00    1.6
2173  22911.000   -205923.0534  -4516300.0070   4484350.4665   2   7   0.0238   0.0390   0.0219   0.0106  -0.0220  -0.0042   0.00    1.6
2173  22912.000   -205923.0566  -4516300.0090   4484350.4704   2   7   0.0236   0.0389   0.0217   0.0106  -0.0220  -0.0040   0.00    1.6
2173  22913.000   -205923.0599  -4516300.0115   4484350.4723   2   7   0.0236   0.0388   0.0217   0.0106  -0.0219  -0.0042   0.00    1.6
2173  22914.000   -205923.0622  -4516300.0056   4484350.4681   2   7   0.0236   0.0388   0.0217   0.0106  -0.0218  -0.0045   0.00    1.6
2173  22915.000   -205923.0628  -4516300.0101   4484350.4753   2   7   0.0236   0.0386   0.0216   0.0106  -0.0218  -0.0042   0.00    1.6
2173  22916.000   -205923.0648  -4516299.9988   4484350.4652   2   7   0.0235   0.0386   0.0215   0.0107  -0.0217  -0.0046   0.00    1.6
2173  22917.000   -205923.0643  -4516300.0060   4484350.4739   2   7   0.0235   0.0385   0.0215   0.0105  -0.0216  -0.0044   0.00    1.6
2173  22918.000   -205923.0672  -4516300.0041   4484350.4730   2   7   0.0234   0.0384   0.0214   0.0106  -0.0215  -0.0044   0.00    1.6
2173  22919.000   -205923.0685  -4516300.0015   4484350.4737   2   7   0.0235   0.0383   0.0213   0.0106  -0.0214  -0.0045   0.00    1.6
2173  22920.000   -205923.0685  -4516300.0076   4484350.4770   2   7   0.0234   0.0382   0.0213   0.0105  -0.0214  -0.0045   0.00    1.6
2173  22921.000   -205923.0684  -4516300.0116   4484350.4780   2   7   0.0232   0.0381   0.0211   0.0105  -0.0214  -0.0042   0.00    1.6
2173  22922.000   -205923.0682  -4516300.0118   4484350.4844   2   7   0.0232   0.0380   0.0211   0.0106  -0.0213  -0.0044   0.00    1.6
2173  22923.000   -205923.0683  -4516300.0118   4484350.4826   2   7   0.0233   0.0380   0.0211   0.0106  -0.0212  -0.0045   0.00    1.6
2173  22924.000   -205923.0698  -4516300.0118   4484350.4840   2   7   0.0231   0.0379   0.0210   0.0107  -0.0212  -0.0044   0.00    1.6
2173  22925.000   -205923.0757  -4516300.0076   4484350.4842   2   7   0.0232   0.0378   0.0209   0.0105  -0.0210  -0.0043   0.00    1.6
2173  22926.000   -205923.0756  -4516300.0008   4484350.4797   2   7   0.0232   0.0377   0.0207   0.0105  -0.0210  -0.0039   0.00    1.6
2173  22927.000   -205923.0738  -4516299.9994   4484350.4783   2   7   0.0230   0.0376   0.0207   0.0106  -0.0210  -0.0040   0.00    1.6
2173  22928.000   -205923.0757  -4516299.9940   4484350.4709   2   7   0.0231   0.0375   0.0206   0.0106  -0.0209  -0.0044   0.00    1.6
2173  22929.000   -205923.0759  -4516299.9872   4484350.4656   2   7   0.0230   0.0374   0.0206   0.0106  -0.0209  -0.0041   0.00    1.6
2173  22930.000   -205923.0782  -4516299.9785   4484350.4593   2   7   0.0228   0.0373   0.0205   0.0107  -0.0208  -0.0042   0.00    1.6
2173  22931.000   -205923.0820  -4516299.9755   4484350.4602   2   7   0.0228   0.0373   0.0205   0.0107  -0.0207  -0.0042   0.00    1.6
2173  22932.000   -205923.0818  -4516299.9724   4484350.4579   2   7   0.0227   0.0372   0.0203   0.0107  -0.0207  -0.0042   0.00    1.6
2173  22933.000   -205923.0827  -4516299.9722   4484350.4563   2   7   0.0227   0.0371   0.0203   0.0106  -0.0206  -0.0042   0.00    1.6
2173  22934.000   -205923.0836  -4516299.9724   4484350.4567   2   7   0.0227   0.0370   0.0202   0.0107  -0.0206  -0.0039   0.00    1.6
2173  22935.000   -205923.0827  -4516299.9672   4484350.4513   2   7   0.0228   0.0369   0.0201   0.0106  -0.0205  -0.0042   0.00    1.6
2173  22936.000   -205923.0864  -4516299.9743   4484350.4692   2   7   0.0226   0.0368   0.0200   0.0107  -0.0204  -0.0042   0.00    1.6
2173  22937.000   -205923.0840  -4516299.9745   4484350.4702   2   7   0.0227   0.0368   0.0200   0.0105  -0.0203  -0.0042   0.00    1.7
2173  22938.000   -205923.0840  -4516299.9798   4484350.4726   2   7   0.0226   0.0367   0.0199   0.0107  -0.0203  -0.0042   0.00    1.7
2173  22939.000   -205923.0818  -4516299.9783   4484350.4687   2   7   0.0225   0.0366   0.0200   0.0106  -0.0202  -0.0045   0.00    1.7
2173  22940.000   -205923.0789  -4516299.9862   4484350.4778   2   7   0.0226   0.0365   0.0198   0.0105  -0.0202  -0.0042   0.00    1.7
2173  22941.000   -205923.0779  -4516299.9953   4484350.4807   2   7   0.0225   0.0364   0.0198   0.0106  -0.0201  -0.0044   0.00    1.7
2173  22942.000   -205923.0764  -4516299.9991   4484350.4865   2   7   0.0224   0.0364   0.0197   0.0106  -0.0201  -0.0044   0.00    1.7
2173  22943.000   -205923.0750  -4516300.0003   4484350.4858   2   7   0.0224   0.0363   0.0196   0.0106  -0.0200  -0.0045   0.00    1.7
2173  22944.000   -205923.0742  -4516300.0057   4484350.4911   2   7   0.0224   0.0362   0.0197   0.0106  -0.0199  -0.0044   0.00    1.7
2173  22945.000   -205923.0724  -4516300.0144   4484350.4960   2   7   0.0223   0.0361   0.0195   0.0107  -0.0199  -0.0042   0.00    1.7
2173  22946.000   -205923.0684  -4516300.0153   4484350.4968   2   7   0.0223   0.0361   0.0195   0.0105  -0.0199  -0.0044   0.00    1.7
2173  22947.000   -205923.0696  -4516300.0231   4484350.5052   2   7   0.0223   0.0360   0.0194   0.0106  -0.0198  -0.0041   0.00    1.7
2173  22948.000   -205923.0696  -4516300.0229   4484350.5029   2   7   0.0223   0.0359   0.0194   0.0106  -0.0198  -0.0042   0.00    1.7
2173  22949.000   -205923.0718  -4516300.0213   4484350.5020   2   7   0.0222   0.0358   0.0194   0.0105  -0.0197  -0.0046   0.00    1.7
2173  22950.000   -205923.0741  -4516300.0183   4484350.4992   2   7   0.0221   0.0357   0.0192   0.0106  -0.0197  -0.0039   0.00    1.7
2173  22951.000   -205923.0766  -4516300.0161   4484350.4961   2   7   0.0222   0.0357   0.0192   0.0107  -0.0196  -0.0042   0.00    1.7
2173  22952.000   -205923.0756  -4516300.0199   4484350.5009   2   7   0.0221   0.0356   0.0191   0.0105  -0.0196  -0.0044   0.00    1.7
2173  22953.000   -205923.0731  -4516300.0209   4484350.5004   2   7   0.0221   0.0355   0.0191   0.0106  -0.0195  -0.0043   0.00    1.7
2173  22954.000   -205923.0723  -4516300.0202   4484350.4976   2   7   0.0221   0.0354   0.0191   0.0105  -0.0194  -0.0042   0.00    1.7
2173  22955.000   -205923.0711  -4516300.0268   4484350.5092   2   7   0.0220   0.0354   0.0191   0.0106  -0.0193  -0.0044   0.00    1.7
2173  22956.000   -205923.0689  -4516300.0271   4484350.5035   2   7   0.0219   0.0353   0.0189   0.0106  -0.0194  -0.0040   0.00    1.7
2173  22957.000   -205923.0708  -4516300.0266   4484350.5038   2   7   0.0219   0.0352   0.0188   0.0106  -0.0193  -0.0041   0.00    1.7
2173  22958.000   -205923.0719  -4516300.0288   4484350.5065   2   7   0.0218   0.0351   0.0188   0.0106  -0.0192  -0.0042   0.00    1.7
2173  22959.000   -205923.0692  -4516300.0277   4484350.5008   2   7   0.0218   0.0351   0.0187   0.0107  -0.0192  -0.0041   0.00    1.7
2173  22960.000   -205923.0686  -4516300.0308   4484350.5026   2   7   0.0219   0.0350   0.0186   0.0106  -0.0191  -0.0039   0.00    1.8
2173  22961.000   -205923.0649  -4516300.0350   4484350.5046   2   7   0.0217   0.0349   0.0187   0.0106  -0.0190  -0.0046   0.00    1.8
2173  22962.000   -205923.0635  -4516300.0420   4484350.5094   2   7   0.0217   0.0348   0.0185   0.0107  -0.0191  -0.0041   0.00    1.8
2173  22963.000   -205923.0615  -4516300.0486   4484350.5084   2   7   0.0218   0.0348   0.0185   0.0106  -0.0190  -0.0041   0.00    1.8
2173  22964.000   -205923.0595  -4516300.0524   4484350.5106   2   7   0.0216   0.0347   0.0183   0.0106  -0.0190  -0.0038   0.00    1.8
2173  22965.000   -205923.0590  -4516300.0553   4484350.5130   2   7   0.0217   0.0346   0.0185   0.0106  -0.0189  -0.0043   0.00    1.8
2173  22966.000   -205923.0582  -4516300.0656   4484350.5181   2   7   0.0216   0.0346   0.0183   0.0106  -0.0189  -0.0041   0.00    1.8
2173  22967.000   -205923.0584  -4516300.0608   4484350.5148   2   7   0.0215   0.0345   0.0182   0.0107  -0.0189  -0.0043   0.00    1.8
2173  22968.000   -205923.0619  -4516300.0618   4484350.5201   2   7   0.0214   0.0344   0.0182   0.0107  -0.0188  -0.0043   0.00    1.8
2173  22969.000   -205923.0635  -4516300.0611   4484350.5227   2   7   0.0214   0.0343   0.0182   0.0105  -0.0188  -0.0040   0.00    1.8
2173  22970.000   -205923.0606  -4516300.0646   4484350.5233   2   7   0.0216   0.0343   0.0181   0.0106  -0.0187  -0.0039   0.00    1.8
2173  22971.000   -205923.0619  -4516300.0631   4484350.5247   2   7   0.0214   0.0342   0.0181   0.0107  -0.0187  -0.0042   0.00    1.8
2173  22972.000   -205923.0592  -4516300.0690   4484350.5229   2   7   0.0213   0.0341   0.0180   0.0106  -0.0186  -0.0041   0.00    1.8
2173  22973.000   -205923.0596  -4516300.0703   4484350.5277   2   7   0.0214   0.0341   0.0181   0.0106  -0.0185  -0.0043   0.00    1.8
2173  22974.000   -205923.0602  -4516300.0699   4484350.5256   2   7   0.0215   0.0340   0.0180   0.0105  -0.0185  -0.0043   0.00    1.8
2173  22975.000   -205923.0610  -4516300.0706   4484350.5270   2   7   0.0212   0.0339   0.0179   0.0106  -0.0185  -0.0043   0.00    1.8
2173  22976.000   -205923.0626  -4516300.0708   4484350.5282   2   7   0.0212   0.0339   0.0178   0.0107  -0.0185  -0.0038   0.00    1.8
2173  22977.000   -205923.0616  -4516300.0661   4484350.5255   2   7   0.0212   0.0338   0.0178   0.0106  -0.0184  -0.0043   0.00    1.8
2173  22978.000   -205923.0659  -4516300.0685   4484350.5288   2   7   0.0212   0.0337   0.0178   0.0106  -0.0183  -0.0043   0.00    1.8
2173  22979.000   -205923.0666  -4516300.0637   4484350.5275   2   7   0.0212   0.0337   0.0177   0.0107  -0.0183  -0.0039   0.00    1.8
2173  22980.000   -205923.0650  -4516300.0593   4484350.5243   2   7   0.0211   0.0336   0.0176   0.0106  -0.0183  -0.0042   0.00    1.8
2173  22981.000   -205923.0696  -4516300.0543   4484350.5205   2   7   0.0212   0.0335   0.0176   0.0106  -0.0182  -0.0040   0.00    1.8
2173  22982.000   -205923.0693  -4516300.0435   4484350.5144   2   7   0.0211   0.0335   0.0176   0.0106  -0.0181  -0.0042   0.00    1.8
2173  22983.000   -205923.0701  -4516300.0370   4484350.5128   2   7   0.0211   0.0334   0.0175   0.0107  -0.0181  -0.0041   0.00    1.8
2173  22984.000   -205923.0690  -4516300.0359   4484350.5099   2   7   0.0208   0.0333   0.0176   0.0107  -0.0181  -0.0044   0.00    1.8
2173  22985.000   -205923.0698  -4516300.0342   4484350.5107   2   7   0.0209   0.0333   0.0173   0.0107  -0.0181  -0.0040   0.00    1.8
2173  22986.000   -205923.0686  -4516300.0413   4484350.5150   2   7   0.0209   0.0332   0.0175   0.0106  -0.0180  -0.0044   0.00    1.8
2173  22987.000   -205923.0683  -4516300.0390   4484350.5079   2   7   0.0208   0.0331   0.0175   0.0107  -0.0180  -0.0042   0.00    1.8
2173  22988.000   -205923.0686  -4516300.0385   4484350.5125   2   7   0.0209   0.0331   0.0173   0.0107  -0.0179  -0.0042   0.00    1.8
2173  22989.000   -205923.0667  -4516300.0406   4484350.5132   2   7   0.0208   0.0330   0.0173   0.0107  -0.0178  -0.0042   0.00    1.8
2173  22990.000   -205923.0700  -4516300.0373   4484350.5098   2   7   0.0208   0.0330   0.0173   0.0106  -0.0178  -0.0039   0.00    1.8
2173  22991.000   -205923.0671  -4516300.0333   4484350.5043   2   7   0.0208   0.0329   0.0172   0.0107  -0.0178  -0.0042   0.00    1.8
2173  22992.000   -205923.0710  -4516300.0350   4484350.5122   2   7   0.0209   0.0329   0.0171   0.0105  -0.0177  -0.0040   0.00    1.8
2173  22993.000   -205923.0707  -4516300.0270   4484350.5065   2   7   0.0206   0.0328   0.0171   0.0107  -0.0177  -0.0043   0.00    1.8
2173  22994.000   -205923.0720  -4516300.0321   4484350.5127   2   7   0.0207   0.0327   0.0170   0.0106  -0.0177  -0.0041   0.00    1.9
2173  22995.000   -205923.0691  -4516300.0182   4484350.5096   2   7   0.0207   0.0326   0.0169   0.0107  -0.0177  -0.0039   0.00    1.9
2173  22996.000   -205923.0724  -4516300.0147   4484350.5035   2   7   0.0205   0.0326   0.0171   0.0106  -0.0176  -0.0039   0.00    1.9
2173  22997.000   -205923.0708  -4516300.0094   4484350.4962   2   7   0.0206   0.0325   0.0170   0.0107  -0.0176  -0.0041   0.00    1.9
2173  22998.000   -205923.0738  -4516300.0036   4484350.4949   2   7   0.0206   0.0324   0.0168   0.0106  -0.0175  -0.0043   0.00    1.9
2173  22999.000   -205923.0741  -4516300.0045   4484350.4920   2   7   0.0207   0.0324   0.0169   0.0105  -0.0175  -0.0043   0.00    1.9
2173  23000.000   -205923.0770  -4516299.9985   4484350.4862   2   7   0.0205   0.0323   0.0168   0.0106  -0.0175  -0.0043   0.00    1.9
2173  23001.000   -205923.0761  -4516299.9967   4484350.4867   2   7   0.0204   0.0323   0.0168   0.0107  -0.0174  -0.0040   0.00    1.8
2173  23002.000   -205923.0795  -4516299.9829   4484350.4761   2   7   0.0205   0.0322   0.0167   0.0107  -0.0174  -0.0042   0.00    1.8
2173  23003.000   -205923.0819  -4516299.9743   4484350.4714   2   7   0.0204   0.0322   0.0166   0.0107  -0.0174  -0.0039   0.00    1.8
2173  23004.000   -205923.0829  -4516299.9672   4484350.4627   2   7   0.0204   0.0321   0.0167   0.0106  -0.0173  -0.0042   0.00    1.8
2173  23005.000   -205923.0881  -4516299.9549   4484350.4552   2   7   0.0204   0.0320   0.0166   0.0107  -0.0173  -0.0039   0.00    1.8
2173  23006.000   -205923.0932  -4516299.9494   4484350.4462   2   7   0.0203   0.0320   0.0166   0.0107  -0.0172  -0.0040   0.00    1.8
2173  23007.000   -205923.0892  -4516299.9388   4484350.4393   2   7   0.0204   0.0319   0.0165   0.0107  -0.0172  -0.0041   0.00    1.8
2173  23008.000   -205923.0907  -4516299.9327   4484350.4342   2   7   0.0203   0.0318   0.0165   0.0108  -0.0172  -0.0039   0.00    1.8
2173  23009.000   -205923.0921  -4516299.9217   4484350.4230   2   7   0.0202   0.0318   0.0165   0.0107  -0.0171  -0.0042   0.00    1.8
2173  23010.000   -205923.0858  -4516299.9220   4484350.4228   2   7   0.0202   0.0317   0.0164   0.0107  -0.0172  -0.0038   0.00    1.8
2173  23011.000   -205923.0835  -4516299.9206   4484350.4195   2   7   0.0202   0.0317   0.0163   0.0107  -0.0171  -0.0039   0.00    1.8
2173  23012.000   -205923.0827  -4516299.9154   4484350.4139   2   7   0.0202   0.0316   0.0163   0.0106  -0.0170  -0.0039   0.00    1.8
2173  23013.000   -205923.0841  -4516299.9108   4484350.4096   2   7   0.0201   0.0316   0.0163   0.0106  -0.0169  -0.0044   0.00    1.8
2173  23014.000   -205923.0843  -4516299.9072   4484350.4068   2   7   0.0202   0.0315   0.0163   0.0106  -0.0169  -0.0042   0.00    1.8
2173  23015.000   -205923.0877  -4516299.9017   4484350.4025   2   7   0.0201   0.0314   0.0162   0.0106  -0.0169  -0.0040   0.00    1.8
2173  23016.000   -205923.0877  -4516299.8947   4484350.3980   2   7   0.0200   0.0314   0.0163   0.0106  -0.0169  -0.0044   0.00    1.8
2173  23017.000   -205923.0901  -4516299.8921   4484350.3968   2   7   0.0199   0.0313   0.0161   0.0107  -0.0169  -0.0042   0.00    1.8
2173  23018.000   -205923.0873  -4516299.8933   4484350.3967   2   7   0.0200   0.0313   0.0161   0.0106  -0.0168  -0.0039   0.00    1.8
2173  23019.000   -205923.0909  -4516299.8872   4484350.3949   2   7   0.0199   0.0312   0.0161   0.0107  -0.0168  -0.0034   0.00    1.8
2173  23020.000   -205923.0888  -4516299.8782   4484350.3802   2   7   0.0199   0.0312   0.0162   0.0105  -0.0167  -0.0043   0.00    1.8
2173  23021.000   -205923.0890  -4516299.8681   4484350.3707   2   7   0.0198   0.0311   0.0159   0.0107  -0.0168  -0.0042   0.00    1.8
2173  23022.000   -205923.0878  -4516299.8638   4484350.3640   2   7   0.0200   0.0311   0.0160   0.0106  -0.0167  -0.0039   0.00    1.8
2173  23023.000   -205923.0866  -4516299.8562   4484350.3583   2   7   0.0198   0.0310   0.0159   0.0107  -0.0167  -0.0039   0.00    1.8
2173  23024.000   -205923.0615  -4516299.8275   4484350.3471   2   7   0.0198   0.0310   0.0159   0.0107  -0.0166  -0.0040   0.00    1.8
2173  23025.000   -205923.0594  -4516299.8308   4484350.3487   2   7   0.0197   0.0309   0.0159   0.0106  -0.0165  -0.0040   0.00    1.8
2173  23026.000   -205923.0549  -4516299.8331   4484350.3485   2   7   0.0198   0.0308   0.0158   0.0107  -0.0166  -0.0041   0.00    1.8
2173  23027.000   -205923.0519  -4516299.8391   4484350.3510   2   7   0.0197   0.0308   0.0157   0.0106  -0.0166  -0.0038   0.00    1.8
2173  23028.000   -205923.0490  -4516299.8431   4484350.3539   2   7   0.0197   0.0307   0.0157   0.0106  -0.0166  -0.0040   0.00    1.8
2173  23029.000   -205923.0491  -4516299.8460   4484350.3539   2   7   0.0197   0.0307   0.0156   0.0107  -0.0165  -0.0037   0.00    1.8
2173  23030.000   -205923.0487  -4516299.8440   4484350.3519   2   7   0.0197   0.0306   0.0155   0.0107  -0.0165  -0.0038   0.00    1.8
2173  23031.000   -205923.0511  -4516299.8439   4484350.3543   2   7   0.0196   0.0306   0.0157   0.0106  -0.0164  -0.0043   0.00    1.8
2173  23032.000   -205923.0518  -4516299.8422   4484350.3545   2   7   0.0197   0.0305   0.0158   0.0107  -0.0163  -0.0044   0.00    1.8
2173  23033.000   -205923.0515  -4516299.8403   4484350.3509   2   7   0.0195   0.0305   0.0157   0.0106  -0.0163  -0.0042   0.00    1.8
2173  23034.000   -205923.0501  -4516299.8407   4484350.3525   2   7   0.0196   0.0304   0.0156   0.0107  -0.0163  -0.0041   0.00    1.8
