% program   : rnx2rtkp ver.2.4.3 b31
% inp file  : ngs/21_09_01_11_12_49_talh.obs
% inp file  : ngs/21_09_01_11_12_49_talh_SNFL.obs
% inp file  : ngs/21_09_01_11_12_49_brdc.nav
% obs start : 2021/09/01 11:00:00.0 GPST (week2173 298800.0s)
% obs end   : 2021/09/01 11:59:59.0 GPST (week2173 302399.0s)
% ref pos   :   501203.4539  -5439154.9439   3282203.1870
%
% (x/y/z-ecef=WGS84,Q=1:fix,2:float,3:sbas,4:dgps,5:single,6:ppp,ns=# of satellites)
%  GPST              x-ecef(m)      y-ecef(m)      z-ecef(m)   Q  ns   sdx(m)   sdy(m)   sdz(m)  sdxy(m)  sdyz(m)  sdzx(m) age(s)  ratio
2173 299545.000    541528.3593  -5479447.2933   3208362.1558   2   8   0.5029   0.9593   0.6014  -0.1896  -0.5878  -0.1770 -30.00    1.5
2173 299546.000    541528.3640  -5479447.2850   3208362.1519   2   8   0.3583   0.6833   0.4284  -0.1365  -0.4187  -0.1255 -29.00    1.5
2173 299547.000    541528.3617  -5479447.2839   3208362.1533   2   8   0.2934   0.5596   0.3508  -0.1121  -0.3429  -0.1027 -28.00    1.6
2173 299548.000    541528.3591  -5479447.2782   3208362.1522   2   8   0.2545   0.4854   0.3044  -0.0973  -0.2975  -0.0890 -27.00    1.6
2173 299549.000    541528.3562  -5479447.2792   3208362.1523   2   8   0.2280   0.4347   0.2726  -0.0872  -0.2664  -0.0797 -26.00    1.6
2173 299550.000    541528.3569  -5479447.2731   3208362.1497   2   8   0.2083   0.3972   0.2491  -0.0797  -0.2434  -0.0729 -25.00    1.6
2173 299551.000    541528.3588  -5479447.2814   3208362.1512   2   8   0.1930   0.3680   0.2308  -0.0738  -0.2255  -0.0675 -24.00    1.6
2173 299552.000    541528.3561  -5479447.2757   3208362.1507   2   8   0.1806   0.3444   0.2160  -0.0691  -0.2111  -0.0632 -23.00    1.6
2173 299553.000    541528.3560  -5479447.2775   3208362.1522   2   8   0.1703   0.3248   0.2037  -0.0652  -0.1991  -0.0596 -22.00    1.6
2173 299554.000    541528.3575  -5479447.2791   3208362.1498   2   8   0.1616   0.3082   0.1933  -0.0619  -0.1889  -0.0565 -21.00    1.6
2173 299555.000    541528.3556  -5479447.2760   3208362.1506   2   8   0.1541   0.2939   0.1843  -0.0590  -0.1801  -0.0539 -20.00    1.7
2173 299556.000    541528.3574  -5479447.2787   3208362.1494   2   8   0.1476   0.2814   0.1765  -0.0566  -0.1725  -0.0516 -19.00    1.7
2173 299557.000    541528.3560  -5479447.2770   3208362.1512   2   8   0.1418   0.2704   0.1696  -0.0544  -0.1657  -0.0496 -18.00    1.7
2173 299558.000    541528.3546  -5479447.2727   3208362.1509   2   8   0.1366   0.2605   0.1634  -0.0524  -0.1597  -0.0477 -17.00    1.7
2173 299559.000    541528.3544  -5479447.2729   3208362.1473   2   8   0.1320   0.2516   0.1579  -0.0507  -0.1542  -0.0461 -16.00    1.8
2173 299560.000    541528.3540  -5479447.2730   3208362.1499   2   8   0.1278   0.2436   0.1528  -0.0491  -0.1493  -0.0446 -15.00    1.8
2173 299561.000    541528.3532  -5479447.2771   3208362.1488   2   8   0.1239   0.2363   0.1482  -0.0477  -0.1448  -0.0433 -14.00    1.9
2173 299562.000    541528.3517  -5479447.2708   3208362.1473   2   8   0.1204   0.2295   0.1440  -0.0464  -0.1407  -0.0420 -13.00    1.9
2173 299563.000    541528.3523  -5479447.2686   3208362.1438   2   8   0.1172   0.2233   0.1401  -0.0452  -0.1369  -0.0408 -12.00    1.9
2173 299564.000    541528.3527  -5479447.2700   3208362.1430   2   8   0.1142   0.2176   0.1365  -0.0441  -0.1334  -0.0398 -11.00    2.0
2173 299565.000    541528.3528  -5479447.2745   3208362.1444   2   8   0.1114   0.2123   0.1332  -0.0431  -0.1301  -0.0388 -10.00    2.0
2173 299566.000    541528.3547  -5479447.2735   3208362.1429   2   8   0.1088   0.2073   0.1301  -0.0421  -0.1271  -0.0378  -9.00    2.1
2173 299567.000    541528.3550  -5479447.2740   3208362.1426   2   8   0.1064   0.2027   0.1272  -0.0412  -0.1242  -0.0370  -8.00    2.1
2173 299568.000    541528.3538  -5479447.2760   3208362.1416   2   8   0.1041   0.1983   0.1244  -0.0404  -0.1216  -0.0361  -7.00    2.2
2173 299569.000    541528.3542  -5479447.2758   3208362.1423   2   8   0.1020   0.1942   0.1219  -0.0396  -0.1191  -0.0354  -6.00    2.3
2173 299570.000    541528.3540  -5479447.2789   3208362.1434   2   8   0.1000   0.1904   0.1195  -0.0389  -0.1167  -0.0346  -5.00    2.3
2173 299571.000    541528.3527  -5479447.2763   3208362.1423   2   8   0.0981   0.1867   0.1172  -0.0382  -0.1145  -0.0339  -4.00    2.4
2173 299572.000    541528.3542  -5479447.2822   3208362.1437   2   8   0.0963   0.1833   0.1150  -0.0376  -0.1123  -0.0333  -3.00    2.4
2173 299573.000    541528.3553  -5479447.2786   3208362.1419   2   8   0.0946   0.1801   0.1130  -0.0369  -0.1104  -0.0326  -2.00    2.4
2173 299574.000    541528.3556  -5479447.2823   3208362.1416   2   8   0.0930   0.1770   0.1110  -0.0364  -0.1085  -0.0320  -1.00    2.4
2173 299575.000    541528.3558  -5479447.2841   3208362.1410   2   8   0.0914   0.1741   0.1092  -0.0358  -0.1067  -0.0315   0.00    2.3
2173 299576.000    541528.3590  -5479447.2892   3208362.1418   2   8   0.0900   0.1713   0.1074  -0.0353  -0.1049  -0.0310   0.00    2.3
2173 299577.000    541528.3573  -5479447.2879   3208362.1412   2   8   0.0886   0.1686   0.1058  -0.0348  -0.1033  -0.0304   0.00    2.3
2173 299578.000    541528.3594  -5479447.2899   3208362.1390   2   8   0.0873   0.1661   0.1042  -0.0343  -0.1018  -0.0299   0.00    2.3
2173 299579.000    541528.3599  -5479447.2877   3208362.1416   2   8   0.0860   0.1637   0.1027  -0.0339  -0.1003  -0.0295   0.00    2.3
2173 299580.000    541528.3560  -5479447.2903   3208362.1427   2   8   0.0848   0.1613   0.1012  -0.0335  -0.0988  -0.0290   0.00    2.2
2173 299581.000    541528.3577  -5479447.2853   3208362.1398   2   8   0.0837   0.1591   0.0998  -0.0330  -0.0974  -0.0286   0.00    2.2
2173 299582.000    541528.3568  -5479447.2854   3208362.1389   2   8   0.0826   0.1570   0.0984  -0.0327  -0.0961  -0.0281   0.00    2.2
2173 299583.000    541528.3600  -5479447.2908   3208362.1420   2   8   0.0815   0.1549   0.0971  -0.0323  -0.0948  -0.0277   0.00    2.2
2173 299584.000    541528.3578  -5479447.2854   3208362.1396   2   8   0.0805   0.1529   0.0958  -0.0319  -0.0936  -0.0273   0.00    2.2
2173 299585.000    541528.3575  -5479447.2864   3208362.1419   2   8   0.0795   0.1510   0.0946  -0.0316  -0.0924  -0.0269   0.00    2.2
2173 299586.000    541528.3582  -5479447.2855   3208362.1420   2   8   0.0785   0.1491   0.0934  -0.0312  -0.0913  -0.0265   0.00    2.2
2173 299587.000    541528.3597  -5479447.2823   3208362.1409   2   8   0.0776   0.1474   0.0923  -0.0310  -0.0901  -0.0262   0.00    2.2
2173 299588.000    541528.3576  -5479447.2817   3208362.1410   2   8   0.0767   0.1456   0.0912  -0.0307  -0.0891  -0.0258   0.00    2.2
2173 299589.000    541528.3569  -5479447.2898   3208362.1480   2   8   0.0758   0.1439   0.0901  -0.0303  -0.0880  -0.0255   0.00    2.1
2173 299590.000    541528.3552  -5479447.2837   3208362.1484   2   8   0.0750   0.1423   0.0891  -0.0301  -0.0870  -0.0251   0.00    2.1
2173 299591.000    541528.3561  -5479447.2834   3208362.1460   2   8   0.0742   0.1407   0.0881  -0.0299  -0.0860  -0.0248   0.00    2.1
2173 299592.000    541528.3572  -5479447.2890   3208362.1494   2   8   0.0734   0.1392   0.0871  -0.0297  -0.0851  -0.0244   0.00    2.1
2173 299593.000    541528.3564  -5479447.2827   3208362.1480   2   8   0.0726   0.1377   0.0861  -0.0294  -0.0841  -0.0240   0.00    2.1
2173 299594.000    541528.3588  -5479447.2859   3208362.1484   2   8   0.0719   0.1363   0.0852  -0.0291  -0.0832  -0.0237   0.00    2.1
2173 299595.000    541528.3565  -5479447.2839   3208362.1452   2   8   0.0712   0.1349   0.0843  -0.0289  -0.0824  -0.0234   0.00    2.1
2173 299596.000    541528.3581  -5479447.2847   3208362.1487   2   8   0.0705   0.1335   0.0834  -0.0287  -0.0815  -0.0232   0.00    2.1
2173 299597.000    541528.3577  -5479447.2837   3208362.1460   2   8   0.0698   0.1322   0.0825  -0.0286  -0.0807  -0.0229   0.00    2.1
2173 299598.000    541528.3560  -5479447.2821   3208362.1488   2   8   0.0691   0.1309   0.0817  -0.0284  -0.0799  -0.0226   0.00    2.1
2173 299599.000    541528.3564  -5479447.2806   3208362.1452   2   8   0.0685   0.1296   0.0809  -0.0282  -0.0790  -0.0223   0.00    2.1
2173 299600.000    541528.3541  -5479447.2810   3208362.1444   2   8   0.0679   0.1284   0.0801  -0.0280  -0.0783  -0.0219   0.00    2.1
2173 299601.000    541528.3573  -5479447.2839   3208362.1461   2   8   0.0672   0.1272   0.0793  -0.0278  -0.0775  -0.0217   0.00    2.1
2173 299602.000    541528.3547  -5479447.2768   3208362.1406   2   8   0.0666   0.1260   0.0786  -0.0277  -0.0768  -0.0214   0.00    2.1
2173 299603.000    541528.3602  -5479447.2900   3208362.1496   2   8   0.0661   0.1249   0.0778  -0.0276  -0.0760  -0.0211   0.00    2.1
2173 299604.000    541528.3556  -5479447.2813   3208362.1485   2   8   0.0655   0.1238   0.0771  -0.0274  -0.0753  -0.0209   0.00    2.1
2173 299605.000    541528.3563  -5479447.2845   3208362.1489   2   8   0.0649   0.1227   0.0763  -0.0273  -0.0746  -0.0206   0.00    2.1
2173 299606.000    541528.3569  -5479447.2873   3208362.1489   2   8   0.0644   0.1216   0.0756  -0.0271  -0.0739  -0.0202   0.00    2.1
2173 299607.000    541528.3575  -5479447.2780   3208362.1469   2   8   0.0639   0.1206   0.0749  -0.0270  -0.0733  -0.0201   0.00    2.1
2173 299608.000    541528.3552  -5479447.2813   3208362.1459   2   8   0.0634   0.1195   0.0743  -0.0269  -0.0726  -0.0198   0.00    2.1
2173 299609.000    541528.3584  -5479447.2866   3208362.1491   2   8   0.0629   0.1185   0.0736  -0.0268  -0.0720  -0.0194   0.00    2.1
2173 299610.000    541528.3586  -5479447.2765   3208362.1436   2   8   0.0624   0.1176   0.0730  -0.0266  -0.0714  -0.0191   0.00    2.0
2173 299611.000    541528.3556  -5479447.2708   3208362.1410   2   8   0.0619   0.1166   0.0723  -0.0265  -0.0707  -0.0188   0.00    2.0
2173 299612.000    541528.3590  -5479447.2785   3208362.1445   2   8   0.0614   0.1156   0.0717  -0.0265  -0.0701  -0.0186   0.00    2.0
2173 299613.000    541528.3586  -5479447.2739   3208362.1441   2   8   0.0610   0.1147   0.0711  -0.0263  -0.0695  -0.0183   0.00    2.0
2173 299614.000    541528.3583  -5479447.2775   3208362.1454   2   8   0.0605   0.1138   0.0704  -0.0263  -0.0689  -0.0181   0.00    2.0
2173 299615.000    541528.3592  -5479447.2730   3208362.1410   2   8   0.0601   0.1129   0.0698  -0.0262  -0.0684  -0.0178   0.00    2.0
2173 299616.000    541528.3604  -5479447.2809   3208362.1464   2   8   0.0596   0.1121   0.0693  -0.0261  -0.0678  -0.0176   0.00    2.0
2173 299617.000    541528.3585  -5479447.2744   3208362.1436   2   8   0.0592   0.1112   0.0687  -0.0260  -0.0672  -0.0174   0.00    2.0
2173 299618.000    541528.3593  -5479447.2815   3208362.1475   2   8   0.0588   0.1104   0.0681  -0.0259  -0.0667  -0.0171   0.00    2.0
2173 299619.000    541528.3589  -5479447.2742   3208362.1404   2   8   0.0584   0.1095   0.0675  -0.0258  -0.0662  -0.0169   0.00    2.0
2173 299620.000    541528.3575  -5479447.2733   3208362.1397   2   8   0.0580   0.1087   0.0670  -0.0257  -0.0656  -0.0166   0.00    2.0
2173 299621.000    541528.3632  -5479447.2737   3208362.1376   2   8   0.0576   0.1079   0.0664  -0.0257  -0.0651  -0.0164   0.00    2.0
2173 299622.000    541528.3611  -5479447.2775   3208362.1411   2   8   0.0572   0.1071   0.0659  -0.0256  -0.0646  -0.0161   0.00    2.0
2173 299623.000    541528.3602  -5479447.2813   3208362.1403   2   8   0.0568   0.1064   0.0654  -0.0256  -0.0641  -0.0158   0.00    2.0
2173 299624.000    541528.3617  -5479447.2785   3208362.1417   2   8   0.0564   0.1056   0.0649  -0.0255  -0.0636  -0.0155   0.00    2.0
2173 299625.000    541528.3613  -5479447.2776   3208362.1371   2   8   0.0561   0.1048   0.0643  -0.0254  -0.0631  -0.0153   0.00    2.0
2173 299626.000    541528.3619  -5479447.2810   3208362.1395   2   8   0.0557   0.1041   0.0638  -0.0254  -0.0626  -0.0150   0.00    2.0
2173 299627.000    541528.3609  -5479447.2771   3208362.1371   2   8   0.0554   0.1034   0.0633  -0.0253  -0.0622  -0.0148   0.00    2.0
2173 299628.000    541528.3605  -5479447.2723   3208362.1383   2   8   0.0550   0.1027   0.0628  -0.0253  -0.0617  -0.0146   0.00    2.0
2173 299629.000    541528.3589  -5479447.2789   3208362.1378   2   8   0.0547   0.1020   0.0623  -0.0252  -0.0612  -0.0143   0.00    2.0
2173 299630.000    541528.3627  -5479447.2811   3208362.1387   2   8   0.0543   0.1013   0.0619  -0.0252  -0.0608  -0.0140   0.00    2.0
2173 299631.000    541528.3612  -5479447.2773   3208362.1363   2   8   0.0540   0.1006   0.0614  -0.0252  -0.0603  -0.0139   0.00    2.0
2173 299632.000    541528.3608  -5479447.2807   3208362.1399   2   8   0.0536   0.0999   0.0609  -0.0251  -0.0599  -0.0135   0.00    2.0
2173 299633.000    541528.3590  -5479447.2723   3208362.1343   2   8   0.0534   0.0993   0.0605  -0.0250  -0.0594  -0.0133   0.00    2.0
2173 299634.000    541528.3603  -5479447.2787   3208362.1369   2   8   0.0530   0.0986   0.0600  -0.0250  -0.0590  -0.0131   0.00    2.1
2173 299635.000    541528.3589  -5479447.2810   3208362.1410   2   8   0.0527   0.0980   0.0596  -0.0250  -0.0586  -0.0128   0.00    2.1
2173 299636.000    541528.3613  -5479447.2782   3208362.1372   2   8   0.0524   0.0973   0.0591  -0.0249  -0.0582  -0.0125   0.00    2.1
2173 299637.000    541528.3548  -5479447.2765   3208362.1380   2   8   0.0521   0.0967   0.0587  -0.0249  -0.0577  -0.0122   0.00    2.1
2173 299638.000    541528.3573  -5479447.2808   3208362.1368   2   8   0.0518   0.0961   0.0583  -0.0249  -0.0573  -0.0120   0.00    2.1
2173 299639.000    541528.3602  -5479447.2855   3208362.1391   2   8   0.0515   0.0955   0.0578  -0.0248  -0.0569  -0.0119   0.00    2.1
2173 299640.000    541528.3576  -5479447.2861   3208362.1395   2   8   0.0512   0.0949   0.0574  -0.0248  -0.0565  -0.0115   0.00    2.1
2173 299641.000    541528.3571  -5479447.2923   3208362.1414   2   8   0.0510   0.0943   0.0570  -0.0248  -0.0561  -0.0113   0.00    2.1
2173 299642.000    541528.3575  -5479447.2904   3208362.1427   2   8   0.0507   0.0937   0.0566  -0.0248  -0.0558  -0.0109   0.00    2.1
2173 299643.000    541528.3578  -5479447.2932   3208362.1437   2   8   0.0504   0.0931   0.0562  -0.0247  -0.0554  -0.0107   0.00    2.1
2173 299644.000    541528.3545  -5479447.2943   3208362.1463   2   8   0.0501   0.0926   0.0558  -0.0247  -0.0550  -0.0105   0.00    2.1
2173 299645.000    541528.3562  -5479447.2912   3208362.1420   2   8   0.0499   0.0920   0.0554  -0.0247  -0.0546  -0.0102   0.00    2.1
2173 299646.000    541528.3551  -5479447.2924   3208362.1401   2   8   0.0496   0.0914   0.0550  -0.0246  -0.0543  -0.0099   0.00    2.1
2173 299647.000    541528.3534  -5479447.2963   3208362.1444   2   8   0.0494   0.0909   0.0546  -0.0246  -0.0539  -0.0097   0.00    2.1
2173 299648.000    541528.3550  -5479447.2978   3208362.1448   2   8   0.0491   0.0903   0.0542  -0.0246  -0.0535  -0.0095   0.00    2.1
2173 299649.000    541528.3502  -5479447.2938   3208362.1426   2   8   0.0488   0.0898   0.0538  -0.0246  -0.0532  -0.0092   0.00    2.1
2173 299650.000    541528.3532  -5479447.2989   3208362.1418   2   8   0.0486   0.0893   0.0534  -0.0245  -0.0528  -0.0089   0.00    2.1
2173 299651.000    541528.3562  -5479447.3004   3208362.1425   2   8   0.0484   0.0887   0.0531  -0.0245  -0.0525  -0.0085   0.00    2.1
2173 299652.000    541528.3530  -5479447.3046   3208362.1429   2   8   0.0481   0.0882   0.0527  -0.0245  -0.0521  -0.0083   0.00    2.1
2173 299653.000    541528.3557  -5479447.3037   3208362.1441   2   8   0.0478   0.0877   0.0523  -0.0245  -0.0518  -0.0080   0.00    2.1
2173 299654.000    541528.3556  -5479447.3015   3208362.1415   2   8   0.0476   0.0872   0.0520  -0.0245  -0.0514  -0.0078   0.00    2.1
2173 299655.000    541528.3516  -5479447.3042   3208362.1457   2   8   0.0473   0.0867   0.0516  -0.0244  -0.0511  -0.0074   0.00    2.1
2173 299656.000    541528.3518  -5479447.3045   3208362.1445   2   8   0.0471   0.0862   0.0513  -0.0244  -0.0508  -0.0071   0.00    2.1
2173 299657.000    541528.3519  -5479447.3049   3208362.1446   2   8   0.0470   0.0858   0.0509  -0.0244  -0.0504  -0.0067   0.00    2.1
2173 299658.000    541528.3518  -5479447.3043   3208362.1430   2   8   0.0467   0.0853   0.0506  -0.0243  -0.0501  -0.0064   0.00    2.1
2173 299659.000    541528.3528  -5479447.3133   3208362.1468   2   8   0.0465   0.0848   0.0502  -0.0243  -0.0498  -0.0062   0.00    2.1
2173 299660.000    541528.3535  -5479447.3151   3208362.1476   2   8   0.0462   0.0843   0.0499  -0.0243  -0.0495  -0.0055   0.00    2.2
2173 299661.000    541528.3535  -5479447.3147   3208362.1471   2   8   0.0461   0.0838   0.0496  -0.0243  -0.0492  -0.0052   0.00    2.2
2173 299662.000    541528.3534  -5479447.3172   3208362.1493   2   8   0.0458   0.0834   0.0492  -0.0243  -0.0489  -0.0049   0.00    2.2
2173 299663.000    541528.3534  -5479447.3171   3208362.1474   2   8   0.0456   0.0829   0.0489  -0.0243  -0.0486  -0.0045   0.00    2.2
2173 299664.000    541528.3512  -5479447.3108   3208362.1475   2   8   0.0454   0.0825   0.0486  -0.0243  -0.0483  -0.0040   0.00    2.2
2173 299665.000    541528.3525  -5479447.3149   3208362.1487   2   8   0.0452   0.0820   0.0482  -0.0243  -0.0479  -0.0032   0.00    2.2
2173 299666.000    541528.3530  -5479447.3161   3208362.1490   2   8   0.0449   0.0816   0.0479  -0.0242  -0.0477  -0.0034   0.00    2.2
2173 299667.000    541528.3500  -5479447.3118   3208362.1491   2   8   0.0448   0.0811   0.0476  -0.0242  -0.0474  -0.0019   0.00    2.2
2173 299668.000    541528.3510  -5479447.3165   3208362.1540   2   8   0.0446   0.0807   0.0473  -0.0242  -0.0471  -0.0015   0.00    2.2
2173 299669.000    541528.3542  -5479447.3186   3208362.1538   2   8   0.0444   0.0803   0.0470  -0.0242  -0.0468   0.0023   0.00    2.2
2173 299670.000    541528.3527  -5479447.3118   3208362.1515   2   8   0.0442   0.0799   0.0467  -0.0241  -0.0465   0.0025   0.00    2.2
2173 299671.000    541528.3522  -5479447.3135   3208362.1556   2   8   0.0439   0.0794   0.0463  -0.0242  -0.0462   0.0032   0.00    2.2
2173 299672.000    541528.3540  -5479447.3159   3208362.1554   2   8   0.0438   0.0790   0.0461  -0.0241  -0.0460   0.0035   0.00    2.2
2173 299673.000    541528.3526  -5479447.3147   3208362.1554   2   8   0.0436   0.0786   0.0458  -0.0242  -0.0457   0.0040   0.00    2.2
2173 299674.000    541528.3521  -5479447.3163   3208362.1576   2   8   0.0434   0.0782   0.0455  -0.0241  -0.0454   0.0044   0.00    2.3
2173 299675.000    541528.3549  -5479447.3168   3208362.1570   2   8   0.0432   0.0778   0.0452  -0.0241  -0.0452   0.0047   0.00    2.3
2173 299676.000    541528.3532  -5479447.3148   3208362.1557   2   8   0.0431   0.0774   0.0449  -0.0241  -0.0449   0.0049   0.00    2.3
2173 299677.000    541528.3542  -5479447.3182   3208362.1567   2   8   0.0428   0.0770   0.0446  -0.0240  -0.0446   0.0055   0.00    2.3
2173 299678.000    541528.3559  -5479447.3190   3208362.1583   2   8   0.0427   0.0766   0.0443  -0.0241  -0.0443   0.0058   0.00    2.3
2173 299679.000    541528.3549  -5479447.3202   3208362.1608   2   8   0.0425   0.0762   0.0440  -0.0240  -0.0441   0.0059   0.00    2.3
2173 299680.000    541528.3542  -5479447.3204   3208362.1627   2   8   0.0423   0.0758   0.0438  -0.0240  -0.0438   0.0061   0.00    2.3
2173 299681.000    541528.3532  -5479447.3170   3208362.1607   2   8   0.0422   0.0755   0.0435  -0.0240  -0.0436   0.0066   0.00    2.3
2173 299682.000    541528.3547  -5479447.3236   3208362.1629   2   8   0.0419   0.0751   0.0432  -0.0240  -0.0433   0.0065   0.00    2.3
2173 299683.000    541528.3547  -5479447.3248   3208362.1612   2   8   0.0418   0.0747   0.0429  -0.0240  -0.0431   0.0067   0.00    2.3
2173 299684.000    541528.3583  -5479447.3247   3208362.1627   2   8   0.0416   0.0743   0.0427  -0.0239  -0.0428   0.0069   0.00    2.3
2173 299685.000    541528.3575  -5479447.3333   3208362.1689   2   8   0.0415   0.0740   0.0424  -0.0239  -0.0426   0.0073   0.00    2.4
2173 299686.000    541528.3579  -5479447.3324   3208362.1676   2   8   0.0413   0.0736   0.0422  -0.0240  -0.0424   0.0073   0.00    2.4
2173 299687.000    541528.3548  -5479447.3316   3208362.1698   2   8   0.0411   0.0733   0.0419  -0.0239  -0.0421   0.0075   0.00    2.4
2173 299688.000    541528.3533  -5479447.3314   3208362.1676   2   8   0.0410   0.0729   0.0416  -0.0239  -0.0419   0.0077   0.00    2.4
2173 299689.000    541528.3566  -5479447.3358   3208362.1667   2   8   0.0408   0.0725   0.0414  -0.0239  -0.0417   0.0078   0.00    2.4
2173 299690.000    541528.3563  -5479447.3374   3208362.1688   2   8   0.0407   0.0722   0.0411  -0.0239  -0.0414   0.0080   0.00    2.4
2173 299691.000    541528.3529  -5479447.3341   3208362.1634   2   8   0.0405   0.0718   0.0409  -0.0239  -0.0412   0.0083   0.00    2.4
2173 299692.000    541528.3561  -5479447.3373   3208362.1648   2   8   0.0404   0.0715   0.0407  -0.0239  -0.0410   0.0082   0.00    2.4
2173 299693.000    541528.3570  -5479447.3400   3208362.1667   2   8   0.0402   0.0711   0.0404  -0.0238  -0.0407   0.0083   0.00    2.4
2173 299694.000    541528.3588  -5479447.3423   3208362.1666   2   8   0.0400   0.0708   0.0402  -0.0238  -0.0405   0.0086   0.00    2.4
2173 299695.000    541528.3555  -5479447.3397   3208362.1678   2   8   0.0399   0.0705   0.0399  -0.0238  -0.0403   0.0086   0.00    2.4
2173 299696.000    541528.3569  -5479447.3400   3208362.1685   2   8   0.0397   0.0701   0.0397  -0.0238  -0.0401   0.0089   0.00    2.4
2173 299697.000    541528.3560  -5479447.3408   3208362.1658   2   8   0.0396   0.0698   0.0395  -0.0238  -0.0399   0.0090   0.00    2.4
2173 299698.000    541528.3584  -5479447.3411   3208362.1656   2   8   0.0395   0.0695   0.0392  -0.0237  -0.0397   0.0091   0.00    2.4
2173 299699.000    541528.3562  -5479447.3381   3208362.1626   2   8   0.0393   0.0692   0.0390  -0.0237  -0.0394   0.0091   0.00    2.4
2173 299700.000    541528.3545  -5479447.3390   3208362.1633   2   8   0.0392   0.0689   0.0388  -0.0237  -0.0392   0.0094   0.00    2.4
2173 299701.000    541528.3567  -5479447.3476   3208362.1630   2   8   0.0390   0.0685   0.0385  -0.0237  -0.0390   0.0092   0.00    2.4
2173 299702.000    541528.3531  -5479447.3484   3208362.1625   2   8   0.0389   0.0682   0.0383  -0.0237  -0.0388   0.0097   0.00    2.4
2173 299703.000    541528.3568  -5479447.3474   3208362.1618   2   8   0.0388   0.0679   0.0381  -0.0237  -0.0386   0.0095   0.00    2.4
2173 299704.000    541528.3550  -5479447.3457   3208362.1624   2   8   0.0386   0.0676   0.0379  -0.0236  -0.0384   0.0098   0.00    2.4
2173 299705.000    541528.3538  -5479447.3423   3208362.1589   2   8   0.0384   0.0673   0.0376  -0.0236  -0.0382   0.0096   0.00    2.4
2173 299706.000    541528.3535  -5479447.3449   3208362.1594   2   8   0.0383   0.0670   0.0374  -0.0236  -0.0380   0.0099   0.00    2.4
2173 299707.000    541528.3546  -5479447.3450   3208362.1574   2   8   0.0381   0.0667   0.0372  -0.0236  -0.0378   0.0099   0.00    2.3
2173 299708.000    541528.3575  -5479447.3479   3208362.1580   2   8   0.0380   0.0664   0.0370  -0.0236  -0.0376   0.0101   0.00    2.3
2173 299709.000    541528.3566  -5479447.3573   3208362.1618   2   8   0.0378   0.0661   0.0368  -0.0235  -0.0374   0.0100   0.00    2.3
2173 299710.000    541528.3567  -5479447.3498   3208362.1593   2   8   0.0378   0.0658   0.0366  -0.0235  -0.0373   0.0102   0.00    2.3
2173 299711.000    541528.3600  -5479447.3555   3208362.1620   2   8   0.0376   0.0655   0.0364  -0.0235  -0.0371   0.0102   0.00    2.3
2173 299712.000    541528.3576  -5479447.3517   3208362.1611   2   8   0.0376   0.0652   0.0362  -0.0236  -0.0369   0.0102   0.00    2.3
2173 299713.000    541528.3610  -5479447.3579   3208362.1620   2   8   0.0374   0.0649   0.0360  -0.0234  -0.0367   0.0104   0.00    2.3
2173 299714.000    541528.3604  -5479447.3557   3208362.1638   2   8   0.0373   0.0646   0.0358  -0.0235  -0.0365   0.0104   0.00    2.3
2173 299715.000    541528.3610  -5479447.3525   3208362.1596   2   8   0.0372   0.0644   0.0356  -0.0235  -0.0363   0.0106   0.00    2.3
2173 299716.000    541528.3579  -5479447.3498   3208362.1593   2   8   0.0370   0.0641   0.0354  -0.0234  -0.0361   0.0105   0.00    2.3
2173 299717.000    541528.3584  -5479447.3443   3208362.1554   2   8   0.0369   0.0638   0.0352  -0.0234  -0.0360   0.0108   0.00    2.3
2173 299718.000    541528.3583  -5479447.3445   3208362.1543   2   8   0.0367   0.0636   0.0350  -0.0234  -0.0358   0.0106   0.00    2.3
2173 299719.000    541528.3621  -5479447.3445   3208362.1544   2   8   0.0367   0.0633   0.0348  -0.0234  -0.0356   0.0108   0.00    2.3
2173 299720.000    541528.3601  -5479447.3445   3208362.1557   2   8   0.0366   0.0630   0.0347  -0.0234  -0.0354   0.0109   0.00    2.3
2173 299721.000    541528.3634  -5479447.3419   3208362.1543   2   8   0.0364   0.0627   0.0344  -0.0233  -0.0353   0.0109   0.00    2.3
2173 299722.000    541528.3608  -5479447.3394   3208362.1536   2   8   0.0363   0.0624   0.0342  -0.0234  -0.0351   0.0109   0.00    2.3
2173 299723.000    541528.3625  -5479447.3356   3208362.1509   2   8   0.0361   0.0622   0.0340  -0.0233  -0.0349   0.0110   0.00    2.3
2173 299724.000    541528.3626  -5479447.3366   3208362.1531   2   8   0.0360   0.0619   0.0338  -0.0233  -0.0348   0.0110   0.00    2.3
2173 299725.000    541528.3628  -5479447.3332   3208362.1490   2   8   0.0359   0.0617   0.0337  -0.0233  -0.0346   0.0111   0.00    2.3
2173 299726.000    541528.3617  -5479447.3335   3208362.1473   2   8   0.0358   0.0614   0.0335  -0.0232  -0.0344   0.0112   0.00    2.2
2173 299727.000    541528.3642  -5479447.3297   3208362.1472   2   8   0.0357   0.0611   0.0333  -0.0232  -0.0343   0.0112   0.00    2.2
2173 299728.000    541528.3626  -5479447.3257   3208362.1450   2   8   0.0356   0.0609   0.0331  -0.0232  -0.0341   0.0112   0.00    2.2
2173 299729.000    541528.3643  -5479447.3362   3208362.1500   2   8   0.0355   0.0606   0.0330  -0.0232  -0.0340   0.0112   0.00    2.2
2173 299730.000    541528.3616  -5479447.3293   3208362.1462   2   8   0.0353   0.0604   0.0328  -0.0232  -0.0338   0.0112   0.00    2.2
2173 299731.000    541528.3635  -5479447.3338   3208362.1480   2   8   0.0352   0.0601   0.0326  -0.0232  -0.0336   0.0113   0.00    2.2
2173 299732.000    541528.3641  -5479447.3291   3208362.1473   2   8   0.0352   0.0599   0.0325  -0.0231  -0.0335   0.0114   0.00    2.2
2173 299733.000    541528.3656  -5479447.3311   3208362.1475   2   8   0.0350   0.0596   0.0323  -0.0231  -0.0333   0.0114   0.00    2.2
2173 299734.000    541528.3629  -5479447.3278   3208362.1474   2   8   0.0349   0.0594   0.0321  -0.0231  -0.0332   0.0115   0.00    2.2
2173 299735.000    541528.3655  -5479447.3238   3208362.1482   2   8   0.0349   0.0592   0.0320  -0.0231  -0.0330   0.0115   0.00    2.2
2173 299736.000    541528.3639  -5479447.3226   3208362.1467   2   8   0.0347   0.0589   0.0318  -0.0231  -0.0329   0.0116   0.00    2.2
2173 299737.000    541528.3658  -5479447.3231   3208362.1467   2   8   0.0346   0.0587   0.0317  -0.0231  -0.0327   0.0116   0.00    2.2
2173 299738.000    541528.3620  -5479447.3160   3208362.1459   2   8   0.0345   0.0585   0.0315  -0.0230  -0.0326   0.0115   0.00    2.2
2173 299739.000    541528.3639  -5479447.3103   3208362.1433   2   8   0.0344   0.0582   0.0313  -0.0230  -0.0324   0.0116   0.00    2.2
2173 299740.000    541528.3619  -5479447.3134   3208362.1459   2   8   0.0343   0.0580   0.0312  -0.0229  -0.0323   0.0118   0.00    2.2
2173 299741.000    541528.3637  -5479447.3160   3208362.1459   2   8   0.0342   0.0578   0.0310  -0.0230  -0.0322   0.0116   0.00    2.2
2173 299742.000    541528.3619  -5479447.3197   3208362.1482   2   8   0.0341   0.0576   0.0308  -0.0229  -0.0320   0.0118   0.00    2.2
2173 299743.000    541528.3646  -5479447.3221   3208362.1525   2   8   0.0340   0.0573   0.0307  -0.0229  -0.0319   0.0120   0.00    2.2
2173 299744.000    541528.3579  -5479447.3164   3208362.1486   2   8   0.0339   0.0571   0.0305  -0.0229  -0.0317   0.0118   0.00    2.2
2173 299745.000    541528.3629  -5479447.3199   3208362.1487   2   8   0.0337   0.0569   0.0303  -0.0228  -0.0316   0.0117   0.00    2.2
2173 299746.000    541528.3606  -5479447.3246   3208362.1546   2   8   0.0337   0.0566   0.0302  -0.0229  -0.0314   0.0118   0.00    2.2
2173 299747.000    541528.3609  -5479447.3285   3208362.1562   2   8   0.0336   0.0564   0.0301  -0.0228  -0.0313   0.0118   0.00    2.2
2173 299748.000    541528.3611  -5479447.3296   3208362.1563   2   8   0.0335   0.0562   0.0299  -0.0229  -0.0312   0.0119   0.00    2.2
2173 299749.000    541528.3582  -5479447.3292   3208362.1585   2   8   0.0334   0.0560   0.0298  -0.0228  -0.0310   0.0119   0.00    2.2
2173 299750.000    541528.3589  -5479447.3287   3208362.1578   2   8   0.0333   0.0558   0.0296  -0.0228  -0.0309   0.0119   0.00    2.1
2173 299751.000    541528.3597  -5479447.3316   3208362.1589   2   8   0.0332   0.0555   0.0295  -0.0228  -0.0308   0.0120   0.00    2.1
2173 299752.000    541528.3579  -5479447.3330   3208362.1620   2   8   0.0330   0.0553   0.0293  -0.0227  -0.0307   0.0120   0.00    2.1
2173 299753.000    541528.3564  -5479447.3381   3208362.1631   2   8   0.0330   0.0551   0.0292  -0.0227  -0.0305   0.0121   0.00    2.1
2173 299754.000    541528.3555  -5479447.3390   3208362.1644   2   8   0.0329   0.0549   0.0291  -0.0227  -0.0304   0.0121   0.00    2.1
2173 299755.000    541528.3541  -5479447.3440   3208362.1697   2   8   0.0328   0.0547   0.0289  -0.0227  -0.0303   0.0120   0.00    2.1
2173 299756.000    541528.3540  -5479447.3453   3208362.1688   2   8   0.0327   0.0545   0.0288  -0.0227  -0.0302   0.0121   0.00    2.1
2173 299757.000    541528.3536  -5479447.3451   3208362.1725   2   8   0.0326   0.0543   0.0286  -0.0226  -0.0300   0.0120   0.00    2.1
2173 299758.000    541528.3505  -5479447.3456   3208362.1747   2   8   0.0326   0.0541   0.0285  -0.0226  -0.0299   0.0121   0.00    2.1
2173 299759.000    541528.3516  -5479447.3458   3208362.1732   2   8   0.0324   0.0539   0.0284  -0.0226  -0.0298   0.0121   0.00    2.1
2173 299760.000    541528.3518  -5479447.3518   3208362.1750   2   8   0.0324   0.0537   0.0282  -0.0226  -0.0297   0.0121   0.00    2.1
2173 299761.000    541528.3508  -5479447.3474   3208362.1772   2   8   0.0322   0.0535   0.0281  -0.0225  -0.0295   0.0122   0.00    2.1
2173 299762.000    541528.3472  -5479447.3537   3208362.1793   2   8   0.0322   0.0533   0.0280  -0.0225  -0.0294   0.0122   0.00    2.1
2173 299763.000    541528.3488  -5479447.3565   3208362.1782   2   8   0.0321   0.0531   0.0278  -0.0225  -0.0293   0.0120   0.00    2.1
2173 299764.000    541528.3499  -5479447.3596   3208362.1809   2   8   0.0320   0.0529   0.0277  -0.0224  -0.0292   0.0122   0.00    2.1
2173 299765.000    541528.3484  -5479447.3558   3208362.1799   2   8   0.0319   0.0527   0.0276  -0.0224  -0.0291   0.0122   0.00    2.1
2173 299766.000    541528.3478  -5479447.3575   3208362.1832   2   8   0.0318   0.0525   0.0275  -0.0224  -0.0290   0.0122   0.00    2.1
2173 299767.000    541528.3477  -5479447.3568   3208362.1828   2   8   0.0318   0.0523   0.0273  -0.0224  -0.0289   0.0121   0.00    2.1
2173 299768.000    541528.3487  -5479447.3545   3208362.1819   2   8   0.0316   0.0521   0.0272  -0.0223  -0.0287   0.0121   0.00    2.1
2173 299769.000    541528.3481  -5479447.3544   3208362.1824   2   8   0.0316   0.0519   0.0271  -0.0223  -0.0286   0.0122   0.00    2.1
2173 299770.000    541528.3453  -5479447.3533   3208362.1844   2   8   0.0315   0.0517   0.0270  -0.0223  -0.0285   0.0124   0.00    2.1
2173 299771.000    541528.3450  -5479447.3481   3208362.1803   2   8   0.0314   0.0516   0.0269  -0.0223  -0.0284   0.0122   0.00    2.1
2173 299772.000    541528.3458  -5479447.3509   3208362.1839   2   8   0.0314   0.0514   0.0267  -0.0223  -0.0283   0.0123   0.00    2.1
2173 299773.000    541528.3467  -5479447.3555   3208362.1857   2   8   0.0313   0.0512   0.0266  -0.0223  -0.0282   0.0124   0.00    2.1
2173 299774.000    541528.3431  -5479447.3488   3208362.1829   2   8   0.0312   0.0510   0.0265  -0.0222  -0.0281   0.0125   0.00    2.1
2173 299775.000    541528.3438  -5479447.3546   3208362.1863   2   8   0.0311   0.0508   0.0264  -0.0222  -0.0280   0.0124   0.00    2.1
2173 299776.000    541528.3426  -5479447.3514   3208362.1852   2   8   0.0311   0.0507   0.0263  -0.0222  -0.0279   0.0124   0.00    2.1
2173 299777.000    541528.3441  -5479447.3562   3208362.1871   2   8   0.0309   0.0505   0.0261  -0.0222  -0.0277   0.0122   0.00    2.1
2173 299778.000    541528.3438  -5479447.3525   3208362.1858   2   8   0.0308   0.0503   0.0260  -0.0221  -0.0277   0.0122   0.00    2.1
2173 299779.000    541528.3416  -5479447.3550   3208362.1893   2   8   0.0308   0.0501   0.0259  -0.0222  -0.0275   0.0123   0.00    2.1
2173 299780.000    541528.3404  -5479447.3603   3208362.1896   2   8   0.0307   0.0500   0.0258  -0.0221  -0.0274   0.0123   0.00    2.1
2173 299781.000    541528.3397  -5479447.3535   3208362.1860   2   8   0.0306   0.0498   0.0257  -0.0221  -0.0274   0.0123   0.00    2.1
2173 299782.000    541528.3415  -5479447.3611   3208362.1898   2   8   0.0305   0.0496   0.0256  -0.0220  -0.0273   0.0124   0.00    2.1
2173 299783.000    541528.3405  -5479447.3586   3208362.1893   2   8   0.0304   0.0494   0.0254  -0.0220  -0.0271   0.0123   0.00    2.1
2173 299784.000    541528.3396  -5479447.3612   3208362.1905   2   8   0.0304   0.0493   0.0254  -0.0220  -0.0271   0.0123   0.00    2.1
2173 299785.000    541528.3422  -5479447.3669   3208362.1941   2   8   0.0303   0.0491   0.0252  -0.0220  -0.0269   0.0123   0.00    2.1
2173 299786.000    541528.3407  -5479447.3658   3208362.1938   2   8   0.0302   0.0489   0.0252  -0.0220  -0.0269   0.0124   0.00    2.1
2173 299787.000    541528.3365  -5479447.3682   3208362.1949   2   8   0.0301   0.0488   0.0250  -0.0219  -0.0268   0.0123   0.00    2.1
2173 299788.000    541528.3402  -5479447.3700   3208362.1910   2   8   0.0301   0.0486   0.0249  -0.0219  -0.0267   0.0124   0.00    2.1
2173 299789.000    541528.3411  -5479447.3754   3208362.1961   2   8   0.0300   0.0484   0.0248  -0.0219  -0.0266   0.0124   0.00    2.1
2173 299790.000    541528.3381  -5479447.3743   3208362.1959   2   8   0.0299   0.0483   0.0247  -0.0219  -0.0265   0.0122   0.00    2.1
2173 299791.000    541528.3403  -5479447.3753   3208362.1968   2   8   0.0298   0.0481   0.0246  -0.0218  -0.0264   0.0123   0.00    2.0
2173 299792.000    541528.3411  -5479447.3745   3208362.1955   2   8   0.0298   0.0480   0.0245  -0.0218  -0.0263   0.0123   0.00    2.0
2173 299793.000    541528.3389  -5479447.3832   3208362.1990   2   8   0.0297   0.0478   0.0245  -0.0218  -0.0262   0.0123   0.00    2.0
2173 299794.000    541528.3373  -5479447.3872   3208362.2005   2   8   0.0296   0.0476   0.0243  -0.0218  -0.0261   0.0125   0.00    2.0
2173 299795.000    541528.3384  -5479447.3880   3208362.2013   2   8   0.0295   0.0475   0.0242  -0.0218  -0.0260   0.0123   0.00    2.0
2173 299796.000    541528.3415  -5479447.3914   3208362.2010   2   8   0.0295   0.0473   0.0241  -0.0217  -0.0259   0.0124   0.00    2.0
2173 299797.000    541528.3380  -5479447.3886   3208362.1979   2   8   0.0293   0.0472   0.0240  -0.0217  -0.0258   0.0124   0.00    2.0
2173 299798.000    541528.3356  -5479447.3853   3208362.1967   2   8   0.0294   0.0470   0.0239  -0.0217  -0.0258   0.0125   0.00    2.0
2173 299799.000    541528.3373  -5479447.3910   3208362.1987   2   8   0.0293   0.0469   0.0239  -0.0216  -0.0256   0.0124   0.00    2.0
2173 299800.000    541528.3360  -5479447.3935   3208362.2003   2   8   0.0292   0.0467   0.0238  -0.0216  -0.0256   0.0125   0.00    2.0
2173 299801.000    541528.3397  -5479447.3979   3208362.1979   2   8   0.0290   0.0465   0.0236  -0.0216  -0.0255   0.0123   0.00    2.0
2173 299802.000    541528.3387  -5479447.4052   3208362.1998   2   8   0.0290   0.0464   0.0235  -0.0216  -0.0254   0.0123   0.00    2.0
2173 299803.000    541528.3412  -5479447.4032   3208362.1988   2   8   0.0290   0.0462   0.0234  -0.0215  -0.0253   0.0124   0.00    2.0
2173 299804.000    541528.3396  -5479447.4053   3208362.2023   2   8   0.0289   0.0461   0.0234  -0.0215  -0.0252   0.0125   0.00    2.0
2173 299805.000    541528.3383  -5479447.4041   3208362.2022   2   8   0.0289   0.0459   0.0233  -0.0215  -0.0251   0.0124   0.00    2.0
2173 299806.000    541528.3349  -5479447.4100   3208362.2019   2   8   0.0288   0.0458   0.0232  -0.0214  -0.0250   0.0124   0.00    2.0
2173 299807.000    541528.3362  -5479447.4145   3208362.2049   2   8   0.0287   0.0456   0.0231  -0.0214  -0.0249   0.0122   0.00    2.0
2173 299808.000    541528.3358  -5479447.4179   3208362.2061   2   8   0.0286   0.0455   0.0230  -0.0214  -0.0249   0.0123   0.00    2.0
2173 299809.000    541528.3356  -5479447.4205   3208362.2058   2   8   0.0286   0.0454   0.0230  -0.0214  -0.0248   0.0124   0.00    2.0
2173 299810.000    541528.3371  -5479447.4234   3208362.2061   2   8   0.0285   0.0452   0.0228  -0.0214  -0.0247   0.0123   0.00    2.0
2173 299811.000    541528.3356  -5479447.4270   3208362.2031   2   8   0.0285   0.0451   0.0227  -0.0213  -0.0246   0.0124   0.00    2.0
2173 299812.000    541528.3351  -5479447.4216   3208362.2018   2   8   0.0284   0.0449   0.0226  -0.0213  -0.0245   0.0124   0.00    2.0
2173 299813.000    541528.3336  -5479447.4250   3208362.2063   2   8   0.0283   0.0448   0.0226  -0.0213  -0.0245   0.0124   0.00    2.0
2173 299814.000    541528.3335  -5479447.4273   3208362.2079   2   8   0.0282   0.0447   0.0225  -0.0213  -0.0244   0.0124   0.00    2.0
2173 299815.000    541528.3338  -5479447.4292   3208362.2061   2   8   0.0281   0.0445   0.0224  -0.0212  -0.0243   0.0123   0.00    2.0
2173 299816.000    541528.3320  -5479447.4349   3208362.2071   2   8   0.0282   0.0444   0.0223  -0.0212  -0.0242   0.0123   0.00    2.0
2173 299817.000    541528.3311  -5479447.4395   3208362.2096   2   8   0.0281   0.0442   0.0222  -0.0211  -0.0242   0.0124   0.00    2.0
2173 299818.000    541528.3330  -5479447.4357   3208362.2051   2   8   0.0280   0.0441   0.0221  -0.0212  -0.0241   0.0123   0.00    2.0
2173 299819.000    541528.3325  -5479447.4416   3208362.2081   2   8   0.0279   0.0440   0.0220  -0.0212  -0.0240   0.0123   0.00    2.0
2173 299820.000    541528.3307  -5479447.4426   3208362.2091   2   8   0.0278   0.0438   0.0219  -0.0211  -0.0239   0.0122   0.00    2.0
2173 299821.000    541528.3303  -5479447.4405   3208362.2054   2   8   0.0277   0.0437   0.0219  -0.0211  -0.0239   0.0122   0.00    2.0
2173 299822.000    541528.3288  -5479447.4469   3208362.2092   2   8   0.0278   0.0435   0.0218  -0.0211  -0.0238   0.0122   0.00    2.0
2173 299823.000    541528.3304  -5479447.4473   3208362.2082   2   8   0.0276   0.0435   0.0217  -0.0210  -0.0237   0.0122   0.00    2.0
2173 299824.000    541528.3287  -5479447.4522   3208362.2107   2   8   0.0276   0.0433   0.0216  -0.0210  -0.0236   0.0122   0.00    2.0
2173 299825.000    541528.3285  -5479447.4550   3208362.2115   2   8   0.0275   0.0432   0.0215  -0.0210  -0.0236   0.0124   0.00    2.0
2173 299826.000    541528.3317  -5479447.4600   3208362.2117   2   8   0.0275   0.0430   0.0215  -0.0209  -0.0235   0.0123   0.00    2.0
2173 299827.000    541528.3302  -5479447.4644   3208362.2140   2   8   0.0275   0.0429   0.0214  -0.0210  -0.0234   0.0123   0.00    2.0
2173 299828.000    541528.3284  -5479447.4610   3208362.2105   2   8   0.0273   0.0428   0.0213  -0.0209  -0.0233   0.0122   0.00    2.0
2173 299829.000    541528.3299  -5479447.4605   3208362.2121   2   8   0.0273   0.0427   0.0212  -0.0209  -0.0232   0.0122   0.00    2.0
2173 299830.000    541528.3265  -5479447.4701   3208362.2143   2   8   0.0273   0.0425   0.0211  -0.0209  -0.0232   0.0122   0.00    2.0
2173 299831.000    541528.3306  -5479447.4708   3208362.2151   2   8   0.0272   0.0424   0.0211  -0.0209  -0.0231   0.0122   0.00    2.0
2173 299832.000    541528.3309  -5479447.4737   3208362.2176   2   8   0.0271   0.0423   0.0210  -0.0207  -0.0231   0.0120   0.00    2.0
2173 299833.000    541528.3282  -5479447.4772   3208362.2207   2   8   0.0270   0.0421   0.0210  -0.0208  -0.0230   0.0122   0.00    2.0
2173 299834.000    541528.3289  -5479447.4783   3208362.2186   2   8   0.0269   0.0420   0.0209  -0.0207  -0.0229   0.0121   0.00    2.0
2173 299835.000    541528.3274  -5479447.4788   3208362.2186   2   8   0.0270   0.0419   0.0209  -0.0207  -0.0229   0.0122   0.00    2.0
2173 299836.000    541528.3305  -5479447.4821   3208362.2187   2   8   0.0268   0.0418   0.0207  -0.0208  -0.0228   0.0123   0.00    2.0
2173 299837.000    541528.3284  -5479447.4831   3208362.2206   2   8   0.0268   0.0417   0.0207  -0.0207  -0.0227   0.0121   0.00    2.0
2173 299838.000    541528.3274  -5479447.4806   3208362.2206   2   8   0.0268   0.0415   0.0205  -0.0207  -0.0227   0.0121   0.00    2.0
2173 299839.000    541528.3304  -5479447.4864   3208362.2215   2   8   0.0267   0.0414   0.0205  -0.0206  -0.0226   0.0120   0.00    2.0
2173 299840.000    541528.3296  -5479447.4878   3208362.2231   2   8   0.0266   0.0413   0.0204  -0.0206  -0.0225   0.0121   0.00    2.0
2173 299841.000    541528.3316  -5479447.4919   3208362.2244   2   8   0.0266   0.0412   0.0204  -0.0205  -0.0224   0.0121   0.00    2.0
2173 299842.000    541528.3291  -5479447.4979   3208362.2295   2   8   0.0266   0.0411   0.0203  -0.0205  -0.0224   0.0121   0.00    2.0
2173 299843.000    541528.3303  -5479447.4944   3208362.2249   2   8   0.0265   0.0409   0.0203  -0.0205  -0.0223   0.0121   0.00    2.0
2173 299844.000    541528.3311  -5479447.5029   3208362.2301   2   8   0.0264   0.0408   0.0202  -0.0205  -0.0223   0.0122   0.00    2.0
2173 299845.000    541528.3303  -5479447.5077   3208362.2358   2   8   0.0264   0.0407   0.0201  -0.0204  -0.0222   0.0119   0.00    2.0
2173 299846.000    541528.3284  -5479447.5046   3208362.2311   2   8   0.0263   0.0406   0.0200  -0.0204  -0.0222   0.0120   0.00    2.0
2173 299847.000    541528.3298  -5479447.5095   3208362.2351   2   8   0.0263   0.0405   0.0200  -0.0204  -0.0221   0.0120   0.00    2.0
2173 299848.000    541528.3296  -5479447.5052   3208362.2333   2   8   0.0262   0.0404   0.0199  -0.0204  -0.0220   0.0121   0.00    2.0
2173 299849.000    541528.3296  -5479447.5148   3208362.2368   2   8   0.0261   0.0403   0.0198  -0.0204  -0.0220   0.0120   0.00    2.1
2173 299850.000    541528.3290  -5479447.5146   3208362.2336   2   8   0.0261   0.0402   0.0198  -0.0204  -0.0219   0.0121   0.00    2.1
2173 299851.000    541528.3274  -5479447.5111   3208362.2343   2   8   0.0261   0.0400   0.0198  -0.0204  -0.0218   0.0121   0.00    2.1
2173 299852.000    541528.3285  -5479447.5207   3208362.2381   2   8   0.0260   0.0399   0.0196  -0.0204  -0.0218   0.0122   0.00    2.1
2173 299853.000    541528.3282  -5479447.5201   3208362.2374   2   8   0.0259   0.0398   0.0196  -0.0203  -0.0217   0.0120   0.00    2.1
2173 299854.000    541528.3278  -5479447.5179   3208362.2316   2   8   0.0258   0.0397   0.0195  -0.0203  -0.0216   0.0121   0.00    2.1
2173 299855.000    541528.3295  -5479447.5279   3208362.2381   2   8   0.0259   0.0396   0.0195  -0.0202  -0.0216   0.0120   0.00    2.1
2173 299856.000    541528.3274  -5479447.5287   3208362.2375   2   8   0.0258   0.0395   0.0194  -0.0202  -0.0215   0.0121   0.00    2.1
2173 299857.000    541528.3329  -5479447.5367   3208362.2411   2   8   0.0257   0.0394   0.0193  -0.0202  -0.0215   0.0120   0.00    2.1
2173 299858.000    541528.3307  -5479447.5319   3208362.2383   2   8   0.0256   0.0393   0.0192  -0.0201  -0.0214   0.0119   0.00    2.1
2173 299859.000    541528.3288  -5479447.5335   3208362.2376   2   8   0.0256   0.0391   0.0192  -0.0202  -0.0214   0.0120   0.00    2.1
2173 299860.000    541528.3306  -5479447.5374   3208362.2401   2   8   0.0254   0.0390   0.0191  -0.0201  -0.0213   0.0118   0.00    2.1
2173 299861.000    541528.3329  -5479447.5361   3208362.2392   2   8   0.0256   0.0389   0.0191  -0.0201  -0.0213   0.0120   0.00    2.1
2173 299862.000    541528.3307  -5479447.5372   3208362.2412   2   8   0.0254   0.0388   0.0190  -0.0201  -0.0212   0.0119   0.00    2.1
2173 299863.000    541528.3317  -5479447.5368   3208362.2389   2   8   0.0254   0.0387   0.0189  -0.0200  -0.0211   0.0118   0.00    2.1
2173 299864.000    541528.3316  -5479447.5383   3208362.2416   2   8   0.0253   0.0386   0.0189  -0.0200  -0.0211   0.0120   0.00    2.1
2173 299865.000    541528.3315  -5479447.5421   3208362.2416   2   8   0.0253   0.0385   0.0188  -0.0200  -0.0211   0.0119   0.00    2.1
2173 299866.000    541528.3330  -5479447.5446   3208362.2429   2   8   0.0252   0.0384   0.0188  -0.0200  -0.0209   0.0118   0.00    2.1
2173 299867.000    541528.3334  -5479447.5456   3208362.2416   2   8   0.0252   0.0383   0.0187  -0.0200  -0.0209   0.0119   0.00    2.1
2173 299868.000    541528.3346  -5479447.5504   3208362.2436   2   8   0.0252   0.0382   0.0187  -0.0199  -0.0209   0.0119   0.00    2.1
2173 299869.000    541528.3344  -5479447.5517   3208362.2454   2   8   0.0251   0.0381   0.0185  -0.0199  -0.0208   0.0118   0.00    2.1
2173 299870.000    541528.3356  -5479447.5497   3208362.2456   2   8   0.0251   0.0380   0.0186  -0.0199  -0.0207   0.0119   0.00    2.1
2173 299871.000    541528.3337  -5479447.5495   3208362.2440   2   8   0.0250   0.0379   0.0185  -0.0199  -0.0207   0.0117   0.00    2.1
2173 299872.000    541528.3360  -5479447.5511   3208362.2471   2   8   0.0249   0.0378   0.0185  -0.0198  -0.0206   0.0119   0.00    2.1
2173 299873.000    541528.3342  -5479447.5505   3208362.2448   2   8   0.0250   0.0377   0.0183  -0.0198  -0.0206   0.0119   0.00    2.1
2173 299874.000    541528.3339  -5479447.5513   3208362.2444   2   8   0.0248   0.0376   0.0183  -0.0197  -0.0206   0.0117   0.00    2.1
2173 299875.000    541528.3328  -5479447.5513   3208362.2443   2   8   0.0248   0.0375   0.0183  -0.0197  -0.0205   0.0116   0.00    2.1
2173 299876.000    541528.3324  -5479447.5568   3208362.2487   2   8   0.0249   0.0374   0.0182  -0.0197  -0.0205   0.0119   0.00    2.1
2173 299877.000    541528.3316  -5479447.5557   3208362.2457   2   8   0.0247   0.0373   0.0181  -0.0197  -0.0204   0.0117   0.00    2.1
2173 299878.000    541528.3346  -5479447.5560   3208362.2467   2   8   0.0248   0.0372   0.0182  -0.0197  -0.0203   0.0117   0.00    2.1
2173 299879.000    541528.3313  -5479447.5536   3208362.2463   2   8   0.0246   0.0371   0.0180  -0.0196  -0.0202   0.0119   0.00    2.1
2173 299880.000    541528.3322  -5479447.5558   3208362.2472   2   8   0.0245   0.0370   0.0179  -0.0196  -0.0202   0.0117   0.00    2.1
2173 299881.000    541528.3344  -5479447.5582   3208362.2485   2   8   0.0245   0.0369   0.0179  -0.0195  -0.0202   0.0116   0.00    2.1
2173 299882.000    541528.3317  -5479447.5605   3208362.2487   2   8   0.0244   0.0368   0.0179  -0.0196  -0.0201   0.0117   0.00    2.1
2173 299883.000    541528.3324  -5479447.5584   3208362.2487   2   8   0.0244   0.0367   0.0179  -0.0196  -0.0201   0.0116   0.00    2.1
2173 299884.000    541528.3322  -5479447.5621   3208362.2504   2   8   0.0244   0.0366   0.0177  -0.0195  -0.0200   0.0117   0.00    2.1
2173 299885.000    541528.3328  -5479447.5605   3208362.2504   2   8   0.0244   0.0365   0.0178  -0.0195  -0.0200   0.0117   0.00    2.1
2173 299886.000    541528.3308  -5479447.5605   3208362.2493   2   8   0.0242   0.0365   0.0178  -0.0194  -0.0200   0.0116   0.00    2.1
2173 299887.000    541528.3303  -5479447.5618   3208362.2515   2   8   0.0242   0.0364   0.0176  -0.0194  -0.0199   0.0117   0.00    2.1
2173 299888.000    541528.3312  -5479447.5625   3208362.2514   2   8   0.0242   0.0363   0.0176  -0.0195  -0.0198   0.0116   0.00    2.1
2173 299889.000    541528.3278  -5479447.5615   3208362.2502   2   8   0.0242   0.0362   0.0175  -0.0194  -0.0197   0.0117   0.00    2.1
2173 299890.000    541528.3290  -5479447.5640   3208362.2494   2   8   0.0242   0.0361   0.0176  -0.0194  -0.0198   0.0115   0.00    2.1
2173 299891.000    541528.3287  -5479447.5706   3208362.2512   2   8   0.0241   0.0360   0.0174  -0.0194  -0.0197   0.0117   0.00    2.1
2173 299892.000    541528.3303  -5479447.5760   3208362.2550   2   8   0.0240   0.0359   0.0174  -0.0193  -0.0196   0.0116   0.00    2.1
2173 299893.000    541528.3312  -5479447.5738   3208362.2541   2   8   0.0240   0.0358   0.0174  -0.0193  -0.0196   0.0115   0.00    2.1
2173 299894.000    541528.3303  -5479447.5749   3208362.2516   2   8   0.0239   0.0357   0.0173  -0.0193  -0.0195   0.0116   0.00    2.1
2173 299895.000    541528.3306  -5479447.5741   3208362.2536   2   8   0.0238   0.0356   0.0172  -0.0193  -0.0195   0.0117   0.00    2.1
2173 299896.000    541528.3300  -5479447.5701   3208362.2519   2   8   0.0239   0.0356   0.0173  -0.0192  -0.0195   0.0116   0.00    2.2
2173 299897.000    541528.3302  -5479447.5737   3208362.2549   2   8   0.0238   0.0355   0.0172  -0.0193  -0.0194   0.0115   0.00    2.2
2173 299898.000    541528.3284  -5479447.5742   3208362.2557   2   8   0.0236   0.0354   0.0170  -0.0192  -0.0194   0.0114   0.00    2.2
2173 299899.000    541528.3287  -5479447.5781   3208362.2558   2   8   0.0237   0.0353   0.0171  -0.0191  -0.0193   0.0114   0.00    2.2
2173 299900.000    541528.3307  -5479447.5801   3208362.2543   2   8   0.0236   0.0352   0.0170  -0.0191  -0.0193   0.0114   0.00    2.2
2173 299901.000    541528.3309  -5479447.5776   3208362.2550   2   8   0.0236   0.0351   0.0170  -0.0191  -0.0192   0.0114   0.00    2.2
2173 299902.000    541528.3310  -5479447.5800   3208362.2543   2   8   0.0236   0.0350   0.0169  -0.0191  -0.0192   0.0115   0.00    2.2
2173 299903.000    541528.3341  -5479447.5849   3208362.2578   2   8   0.0235   0.0350   0.0169  -0.0190  -0.0191   0.0115   0.00    2.2
2173 299904.000    541528.3304  -5479447.5826   3208362.2563   2   8   0.0234   0.0349   0.0167  -0.0190  -0.0191   0.0114   0.00    2.2
2173 299905.000    541528.3293  -5479447.5791   3208362.2557   2   8   0.0235   0.0348   0.0168  -0.0189  -0.0190   0.0114   0.00    2.2
2173 299906.000    541528.3284  -5479447.5822   3208362.2558   2   8   0.0234   0.0347   0.0167  -0.0190  -0.0190   0.0114   0.00    2.2
2173 299907.000    541528.3292  -5479447.5838   3208362.2572   2   8   0.0233   0.0346   0.0167  -0.0190  -0.0189   0.0114   0.00    2.2
2173 299908.000    541528.3279  -5479447.5816   3208362.2536   2   8   0.0233   0.0346   0.0166  -0.0189  -0.0189   0.0113   0.00    2.2
2173 299909.000    541528.3284  -5479447.5819   3208362.2539   2   8   0.0233   0.0345   0.0167  -0.0189  -0.0189   0.0114   0.00    2.2
2173 299910.000    541528.3267  -5479447.5839   3208362.2531   2   8   0.0231   0.0344   0.0165  -0.0189  -0.0188   0.0114   0.00    2.2
2173 299911.000    541528.3291  -5479447.5841   3208362.2543   2   8   0.0231   0.0343   0.0165  -0.0189  -0.0188   0.0113   0.00    2.2
2173 299912.000    541528.3307  -5479447.5892   3208362.2565   2   8   0.0231   0.0342   0.0165  -0.0189  -0.0187   0.0113   0.00    2.2
2173 299913.000    541528.3277  -5479447.5893   3208362.2558   2   8   0.0231   0.0342   0.0164  -0.0188  -0.0187   0.0113   0.00    2.2
2173 299914.000    541528.3311  -5479447.5931   3208362.2571   2   8   0.0230   0.0341   0.0163  -0.0188  -0.0187   0.0113   0.00    2.2
2173 299915.000    541528.3306  -5479447.5925   3208362.2582   2   8   0.0230   0.0340   0.0163  -0.0187  -0.0186   0.0114   0.00    2.2
2173 299916.000    541528.3281  -5479447.5919   3208362.2566   2   8   0.0230   0.0339   0.0164  -0.0187  -0.0186   0.0112   0.00    2.2
2173 299917.000    541528.3310  -5479447.5954   3208362.2585   2   8   0.0229   0.0338   0.0162  -0.0187  -0.0185   0.0113   0.00    2.2
2173 299918.000    541528.3299  -5479447.5932   3208362.2570   2   8   0.0228   0.0337   0.0162  -0.0186  -0.0186   0.0113   0.00    2.2
2173 299919.000    541528.3297  -5479447.6011   3208362.2611   2   8   0.0228   0.0336   0.0162  -0.0186  -0.0185   0.0112   0.00    2.2
2173 299920.000    541528.3290  -5479447.6003   3208362.2607   2   8   0.0228   0.0336   0.0162  -0.0186  -0.0184   0.0112   0.00    2.2
2173 299921.000    541528.3295  -5479447.6017   3208362.2598   2   8   0.0227   0.0335   0.0161  -0.0186  -0.0184   0.0113   0.00    2.2
2173 299922.000    541528.3317  -5479447.6066   3208362.2614   2   8   0.0227   0.0335   0.0160  -0.0185  -0.0183   0.0111   0.00    2.2
2173 299923.000    541528.3317  -5479447.6055   3208362.2595   2   8   0.0227   0.0334   0.0160  -0.0186  -0.0182   0.0113   0.00    2.2
2173 299924.000    541528.3317  -5479447.6105   3208362.2610   2   8   0.0226   0.0333   0.0159  -0.0185  -0.0182   0.0111   0.00    2.3
2173 299925.000    541528.3279  -5479447.6103   3208362.2607   2   8   0.0226   0.0332   0.0159  -0.0185  -0.0182   0.0111   0.00    2.3
2173 299926.000    541528.3307  -5479447.6107   3208362.2600   2   8   0.0226   0.0332   0.0159  -0.0185  -0.0181   0.0112   0.00    2.3
2173 299927.000    541528.3313  -5479447.6168   3208362.2631   2   8   0.0226   0.0330   0.0158  -0.0185  -0.0181   0.0112   0.00    2.3
2173 299928.000    541528.3313  -5479447.6190   3208362.2622   2   8   0.0224   0.0330   0.0159  -0.0184  -0.0181   0.0112   0.00    2.3
2173 299929.000    541528.3332  -5479447.6173   3208362.2605   2   8   0.0224   0.0329   0.0159  -0.0184  -0.0181   0.0109   0.00    2.3
2173 299930.000    541528.3319  -5479447.6166   3208362.2612   2   8   0.0223   0.0328   0.0156  -0.0184  -0.0180   0.0111   0.00    2.3
2173 299931.000    541528.3342  -5479447.6208   3208362.2627   2   8   0.0223   0.0328   0.0156  -0.0183  -0.0179   0.0110   0.00    2.3
2173 299932.000    541528.3334  -5479447.6221   3208362.2626   2   8   0.0222   0.0327   0.0156  -0.0183  -0.0179   0.0109   0.00    2.3
2173 299933.000    541528.3328  -5479447.6281   3208362.2654   2   8   0.0223   0.0326   0.0155  -0.0183  -0.0179   0.0110   0.00    2.3
2173 299934.000    541528.3343  -5479447.6281   3208362.2633   2   8   0.0221   0.0326   0.0156  -0.0183  -0.0179   0.0109   0.00    2.3
2173 299935.000    541528.3356  -5479447.6300   3208362.2629   2   8   0.0223   0.0325   0.0156  -0.0183  -0.0178   0.0110   0.00    2.3
2173 299936.000    541528.3356  -5479447.6313   3208362.2650   2   8   0.0221   0.0324   0.0156  -0.0183  -0.0178   0.0110   0.00    2.3
2173 299937.000    541528.3368  -5479447.6316   3208362.2641   2   8   0.0221   0.0324   0.0155  -0.0183  -0.0177   0.0110   0.00    2.3
2173 299938.000    541528.3373  -5479447.6355   3208362.2660   2   8   0.0221   0.0323   0.0154  -0.0182  -0.0177   0.0108   0.00    2.3
2173 299939.000    541528.3362  -5479447.6382   3208362.2671   2   8   0.0220   0.0322   0.0154  -0.0182  -0.0177   0.0110   0.00    2.3
2173 299940.000    541528.3366  -5479447.6357   3208362.2674   2   8   0.0220   0.0321   0.0153  -0.0181  -0.0177   0.0110   0.00    2.3
2173 299941.000    541528.3369  -5479447.6380   3208362.2653   2   8   0.0219   0.0320   0.0153  -0.0181  -0.0176   0.0109   0.00    2.3
2173 299942.000    541528.3376  -5479447.6410   3208362.2678   2   8   0.0219   0.0320   0.0154  -0.0181  -0.0175   0.0110   0.00    2.4
2173 299943.000    541528.3384  -5479447.6456   3208362.2686   2   8   0.0219   0.0319   0.0153  -0.0181  -0.0175   0.0109   0.00    2.4
2173 299944.000    541528.3380  -5479447.6419   3208362.2661   2   8   0.0218   0.0318   0.0152  -0.0180  -0.0175   0.0108   0.00    2.4
2173 299945.000    541528.3343  -5479447.6422   3208362.2659   2   8   0.0217   0.0318   0.0152  -0.0180  -0.0175   0.0108   0.00    2.4
2173 299946.000    541528.3382  -5479447.6429   3208362.2653   2   8   0.0217   0.0317   0.0151  -0.0180  -0.0174   0.0106   0.00    2.4
2173 299947.000    541528.3370  -5479447.6451   3208362.2653   2   8   0.0217   0.0317   0.0151  -0.0179  -0.0173   0.0108   0.00    2.4
2173 299948.000    541528.3388  -5479447.6479   3208362.2669   2   8   0.0217   0.0316   0.0152  -0.0179  -0.0174   0.0109   0.00    2.4
2173 299949.000    541528.3360  -5479447.6455   3208362.2641   2   8   0.0217   0.0315   0.0151  -0.0180  -0.0173   0.0107   0.00    2.4
2173 299950.000    541528.3404  -5479447.6476   3208362.2655   2   8   0.0216   0.0315   0.0150  -0.0179  -0.0173   0.0107   0.00    2.4
2173 299951.000    541528.3401  -5479447.6452   3208362.2638   2   8   0.0216   0.0314   0.0149  -0.0179  -0.0173   0.0108   0.00    2.4
2173 299952.000    541528.3394  -5479447.6482   3208362.2645   2   8   0.0216   0.0313   0.0150  -0.0178  -0.0172   0.0109   0.00    2.4
2173 299953.000    541528.3400  -5479447.6499   3208362.2662   2   8   0.0215   0.0312   0.0149  -0.0178  -0.0172   0.0107   0.00    2.4
2173 299954.000    541528.3416  -5479447.6529   3208362.2660   2   8   0.0215   0.0312   0.0149  -0.0178  -0.0171   0.0107   0.00    2.4
2173 299955.000    541528.3399  -5479447.6489   3208362.2638   2   8   0.0215   0.0311   0.0148  -0.0178  -0.0171   0.0108   0.00    2.4
2173 299956.000    541528.3411  -5479447.6480   3208362.2636   2   8   0.0214   0.0311   0.0148  -0.0177  -0.0171   0.0108   0.00    2.4
2173 299957.000    541528.3414  -5479447.6503   3208362.2644   2   8   0.0213   0.0310   0.0147  -0.0177  -0.0171   0.0106   0.00    2.4
2173 299958.000    541528.3430  -5479447.6538   3208362.2641   2   8   0.0213   0.0309   0.0147  -0.0177  -0.0170   0.0107   0.00    2.4
2173 299959.000    541528.3401  -5479447.6518   3208362.2625   2   8   0.0213   0.0308   0.0147  -0.0177  -0.0170   0.0106   0.00    2.4
2173 299960.000    541528.3437  -5479447.6594   3208362.2673   2   8   0.0213   0.0308   0.0147  -0.0177  -0.0170   0.0107   0.00    2.4
2173 299961.000    541528.3456  -5479447.6564   3208362.2645   2   8   0.0212   0.0307   0.0146  -0.0177  -0.0169   0.0106   0.00    2.4
2173 299962.000    541528.3421  -5479447.6590   3208362.2640   2   8   0.0212   0.0307   0.0147  -0.0177  -0.0169   0.0107   0.00    2.4
2173 299963.000    541528.3456  -5479447.6595   3208362.2665   2   8   0.0212   0.0306   0.0146  -0.0176  -0.0169   0.0107   0.00    2.4
2173 299964.000    541528.3451  -5479447.6556   3208362.2636   2   8   0.0211   0.0305   0.0145  -0.0177  -0.0168   0.0107   0.00    2.4
2173 299965.000    541528.3436  -5479447.6636   3208362.2659   2   8   0.0210   0.0305   0.0145  -0.0176  -0.0167   0.0106   0.00    2.4
2173 299966.000    541528.3447  -5479447.6652   3208362.2661   2   8   0.0211   0.0304   0.0146  -0.0176  -0.0168   0.0105   0.00    2.4
2173 299967.000    541528.3454  -5479447.6640   3208362.2652   2   8   0.0209   0.0304   0.0144  -0.0175  -0.0167   0.0105   0.00    2.4
2173 299968.000    541528.3448  -5479447.6670   3208362.2667   2   8   0.0209   0.0303   0.0144  -0.0176  -0.0167   0.0104   0.00    2.4
2173 299969.000    541528.3426  -5479447.6678   3208362.2680   2   8   0.0210   0.0302   0.0144  -0.0175  -0.0167   0.0106   0.00    2.4
2173 299970.000    541528.3473  -5479447.6745   3208362.2697   2   8   0.0209   0.0301   0.0143  -0.0175  -0.0167   0.0105   0.00    2.4
2173 299971.000    541528.3471  -5479447.6734   3208362.2684   2   8   0.0207   0.0301   0.0143  -0.0174  -0.0166   0.0104   0.00    2.4
2173 299972.000    541528.3461  -5479447.6713   3208362.2687   2   8   0.0208   0.0300   0.0143  -0.0174  -0.0166   0.0104   0.00    2.4
2173 299973.000    541528.3441  -5479447.6755   3208362.2695   2   8   0.0208   0.0300   0.0143  -0.0174  -0.0165   0.0105   0.00    2.4
2173 299974.000    541528.3448  -5479447.6732   3208362.2665   2   8   0.0207   0.0300   0.0142  -0.0173  -0.0165   0.0104   0.00    2.4
2173 299975.000    541528.3466  -5479447.6812   3208362.2719   2   8   0.0208   0.0299   0.0142  -0.0174  -0.0165   0.0104   0.00    2.4
2173 299976.000    541528.3472  -5479447.6740   3208362.2680   2   8   0.0207   0.0298   0.0142  -0.0173  -0.0165   0.0104   0.00    2.4
2173 299977.000    541528.3489  -5479447.6822   3208362.2710   2   8   0.0207   0.0297   0.0141  -0.0173  -0.0164   0.0104   0.00    2.4
