% program   : rnx2rtkp ver.2.4.3 b31
% inp file  : ngs/21_09_01_07_41_53_blom.obs
% inp file  : ngs/21_09_01_07_41_53_blom_SNIL.obs
% inp file  : ngs/21_09_01_07_41_53_brdc.nav
% obs start : 2021/09/01 07:00:00.0 GPST (week2173 284400.0s)
% obs end   : 2021/09/01 07:59:59.0 GPST (week2173 287999.0s)
% ref pos   :    84781.6244  -4856409.9520   4119991.2158
%
% (x/y/z-ecef=WGS84,Q=1:fix,2:float,3:sbas,4:dgps,5:single,6:ppp,ns=# of satellites)
%  GPST              x-ecef(m)      y-ecef(m)      z-ecef(m)   Q  ns   sdx(m)   sdy(m)   sdz(m)  sdxy(m)  sdyz(m)  sdzx(m) age(s)  ratio
2173 286889.000     84784.3902  -4856566.3787   4120125.0857   2   9   0.3957   0.9133   0.6112   0.2427  -0.5391   0.0935 -30.00    1.4
2173 286890.000     84784.3931  -4856566.4010   4120124.9978   2   9   0.2816   0.6501   0.4353   0.1719  -0.3832   0.0682 -29.00    1.4
2173 286891.000     84784.4440  -4856566.4041   4120125.0307   2   9   0.2305   0.5324   0.3565   0.1406  -0.3137   0.0561 -28.00    1.4
2173 286892.000     84784.4546  -4856566.4603   4120125.0708   2   9   0.2000   0.4618   0.3093   0.1219  -0.2721   0.0487 -27.00    1.5
2173 286893.000     84784.4748  -4856566.4630   4120125.0412   2   9   0.1791   0.4136   0.2770   0.1092  -0.2437   0.0436 -26.00    1.6
2173 286894.000     84784.4910  -4856566.4866   4120125.0656   2   9   0.1636   0.3779   0.2531   0.0998  -0.2227   0.0398 -25.00    1.6
2173 286895.000     84784.5091  -4856566.5672   4120125.1050   2   9   0.1516   0.3501   0.2346   0.0924  -0.2064   0.0368 -24.00    1.7
2173 286896.000     84784.5085  -4856566.6154   4120125.1230   2   9   0.1419   0.3276   0.2195   0.0865  -0.1931   0.0345 -23.00    1.8
2173 286897.000     84784.5330  -4856566.5704   4120125.1057   2   9   0.1338   0.3090   0.2071   0.0816  -0.1822   0.0325 -22.00    1.9
2173 286898.000     84784.5355  -4856566.6011   4120125.1189   2   9   0.1270   0.2932   0.1965   0.0774  -0.1729   0.0309 -21.00    2.0
2173 286899.000     84784.5502  -4856566.6162   4120125.1264   2   9   0.1211   0.2796   0.1874   0.0737  -0.1648   0.0295 -20.00    2.2
2173 286900.000     84784.5604  -4856566.6284   4120125.1472   2   9   0.1159   0.2677   0.1795   0.0706  -0.1578   0.0282 -19.00    2.3
2173 286901.000     84784.5600  -4856566.6441   4120125.1709   2   9   0.1114   0.2571   0.1724   0.0677  -0.1516   0.0272 -18.00    2.4
2173 286902.000     84784.5521  -4856566.6515   4120125.1921   2   9   0.1073   0.2477   0.1662   0.0652  -0.1461   0.0263 -17.00    2.6
2173 286903.000     84784.5649  -4856566.6304   4120125.1901   2   9   0.1037   0.2392   0.1605   0.0630  -0.1411   0.0254 -16.00    2.7
2173 286904.000     84784.5654  -4856566.6583   4120125.2067   2   9   0.1003   0.2316   0.1554   0.0609  -0.1365   0.0247 -15.00    2.7
2173 286905.000     84784.5641  -4856566.6688   4120125.2134   2   9   0.0973   0.2246   0.1507   0.0590  -0.1324   0.0240 -14.00    2.7
2173 286906.000     84784.5681  -4856566.6459   4120125.2073   2   9   0.0945   0.2181   0.1464   0.0572  -0.1286   0.0234 -13.00    2.7
2173 286907.000     84784.5630  -4856566.6483   4120125.2183   2   9   0.0920   0.2122   0.1425   0.0556  -0.1251   0.0228 -12.00    2.7
2173 286908.000     84784.5578  -4856566.6550   4120125.2237   2   9   0.0896   0.2067   0.1388   0.0541  -0.1218   0.0223 -11.00    2.8
2173 286909.000     84784.5654  -4856566.6578   4120125.2475   2   9   0.0874   0.2016   0.1354   0.0527  -0.1188   0.0219 -10.00    2.8
2173 286910.000     84784.5665  -4856566.6666   4120125.2555   2   9   0.0854   0.1968   0.1322   0.0514  -0.1160   0.0214  -9.00    2.9
2173 286911.000     84784.3663  -4856566.5672   4120124.9883   1   9   0.0068   0.0162   0.0102   0.0055  -0.0101  -0.0029  -8.00    3.1
2173 286912.000     84784.3665  -4856566.5684   4120124.9895   1   9   0.0064   0.0150   0.0095   0.0049  -0.0093  -0.0021  -7.00    3.3
2173 286913.000     84784.3643  -4856566.5667   4120124.9878   1   9   0.0058   0.0138   0.0088   0.0043  -0.0085  -0.0019  -6.00    3.5
2173 286914.000     84784.3629  -4856566.5757   4120124.9909   1   9   0.0054   0.0127   0.0082   0.0040  -0.0077  -0.0019  -5.00    3.9
2173 286915.000     84784.3621  -4856566.5747   4120124.9894   1   9   0.0048   0.0116   0.0075   0.0035  -0.0070  -0.0007  -4.00    4.2
2173 286916.000     84784.3630  -4856566.5729   4120124.9898   1   9   0.0043   0.0107   0.0068   0.0028  -0.0064   0.0014  -3.00    4.4
2173 286917.000     84784.3606  -4856566.5758   4120124.9926   1   9   0.0038   0.0099   0.0065   0.0026  -0.0059   0.0016  -2.00    4.8
2173 286918.000     84784.3614  -4856566.5739   4120124.9920   1   9   0.0041   0.0094   0.0065   0.0022  -0.0056   0.0009  -1.00    5.1
2173 286919.000     84784.3612  -4856566.5761   4120124.9963   1   9   0.0043   0.0093   0.0061   0.0022  -0.0053   0.0023   0.00    5.2
2173 286920.000     84784.3611  -4856566.5708   4120124.9942   1   9   0.0038   0.0091   0.0060   0.0017  -0.0055  -0.0009   0.00    5.4
2173 286921.000     84784.3623  -4856566.5751   4120124.9971   1   9   0.0037   0.0092   0.0060   0.0026  -0.0055   0.0019   0.00    5.5
2173 286922.000     84784.3620  -4856566.5709   4120124.9973   1   9   0.0044   0.0093   0.0064   0.0024  -0.0053   0.0011   0.00    5.7
2173 286923.000     84784.3609  -4856566.5738   4120124.9977   1   9   0.0043   0.0092   0.0061   0.0025  -0.0055  -0.0005   0.00    5.8
2173 286924.000     84784.3624  -4856566.5736   4120124.9961   1   9   0.0040   0.0093   0.0063   0.0023  -0.0053   0.0014   0.00    5.9
2173 286925.000     84784.3620  -4856566.5712   4120124.9967   1   9   0.0040   0.0091   0.0060   0.0021  -0.0055   0.0013   0.00    6.0
2173 286926.000     84784.3616  -4856566.5712   4120124.9938   1   9   0.0037   0.0091   0.0060   0.0022  -0.0054   0.0015   0.00    6.1
2173 286927.000     84784.3613  -4856566.5736   4120124.9928   1   9   0.0038   0.0092   0.0063   0.0027  -0.0055   0.0011   0.00    6.2
2173 286928.000     84784.3614  -4856566.5759   4120124.9953   1   9   0.0041   0.0091   0.0062   0.0024  -0.0055   0.0020   0.00    6.2
2173 286929.000     84784.3632  -4856566.5721   4120124.9945   1   9   0.0043   0.0091   0.0063   0.0024  -0.0055   0.0014   0.00    6.3
2173 286930.000     84784.3635  -4856566.5674   4120124.9907   1   9   0.0039   0.0092   0.0062   0.0021  -0.0054   0.0014   0.00    6.2
2173 286931.000     84784.3638  -4856566.5713   4120124.9938   1   9   0.0037   0.0090   0.0062   0.0025  -0.0054   0.0013   0.00    6.2
2173 286932.000     84784.3628  -4856566.5712   4120124.9935   1   9   0.0043   0.0091   0.0064   0.0024  -0.0055   0.0010   0.00    6.2
2173 286933.000     84784.3626  -4856566.5744   4120124.9941   1   9   0.0041   0.0092   0.0061   0.0018  -0.0054  -0.0011   0.00    6.2
2173 286934.000     84784.3618  -4856566.5741   4120124.9968   1   9   0.0040   0.0092   0.0062   0.0023  -0.0054   0.0021   0.00    6.2
2173 286935.000     84784.3618  -4856566.5717   4120124.9976   1   9   0.0039   0.0091   0.0060   0.0025  -0.0055   0.0018   0.00    6.1
2173 286936.000     84784.3627  -4856566.5723   4120124.9963   1   9   0.0039   0.0092   0.0059   0.0026  -0.0054   0.0022   0.00    6.0
2173 286937.000     84784.3623  -4856566.5730   4120124.9976   1   9   0.0036   0.0091   0.0062   0.0020  -0.0055  -0.0009   0.00    5.9
2173 286938.000     84784.3613  -4856566.5749   4120124.9974   1   9   0.0043   0.0093   0.0063   0.0022  -0.0054  -0.0012   0.00    5.9
2173 286939.000     84784.3626  -4856566.5740   4120124.9982   1   9   0.0036   0.0092   0.0063   0.0027  -0.0054   0.0011   0.00    5.8
2173 286940.000     84784.3624  -4856566.5741   4120124.9950   1   9   0.0040   0.0092   0.0061   0.0021  -0.0055   0.0020   0.00    5.7
2173 286941.000     84784.3619  -4856566.5686   4120124.9960   1   9   0.0040   0.0091   0.0063   0.0023  -0.0054  -0.0014   0.00    5.7
2173 286942.000     84784.3624  -4856566.5742   4120124.9980   1   9   0.0039   0.0092   0.0062   0.0024  -0.0054  -0.0006   0.00    5.6
2173 286943.000     84784.3635  -4856566.5688   4120124.9975   1   9   0.0043   0.0092   0.0064   0.0023  -0.0055  -0.0015   0.00    5.5
2173 286944.000     84784.3624  -4856566.5719   4120124.9944   1   9   0.0041   0.0091   0.0062   0.0021  -0.0054   0.0017   0.00    5.5
2173 286945.000     84784.3629  -4856566.5726   4120124.9943   1   9   0.0043   0.0091   0.0064   0.0023  -0.0053  -0.0017   0.00    5.5
2173 286946.000     84784.3607  -4856566.5755   4120124.9940   1   9   0.0043   0.0092   0.0063   0.0021  -0.0054   0.0006   0.00    5.4
2173 286947.000     84784.3603  -4856566.5769   4120124.9958   1   9   0.0043   0.0091   0.0062   0.0025  -0.0054   0.0011   0.00    5.4
2173 286948.000     84784.3603  -4856566.5732   4120124.9927   1   9   0.0039   0.0092   0.0062   0.0024  -0.0054   0.0019   0.00    5.3
2173 286949.000     84784.3610  -4856566.5734   4120124.9937   1   9   0.0040   0.0091   0.0061   0.0020  -0.0054  -0.0009   0.00    5.3
2173 286950.000     84784.3607  -4856566.5741   4120124.9950   1   9   0.0042   0.0091   0.0062   0.0031  -0.0055  -0.0000   0.00    5.2
2173 286951.000     84784.3616  -4856566.5719   4120124.9941   1   9   0.0039   0.0092   0.0061   0.0024  -0.0054   0.0016   0.00    5.2
2173 286952.000     84784.3610  -4856566.5746   4120124.9941   1   9   0.0036   0.0092   0.0060   0.0024  -0.0054   0.0020   0.00    5.2
2173 286953.000     84784.3615  -4856566.5751   4120124.9940   1   9   0.0039   0.0091   0.0062   0.0026  -0.0055   0.0005   0.00    5.1
2173 286954.000     84784.3606  -4856566.5783   4120124.9962   1   9   0.0039   0.0092   0.0062   0.0025  -0.0055   0.0016   0.00    5.1
2173 286955.000     84784.3600  -4856566.5716   4120124.9927   1   9   0.0042   0.0092   0.0062   0.0022  -0.0054   0.0009   0.00    5.1
2173 286956.000     84784.3583  -4856566.5747   4120124.9953   1   9   0.0038   0.0090   0.0062   0.0024  -0.0055   0.0012   0.00    5.1
2173 286957.000     84784.3605  -4856566.5738   4120124.9929   1   9   0.0032   0.0090   0.0062   0.0024  -0.0055   0.0007   0.00    5.1
2173 286958.000     84784.3600  -4856566.5715   4120124.9916   1   9   0.0040   0.0090   0.0062   0.0021  -0.0055   0.0008   0.00    5.1
2173 286959.000     84784.3582  -4856566.5710   4120124.9907   1   9   0.0044   0.0091   0.0063   0.0022  -0.0053   0.0014   0.00    5.1
2173 286960.000     84784.3601  -4856566.5732   4120124.9930   1   9   0.0042   0.0092   0.0062   0.0025  -0.0053   0.0013   0.00    5.0
2173 286961.000     84784.3607  -4856566.5745   4120124.9936   1   9   0.0034   0.0090   0.0060   0.0027  -0.0054   0.0013   0.00    5.0
2173 286962.000     84784.3609  -4856566.5721   4120124.9933   1   9   0.0039   0.0091   0.0063   0.0023  -0.0055  -0.0002   0.00    4.9
2173 286963.000     84784.3606  -4856566.5749   4120124.9929   1   9   0.0037   0.0090   0.0062   0.0020  -0.0056  -0.0012   0.00    4.9
2173 286964.000     84784.3597  -4856566.5757   4120124.9923   1   9   0.0040   0.0091   0.0062   0.0023  -0.0054   0.0022   0.00    4.9
2173 286965.000     84784.3621  -4856566.5699   4120124.9899   1   9   0.0040   0.0091   0.0062   0.0027  -0.0054   0.0014   0.00    4.8
2173 286966.000     84784.3576  -4856566.5757   4120124.9951   1   9   0.0040   0.0091   0.0062   0.0021  -0.0054   0.0014   0.00    4.8
2173 286967.000     84784.3606  -4856566.5693   4120124.9900   1   9   0.0038   0.0091   0.0059   0.0026  -0.0055   0.0019   0.00    4.8
2173 286968.000     84784.3587  -4856566.5730   4120124.9934   1   9   0.0042   0.0092   0.0063   0.0024  -0.0055   0.0013   0.00    4.8
2173 286969.000     84784.3611  -4856566.5706   4120124.9899   1   9   0.0040   0.0091   0.0061   0.0025  -0.0054   0.0015   0.00    4.8
2173 286970.000     84784.3593  -4856566.5720   4120124.9886   1   9   0.0036   0.0091   0.0063   0.0026  -0.0054   0.0012   0.00    4.7
2173 286971.000     84784.3606  -4856566.5714   4120124.9919   1   9   0.0040   0.0092   0.0063   0.0023  -0.0053   0.0017   0.00    4.7
2173 286972.000     84784.3625  -4856566.5691   4120124.9901   1   9   0.0042   0.0092   0.0063   0.0021  -0.0055   0.0010   0.00    4.7
2173 286973.000     84784.3614  -4856566.5730   4120124.9911   1   9   0.0040   0.0092   0.0062   0.0026  -0.0055   0.0015   0.00    4.7
2173 286974.000     84784.3608  -4856566.5705   4120124.9887   1   9   0.0035   0.0090   0.0062   0.0022  -0.0054   0.0015   0.00    4.7
2173 286975.000     84784.3602  -4856566.5750   4120124.9933   1   9   0.0040   0.0092   0.0063   0.0028  -0.0054   0.0011   0.00    4.7
2173 286976.000     84784.3597  -4856566.5714   4120124.9933   1   9   0.0038   0.0090   0.0062   0.0022  -0.0055  -0.0012   0.00    4.7
2173 286977.000     84784.3584  -4856566.5720   4120124.9909   1   9   0.0038   0.0091   0.0061   0.0022  -0.0055   0.0015   0.00    4.7
2173 286978.000     84784.3606  -4856566.5706   4120124.9931   1   9   0.0041   0.0091   0.0062   0.0022  -0.0055   0.0006   0.00    4.7
2173 286979.000     84784.3593  -4856566.5751   4120124.9942   1   9   0.0039   0.0090   0.0059   0.0021  -0.0056  -0.0012   0.00    4.6
2173 286980.000     84784.3599  -4856566.5754   4120124.9916   1   9   0.0041   0.0091   0.0062   0.0025  -0.0055  -0.0013   0.00    4.6
2173 286981.000     84784.3619  -4856566.5762   4120124.9932   1   9   0.0036   0.0091   0.0061   0.0022  -0.0054   0.0013   0.00    4.6
2173 286982.000     84784.3607  -4856566.5753   4120124.9933   1   9   0.0039   0.0090   0.0062   0.0018  -0.0055   0.0008   0.00    4.6
2173 286983.000     84784.3603  -4856566.5748   4120124.9957   1   9   0.0036   0.0092   0.0064   0.0018  -0.0055   0.0018   0.00    4.6
2173 286984.000     84784.3614  -4856566.5706   4120124.9915   1   9   0.0043   0.0091   0.0061   0.0019  -0.0054   0.0011   0.00    4.6
2173 286985.000     84784.3597  -4856566.5710   4120124.9920   1   9   0.0039   0.0091   0.0061   0.0020  -0.0055   0.0006   0.00    4.6
2173 286986.000     84784.3610  -4856566.5719   4120124.9904   1   9   0.0042   0.0091   0.0061   0.0025  -0.0054   0.0017   0.00    4.5
2173 286987.000     84784.3608  -4856566.5747   4120124.9936   1   9   0.0037   0.0091   0.0062   0.0020  -0.0055  -0.0008   0.00    4.5
2173 286988.000     84784.3577  -4856566.5747   4120124.9952   1   9   0.0040   0.0090   0.0061   0.0022  -0.0055   0.0017   0.00    4.5
2173 286989.000     84784.3603  -4856566.5756   4120124.9935   1   9   0.0040   0.0091   0.0062   0.0027  -0.0054   0.0017   0.00    4.5
2173 286990.000     84784.3589  -4856566.5756   4120124.9919   1   9   0.0039   0.0091   0.0061   0.0020  -0.0054   0.0022   0.00    4.5
2173 286991.000     84784.3609  -4856566.5718   4120124.9925   1   9   0.0042   0.0091   0.0062   0.0022  -0.0054   0.0017   0.00    4.5
2173 286992.000     84784.3610  -4856566.5740   4120124.9927   1   9   0.0041   0.0090   0.0065   0.0028  -0.0055  -0.0008   0.00    4.5
2173 286993.000     84784.3599  -4856566.5707   4120124.9932   1   9   0.0039   0.0091   0.0063   0.0023  -0.0053   0.0009   0.00    4.5
2173 286994.000     84784.3603  -4856566.5715   4120124.9953   1   9   0.0039   0.0090   0.0063   0.0025  -0.0053   0.0015   0.00    4.4
2173 286995.000     84784.3595  -4856566.5707   4120124.9921   1   9   0.0040   0.0091   0.0063   0.0025  -0.0055  -0.0006   0.00    4.5
2173 286996.000     84784.3591  -4856566.5740   4120124.9927   1   9   0.0044   0.0092   0.0063   0.0026  -0.0056   0.0009   0.00    4.5
2173 286997.000     84784.3606  -4856566.5719   4120124.9922   1   9   0.0039   0.0090   0.0062   0.0023  -0.0054  -0.0006   0.00    4.5
2173 286998.000     84784.3592  -4856566.5755   4120124.9930   1   9   0.0038   0.0091   0.0063   0.0019  -0.0053   0.0010   0.00    4.5
2173 286999.000     84784.3593  -4856566.5717   4120124.9929   1   9   0.0038   0.0090   0.0060   0.0019  -0.0054   0.0009   0.00    4.5
2173 287000.000     84784.3579  -4856566.5744   4120124.9919   1   9   0.0040   0.0090   0.0062   0.0028  -0.0056   0.0012   0.00    4.5
2173 287001.000     84784.3582  -4856566.5689   4120124.9905   1   9   0.0042   0.0090   0.0062   0.0021  -0.0054  -0.0011   0.00    4.5
2173 287002.000     84784.3569  -4856566.5676   4120124.9889   1   9   0.0036   0.0090   0.0063   0.0021  -0.0053  -0.0010   0.00    4.5
2173 287003.000     84784.3603  -4856566.5696   4120124.9915   1   9   0.0040   0.0091   0.0062   0.0025  -0.0055   0.0012   0.00    4.5
2173 287004.000     84784.3589  -4856566.5721   4120124.9923   1   9   0.0036   0.0091   0.0062   0.0023  -0.0054   0.0018   0.00    4.5
2173 287005.000     84784.3580  -4856566.5737   4120124.9937   1   9   0.0036   0.0090   0.0063   0.0017  -0.0055   0.0007   0.00    4.5
2173 287006.000     84784.3587  -4856566.5680   4120124.9881   1   9   0.0043   0.0091   0.0064   0.0026  -0.0053  -0.0007   0.00    4.5
2173 287007.000     84784.3610  -4856566.5725   4120124.9896   1   9   0.0036   0.0090   0.0063   0.0028  -0.0055   0.0018   0.00    4.5
2173 287008.000     84784.3612  -4856566.5743   4120124.9915   1   9   0.0039   0.0092   0.0062   0.0025  -0.0053   0.0016   0.00    4.5
2173 287009.000     84784.3594  -4856566.5754   4120124.9914   1   9   0.0038   0.0090   0.0061   0.0027  -0.0055   0.0005   0.00    4.5
2173 287010.000     84784.3606  -4856566.5762   4120124.9908   1   9   0.0033   0.0091   0.0063   0.0018  -0.0054   0.0015   0.00    4.5
2173 287011.000     84784.3620  -4856566.5767   4120124.9909   1   9   0.0042   0.0090   0.0063   0.0019  -0.0054   0.0007   0.00    4.5
2173 287012.000     84784.3615  -4856566.5728   4120124.9906   1   9   0.0043   0.0092   0.0064   0.0026  -0.0054   0.0013   0.00    4.5
2173 287013.000     84784.3633  -4856566.5705   4120124.9883   1   9   0.0041   0.0090   0.0059   0.0022  -0.0056   0.0011   0.00    4.5
2173 287014.000     84784.3629  -4856566.5723   4120124.9901   1   9   0.0039   0.0091   0.0063   0.0027  -0.0054   0.0015   0.00    4.5
2173 287015.000     84784.3621  -4856566.5718   4120124.9895   1   9   0.0042   0.0091   0.0063   0.0022  -0.0054   0.0012   0.00    4.5
2173 287016.000     84784.3613  -4856566.5716   4120124.9913   1   9   0.0043   0.0093   0.0063   0.0024  -0.0054   0.0016   0.00    4.5
2173 287017.000     84784.3615  -4856566.5750   4120124.9904   1   9   0.0038   0.0091   0.0063   0.0023  -0.0054   0.0022   0.00    4.5
2173 287018.000     84784.3619  -4856566.5760   4120124.9915   1   9   0.0039   0.0090   0.0061   0.0020  -0.0055   0.0011   0.00    4.5
2173 287019.000     84784.3634  -4856566.5747   4120124.9895   1   9   0.0038   0.0091   0.0065   0.0026  -0.0054   0.0005   0.00    4.5
2173 287020.000     84784.3618  -4856566.5711   4120124.9891   1   9   0.0039   0.0090   0.0062   0.0023  -0.0055   0.0015   0.00    4.5
2173 287021.000     84784.3615  -4856566.5691   4120124.9888   1   9   0.0036   0.0090   0.0063   0.0020  -0.0055  -0.0007   0.00    4.5
2173 287022.000     84784.3618  -4856566.5719   4120124.9896   1   9   0.0041   0.0091   0.0063   0.0028  -0.0054   0.0011   0.00    4.5
2173 287023.000     84784.3629  -4856566.5728   4120124.9897   1   9   0.0041   0.0091   0.0064   0.0025  -0.0054  -0.0003   0.00    4.6
2173 287024.000     84784.3618  -4856566.5743   4120124.9892   1   9   0.0039   0.0090   0.0064   0.0015  -0.0055  -0.0012   0.00    4.6
2173 287025.000     84784.3633  -4856566.5772   4120124.9900   1   9   0.0044   0.0090   0.0064   0.0025  -0.0054   0.0004   0.00    4.6
2173 287026.000     84784.3615  -4856566.5725   4120124.9871   1   9   0.0038   0.0090   0.0063   0.0024  -0.0054  -0.0002   0.00    4.6
2173 287027.000     84784.3621  -4856566.5725   4120124.9886   1   9   0.0040   0.0091   0.0063   0.0025  -0.0054   0.0022   0.00    4.6
2173 287028.000     84784.3609  -4856566.5692   4120124.9868   1   9   0.0039   0.0091   0.0063   0.0025  -0.0053   0.0017   0.00    4.6
2173 287029.000     84784.3625  -4856566.5745   4120124.9888   1   9   0.0044   0.0091   0.0063   0.0023  -0.0054   0.0008   0.00    4.6
2173 287030.000     84784.3639  -4856566.5674   4120124.9839   1   9   0.0036   0.0090   0.0064   0.0024  -0.0055  -0.0009   0.00    4.6
2173 287031.000     84784.3650  -4856566.5718   4120124.9871   1   9   0.0041   0.0092   0.0064   0.0028  -0.0053   0.0015   0.00    4.6
2173 287032.000     84784.3645  -4856566.5711   4120124.9844   1   9   0.0039   0.0090   0.0061   0.0023  -0.0055   0.0020   0.00    4.6
2173 287033.000     84784.3646  -4856566.5703   4120124.9868   1   9   0.0038   0.0090   0.0061   0.0010  -0.0056  -0.0010   0.00    4.6
2173 287034.000     84784.3655  -4856566.5735   4120124.9870   1   9   0.0039   0.0090   0.0062   0.0018  -0.0055  -0.0008   0.00    4.6
2173 287035.000     84784.3647  -4856566.5699   4120124.9874   1   9   0.0038   0.0090   0.0063   0.0024  -0.0054   0.0012   0.00    4.6
2173 287036.000     84784.3666  -4856566.5710   4120124.9871   1   9   0.0038   0.0090   0.0062   0.0022  -0.0055   0.0014   0.00    4.6
2173 287037.000     84784.3663  -4856566.5702   4120124.9886   1   9   0.0041   0.0090   0.0063   0.0020  -0.0054   0.0010   0.00    4.6
2173 287038.000     84784.3657  -4856566.5649   4120124.9844   1   9   0.0034   0.0090   0.0062   0.0024  -0.0055   0.0012   0.00    4.6
2173 287039.000     84784.3658  -4856566.5720   4120124.9877   1   9   0.0040   0.0091   0.0065   0.0020  -0.0054   0.0017   0.00    4.6
2173 287040.000     84784.3639  -4856566.5701   4120124.9872   1   9   0.0037   0.0090   0.0063   0.0023  -0.0056   0.0011   0.00    4.6
2173 287041.000     84784.3651  -4856566.5658   4120124.9874   1   9   0.0040   0.0090   0.0062   0.0018  -0.0055   0.0012   0.00    4.6
2173 287042.000     84784.3650  -4856566.5681   4120124.9869   1   9   0.0040   0.0091   0.0062   0.0029  -0.0054   0.0018   0.00    4.7
2173 287043.000     84784.3633  -4856566.5654   4120124.9853   1   9   0.0041   0.0090   0.0063   0.0026  -0.0054   0.0012   0.00    4.7
2173 287044.000     84784.3647  -4856566.5693   4120124.9873   1   9   0.0037   0.0090   0.0064   0.0018  -0.0056   0.0010   0.00    4.7
2173 287045.000     84784.3644  -4856566.5674   4120124.9838   1   9   0.0040   0.0089   0.0065   0.0021  -0.0055  -0.0012   0.00    4.7
2173 287046.000     84784.3658  -4856566.5657   4120124.9862   1   9   0.0042   0.0090   0.0063   0.0025  -0.0054   0.0013   0.00    4.7
2173 287047.000     84784.3652  -4856566.5641   4120124.9863   1   9   0.0041   0.0089   0.0063   0.0021  -0.0054  -0.0011   0.00    4.7
2173 287048.000     84784.3664  -4856566.5659   4120124.9838   1   9   0.0038   0.0089   0.0065   0.0018  -0.0054  -0.0012   0.00    4.7
2173 287049.000     84784.3648  -4856566.5657   4120124.9843   1   9   0.0038   0.0090   0.0062   0.0025  -0.0054   0.0017   0.00    4.7
2173 287050.000     84784.3645  -4856566.5682   4120124.9866   1   9   0.0038   0.0089   0.0061   0.0026  -0.0056   0.0014   0.00    4.8
2173 287051.000     84784.3657  -4856566.5649   4120124.9854   1   9   0.0038   0.0089   0.0063   0.0022  -0.0055   0.0017   0.00    4.8
2173 287052.000     84784.3644  -4856566.5658   4120124.9823   1   9   0.0037   0.0089   0.0063   0.0023  -0.0055  -0.0015   0.00    4.8
2173 287053.000     84784.3649  -4856566.5673   4120124.9858   1   9   0.0040   0.0091   0.0063   0.0028  -0.0054  -0.0008   0.00    4.8
2173 287054.000     84784.3639  -4856566.5679   4120124.9854   1   9   0.0038   0.0090   0.0062   0.0024  -0.0053   0.0019   0.00    4.8
2173 287055.000     84784.3653  -4856566.5690   4120124.9869   1   9   0.0040   0.0090   0.0061   0.0019  -0.0055   0.0015   0.00    4.8
2173 287056.000     84784.3657  -4856566.5637   4120124.9912   1   8   0.0037   0.0091   0.0070   0.0026  -0.0056   0.0023   0.00    5.9
2173 287057.000     84784.3659  -4856566.5677   4120124.9904   1   8   0.0037   0.0090   0.0070   0.0025  -0.0057   0.0019   0.00    5.9
2173 287058.000     84784.3652  -4856566.5697   4120124.9932   1   8   0.0036   0.0090   0.0070   0.0023  -0.0057   0.0020   0.00    5.9
2173 287059.000     84784.3655  -4856566.5691   4120124.9922   1   8   0.0041   0.0090   0.0070   0.0024  -0.0056   0.0019   0.00    5.9
2173 287060.000     84784.3677  -4856566.5689   4120124.9927   1   8   0.0040   0.0090   0.0069   0.0024  -0.0057   0.0018   0.00    5.9
2173 287061.000     84784.3654  -4856566.5737   4120124.9953   1   8   0.0037   0.0091   0.0070   0.0017  -0.0057   0.0019   0.00    5.9
2173 287062.000     84784.3648  -4856566.5670   4120124.9928   1   8   0.0036   0.0090   0.0071   0.0022  -0.0057   0.0016   0.00    5.8
2173 287063.000     84784.3652  -4856566.5671   4120124.9925   1   8   0.0039   0.0089   0.0069   0.0023  -0.0056   0.0017   0.00    5.8
2173 287064.000     84784.3674  -4856566.5678   4120124.9898   1   8   0.0040   0.0090   0.0068   0.0002  -0.0056   0.0021   0.00    5.8
2173 287065.000     84784.3673  -4856566.5666   4120124.9903   1   8   0.0040   0.0089   0.0070   0.0018  -0.0058   0.0013   0.00    5.8
2173 287066.000     84784.3661  -4856566.5625   4120124.9896   1   8   0.0037   0.0090   0.0070   0.0021  -0.0057   0.0020   0.00    5.8
2173 287067.000     84784.3671  -4856566.5684   4120124.9910   1   8   0.0042   0.0091   0.0071   0.0023  -0.0057   0.0019   0.00    5.8
2173 287068.000     84784.3669  -4856566.5691   4120124.9942   1   8   0.0039   0.0091   0.0071   0.0019  -0.0054   0.0020   0.00    5.7
2173 287069.000     84784.3679  -4856566.5719   4120124.9912   1   8   0.0041   0.0090   0.0070   0.0019  -0.0058   0.0012   0.00    5.7
2173 287070.000     84784.3653  -4856566.5733   4120124.9906   1   8   0.0039   0.0091   0.0071   0.0022  -0.0056   0.0017   0.00    5.7
2173 287071.000     84784.3642  -4856566.5735   4120124.9935   1   8   0.0042   0.0091   0.0070   0.0024  -0.0057   0.0023   0.00    5.7
2173 287072.000     84784.3677  -4856566.5703   4120124.9915   1   8   0.0041   0.0090   0.0071   0.0016  -0.0055   0.0017   0.00    5.7
2173 287073.000     84784.3667  -4856566.5723   4120124.9956   1   8   0.0042   0.0089   0.0070   0.0024  -0.0057   0.0020   0.00    5.7
2173 287074.000     84784.3662  -4856566.5694   4120124.9891   1   8   0.0040   0.0089   0.0071   0.0022  -0.0056   0.0014   0.00    5.7
2173 287075.000     84784.3674  -4856566.5683   4120124.9892   1   8   0.0043   0.0091   0.0072   0.0024  -0.0056   0.0014   0.00    5.7
2173 287076.000     84784.3658  -4856566.5649   4120124.9876   1   8   0.0044   0.0091   0.0070   0.0021  -0.0057   0.0017   0.00    5.7
2173 287077.000     84784.3643  -4856566.5651   4120124.9893   1   8   0.0041   0.0091   0.0070   0.0017  -0.0056   0.0021   0.00    5.7
2173 287078.000     84784.3665  -4856566.5671   4120124.9876   1   8   0.0040   0.0091   0.0071   0.0023  -0.0056   0.0017   0.00    5.7
2173 287079.000     84784.3680  -4856566.5639   4120124.9855   1   8   0.0042   0.0090   0.0069   0.0016  -0.0057   0.0021   0.00    5.7
2173 287080.000     84784.3665  -4856566.5667   4120124.9878   1   8   0.0042   0.0091   0.0069   0.0018  -0.0056   0.0021   0.00    5.7
2173 287081.000     84784.3666  -4856566.5684   4120124.9905   1   8   0.0043   0.0090   0.0069   0.0023  -0.0056   0.0020   0.00    5.7
2173 287082.000     84784.3668  -4856566.5660   4120124.9878   1   8   0.0040   0.0091   0.0070   0.0020  -0.0056   0.0022   0.00    5.7
2173 287083.000     84784.3662  -4856566.5659   4120124.9887   1   8   0.0039   0.0090   0.0070   0.0023  -0.0057   0.0019   0.00    5.6
2173 287084.000     84784.3661  -4856566.5650   4120124.9873   1   8   0.0042   0.0091   0.0069   0.0019  -0.0056   0.0022   0.00    5.6
2173 287085.000     84784.3650  -4856566.5671   4120124.9889   1   8   0.0042   0.0091   0.0072   0.0018  -0.0056   0.0021   0.00    5.6
2173 287086.000     84784.3639  -4856566.5679   4120124.9904   1   8   0.0038   0.0090   0.0070   0.0017  -0.0057   0.0017   0.00    5.6
2173 287087.000     84784.3648  -4856566.5724   4120124.9928   1   8   0.0038   0.0090   0.0069   0.0021  -0.0056   0.0018   0.00    5.6
2173 287088.000     84784.3656  -4856566.5686   4120124.9934   1   8   0.0039   0.0090   0.0070   0.0018  -0.0057   0.0016   0.00    5.6
2173 287089.000     84784.3645  -4856566.5639   4120124.9908   1   8   0.0037   0.0089   0.0069   0.0021  -0.0057   0.0010   0.00    5.6
2173 287090.000     84784.3655  -4856566.5739   4120124.9923   1   8   0.0039   0.0089   0.0070   0.0018  -0.0056   0.0018   0.00    5.6
2173 287091.000     84784.3648  -4856566.5666   4120124.9907   1   8   0.0036   0.0091   0.0068   0.0020  -0.0056   0.0022   0.00    5.6
2173 287092.000     84784.3649  -4856566.5726   4120124.9930   1   8   0.0039   0.0090   0.0070   0.0017  -0.0057   0.0013   0.00    5.6
2173 287093.000     84784.3643  -4856566.5730   4120124.9893   1   8   0.0041   0.0091   0.0071   0.0021  -0.0055   0.0023   0.00    5.6
2173 287094.000     84784.3651  -4856566.5747   4120124.9929   1   8   0.0039   0.0090   0.0070   0.0018  -0.0057   0.0015   0.00    5.6
2173 287095.000     84784.3633  -4856566.5724   4120124.9919   1   8   0.0035   0.0091   0.0068   0.0022  -0.0056   0.0028   0.00    5.6
2173 287096.000     84784.3652  -4856566.5694   4120124.9934   1   8   0.0041   0.0089   0.0072   0.0022  -0.0057   0.0012   0.00    5.6
2173 287097.000     84784.3648  -4856566.5697   4120124.9931   1   8   0.0037   0.0089   0.0070   0.0026  -0.0057   0.0017   0.00    5.6
2173 287098.000     84784.3651  -4856566.5721   4120124.9923   1   8   0.0043   0.0090   0.0070   0.0028  -0.0058   0.0019   0.00    5.5
2173 287099.000     84784.3668  -4856566.5706   4120124.9929   1   8   0.0037   0.0090   0.0067   0.0017  -0.0056   0.0022   0.00    5.5
2173 287100.000     84784.3639  -4856566.5700   4120124.9895   1   8   0.0043   0.0091   0.0069   0.0019  -0.0056   0.0023   0.00    5.5
2173 287101.000     84784.3663  -4856566.5663   4120124.9893   1   8   0.0040   0.0089   0.0070   0.0016  -0.0058   0.0021   0.00    5.5
2173 287102.000     84784.3651  -4856566.5710   4120124.9922   1   8   0.0038   0.0091   0.0070   0.0028  -0.0055   0.0016   0.00    5.5
2173 287103.000     84784.3646  -4856566.5726   4120124.9925   1   8   0.0041   0.0089   0.0071   0.0024  -0.0057   0.0015   0.00    5.5
2173 287104.000     84784.3639  -4856566.5703   4120124.9900   1   8   0.0038   0.0089   0.0070   0.0018  -0.0058   0.0013   0.00    5.5
2173 287105.000     84784.3641  -4856566.5684   4120124.9873   1   8   0.0039   0.0090   0.0072   0.0020  -0.0056   0.0015   0.00    5.5
2173 287106.000     84784.3632  -4856566.5713   4120124.9898   1   8   0.0040   0.0090   0.0071   0.0021  -0.0057   0.0018   0.00    5.5
2173 287107.000     84784.3647  -4856566.5680   4120124.9861   1   8   0.0038   0.0090   0.0070   0.0023  -0.0057   0.0018   0.00    5.5
2173 287108.000     84784.3646  -4856566.5686   4120124.9869   1   8   0.0039   0.0089   0.0071   0.0019  -0.0057   0.0012   0.00    5.5
2173 287109.000     84784.3650  -4856566.5723   4120124.9889   1   8   0.0038   0.0089   0.0068   0.0016  -0.0056   0.0020   0.00    5.5
2173 287110.000     84784.3641  -4856566.5721   4120124.9887   1   8   0.0044   0.0089   0.0072   0.0022  -0.0057   0.0017   0.00    5.5
2173 287111.000     84784.3645  -4856566.5719   4120124.9887   1   8   0.0037   0.0089   0.0071   0.0022  -0.0056   0.0023   0.00    5.5
2173 287112.000     84784.3635  -4856566.5720   4120124.9881   1   8   0.0038   0.0090   0.0069   0.0019  -0.0057   0.0023   0.00    5.5
2173 287113.000     84784.3635  -4856566.5714   4120124.9877   1   8   0.0037   0.0089   0.0069   0.0024  -0.0056   0.0019   0.00    5.5
2173 287114.000     84784.3639  -4856566.5718   4120124.9869   1   8   0.0042   0.0089   0.0071   0.0024  -0.0058   0.0015   0.00    5.5
2173 287115.000     84784.3662  -4856566.5726   4120124.9850   1   8   0.0040   0.0089   0.0068  -0.0007  -0.0058   0.0018   0.00    5.5
2173 287116.000     84784.3640  -4856566.5713   4120124.9882   1   8   0.0040   0.0091   0.0069   0.0023  -0.0056   0.0025   0.00    5.5
2173 287117.000     84784.3638  -4856566.5793   4120124.9884   1   8   0.0038   0.0089   0.0070   0.0021  -0.0057   0.0014   0.00    5.5
2173 287118.000     84784.3641  -4856566.5739   4120124.9873   1   8   0.0042   0.0089   0.0071   0.0019  -0.0056   0.0015   0.00    5.5
2173 287119.000     84784.3652  -4856566.5735   4120124.9867   1   8   0.0037   0.0088   0.0071   0.0026  -0.0058   0.0022   0.00    5.5
2173 287120.000     84784.3636  -4856566.5793   4120124.9930   1   8   0.0036   0.0089   0.0069   0.0016  -0.0058   0.0017   0.00    5.5
2173 287121.000     84784.3639  -4856566.5766   4120124.9905   1   8   0.0040   0.0090   0.0070   0.0020  -0.0056   0.0024   0.00    5.5
2173 287122.000     84784.3618  -4856566.5784   4120124.9888   1   8   0.0039   0.0091   0.0070   0.0020  -0.0056   0.0020   0.00    5.5
2173 287123.000     84784.3627  -4856566.5794   4120124.9873   1   8   0.0040   0.0090   0.0071   0.0020  -0.0056   0.0019   0.00    5.5
2173 287124.000     84784.3632  -4856566.5763   4120124.9891   1   8   0.0037   0.0089   0.0070   0.0015  -0.0058   0.0020   0.00    5.5
2173 287125.000     84784.3630  -4856566.5798   4120124.9911   1   8   0.0042   0.0090   0.0071   0.0027  -0.0056   0.0016   0.00    5.5
2173 287126.000     84784.3665  -4856566.5775   4120124.9885   1   8   0.0041   0.0090   0.0070   0.0011  -0.0055   0.0021   0.00    5.5
2173 287127.000     84784.3655  -4856566.5757   4120124.9889   1   8   0.0040   0.0090   0.0070   0.0022  -0.0056   0.0022   0.00    5.5
2173 287128.000     84784.3633  -4856566.5744   4120124.9883   1   8   0.0039   0.0089   0.0071   0.0027  -0.0057   0.0017   0.00    5.5
2173 287129.000     84784.3646  -4856566.5761   4120124.9884   1   8   0.0041   0.0090   0.0070   0.0027  -0.0056   0.0023   0.00    5.5
2173 287130.000     84784.3630  -4856566.5766   4120124.9888   1   8   0.0038   0.0090   0.0069   0.0008  -0.0057   0.0022   0.00    5.5
2173 287131.000     84784.3626  -4856566.5703   4120124.9855   1   8   0.0036   0.0089   0.0070   0.0021  -0.0057   0.0021   0.00    5.5
2173 287132.000     84784.3655  -4856566.5790   4120124.9893   1   8   0.0039   0.0090   0.0070   0.0015  -0.0056   0.0020   0.00    5.5
2173 287133.000     84784.3628  -4856566.5756   4120124.9891   1   8   0.0039   0.0090   0.0072   0.0021  -0.0056   0.0014   0.00    5.6
2173 287134.000     84784.3630  -4856566.5749   4120124.9886   1   8   0.0035   0.0090   0.0070   0.0022  -0.0057   0.0017   0.00    5.6
2173 287135.000     84784.3644  -4856566.5739   4120124.9865   1   8   0.0043   0.0090   0.0072   0.0021  -0.0057   0.0018   0.00    5.6
2173 287136.000     84784.3624  -4856566.5728   4120124.9843   1   8   0.0041   0.0090   0.0071   0.0018  -0.0056   0.0017   0.00    5.6
2173 287137.000     84784.3624  -4856566.5752   4120124.9846   1   8   0.0039   0.0088   0.0069   0.0019  -0.0057   0.0019   0.00    5.6
2173 287138.000     84784.3636  -4856566.5759   4120124.9874   1   8   0.0037   0.0090   0.0070   0.0023  -0.0057   0.0024   0.00    5.6
2173 287139.000     84784.3639  -4856566.5744   4120124.9857   1   8   0.0038   0.0089   0.0070   0.0009  -0.0057   0.0017   0.00    5.6
2173 287140.000     84784.3651  -4856566.5756   4120124.9877   1   8   0.0043   0.0090   0.0070   0.0013  -0.0056   0.0021   0.00    5.6
2173 287141.000     84784.3635  -4856566.5714   4120124.9877   1   8   0.0042   0.0091   0.0072   0.0022  -0.0056   0.0013   0.00    5.6
2173 287142.000     84784.3644  -4856566.5724   4120124.9880   1   8   0.0038   0.0090   0.0070   0.0021  -0.0056   0.0019   0.00    5.6
2173 287143.000     84784.3640  -4856566.5724   4120124.9877   1   8   0.0039   0.0090   0.0071   0.0023  -0.0056   0.0021   0.00    5.6
2173 287144.000     84784.3652  -4856566.5729   4120124.9858   1   8   0.0038   0.0089   0.0069   0.0021  -0.0057   0.0020   0.00    5.6
2173 287145.000     84784.3640  -4856566.5734   4120124.9867   1   8   0.0043   0.0090   0.0070   0.0021  -0.0056   0.0014   0.00    5.6
2173 287146.000     84784.3645  -4856566.5765   4120124.9876   1   8   0.0042   0.0090   0.0070   0.0022  -0.0057   0.0023   0.00    5.6
2173 287147.000     84784.3634  -4856566.5762   4120124.9910   1   8   0.0039   0.0090   0.0070   0.0024  -0.0057   0.0018   0.00    5.6
2173 287148.000     84784.3651  -4856566.5743   4120124.9879   1   8   0.0042   0.0090   0.0070   0.0025  -0.0055   0.0020   0.00    5.7
2173 287149.000     84784.3642  -4856566.5744   4120124.9888   1   8   0.0040   0.0091   0.0070   0.0016  -0.0056   0.0018   0.00    5.7
2173 287150.000     84784.3624  -4856566.5776   4120124.9902   1   8   0.0040   0.0090   0.0071   0.0020  -0.0055   0.0022   0.00    5.7
2173 287151.000     84784.3640  -4856566.5729   4120124.9893   1   8   0.0038   0.0090   0.0071   0.0019  -0.0057   0.0016   0.00    5.7
2173 287152.000     84784.3638  -4856566.5722   4120124.9890   1   8   0.0038   0.0089   0.0070   0.0023  -0.0058   0.0018   0.00    5.7
2173 287153.000     84784.3642  -4856566.5726   4120124.9880   1   8   0.0040   0.0089   0.0071   0.0019  -0.0058   0.0018   0.00    5.7
2173 287154.000     84784.3644  -4856566.5721   4120124.9902   1   8   0.0043   0.0090   0.0071   0.0022  -0.0057   0.0020   0.00    5.7
2173 287155.000     84784.3634  -4856566.5753   4120124.9905   1   8   0.0040   0.0089   0.0070   0.0005  -0.0056   0.0024   0.00    5.7
2173 287156.000     84784.3641  -4856566.5719   4120124.9880   1   8   0.0042   0.0091   0.0073   0.0019  -0.0055   0.0023   0.00    5.7
2173 287157.000     84784.3658  -4856566.5755   4120124.9899   1   8   0.0039   0.0090   0.0071   0.0020  -0.0057   0.0026   0.00    5.7
2173 287158.000     84784.3650  -4856566.5746   4120124.9904   1   8   0.0037   0.0090   0.0071   0.0021  -0.0057   0.0024   0.00    5.8
2173 287159.000     84784.3654  -4856566.5733   4120124.9890   1   8   0.0044   0.0092   0.0070   0.0020  -0.0055   0.0017   0.00    5.8
2173 287160.000     84784.3630  -4856566.5803   4120124.9924   1   8   0.0039   0.0089   0.0071   0.0027  -0.0056   0.0014   0.00    5.8
2173 287161.000     84784.3654  -4856566.5732   4120124.9928   1   8   0.0038   0.0088   0.0071   0.0022  -0.0058   0.0014   0.00    5.8
2173 287162.000     84784.3657  -4856566.5742   4120124.9925   1   8   0.0042   0.0090   0.0072   0.0025  -0.0057   0.0018   0.00    5.8
2173 287163.000     84784.3650  -4856566.5754   4120124.9921   1   8   0.0039   0.0089   0.0070   0.0023  -0.0057   0.0022   0.00    5.8
2173 287164.000     84784.3667  -4856566.5717   4120124.9911   1   8   0.0041   0.0089   0.0071   0.0019  -0.0058   0.0020   0.00    5.8
2173 287165.000     84784.3654  -4856566.5708   4120124.9911   1   8   0.0045   0.0089   0.0072   0.0026  -0.0058   0.0021   0.00    5.8
2173 287166.000     84784.3629  -4856566.5755   4120124.9928   1   8   0.0034   0.0090   0.0071   0.0024  -0.0056   0.0017   0.00    5.8
2173 287167.000     84784.3639  -4856566.5764   4120124.9954   1   8   0.0040   0.0090   0.0071   0.0016  -0.0056   0.0019   0.00    5.8
2173 287168.000     84784.3646  -4856566.5790   4120124.9977   1   8   0.0039   0.0088   0.0070   0.0021  -0.0058   0.0020   0.00    5.8
2173 287169.000     84784.3641  -4856566.5740   4120124.9936   1   8   0.0044   0.0090   0.0071   0.0023  -0.0057   0.0020   0.00    5.9
2173 287170.000     84784.3631  -4856566.5724   4120124.9936   1   8   0.0042   0.0089   0.0071   0.0022  -0.0059   0.0019   0.00    5.9
2173 287171.000     84784.3647  -4856566.5769   4120124.9966   1   8   0.0043   0.0090   0.0070   0.0017  -0.0057   0.0021   0.00    5.9
2173 287172.000     84784.3672  -4856566.5729   4120124.9908   1   8   0.0036   0.0088   0.0071   0.0016  -0.0057   0.0010   0.00    5.9
2173 287173.000     84784.3651  -4856566.5767   4120124.9929   1   8   0.0041   0.0089   0.0072   0.0018  -0.0058   0.0014   0.00    5.9
2173 287174.000     84784.3667  -4856566.5775   4120124.9937   1   8   0.0036   0.0089   0.0071   0.0026  -0.0056   0.0023   0.00    5.9
2173 287175.000     84784.3643  -4856566.5679   4120124.9879   1   8   0.0036   0.0090   0.0070   0.0015  -0.0057   0.0019   0.00    5.9
2173 287176.000     84784.3639  -4856566.5741   4120124.9904   1   8   0.0039   0.0090   0.0071   0.0025  -0.0055   0.0021   0.00    5.9
2173 287177.000     84784.3639  -4856566.5745   4120124.9912   1   8   0.0037   0.0089   0.0070   0.0018  -0.0058   0.0022   0.00    5.9
2173 287178.000     84784.3654  -4856566.5747   4120124.9923   1   8   0.0040   0.0089   0.0070   0.0022  -0.0058   0.0017   0.00    6.0
2173 287179.000     84784.3649  -4856566.5693   4120124.9880   1   8   0.0040   0.0090   0.0070   0.0019  -0.0057   0.0022   0.00    6.0
2173 287180.000     84784.3643  -4856566.5713   4120124.9930   1   8   0.0038   0.0089   0.0071   0.0011  -0.0058   0.0023   0.00    6.0
2173 287181.000     84784.3647  -4856566.5755   4120124.9939   1   8   0.0042   0.0091   0.0072   0.0021  -0.0057   0.0020   0.00    6.0
2173 287182.000     84784.3656  -4856566.5759   4120124.9939   1   8   0.0037   0.0090   0.0070   0.0020  -0.0057   0.0026   0.00    6.0
2173 287183.000     84784.3629  -4856566.5790   4120124.9964   1   8   0.0037   0.0089   0.0070   0.0013  -0.0057   0.0015   0.00    6.0
2173 287184.000     84784.3642  -4856566.5736   4120124.9947   1   8   0.0037   0.0090   0.0071   0.0019  -0.0057   0.0022   0.00    6.0
2173 287185.000     84784.3661  -4856566.5788   4120124.9959   1   8   0.0038   0.0088   0.0069   0.0021  -0.0058   0.0015   0.00    6.0
2173 287186.000     84784.3630  -4856566.5796   4120124.9948   1   8   0.0038   0.0090   0.0070   0.0021  -0.0056   0.0022   0.00    6.0
2173 287187.000     84784.3634  -4856566.5763   4120124.9925   1   8   0.0039   0.0090   0.0070   0.0020  -0.0058   0.0023   0.00    6.1
2173 287188.000     84784.3629  -4856566.5763   4120124.9950   1   8   0.0039   0.0089   0.0071   0.0013  -0.0058   0.0016   0.00    6.1
2173 287189.000     84784.3633  -4856566.5766   4120124.9948   1   8   0.0039   0.0088   0.0070   0.0024  -0.0058   0.0017   0.00    6.1
2173 287190.000     84784.3627  -4856566.5769   4120124.9954   1   8   0.0037   0.0089   0.0072   0.0022  -0.0058   0.0013   0.00    6.1
2173 287191.000     84784.3636  -4856566.5737   4120124.9940   1   8   0.0034   0.0089   0.0069   0.0024  -0.0058   0.0021   0.00    6.1
2173 287192.000     84784.3642  -4856566.5775   4120124.9969   1   8   0.0033   0.0087   0.0070   0.0020  -0.0057   0.0017   0.00    6.1
2173 287193.000     84784.3634  -4856566.5791   4120124.9970   1   8   0.0041   0.0090   0.0071   0.0019  -0.0057   0.0019   0.00    6.1
2173 287194.000     84784.3632  -4856566.5769   4120124.9931   1   8   0.0039   0.0089   0.0071   0.0026  -0.0056   0.0015   0.00    6.1
2173 287195.000     84784.3616  -4856566.5765   4120124.9982   1   8   0.0042   0.0089   0.0071   0.0019  -0.0057   0.0013   0.00    6.1
2173 287196.000     84784.3605  -4856566.5750   4120124.9940   1   8   0.0037   0.0090   0.0070   0.0025  -0.0057   0.0020   0.00    6.1
2173 287197.000     84784.3607  -4856566.5786   4120124.9954   1   8   0.0042   0.0089   0.0071   0.0028  -0.0057   0.0014   0.00    6.1
2173 287198.000     84784.3600  -4856566.5817   4120124.9980   1   8   0.0041   0.0089   0.0072   0.0020  -0.0058   0.0020   0.00    6.1
2173 287199.000     84784.3626  -4856566.5781   4120124.9959   1   8   0.0039   0.0089   0.0071   0.0013  -0.0059   0.0007   0.00    6.2
2173 287200.000     84784.3600  -4856566.5785   4120124.9951   1   8   0.0038   0.0090   0.0071   0.0019  -0.0056   0.0019   0.00    6.2
2173 287201.000     84784.3608  -4856566.5811   4120124.9994   1   8   0.0039   0.0089   0.0071   0.0016  -0.0059   0.0018   0.00    6.2
2173 287202.000     84784.3601  -4856566.5837   4120124.9996   1   8   0.0042   0.0091   0.0071   0.0026  -0.0057   0.0019   0.00    6.2
2173 287203.000     84784.3610  -4856566.5807   4120124.9980   1   8   0.0041   0.0088   0.0072   0.0019  -0.0058   0.0009   0.00    6.2
2173 287204.000     84784.3610  -4856566.5799   4120124.9958   1   8   0.0040   0.0089   0.0072   0.0011  -0.0058   0.0016   0.00    6.2
2173 287205.000     84784.3613  -4856566.5795   4120124.9994   1   8   0.0038   0.0090   0.0072   0.0021  -0.0056   0.0013   0.00    6.2
2173 287206.000     84784.3621  -4856566.5795   4120124.9977   1   8   0.0036   0.0088   0.0071   0.0020  -0.0057   0.0023   0.00    6.2
2173 287207.000     84784.3615  -4856566.5827   4120125.0009   1   8   0.0041   0.0088   0.0072   0.0013  -0.0057   0.0006   0.00    6.2
2173 287208.000     84784.3623  -4856566.5809   4120124.9989   1   8   0.0042   0.0090   0.0071   0.0013  -0.0057   0.0022   0.00    6.2
2173 287209.000     84784.3595  -4856566.5858   4120125.0019   1   8   0.0038   0.0089   0.0072   0.0024  -0.0057   0.0020   0.00    6.2
2173 287210.000     84784.3619  -4856566.5804   4120124.9973   1   8   0.0042   0.0088   0.0070   0.0010  -0.0058   0.0019   0.00    6.2
2173 287211.000     84784.3626  -4856566.5796   4120124.9966   1   8   0.0042   0.0088   0.0071   0.0020  -0.0057   0.0016   0.00    6.2
2173 287212.000     84784.3613  -4856566.5815   4120124.9970   1   8   0.0035   0.0089   0.0071   0.0022  -0.0057   0.0016   0.00    6.2
2173 287213.000     84784.3620  -4856566.5856   4120125.0008   1   8   0.0036   0.0089   0.0071   0.0020  -0.0056   0.0022   0.00    6.2
2173 287214.000     84784.3616  -4856566.5811   4120124.9952   1   8   0.0034   0.0089   0.0071   0.0021  -0.0057   0.0011   0.00    6.2
2173 287215.000     84784.3617  -4856566.5807   4120124.9974   1   8   0.0044   0.0088   0.0072   0.0019  -0.0057   0.0019   0.00    6.2
2173 287216.000     84784.3629  -4856566.5835   4120124.9965   1   8   0.0038   0.0090   0.0070   0.0021  -0.0057   0.0022   0.00    6.2
2173 287217.000     84784.3615  -4856566.5828   4120124.9994   1   8   0.0040   0.0089   0.0071   0.0019  -0.0057   0.0018   0.00    6.2
2173 287218.000     84784.3615  -4856566.5805   4120124.9979   1   8   0.0038   0.0088   0.0070   0.0019  -0.0059   0.0011   0.00    6.2
2173 287219.000     84784.3611  -4856566.5875   4120125.0002   1   8   0.0041   0.0089   0.0072   0.0017  -0.0058   0.0013   0.00    6.2
2173 287220.000     84784.3593  -4856566.5859   4120125.0002   1   8   0.0043   0.0090   0.0071   0.0012  -0.0057   0.0019   0.00    6.2
2173 287221.000     84784.3598  -4856566.5832   4120124.9989   1   8   0.0040   0.0089   0.0071   0.0015  -0.0058   0.0013   0.00    6.2
2173 287222.000     84784.3618  -4856566.5795   4120124.9998   1   8   0.0035   0.0089   0.0069   0.0021  -0.0057   0.0025   0.00    6.2
2173 287223.000     84784.3608  -4856566.5820   4120124.9970   1   8   0.0043   0.0090   0.0071   0.0021  -0.0057   0.0016   0.00    6.2
2173 287224.000     84784.3610  -4856566.5801   4120124.9993   1   8   0.0035   0.0088   0.0071   0.0020  -0.0058   0.0017   0.00    6.2
2173 287225.000     84784.3597  -4856566.5794   4120125.0000   1   8   0.0038   0.0090   0.0072   0.0021  -0.0056   0.0021   0.00    6.2
2173 287226.000     84784.3616  -4856566.5841   4120124.9984   1   8   0.0041   0.0089   0.0071   0.0022  -0.0056   0.0024   0.00    6.2
2173 287227.000     84784.3599  -4856566.5862   4120125.0009   1   8   0.0037   0.0089   0.0071   0.0013  -0.0057   0.0023   0.00    6.2
2173 287228.000     84784.3613  -4856566.5845   4120124.9952   1   8   0.0041   0.0089   0.0070   0.0014  -0.0056   0.0023   0.00    6.2
2173 287229.000     84784.3604  -4856566.5880   4120124.9976   1   8   0.0036   0.0088   0.0072   0.0017  -0.0058   0.0014   0.00    6.2
2173 287230.000     84784.3633  -4856566.5816   4120124.9979   1   8   0.0038   0.0089   0.0071   0.0021  -0.0056   0.0020   0.00    6.2
2173 287231.000     84784.3667  -4856566.5838   4120125.0102   1   7   0.0045   0.0089   0.0091   0.0008  -0.0062   0.0039   0.00    9.6
2173 287232.000     84784.3655  -4856566.5823   4120125.0128   1   7   0.0044   0.0088   0.0091   0.0005  -0.0063   0.0039   0.00    9.7
2173 287233.000     84784.3662  -4856566.5832   4120125.0131   1   7   0.0044   0.0089   0.0092   0.0014  -0.0063   0.0039   0.00    9.7
2173 287234.000     84784.3672  -4856566.5836   4120125.0144   1   7   0.0043   0.0091   0.0092   0.0014  -0.0061   0.0037   0.00    9.8
2173 287235.000     84784.3677  -4856566.5804   4120125.0147   1   7   0.0048   0.0090   0.0092   0.0014  -0.0062   0.0040   0.00    9.8
2173 287236.000     84784.4392  -4856566.3327   4120124.9475   2   8   0.0201   0.0260   0.0232  -0.0050  -0.0159   0.0047   0.00    1.1
2173 287237.000     84784.4390  -4856566.3294   4120124.9439   2   8   0.0200   0.0260   0.0228  -0.0049  -0.0158   0.0045   0.00    1.3
2173 287238.000     84784.4390  -4856566.3260   4120124.9403   2   8   0.0201   0.0259   0.0226  -0.0051  -0.0157   0.0037   0.00    1.4
2173 287239.000     84784.4417  -4856566.3245   4120124.9365   2   8   0.0200   0.0258   0.0225  -0.0047  -0.0156   0.0036   0.00    1.5
2173 287240.000     84784.4406  -4856566.3183   4120124.9336   2   8   0.0200   0.0258   0.0224  -0.0051  -0.0156   0.0037   0.00    1.7
2173 287241.000     84784.4379  -4856566.3199   4120124.9300   2   8   0.0199   0.0257   0.0224  -0.0049  -0.0156   0.0033   0.00    1.8
2173 287242.000     84784.4407  -4856566.3142   4120124.9266   2   8   0.0199   0.0256   0.0223  -0.0051  -0.0156   0.0035   0.00    1.9
2173 287243.000     84784.4391  -4856566.3190   4120124.9272   2   8   0.0199   0.0255   0.0222  -0.0048  -0.0155   0.0035   0.00    2.0
2173 287244.000     84784.4389  -4856566.3214   4120124.9298   2   8   0.0198   0.0255   0.0222  -0.0051  -0.0155   0.0031   0.00    2.1
2173 287245.000     84784.4420  -4856566.3159   4120124.9227   2   8   0.0198   0.0254   0.0221  -0.0051  -0.0155   0.0036   0.00    2.3
2173 287246.000     84784.4390  -4856566.3101   4120124.9168   2   8   0.0197   0.0253   0.0221  -0.0050  -0.0155   0.0032   0.00    2.4
2173 287247.000     84784.4411  -4856566.3078   4120124.9185   2   8   0.0197   0.0253   0.0221  -0.0052  -0.0154   0.0030   0.00    2.5
2173 287248.000     84784.4402  -4856566.3119   4120124.9161   2   8   0.0197   0.0253   0.0220  -0.0053  -0.0154   0.0036   0.00    2.6
2173 287249.000     84784.4421  -4856566.3078   4120124.9130   2   8   0.0197   0.0252   0.0219  -0.0054  -0.0154   0.0035   0.00    2.7
2173 287250.000     84784.4420  -4856566.3048   4120124.9124   2   8   0.0195   0.0251   0.0219  -0.0054  -0.0153   0.0034   0.00    2.8
2173 287251.000     84784.4445  -4856566.3017   4120124.9097   2   8   0.0195   0.0251   0.0218  -0.0052  -0.0153   0.0033   0.00    2.9
2173 287252.000     84784.3581  -4856566.5685   4120124.9940   1   8   0.0038   0.0089   0.0071   0.0015  -0.0058   0.0017   0.00    3.1
2173 287253.000     84784.3603  -4856566.5765   4120124.9950   1   8   0.0039   0.0088   0.0071   0.0012  -0.0057   0.0020   0.00    3.2
2173 287254.000     84784.3588  -4856566.5746   4120124.9940   1   8   0.0040   0.0088   0.0073   0.0020  -0.0057   0.0016   0.00    3.3
2173 287255.000     84784.3609  -4856566.5704   4120124.9952   1   8   0.0039   0.0086   0.0073   0.0019  -0.0059   0.0007   0.00    3.4
2173 287256.000     84784.3608  -4856566.5712   4120124.9932   1   8   0.0039   0.0088   0.0071   0.0011  -0.0059   0.0019   0.00    3.5
2173 287257.000     84784.3610  -4856566.5718   4120124.9938   1   8   0.0039   0.0089   0.0072   0.0019  -0.0058   0.0021   0.00    3.6
2173 287258.000     84784.3605  -4856566.5737   4120124.9949   1   8   0.0039   0.0089   0.0071   0.0012  -0.0058   0.0020   0.00    3.7
2173 287259.000     84784.3624  -4856566.5757   4120124.9914   1   8   0.0041   0.0090   0.0071   0.0026  -0.0057   0.0024   0.00    3.8
2173 287260.000     84784.3616  -4856566.5739   4120124.9905   1   8   0.0039   0.0089   0.0070   0.0017  -0.0057   0.0022   0.00    3.9
2173 287261.000     84784.3597  -4856566.5726   4120124.9952   1   8   0.0045   0.0088   0.0071   0.0010  -0.0058   0.0014   0.00    4.0
2173 287262.000     84784.3595  -4856566.5745   4120124.9937   1   8   0.0041   0.0089   0.0072   0.0017  -0.0058   0.0012   0.00    4.2
2173 287263.000     84784.3603  -4856566.5731   4120124.9950   1   8   0.0043   0.0088   0.0071   0.0019  -0.0058   0.0019   0.00    4.3
2173 287264.000     84784.3617  -4856566.5724   4120124.9978   1   8   0.0038   0.0088   0.0071   0.0013  -0.0058   0.0017   0.00    4.4
2173 287265.000     84784.3629  -4856566.5674   4120124.9924   1   8   0.0041   0.0089   0.0072   0.0024  -0.0058   0.0014   0.00    4.5
2173 287266.000     84784.3627  -4856566.5740   4120124.9929   1   8   0.0041   0.0090   0.0072   0.0022  -0.0057   0.0016   0.00    4.6
2173 287267.000     84784.3610  -4856566.5741   4120124.9922   1   8   0.0042   0.0089   0.0072   0.0022  -0.0057   0.0020   0.00    4.7
2173 287268.000     84784.3618  -4856566.5744   4120124.9920   1   8   0.0040   0.0088   0.0072   0.0022  -0.0059   0.0016   0.00    4.8
2173 287269.000     84784.3628  -4856566.5750   4120124.9931   1   8   0.0040   0.0089   0.0071   0.0016  -0.0057   0.0023   0.00    4.9
2173 287270.000     84784.3606  -4856566.5705   4120124.9943   1   8   0.0037   0.0088   0.0072   0.0018  -0.0059   0.0016   0.00    5.0
2173 287271.000     84784.3605  -4856566.5710   4120124.9926   1   8   0.0038   0.0087   0.0072   0.0024  -0.0058   0.0013   0.00    5.1
2173 287272.000     84784.3607  -4856566.5734   4120124.9929   1   8   0.0040   0.0089   0.0071   0.0019  -0.0058   0.0014   0.00    5.2
2173 287273.000     84784.3604  -4856566.5768   4120124.9908   1   8   0.0042   0.0088   0.0073   0.0026  -0.0059   0.0015   0.00    5.3
2173 287274.000     84784.3626  -4856566.5714   4120124.9899   1   8   0.0038   0.0090   0.0070   0.0023  -0.0057   0.0025   0.00    5.4
2173 287275.000     84784.3594  -4856566.5727   4120124.9929   1   8   0.0041   0.0088   0.0069   0.0020  -0.0058   0.0022   0.00    5.5
2173 287276.000     84784.3615  -4856566.5740   4120124.9949   1   8   0.0039   0.0087   0.0071   0.0020  -0.0057   0.0013   0.00    5.6
2173 287277.000     84784.3628  -4856566.5738   4120124.9940   1   8   0.0042   0.0089   0.0073   0.0023  -0.0057   0.0019   0.00    5.7
2173 287278.000     84784.3621  -4856566.5704   4120124.9937   1   8   0.0039   0.0089   0.0071   0.0007  -0.0058   0.0019   0.00    5.8
2173 287279.000     84784.3608  -4856566.5697   4120124.9918   1   8   0.0039   0.0089   0.0071   0.0023  -0.0057   0.0025   0.00    5.9
2173 287280.000     84784.3627  -4856566.5701   4120124.9951   1   8   0.0036   0.0089   0.0072   0.0019  -0.0056   0.0019   0.00    6.0
2173 287281.000     84784.3618  -4856566.5701   4120124.9969   1   8   0.0041   0.0088   0.0072   0.0019  -0.0058   0.0020   0.00    6.1
2173 287282.000     84784.3624  -4856566.5695   4120124.9955   1   8   0.0041   0.0089   0.0072   0.0019  -0.0057   0.0021   0.00    6.2
2173 287283.000     84784.3640  -4856566.5719   4120124.9962   1   8   0.0037   0.0089   0.0071   0.0021  -0.0057   0.0022   0.00    6.3
2173 287284.000     84784.3606  -4856566.5735   4120124.9949   1   8   0.0044   0.0089   0.0071   0.0016  -0.0057   0.0027   0.00    6.4
2173 287285.000     84784.3620  -4856566.5704   4120124.9955   1   8   0.0038   0.0088   0.0071   0.0017  -0.0057   0.0018   0.00    6.5
2173 287286.000     84784.3618  -4856566.5703   4120124.9959   1   8   0.0038   0.0088   0.0070   0.0017  -0.0059   0.0021   0.00    6.5
2173 287287.000     84784.3631  -4856566.5680   4120124.9935   1   8   0.0038   0.0087   0.0072   0.0020  -0.0059   0.0016   0.00    6.6
2173 287288.000     84784.3630  -4856566.5710   4120124.9950   1   8   0.0040   0.0090   0.0072   0.0022  -0.0057   0.0019   0.00    6.7
2173 287289.000     84784.3623  -4856566.5718   4120124.9926   1   8   0.0041   0.0089   0.0071   0.0021  -0.0057   0.0019   0.00    6.8
2173 287290.000     84784.3631  -4856566.5676   4120124.9920   1   8   0.0039   0.0089   0.0071   0.0019  -0.0058   0.0025   0.00    6.9
2173 287291.000     84784.3605  -4856566.5652   4120124.9933   1   8   0.0040   0.0089   0.0071   0.0023  -0.0057   0.0022   0.00    7.0
2173 287292.000     84784.3623  -4856566.5688   4120124.9941   1   8   0.0041   0.0089   0.0071   0.0021  -0.0058   0.0018   0.00    7.0
2173 287293.000     84784.3632  -4856566.5720   4120124.9941   1   8   0.0035   0.0088   0.0071   0.0009  -0.0058   0.0019   0.00    7.1
2173 287294.000     84784.3632  -4856566.5684   4120124.9950   1   8   0.0038   0.0090   0.0071   0.0020  -0.0057   0.0013   0.00    7.2
2173 287295.000     84784.3600  -4856566.5676   4120124.9924   1   8   0.0038   0.0089   0.0072   0.0014  -0.0058   0.0017   0.00    7.3
2173 287296.000     84784.3601  -4856566.5674   4120124.9908   1   8   0.0038   0.0086   0.0071   0.0017  -0.0059   0.0021   0.00    7.3
2173 287297.000     84784.3611  -4856566.5702   4120124.9917   1   8   0.0040   0.0088   0.0071   0.0020  -0.0059   0.0021   0.00    7.4
2173 287298.000     84784.3627  -4856566.5670   4120124.9917   1   8   0.0041   0.0088   0.0073   0.0024  -0.0057   0.0015   0.00    7.5
2173 287299.000     84784.3617  -4856566.5664   4120124.9906   1   8   0.0043   0.0088   0.0071   0.0017  -0.0058   0.0021   0.00    7.6
2173 287300.000     84784.3628  -4856566.5714   4120124.9938   1   8   0.0041   0.0088   0.0071   0.0021  -0.0058   0.0022   0.00    7.7
2173 287301.000     84784.3615  -4856566.5710   4120124.9934   1   8   0.0038   0.0088   0.0070   0.0024  -0.0059   0.0014   0.00    7.8
2173 287302.000     84784.3619  -4856566.5682   4120124.9944   1   8   0.0038   0.0089   0.0071   0.0021  -0.0057   0.0022   0.00    7.8
2173 287303.000     84784.3611  -4856566.5703   4120124.9949   1   8   0.0042   0.0088   0.0071   0.0019  -0.0058   0.0017   0.00    7.9
2173 287304.000     84784.3622  -4856566.5718   4120124.9945   1   8   0.0041   0.0087   0.0073   0.0018  -0.0058   0.0016   0.00    8.0
2173 287305.000     84784.3635  -4856566.5735   4120124.9950   1   8   0.0041   0.0089   0.0072   0.0018  -0.0057   0.0019   0.00    8.1
2173 287306.000     84784.3632  -4856566.5745   4120124.9950   1   8   0.0039   0.0088   0.0071   0.0022  -0.0058   0.0019   0.00    8.1
2173 287307.000     84784.3626  -4856566.5660   4120124.9950   1   8   0.0039   0.0088   0.0071   0.0024  -0.0058   0.0016   0.00    8.2
2173 287308.000     84784.3622  -4856566.5680   4120124.9939   1   8   0.0037   0.0088   0.0071   0.0013  -0.0058   0.0015   0.00    8.3
2173 287309.000     84784.3628  -4856566.5679   4120124.9932   1   8   0.0036   0.0088   0.0072   0.0022  -0.0059   0.0022   0.00    8.4
2173 287310.000     84784.3611  -4856566.5737   4120124.9944   1   8   0.0044   0.0088   0.0071   0.0026  -0.0058   0.0016   0.00    8.4
2173 287311.000     84784.3618  -4856566.5699   4120124.9937   1   8   0.0037   0.0089   0.0070   0.0013  -0.0057   0.0028   0.00    8.5
2173 287312.000     84784.3625  -4856566.5677   4120124.9933   1   8   0.0042   0.0089   0.0071   0.0011  -0.0058   0.0026   0.00    8.6
2173 287313.000     84784.3633  -4856566.5699   4120124.9951   1   8   0.0040   0.0087   0.0072   0.0024  -0.0058   0.0019   0.00    8.7
2173 287314.000     84784.3626  -4856566.5657   4120124.9897   1   8   0.0042   0.0088   0.0072   0.0019  -0.0058   0.0016   0.00    8.7
2173 287315.000     84784.3598  -4856566.5712   4120124.9959   1   8   0.0039   0.0087   0.0072   0.0016  -0.0058   0.0008   0.00    8.8
2173 287316.000     84784.3587  -4856566.5695   4120124.9935   1   8   0.0043   0.0086   0.0072   0.0015  -0.0059   0.0019   0.00    8.9
2173 287317.000     84784.3602  -4856566.5660   4120124.9938   1   8   0.0038   0.0087   0.0071   0.0016  -0.0058   0.0018   0.00    8.9
2173 287318.000     84784.3607  -4856566.5704   4120124.9950   1   8   0.0037   0.0088   0.0071   0.0013  -0.0058   0.0023   0.00    9.0
2173 287319.000     84784.3593  -4856566.5677   4120124.9922   1   8   0.0036   0.0088   0.0072   0.0023  -0.0058   0.0013   0.00    9.0
2173 287320.000     84784.3602  -4856566.5720   4120124.9946   1   8   0.0040   0.0089   0.0071   0.0020  -0.0058   0.0018   0.00    9.1
2173 287321.000     84784.3616  -4856566.5641   4120124.9915   1   8   0.0042   0.0088   0.0072   0.0014  -0.0057   0.0022   0.00    9.2
