% program   : rnx2rtkp ver.2.4.3 b31
% inp file  : ngs/21_09_01_11_42_58_fmyr.obs
% inp file  : ngs/21_09_01_11_42_58_fmyr_VZ.obs
% inp file  : ngs/21_09_01_11_42_58_brdc.nav
% obs start : 2021/09/01 11:00:00.0 GPST (week2173 298800.0s)
% obs end   : 2021/09/01 11:59:59.0 GPST (week2173 302399.0s)
% ref pos   :   815484.7549  -5653659.8739   2828010.3240
%
% (x/y/z-ecef=WGS84,Q=1:fix,2:float,3:sbas,4:dgps,5:single,6:ppp,ns=# of satellites)
%  GPST              x-ecef(m)      y-ecef(m)      z-ecef(m)   Q  ns   sdx(m)   sdy(m)   sdz(m)  sdxy(m)  sdyz(m)  sdzx(m) age(s)  ratio
2173 301357.000    807699.8879  -5649861.0031   2837755.8853   2   7   0.4886   1.0564   0.8422  -0.2205  -0.7856  -0.2114 -30.00    2.4
2173 301358.000    807699.8862  -5649861.0043   2837755.8860   2   7   0.3479   0.7526   0.5991  -0.1581  -0.5595  -0.1494 -29.00    2.4
2173 301359.000    807699.8836  -5649860.9979   2837755.8809   2   7   0.2849   0.6163   0.4906  -0.1297  -0.4582  -0.1221 -28.00    2.6
2173 301360.000    807699.8813  -5649861.0004   2837755.8770   2   7   0.2472   0.5347   0.4256  -0.1126  -0.3975  -0.1059 -27.00    2.8
2173 301361.000    807699.8824  -5649861.0070   2837755.8768   2   7   0.2214   0.4789   0.3812  -0.1009  -0.3560  -0.0948 -26.00    2.9
2173 301362.000    807699.8827  -5649861.0023   2837755.8737   2   7   0.2023   0.4376   0.3484  -0.0922  -0.3253  -0.0866 -25.00    3.0
2173 301363.000    807700.0270  -5649861.3824   2837755.8746   1   7   0.0195   0.0391   0.0380   0.0032  -0.0304  -0.0144 -24.00    3.1
2173 301364.000    807700.0257  -5649861.3805   2837755.8731   1   7   0.0187   0.0376   0.0365   0.0029  -0.0292  -0.0138 -23.00    3.3
2173 301365.000    807700.0308  -5649861.3819   2837755.8701   1   7   0.0180   0.0361   0.0350   0.0026  -0.0280  -0.0133 -22.00    3.4
2173 301366.000    807700.0285  -5649861.3781   2837755.8659   1   7   0.0173   0.0347   0.0335   0.0023  -0.0269  -0.0127 -21.00    3.6
2173 301367.000    807700.0264  -5649861.3779   2837755.8656   1   7   0.0166   0.0332   0.0320   0.0021  -0.0257  -0.0121 -20.00    3.8
2173 301368.000    807700.0244  -5649861.3747   2837755.8623   1   7   0.0158   0.0318   0.0306   0.0017  -0.0246  -0.0116 -19.00    3.9
2173 301369.000    807700.0245  -5649861.3686   2837755.8583   1   7   0.0151   0.0303   0.0291   0.0014  -0.0234  -0.0110 -18.00    4.2
2173 301370.000    807700.0231  -5649861.3709   2837755.8585   1   7   0.0144   0.0289   0.0276   0.0009  -0.0223  -0.0105 -17.00    4.4
2173 301371.000    807700.0243  -5649861.3725   2837755.8579   1   7   0.0137   0.0275   0.0262  -0.0006  -0.0211  -0.0099 -16.00    4.7
2173 301372.000    807700.0232  -5649861.3699   2837755.8560   1   7   0.0130   0.0261   0.0247  -0.0011  -0.0200  -0.0094 -15.00    5.0
2173 301373.000    807700.0230  -5649861.3672   2837755.8527   1   7   0.0123   0.0247   0.0233  -0.0013  -0.0189  -0.0088 -14.00    5.2
2173 301374.000    807700.0227  -5649861.3673   2837755.8514   1   7   0.0117   0.0233   0.0219  -0.0016  -0.0178  -0.0082 -13.00    5.4
2173 301375.000    807700.0207  -5649861.3642   2837755.8476   1   7   0.0110   0.0220   0.0205  -0.0018  -0.0168  -0.0077 -12.00    5.7
2173 301376.000    807700.0197  -5649861.3665   2837755.8487   1   7   0.0103   0.0207   0.0191  -0.0018  -0.0157  -0.0071 -11.00    6.0
2173 301377.000    807700.0206  -5649861.3608   2837755.8457   1   7   0.0097   0.0193   0.0177  -0.0021  -0.0147  -0.0066 -10.00    6.4
2173 301378.000    807700.0227  -5649861.3612   2837755.8423   1   7   0.0091   0.0181   0.0164  -0.0020  -0.0137  -0.0060  -9.00    6.5
2173 301379.000    807700.0221  -5649861.3619   2837755.8434   1   7   0.0084   0.0169   0.0151  -0.0023  -0.0127  -0.0055  -8.00    6.8
2173 301380.000    807700.0222  -5649861.3659   2837755.8439   1   7   0.0078   0.0157   0.0138  -0.0020  -0.0118  -0.0049  -7.00    6.9
2173 301381.000    807700.0198  -5649861.3601   2837755.8419   1   7   0.0073   0.0146   0.0127  -0.0022  -0.0109  -0.0044  -6.00    7.4
2173 301382.000    807700.0218  -5649861.3579   2837755.8413   1   7   0.0067   0.0136   0.0116  -0.0021  -0.0101  -0.0038  -5.00    7.8
2173 301383.000    807700.0202  -5649861.3574   2837755.8415   1   7   0.0061   0.0127   0.0105  -0.0023  -0.0094  -0.0034  -4.00    8.8
2173 301384.000    807700.0191  -5649861.3569   2837755.8410   1   7   0.0057   0.0119   0.0097  -0.0025  -0.0088  -0.0032  -3.00    9.5
2173 301385.000    807700.0204  -5649861.3558   2837755.8399   1   7   0.0053   0.0113   0.0091  -0.0020  -0.0083  -0.0025  -2.00   10.2
2173 301386.000    807700.0197  -5649861.3620   2837755.8446   1   7   0.0048   0.0109   0.0087  -0.0022  -0.0081  -0.0018  -1.00   10.7
2173 301387.000    807700.0172  -5649861.3609   2837755.8448   1   7   0.0049   0.0106   0.0086  -0.0028  -0.0080  -0.0019   0.00   11.6
2173 301388.000    807700.0183  -5649861.3568   2837755.8401   1   7   0.0051   0.0108   0.0085  -0.0023  -0.0079  -0.0028   0.00   12.0
2173 301389.000    807700.0193  -5649861.3596   2837755.8439   1   7   0.0050   0.0107   0.0084  -0.0024  -0.0080  -0.0023   0.00   12.5
2173 301390.000    807700.0183  -5649861.3539   2837755.8439   1   7   0.0048   0.0107   0.0085  -0.0024  -0.0079  -0.0025   0.00   13.2
2173 301391.000    807700.0169  -5649861.3560   2837755.8439   1   7   0.0048   0.0107   0.0085  -0.0026  -0.0080  -0.0027   0.00   13.7
2173 301392.000    807700.0148  -5649861.3576   2837755.8443   1   7   0.0049   0.0107   0.0085  -0.0024  -0.0079  -0.0020   0.00   14.8
2173 301393.000    807700.0157  -5649861.3578   2837755.8455   1   7   0.0050   0.0106   0.0086  -0.0029  -0.0080  -0.0024   0.00   15.9
2173 301394.000    807700.0177  -5649861.3606   2837755.8459   1   7   0.0050   0.0108   0.0085  -0.0020  -0.0079  -0.0019   0.00   16.1
2173 301395.000    807700.0180  -5649861.3579   2837755.8427   1   7   0.0049   0.0107   0.0084  -0.0024  -0.0079  -0.0026   0.00   16.4
2173 301396.000    807700.0182  -5649861.3603   2837755.8438   1   7   0.0049   0.0108   0.0084  -0.0021  -0.0079  -0.0019   0.00   16.4
2173 301397.000    807700.0184  -5649861.3638   2837755.8477   1   7   0.0049   0.0107   0.0084  -0.0022  -0.0080  -0.0013   0.00   16.2
2173 301398.000    807700.0200  -5649861.3655   2837755.8491   1   7   0.0051   0.0107   0.0086  -0.0023  -0.0080  -0.0021   0.00   15.5
2173 301399.000    807700.0190  -5649861.3696   2837755.8505   1   7   0.0048   0.0106   0.0085  -0.0027  -0.0080  -0.0021   0.00   15.1
2173 301400.000    807700.0178  -5649861.3595   2837755.8437   1   7   0.0049   0.0107   0.0085  -0.0024  -0.0080  -0.0022   0.00   15.0
2173 301401.000    807700.0187  -5649861.3588   2837755.8452   1   7   0.0050   0.0108   0.0085  -0.0013  -0.0079  -0.0023   0.00   15.4
2173 301402.000    807700.0154  -5649861.3586   2837755.8473   1   7   0.0050   0.0106   0.0084  -0.0028  -0.0080  -0.0023   0.00   16.0
2173 301403.000    807700.0156  -5649861.3569   2837755.8461   1   7   0.0048   0.0107   0.0084  -0.0021  -0.0080  -0.0023   0.00   16.5
2173 301404.000    807700.0173  -5649861.3541   2837755.8421   1   7   0.0049   0.0107   0.0085  -0.0026  -0.0080  -0.0021   0.00   17.4
2173 301405.000    807700.0174  -5649861.3560   2837755.8430   1   7   0.0050   0.0107   0.0085  -0.0025  -0.0079  -0.0025   0.00   17.8
2173 301406.000    807700.0160  -5649861.3579   2837755.8461   1   7   0.0047   0.0107   0.0085  -0.0017  -0.0080  -0.0013   0.00   18.2
2173 301407.000    807700.0164  -5649861.3551   2837755.8438   1   7   0.0049   0.0108   0.0085  -0.0019  -0.0079  -0.0015   0.00   18.5
2173 301408.000    807700.0166  -5649861.3559   2837755.8453   1   7   0.0048   0.0107   0.0085  -0.0022  -0.0079  -0.0023   0.00   18.8
2173 301409.000    807700.0197  -5649861.3580   2837755.8439   1   7   0.0050   0.0107   0.0085  -0.0027  -0.0079  -0.0025   0.00   18.4
2173 301410.000    807700.0175  -5649861.3598   2837755.8452   1   7   0.0047   0.0108   0.0085  -0.0021  -0.0079  -0.0013   0.00   18.5
2173 301411.000    807700.0172  -5649861.3548   2837755.8440   1   7   0.0048   0.0108   0.0084  -0.0018  -0.0079  -0.0022   0.00   18.7
2173 301412.000    807700.0173  -5649861.3550   2837755.8414   1   7   0.0048   0.0108   0.0085  -0.0020  -0.0080  -0.0015   0.00   18.7
2173 301413.000    807700.0152  -5649861.3569   2837755.8468   1   7   0.0052   0.0108   0.0084  -0.0021  -0.0079  -0.0026   0.00   19.1
2173 301414.000    807700.0175  -5649861.3619   2837755.8467   1   7   0.0048   0.0107   0.0085  -0.0023  -0.0080  -0.0023   0.00   19.4
2173 301415.000    807700.0160  -5649861.3608   2837755.8458   1   7   0.0050   0.0108   0.0085  -0.0022  -0.0079  -0.0022   0.00   19.7
2173 301416.000    807700.0156  -5649861.3571   2837755.8446   1   7   0.0049   0.0108   0.0085  -0.0024  -0.0080  -0.0022   0.00   20.0
2173 301417.000    807700.0148  -5649861.3559   2837755.8433   1   7   0.0052   0.0108   0.0084  -0.0020  -0.0078  -0.0025   0.00   20.1
2173 301418.000    807700.0153  -5649861.3504   2837755.8409   1   7   0.0049   0.0107   0.0085  -0.0026  -0.0079  -0.0020   0.00   20.2
2173 301419.000    807700.0154  -5649861.3549   2837755.8435   1   7   0.0049   0.0106   0.0085  -0.0027  -0.0080  -0.0024   0.00   20.6
2173 301420.000    807700.0160  -5649861.3584   2837755.8441   1   7   0.0049   0.0107   0.0084  -0.0019  -0.0080  -0.0020   0.00   20.3
2173 301421.000    807700.0150  -5649861.3590   2837755.8468   1   7   0.0049   0.0107   0.0085  -0.0025  -0.0080  -0.0008   0.00   20.4
2173 301422.000    807700.0172  -5649861.3558   2837755.8404   1   7   0.0049   0.0107   0.0085  -0.0023  -0.0079  -0.0019   0.00   20.1
2173 301423.000    807700.0156  -5649861.3580   2837755.8472   1   7   0.0048   0.0107   0.0085  -0.0020  -0.0080  -0.0007   0.00   20.0
2173 301424.000    807700.0155  -5649861.3566   2837755.8440   1   7   0.0051   0.0107   0.0085  -0.0023  -0.0080  -0.0020   0.00   20.1
2173 301425.000    807700.0165  -5649861.3554   2837755.8436   1   7   0.0049   0.0107   0.0085  -0.0026  -0.0079  -0.0025   0.00   20.0
2173 301426.000    807700.0160  -5649861.3618   2837755.8464   1   7   0.0050   0.0106   0.0085  -0.0026  -0.0080  -0.0017   0.00   20.0
2173 301427.000    807700.0143  -5649861.3592   2837755.8451   1   7   0.0052   0.0108   0.0084  -0.0018  -0.0079  -0.0022   0.00   19.8
2173 301428.000    807700.0156  -5649861.3532   2837755.8420   1   7   0.0049   0.0107   0.0085  -0.0022  -0.0080  -0.0021   0.00   19.9
2173 301429.000    807700.0156  -5649861.3608   2837755.8475   1   7   0.0051   0.0107   0.0085  -0.0024  -0.0080  -0.0021   0.00   19.7
2173 301430.000    807700.0165  -5649861.3593   2837755.8472   1   7   0.0049   0.0107   0.0085  -0.0026  -0.0080  -0.0017   0.00   19.7
2173 301431.000    807700.0147  -5649861.3575   2837755.8462   1   7   0.0049   0.0107   0.0085  -0.0026  -0.0079  -0.0021   0.00   19.8
2173 301432.000    807700.0143  -5649861.3623   2837755.8474   1   7   0.0049   0.0108   0.0085  -0.0022  -0.0080  -0.0016   0.00   19.6
2173 301433.000    807700.0135  -5649861.3556   2837755.8443   1   7   0.0050   0.0107   0.0085  -0.0019  -0.0079  -0.0017   0.00   19.6
2173 301434.000    807700.0150  -5649861.3584   2837755.8447   1   7   0.0049   0.0108   0.0085  -0.0016  -0.0079  -0.0021   0.00   19.4
2173 301435.000    807700.0173  -5649861.3626   2837755.8474   1   7   0.0049   0.0107   0.0085  -0.0027  -0.0080  -0.0016   0.00   19.1
2173 301436.000    807700.0168  -5649861.3582   2837755.8460   1   7   0.0047   0.0107   0.0083  -0.0021  -0.0080  -0.0019   0.00   18.7
2173 301437.000    807700.0169  -5649861.3587   2837755.8442   1   7   0.0048   0.0107   0.0085  -0.0025  -0.0079  -0.0023   0.00   18.4
2173 301438.000    807700.0146  -5649861.3636   2837755.8490   1   7   0.0051   0.0107   0.0085  -0.0025  -0.0079  -0.0024   0.00   18.4
2173 301439.000    807700.0155  -5649861.3617   2837755.8484   1   7   0.0049   0.0107   0.0084  -0.0022  -0.0080  -0.0018   0.00   18.5
2173 301440.000    807700.0170  -5649861.3558   2837755.8456   1   7   0.0050   0.0106   0.0085  -0.0031  -0.0080  -0.0025   0.00   18.2
2173 301441.000    807700.0176  -5649861.3565   2837755.8420   1   7   0.0049   0.0106   0.0085  -0.0028  -0.0080  -0.0021   0.00   18.4
2173 301442.000    807700.0149  -5649861.3596   2837755.8459   1   7   0.0052   0.0108   0.0084  -0.0022  -0.0079  -0.0024   0.00   18.5
2173 301443.000    807700.0133  -5649861.3600   2837755.8483   1   7   0.0047   0.0107   0.0084  -0.0022  -0.0080  -0.0018   0.00   18.4
2173 301444.000    807700.0142  -5649861.3592   2837755.8477   1   7   0.0047   0.0107   0.0084  -0.0027  -0.0080  -0.0019   0.00   18.3
2173 301445.000    807700.0158  -5649861.3645   2837755.8476   1   7   0.0049   0.0108   0.0084  -0.0016  -0.0079  -0.0018   0.00   18.2
2173 301446.000    807700.0176  -5649861.3575   2837755.8446   1   7   0.0049   0.0107   0.0085  -0.0022  -0.0080  -0.0019   0.00   18.1
2173 301447.000    807700.0199  -5649861.3627   2837755.8474   1   7   0.0051   0.0108   0.0084  -0.0022  -0.0079  -0.0019   0.00   17.9
2173 301448.000    807700.0166  -5649861.3620   2837755.8472   1   7   0.0048   0.0107   0.0084  -0.0022  -0.0080  -0.0022   0.00   17.6
2173 301449.000    807700.0170  -5649861.3628   2837755.8484   1   7   0.0050   0.0107   0.0084  -0.0025  -0.0080  -0.0023   0.00   17.4
2173 301450.000    807700.0151  -5649861.3594   2837755.8475   1   7   0.0047   0.0107   0.0085  -0.0024  -0.0080  -0.0017   0.00   17.4
2173 301451.000    807700.0165  -5649861.3585   2837755.8445   1   7   0.0050   0.0108   0.0085  -0.0017  -0.0080  -0.0015   0.00   17.4
2173 301452.000    807700.0161  -5649861.3620   2837755.8466   1   7   0.0049   0.0108   0.0085  -0.0024  -0.0079  -0.0017   0.00   17.2
2173 301453.000    807700.0166  -5649861.3553   2837755.8461   1   7   0.0047   0.0106   0.0084  -0.0022  -0.0081  -0.0021   0.00   17.0
2173 301454.000    807700.0160  -5649861.3602   2837755.8510   1   7   0.0044   0.0108   0.0084  -0.0015  -0.0079  -0.0018   0.00   16.9
2173 301455.000    807700.0153  -5649861.3573   2837755.8448   1   7   0.0050   0.0108   0.0085  -0.0024  -0.0078  -0.0029   0.00   16.9
2173 301456.000    807700.0169  -5649861.3605   2837755.8451   1   7   0.0049   0.0107   0.0084  -0.0023  -0.0079  -0.0023   0.00   16.8
2173 301457.000    807700.0150  -5649861.3578   2837755.8440   1   7   0.0050   0.0108   0.0084  -0.0017  -0.0079  -0.0023   0.00   16.8
2173 301458.000    807700.0160  -5649861.3617   2837755.8473   1   7   0.0051   0.0108   0.0085  -0.0021  -0.0079  -0.0023   0.00   16.7
2173 301459.000    807700.0150  -5649861.3546   2837755.8431   1   7   0.0052   0.0108   0.0085  -0.0023  -0.0080  -0.0018   0.00   16.6
2173 301460.000    807700.0159  -5649861.3537   2837755.8430   1   7   0.0049   0.0107   0.0085  -0.0027  -0.0080  -0.0019   0.00   16.5
2173 301461.000    807700.0143  -5649861.3575   2837755.8455   1   7   0.0047   0.0107   0.0083  -0.0029  -0.0080  -0.0021   0.00   16.5
2173 301462.000    807700.0173  -5649861.3562   2837755.8478   1   7   0.0047   0.0107   0.0085  -0.0028  -0.0080  -0.0020   0.00   16.3
2173 301463.000    807700.0163  -5649861.3560   2837755.8448   1   7   0.0045   0.0107   0.0084  -0.0027  -0.0080  -0.0021   0.00   16.3
2173 301464.000    807700.0139  -5649861.3561   2837755.8473   1   7   0.0048   0.0108   0.0084  -0.0018  -0.0079  -0.0017   0.00   16.3
2173 301465.000    807700.0145  -5649861.3508   2837755.8412   1   7   0.0048   0.0108   0.0085  -0.0019  -0.0079  -0.0017   0.00   16.4
2173 301466.000    807700.0152  -5649861.3581   2837755.8458   1   7   0.0047   0.0106   0.0084  -0.0028  -0.0080  -0.0022   0.00   16.3
2173 301467.000    807700.0155  -5649861.3595   2837755.8482   1   7   0.0048   0.0107   0.0084  -0.0024  -0.0080  -0.0021   0.00   16.1
2173 301468.000    807700.0186  -5649861.3584   2837755.8455   1   7   0.0050   0.0108   0.0085  -0.0021  -0.0079  -0.0019   0.00   16.1
2173 301469.000    807700.0150  -5649861.3538   2837755.8446   1   7   0.0047   0.0106   0.0084  -0.0027  -0.0081  -0.0008   0.00   16.1
2173 301470.000    807700.0167  -5649861.3567   2837755.8445   1   7   0.0047   0.0107   0.0086  -0.0026  -0.0080  -0.0008   0.00   15.9
2173 301471.000    807700.0149  -5649861.3576   2837755.8468   1   7   0.0050   0.0109   0.0086  -0.0018  -0.0078  -0.0021   0.00   15.8
2173 301472.000    807700.0165  -5649861.3586   2837755.8443   1   7   0.0051   0.0107   0.0085  -0.0028  -0.0079  -0.0022   0.00   15.7
2173 301473.000    807700.0165  -5649861.3547   2837755.8436   1   7   0.0049   0.0108   0.0084  -0.0025  -0.0079  -0.0023   0.00   15.5
2173 301474.000    807700.0174  -5649861.3573   2837755.8434   1   7   0.0049   0.0107   0.0085  -0.0023  -0.0080  -0.0018   0.00   15.3
2173 301475.000    807700.0167  -5649861.3542   2837755.8438   1   7   0.0046   0.0107   0.0085  -0.0027  -0.0079  -0.0021   0.00   15.3
2173 301476.000    807700.0122  -5649861.3524   2837755.8473   1   7   0.0048   0.0108   0.0084  -0.0023  -0.0079  -0.0017   0.00   15.3
2173 301477.000    807700.0166  -5649861.3554   2837755.8437   1   7   0.0050   0.0108   0.0085  -0.0021  -0.0079  -0.0021   0.00   15.3
2173 301478.000    807700.0167  -5649861.3621   2837755.8457   1   7   0.0049   0.0108   0.0085  -0.0017  -0.0080  -0.0017   0.00   15.3
2173 301479.000    807700.0163  -5649861.3574   2837755.8451   1   7   0.0050   0.0107   0.0085  -0.0027  -0.0080  -0.0023   0.00   15.2
2173 301480.000    807700.0175  -5649861.3588   2837755.8468   1   7   0.0047   0.0107   0.0084  -0.0023  -0.0080  -0.0021   0.00   15.2
2173 301481.000    807700.0157  -5649861.3614   2837755.8482   1   7   0.0046   0.0106   0.0084  -0.0028  -0.0080  -0.0019   0.00   15.1
2173 301482.000    807700.0163  -5649861.3535   2837755.8431   1   7   0.0049   0.0106   0.0085  -0.0027  -0.0080  -0.0022   0.00   15.0
2173 301483.000    807700.0165  -5649861.3588   2837755.8463   1   7   0.0053   0.0108   0.0085  -0.0023  -0.0080  -0.0019   0.00   15.0
2173 301484.000    807700.0172  -5649861.3586   2837755.8433   1   7   0.0052   0.0107   0.0086  -0.0028  -0.0079  -0.0019   0.00   14.9
2173 301485.000    807700.0153  -5649861.3601   2837755.8464   1   7   0.0045   0.0107   0.0084  -0.0025  -0.0080  -0.0020   0.00   15.0
2173 301486.000    807700.0189  -5649861.3578   2837755.8448   1   7   0.0050   0.0107   0.0086  -0.0027  -0.0079  -0.0016   0.00   14.9
2173 301487.000    807700.0165  -5649861.3577   2837755.8468   1   7   0.0049   0.0107   0.0086  -0.0029  -0.0080  -0.0019   0.00   14.8
2173 301488.000    807700.0142  -5649861.3561   2837755.8432   1   7   0.0051   0.0109   0.0085  -0.0017  -0.0078  -0.0017   0.00   14.8
2173 301489.000    807700.0169  -5649861.3566   2837755.8413   1   7   0.0050   0.0107   0.0085  -0.0026  -0.0080  -0.0023   0.00   14.8
2173 301490.000    807700.0162  -5649861.3606   2837755.8444   1   7   0.0047   0.0107   0.0084  -0.0024  -0.0080  -0.0018   0.00   14.7
2173 301491.000    807700.0167  -5649861.3595   2837755.8445   1   7   0.0050   0.0107   0.0085  -0.0030  -0.0080  -0.0018   0.00   14.6
2173 301492.000    807700.0163  -5649861.3616   2837755.8454   1   7   0.0047   0.0107   0.0084  -0.0027  -0.0080  -0.0016   0.00   14.5
2173 301493.000    807700.0142  -5649861.3560   2837755.8477   1   7   0.0047   0.0107   0.0085  -0.0025  -0.0079  -0.0019   0.00   14.4
2173 301494.000    807700.0162  -5649861.3615   2837755.8439   1   7   0.0052   0.0107   0.0085  -0.0028  -0.0080  -0.0027   0.00   14.3
2173 301495.000    807700.0154  -5649861.3507   2837755.8363   1   7   0.0047   0.0106   0.0084  -0.0024  -0.0081  -0.0015   0.00   14.3
2173 301496.000    807700.0175  -5649861.3594   2837755.8425   1   7   0.0050   0.0108   0.0085  -0.0018  -0.0079  -0.0019   0.00   14.3
2173 301497.000    807700.0149  -5649861.3601   2837755.8447   1   7   0.0051   0.0107   0.0085  -0.0024  -0.0080  -0.0017   0.00   14.1
2173 301498.000    807700.0161  -5649861.3582   2837755.8426   1   7   0.0049   0.0107   0.0084  -0.0027  -0.0080  -0.0019   0.00   14.0
2173 301499.000    807700.0139  -5649861.3573   2837755.8426   1   7   0.0047   0.0107   0.0085  -0.0026  -0.0080  -0.0020   0.00   14.0
2173 301500.000    807700.0131  -5649861.3546   2837755.8426   1   7   0.0051   0.0109   0.0085  -0.0019  -0.0079  -0.0023   0.00   14.0
2173 301501.000    807700.0137  -5649861.3561   2837755.8439   1   7   0.0050   0.0108   0.0085  -0.0017  -0.0080  -0.0008   0.00   14.0
2173 301502.000    807700.0141  -5649861.3562   2837755.8423   1   7   0.0049   0.0108   0.0085  -0.0022  -0.0079  -0.0023   0.00   14.0
2173 301503.000    807700.0123  -5649861.3566   2837755.8414   1   7   0.0049   0.0107   0.0085  -0.0028  -0.0080  -0.0021   0.00   14.0
2173 301504.000    807700.0136  -5649861.3571   2837755.8425   1   7   0.0049   0.0107   0.0085  -0.0024  -0.0080  -0.0018   0.00   13.9
2173 301505.000    807700.0143  -5649861.3504   2837755.8400   1   7   0.0049   0.0108   0.0085  -0.0018  -0.0080  -0.0017   0.00   13.9
2173 301506.000    807700.0132  -5649861.3581   2837755.8427   1   7   0.0048   0.0107   0.0085  -0.0027  -0.0079  -0.0022   0.00   13.8
2173 301507.000    807700.0133  -5649861.3533   2837755.8410   1   7   0.0051   0.0108   0.0085  -0.0021  -0.0079  -0.0021   0.00   13.8
2173 301508.000    807700.0137  -5649861.3527   2837755.8391   1   7   0.0051   0.0108   0.0084  -0.0019  -0.0080  -0.0021   0.00   13.8
2173 301509.000    807700.0140  -5649861.3554   2837755.8409   1   7   0.0047   0.0108   0.0084  -0.0019  -0.0080  -0.0002   0.00   13.8
2173 301510.000    807700.0126  -5649861.3564   2837755.8395   1   7   0.0052   0.0109   0.0085  -0.0023  -0.0079  -0.0021   0.00   13.8
2173 301511.000    807700.0132  -5649861.3552   2837755.8423   1   7   0.0049   0.0107   0.0085  -0.0024  -0.0080  -0.0011   0.00   13.7
2173 301512.000    807700.0151  -5649861.3555   2837755.8394   1   7   0.0045   0.0107   0.0084  -0.0023  -0.0080  -0.0015   0.00   13.7
2173 301513.000    807700.0142  -5649861.3544   2837755.8388   1   7   0.0049   0.0107   0.0085  -0.0024  -0.0081  -0.0017   0.00   13.6
2173 301514.000    807700.0150  -5649861.3582   2837755.8428   1   7   0.0049   0.0107   0.0084  -0.0027  -0.0080  -0.0017   0.00   13.5
2173 301515.000    807700.0129  -5649861.3536   2837755.8396   1   7   0.0050   0.0108   0.0085  -0.0023  -0.0079  -0.0018   0.00   13.4
2173 301516.000    807700.0130  -5649861.3553   2837755.8401   1   7   0.0046   0.0108   0.0085  -0.0024  -0.0080  -0.0007   0.00   13.3
2173 301517.000    807700.0137  -5649861.3521   2837755.8405   1   7   0.0050   0.0108   0.0084  -0.0023  -0.0079  -0.0024   0.00   13.3
2173 301518.000    807700.0106  -5649861.3549   2837755.8404   1   7   0.0047   0.0108   0.0084  -0.0022  -0.0080  -0.0017   0.00   13.3
2173 301519.000    807700.0131  -5649861.3607   2837755.8403   1   7   0.0047   0.0107   0.0084  -0.0026  -0.0081  -0.0014   0.00   13.2
2173 301520.000    807700.0135  -5649861.3558   2837755.8393   1   7   0.0048   0.0107   0.0085  -0.0027  -0.0079  -0.0019   0.00   13.2
2173 301521.000    807700.0121  -5649861.3559   2837755.8387   1   7   0.0047   0.0108   0.0085  -0.0023  -0.0079  -0.0011   0.00   13.2
2173 301522.000    807700.0130  -5649861.3523   2837755.8354   1   7   0.0046   0.0107   0.0084  -0.0026  -0.0080  -0.0013   0.00   13.1
2173 301523.000    807700.0091  -5649861.3552   2837755.8406   1   7   0.0048   0.0108   0.0084  -0.0021  -0.0079  -0.0017   0.00   13.1
2173 301524.000    807700.0104  -5649861.3519   2837755.8384   1   7   0.0049   0.0107   0.0086  -0.0024  -0.0080  -0.0012   0.00   13.0
2173 301525.000    807700.0130  -5649861.3533   2837755.8371   1   7   0.0051   0.0109   0.0085  -0.0019  -0.0079  -0.0021   0.00   13.0
2173 301526.000    807700.0143  -5649861.3551   2837755.8401   1   7   0.0049   0.0107   0.0085  -0.0021  -0.0080  -0.0013   0.00   12.9
2173 301527.000    807700.0141  -5649861.3543   2837755.8368   1   7   0.0049   0.0108   0.0084  -0.0021  -0.0080  -0.0019   0.00   12.8
2173 301528.000    807700.0145  -5649861.3545   2837755.8376   1   7   0.0048   0.0107   0.0084  -0.0030  -0.0080  -0.0016   0.00   12.7
2173 301529.000    807700.0137  -5649861.3519   2837755.8372   1   7   0.0050   0.0107   0.0085  -0.0027  -0.0080  -0.0018   0.00   12.7
2173 301530.000    807700.0144  -5649861.3554   2837755.8389   1   7   0.0051   0.0108   0.0085  -0.0025  -0.0079  -0.0019   0.00   12.6
2173 301531.000    807700.0157  -5649861.3608   2837755.8401   1   7   0.0048   0.0107   0.0085  -0.0026  -0.0080  -0.0014   0.00   12.6
2173 301532.000    807700.0145  -5649861.3559   2837755.8383   1   7   0.0052   0.0108   0.0085  -0.0024  -0.0079  -0.0011   0.00   12.5
2173 301533.000    807700.0128  -5649861.3552   2837755.8375   1   7   0.0049   0.0107   0.0084  -0.0024  -0.0079  -0.0022   0.00   12.5
2173 301534.000    807700.0127  -5649861.3601   2837755.8399   1   7   0.0049   0.0107   0.0084  -0.0026  -0.0080  -0.0017   0.00   12.4
2173 301535.000    807700.0129  -5649861.3522   2837755.8354   1   7   0.0050   0.0108   0.0085  -0.0023  -0.0079  -0.0020   0.00   12.4
2173 301536.000    807700.0140  -5649861.3551   2837755.8391   1   7   0.0049   0.0108   0.0085  -0.0024  -0.0079  -0.0018   0.00   12.4
2173 301537.000    807700.0119  -5649861.3588   2837755.8393   1   7   0.0053   0.0108   0.0085  -0.0023  -0.0079  -0.0021   0.00   12.4
2173 301538.000    807700.0125  -5649861.3520   2837755.8355   1   7   0.0051   0.0107   0.0086  -0.0032  -0.0079  -0.0020   0.00   12.4
2173 301539.000    807700.0110  -5649861.3513   2837755.8345   1   7   0.0048   0.0107   0.0084  -0.0029  -0.0080  -0.0015   0.00   12.3
2173 301540.000    807700.0111  -5649861.3591   2837755.8398   1   7   0.0050   0.0107   0.0084  -0.0029  -0.0080  -0.0025   0.00   12.3
2173 301541.000    807700.0127  -5649861.3581   2837755.8368   1   7   0.0051   0.0107   0.0085  -0.0026  -0.0081  -0.0017   0.00   12.3
2173 301542.000    807700.0149  -5649861.3540   2837755.8363   1   7   0.0050   0.0108   0.0085  -0.0022  -0.0079  -0.0022   0.00   12.2
2173 301543.000    807700.0129  -5649861.3610   2837755.8384   1   7   0.0051   0.0108   0.0084  -0.0026  -0.0079  -0.0021   0.00   12.2
2173 301544.000    807700.0130  -5649861.3567   2837755.8363   1   7   0.0048   0.0107   0.0085  -0.0026  -0.0080  -0.0020   0.00   12.1
2173 301545.000    807700.0150  -5649861.3646   2837755.8394   1   7   0.0048   0.0107   0.0084  -0.0029  -0.0080  -0.0021   0.00   12.0
2173 301546.000    807700.0124  -5649861.3608   2837755.8375   1   7   0.0047   0.0108   0.0084  -0.0022  -0.0079  -0.0020   0.00   12.0
2173 301547.000    807700.0132  -5649861.3598   2837755.8386   1   7   0.0048   0.0107   0.0084  -0.0027  -0.0080  -0.0018   0.00   11.9
2173 301548.000    807700.0111  -5649861.3585   2837755.8387   1   7   0.0049   0.0107   0.0085  -0.0029  -0.0080  -0.0014   0.00   11.9
2173 301549.000    807700.0105  -5649861.3604   2837755.8386   1   7   0.0052   0.0108   0.0085  -0.0025  -0.0080  -0.0019   0.00   11.8
2173 301550.000    807700.0109  -5649861.3560   2837755.8376   1   7   0.0049   0.0107   0.0085  -0.0028  -0.0081  -0.0009   0.00   11.8
2173 301551.000    807700.0119  -5649861.3567   2837755.8371   1   7   0.0052   0.0109   0.0084  -0.0022  -0.0078  -0.0022   0.00   11.8
2173 301552.000    807700.0092  -5649861.3535   2837755.8354   1   7   0.0049   0.0107   0.0085  -0.0027  -0.0080  -0.0022   0.00   11.8
2173 301553.000    807700.0120  -5649861.3554   2837755.8356   1   7   0.0046   0.0108   0.0084  -0.0019  -0.0080  -0.0014   0.00   11.7
2173 301554.000    807700.0097  -5649861.3559   2837755.8359   1   7   0.0050   0.0108   0.0084  -0.0024  -0.0079  -0.0024   0.00   11.8
2173 301555.000    807700.0106  -5649861.3582   2837755.8367   1   7   0.0049   0.0108   0.0084  -0.0020  -0.0080  -0.0014   0.00   11.7
2173 301556.000    807700.0112  -5649861.3561   2837755.8365   1   7   0.0047   0.0108   0.0085  -0.0023  -0.0079  -0.0016   0.00   11.6
2173 301557.000    807700.0116  -5649861.3588   2837755.8370   1   7   0.0048   0.0108   0.0084  -0.0016  -0.0080  -0.0016   0.00   11.6
2173 301558.000    807700.0090  -5649861.3603   2837755.8369   1   7   0.0048   0.0108   0.0084  -0.0022  -0.0079  -0.0022   0.00   11.6
2173 301559.000    807700.0101  -5649861.3556   2837755.8358   1   7   0.0049   0.0108   0.0085  -0.0022  -0.0079  -0.0013   0.00   11.6
2173 301560.000    807700.0120  -5649861.3576   2837755.8363   1   7   0.0048   0.0108   0.0084  -0.0023  -0.0079  -0.0021   0.00   11.6
2173 301561.000    807700.0094  -5649861.3556   2837755.8350   1   7   0.0048   0.0108   0.0084  -0.0025  -0.0080  -0.0014   0.00   11.6
2173 301562.000    807700.0103  -5649861.3574   2837755.8366   1   7   0.0048   0.0107   0.0085  -0.0030  -0.0080  -0.0015   0.00   11.6
2173 301563.000    807700.0100  -5649861.3567   2837755.8358   1   7   0.0052   0.0108   0.0084  -0.0021  -0.0079  -0.0022   0.00   11.6
2173 301564.000    807700.0088  -5649861.3641   2837755.8388   1   7   0.0050   0.0108   0.0085  -0.0028  -0.0080  -0.0015   0.00   11.6
2173 301565.000    807700.0099  -5649861.3621   2837755.8379   1   7   0.0046   0.0107   0.0084  -0.0027  -0.0080  -0.0018   0.00   11.6
2173 301566.000    807700.0106  -5649861.3621   2837755.8366   1   7   0.0046   0.0109   0.0084  -0.0017  -0.0079  -0.0012   0.00   11.6
2173 301567.000    807700.0104  -5649861.3626   2837755.8386   1   7   0.0050   0.0108   0.0085  -0.0022  -0.0079  -0.0024   0.00   11.6
2173 301568.000    807700.0108  -5649861.3605   2837755.8365   1   7   0.0045   0.0108   0.0084  -0.0021  -0.0079  -0.0017   0.00   11.6
2173 301569.000    807700.0108  -5649861.3619   2837755.8390   1   7   0.0049   0.0108   0.0084  -0.0022  -0.0079  -0.0014   0.00   11.5
2173 301570.000    807700.0123  -5649861.3592   2837755.8373   1   7   0.0048   0.0108   0.0085  -0.0020  -0.0079  -0.0014   0.00   11.5
2173 301571.000    807700.0107  -5649861.3636   2837755.8375   1   7   0.0051   0.0108   0.0085  -0.0026  -0.0079  -0.0023   0.00   11.5
2173 301572.000    807700.0106  -5649861.3639   2837755.8375   1   7   0.0047   0.0107   0.0084  -0.0027  -0.0080  -0.0007   0.00   11.5
2173 301573.000    807700.0108  -5649861.3634   2837755.8404   1   7   0.0048   0.0108   0.0084  -0.0019  -0.0079  -0.0020   0.00   11.5
2173 301574.000    807700.0108  -5649861.3629   2837755.8378   1   7   0.0051   0.0108   0.0085  -0.0024  -0.0080   0.0001   0.00   11.4
2173 301575.000    807700.0107  -5649861.3609   2837755.8358   1   7   0.0050   0.0107   0.0085  -0.0027  -0.0081  -0.0013   0.00   11.4
2173 301576.000    807700.0092  -5649861.3643   2837755.8387   1   7   0.0053   0.0108   0.0085  -0.0027  -0.0080  -0.0021   0.00   11.4
2173 301577.000    807700.0093  -5649861.3581   2837755.8356   1   7   0.0052   0.0108   0.0085  -0.0024  -0.0079  -0.0024   0.00   11.4
2173 301578.000    807700.0110  -5649861.3630   2837755.8378   1   7   0.0048   0.0108   0.0083  -0.0021  -0.0079  -0.0021   0.00   11.4
2173 301579.000    807700.0128  -5649861.3703   2837755.8409   1   7   0.0049   0.0108   0.0084  -0.0024  -0.0080  -0.0013   0.00   11.4
2173 301580.000    807700.0109  -5649861.3628   2837755.8369   1   7   0.0050   0.0107   0.0084  -0.0027  -0.0080  -0.0024   0.00   11.3
2173 301581.000    807700.0122  -5649861.3652   2837755.8381   1   7   0.0049   0.0107   0.0084  -0.0029  -0.0079  -0.0018   0.00   11.3
2173 301582.000    807700.0093  -5649861.3606   2837755.8363   1   7   0.0047   0.0107   0.0085  -0.0022  -0.0080  -0.0017   0.00   11.3
2173 301583.000    807700.0102  -5649861.3619   2837755.8378   1   7   0.0049   0.0107   0.0085  -0.0027  -0.0080  -0.0017   0.00   11.3
2173 301584.000    807700.0110  -5649861.3609   2837755.8378   1   7   0.0049   0.0108   0.0085  -0.0024  -0.0079  -0.0011   0.00   11.3
2173 301585.000    807700.0093  -5649861.3571   2837755.8338   1   7   0.0047   0.0106   0.0085  -0.0032  -0.0080  -0.0024   0.00   11.3
2173 301586.000    807700.0106  -5649861.3613   2837755.8374   1   7   0.0047   0.0108   0.0085  -0.0027  -0.0079  -0.0021   0.00   11.3
2173 301587.000    807700.0097  -5649861.3602   2837755.8365   1   7   0.0051   0.0109   0.0085  -0.0022  -0.0079  -0.0021   0.00   11.3
2173 301588.000    807700.0113  -5649861.3635   2837755.8370   1   7   0.0050   0.0108   0.0084  -0.0028  -0.0079  -0.0029   0.00   11.3
2173 301589.000    807700.0113  -5649861.3689   2837755.8419   1   7   0.0048   0.0108   0.0085  -0.0025  -0.0079  -0.0017   0.00   11.3
2173 301590.000    807700.0118  -5649861.3686   2837755.8403   1   7   0.0050   0.0108   0.0085  -0.0025  -0.0079  -0.0016   0.00   11.3
2173 301591.000    807700.0140  -5649861.3670   2837755.8383   1   7   0.0052   0.0109   0.0084  -0.0022  -0.0079  -0.0018   0.00   11.3
2173 301592.000    807700.0097  -5649861.3632   2837755.8368   1   7   0.0051   0.0109   0.0085  -0.0019  -0.0078  -0.0019   0.00   11.3
2173 301593.000    807700.0128  -5649861.3595   2837755.8342   1   7   0.0049   0.0108   0.0084  -0.0028  -0.0080  -0.0022   0.00   11.3
2173 301594.000    807700.0111  -5649861.3610   2837755.8363   1   7   0.0051   0.0108   0.0084  -0.0027  -0.0079  -0.0018   0.00   11.3
2173 301595.000    807700.0116  -5649861.3621   2837755.8346   1   7   0.0050   0.0108   0.0085  -0.0026  -0.0079  -0.0023   0.00   11.3
2173 301596.000    807700.0101  -5649861.3618   2837755.8360   1   7   0.0052   0.0107   0.0084  -0.0028  -0.0080  -0.0015   0.00   11.4
2173 301597.000    807700.0111  -5649861.3669   2837755.8398   1   7   0.0048   0.0108   0.0084  -0.0025  -0.0080  -0.0023   0.00   11.3
2173 301598.000    807700.0125  -5649861.3610   2837755.8348   1   7   0.0051   0.0108   0.0084  -0.0021  -0.0080  -0.0020   0.00   11.4
2173 301599.000    807700.0129  -5649861.3651   2837755.8392   1   7   0.0051   0.0108   0.0085  -0.0025  -0.0079  -0.0023   0.00   11.3
2173 301600.000    807700.0099  -5649861.3710   2837755.8419   1   7   0.0045   0.0107   0.0083  -0.0025  -0.0080  -0.0013   0.00   11.3
2173 301601.000    807700.0094  -5649861.3659   2837755.8382   1   7   0.0049   0.0108   0.0085  -0.0026  -0.0079  -0.0016   0.00   11.4
2173 301602.000    807700.0103  -5649861.3602   2837755.8348   1   7   0.0049   0.0108   0.0084  -0.0025  -0.0080  -0.0011   0.00   11.4
2173 301603.000    807700.0102  -5649861.3653   2837755.8378   1   7   0.0048   0.0108   0.0084  -0.0027  -0.0079  -0.0020   0.00   11.4
2173 301604.000    807700.0097  -5649861.3625   2837755.8367   1   7   0.0051   0.0108   0.0085  -0.0026  -0.0080  -0.0016   0.00   11.4
2173 301605.000    807700.0094  -5649861.3693   2837755.8394   1   7   0.0047   0.0108   0.0084  -0.0019  -0.0079  -0.0016   0.00   11.4
2173 301606.000    807700.0103  -5649861.3654   2837755.8376   1   7   0.0050   0.0107   0.0084  -0.0028  -0.0080  -0.0019   0.00   11.5
2173 301607.000    807700.0120  -5649861.3685   2837755.8404   1   7   0.0050   0.0108   0.0085  -0.0029  -0.0079  -0.0023   0.00   11.5
2173 301608.000    807700.0088  -5649861.3655   2837755.8382   1   7   0.0048   0.0108   0.0084  -0.0026  -0.0079  -0.0022   0.00   11.5
2173 301609.000    807700.0109  -5649861.3678   2837755.8393   1   7   0.0050   0.0107   0.0086  -0.0030  -0.0080  -0.0016   0.00   11.5
2173 301610.000    807700.0078  -5649861.3714   2837755.8399   1   7   0.0049   0.0108   0.0085  -0.0028  -0.0079  -0.0020   0.00   11.5
2173 301611.000    807700.0116  -5649861.3669   2837755.8381   1   7   0.0050   0.0108   0.0084  -0.0023  -0.0080  -0.0021   0.00   11.6
2173 301612.000    807700.0107  -5649861.3682   2837755.8371   1   7   0.0048   0.0108   0.0084  -0.0026  -0.0080  -0.0015   0.00   11.6
2173 301613.000    807700.0080  -5649861.3631   2837755.8378   1   7   0.0046   0.0108   0.0083  -0.0024  -0.0080  -0.0020   0.00   11.6
2173 301614.000    807700.0112  -5649861.3762   2837755.8410   1   7   0.0046   0.0108   0.0084  -0.0023  -0.0079  -0.0013   0.00   11.6
2173 301615.000    807700.0129  -5649861.3639   2837755.8360   1   7   0.0051   0.0107   0.0085  -0.0031  -0.0079  -0.0023   0.00   11.6
2173 301616.000    807700.0113  -5649861.3661   2837755.8400   1   7   0.0048   0.0109   0.0084  -0.0021  -0.0080  -0.0021   0.00   11.7
2173 301617.000    807700.0099  -5649861.3646   2837755.8376   1   7   0.0047   0.0108   0.0084  -0.0019  -0.0079  -0.0018   0.00   11.7
2173 301618.000    807700.0102  -5649861.3614   2837755.8356   1   7   0.0049   0.0108   0.0085  -0.0026  -0.0080  -0.0008   0.00   11.7
2173 301619.000    807700.0116  -5649861.3637   2837755.8375   1   7   0.0052   0.0108   0.0084  -0.0027  -0.0080  -0.0018   0.00   11.8
2173 301620.000    807700.0117  -5649861.3648   2837755.8367   1   7   0.0048   0.0108   0.0084  -0.0026  -0.0080  -0.0012   0.00   11.8
2173 301621.000    807700.0087  -5649861.3577   2837755.8366   1   7   0.0046   0.0108   0.0085  -0.0024  -0.0080  -0.0009   0.00   11.9
2173 301622.000    807700.0089  -5649861.3628   2837755.8341   1   7   0.0049   0.0108   0.0084  -0.0026  -0.0080  -0.0018   0.00   11.9
2173 301623.000    807700.0095  -5649861.3660   2837755.8352   1   7   0.0050   0.0108   0.0085  -0.0026  -0.0079  -0.0012   0.00   11.9
2173 301624.000    807700.0099  -5649861.3716   2837755.8412   1   7   0.0051   0.0108   0.0085  -0.0025  -0.0079  -0.0019   0.00   12.0
2173 301625.000    807700.0101  -5649861.3623   2837755.8372   1   7   0.0049   0.0108   0.0085  -0.0026  -0.0079  -0.0018   0.00   12.0
2173 301626.000    807700.0101  -5649861.3561   2837755.8336   1   7   0.0048   0.0107   0.0084  -0.0027  -0.0080  -0.0015   0.00   12.1
2173 301627.000    807700.0110  -5649861.3710   2837755.8397   1   7   0.0050   0.0107   0.0084  -0.0031  -0.0080  -0.0016   0.00   12.1
2173 301628.000    807700.0092  -5649861.3647   2837755.8366   1   7   0.0046   0.0107   0.0085  -0.0030  -0.0080  -0.0019   0.00   12.1
2173 301629.000    807700.0099  -5649861.3669   2837755.8372   1   7   0.0053   0.0109   0.0085  -0.0022  -0.0079  -0.0019   0.00   12.1
2173 301630.000    807700.0111  -5649861.3689   2837755.8384   1   7   0.0048   0.0108   0.0084  -0.0021  -0.0080  -0.0008   0.00   12.2
2173 301631.000    807700.0105  -5649861.3646   2837755.8367   1   7   0.0050   0.0108   0.0084  -0.0023  -0.0079  -0.0021   0.00   12.2
2173 301632.000    807700.0117  -5649861.3738   2837755.8413   1   7   0.0046   0.0106   0.0084  -0.0029  -0.0080  -0.0010   0.00   12.2
2173 301633.000    807700.0129  -5649861.3675   2837755.8383   1   7   0.0049   0.0107   0.0084  -0.0023  -0.0081  -0.0005   0.00   12.2
2173 301634.000    807700.0097  -5649861.3689   2837755.8407   1   7   0.0046   0.0108   0.0085  -0.0026  -0.0079  -0.0019   0.00   12.2
2173 301635.000    807700.0118  -5649861.3726   2837755.8411   1   7   0.0049   0.0108   0.0084  -0.0025  -0.0080  -0.0019   0.00   12.2
2173 301636.000    807700.0126  -5649861.3688   2837755.8397   1   7   0.0049   0.0109   0.0083  -0.0018  -0.0079  -0.0022   0.00   12.3
2173 301637.000    807700.0137  -5649861.3721   2837755.8417   1   7   0.0051   0.0108   0.0084  -0.0026  -0.0080  -0.0019   0.00   12.3
2173 301638.000    807700.0116  -5649861.3666   2837755.8388   1   7   0.0048   0.0108   0.0084  -0.0022  -0.0080  -0.0019   0.00   12.3
2173 301639.000    807700.0124  -5649861.3710   2837755.8407   1   7   0.0049   0.0107   0.0084  -0.0029  -0.0080  -0.0019   0.00   12.3
2173 301640.000    807700.0078  -5649861.3646   2837755.8385   1   7   0.0049   0.0109   0.0084  -0.0021  -0.0080  -0.0021   0.00   12.3
2173 301641.000    807700.0105  -5649861.3690   2837755.8407   1   7   0.0048   0.0108   0.0085  -0.0028  -0.0079  -0.0020   0.00   12.4
2173 301642.000    807700.0078  -5649861.3567   2837755.8332   1   7   0.0048   0.0108   0.0085  -0.0028  -0.0079  -0.0020   0.00   12.5
2173 301643.000    807700.0068  -5649861.3639   2837755.8364   1   7   0.0048   0.0108   0.0084  -0.0023  -0.0079  -0.0011   0.00   12.5
2173 301644.000    807700.0114  -5649861.3686   2837755.8402   1   7   0.0050   0.0109   0.0084  -0.0022  -0.0079  -0.0019   0.00   12.6
2173 301645.000    807700.0117  -5649861.3690   2837755.8363   1   7   0.0047   0.0108   0.0084  -0.0028  -0.0079  -0.0010   0.00   12.6
2173 301646.000    807700.0093  -5649861.3689   2837755.8390   1   7   0.0048   0.0109   0.0084  -0.0018  -0.0080  -0.0021   0.00   12.6
2173 301647.000    807700.0104  -5649861.3595   2837755.8355   1   7   0.0050   0.0107   0.0085  -0.0031  -0.0080  -0.0018   0.00   12.7
2173 301648.000    807700.0091  -5649861.3632   2837755.8399   1   7   0.0048   0.0109   0.0084  -0.0022  -0.0079  -0.0014   0.00   12.7
2173 301649.000    807700.0121  -5649861.3695   2837755.8401   1   7   0.0048   0.0108   0.0084  -0.0025  -0.0079  -0.0013   0.00   12.7
2173 301650.000    807700.0104  -5649861.3673   2837755.8368   1   7   0.0048   0.0107   0.0084  -0.0026  -0.0080  -0.0009   0.00   12.8
2173 301651.000    807700.0116  -5649861.3596   2837755.8336   1   7   0.0048   0.0108   0.0084  -0.0024  -0.0079  -0.0012   0.00   12.8
2173 301652.000    807700.0141  -5649861.3760   2837755.8421   1   7   0.0051   0.0109   0.0085  -0.0025  -0.0079  -0.0020   0.00   12.9
2173 301653.000    807700.0091  -5649861.3578   2837755.8346   1   7   0.0052   0.0109   0.0084  -0.0027  -0.0079  -0.0022   0.00   12.9
2173 301654.000    807700.0134  -5649861.3749   2837755.8413   1   7   0.0050   0.0108   0.0084  -0.0024  -0.0080  -0.0022   0.00   12.9
2173 301655.000    807700.0134  -5649861.3726   2837755.8391   1   7   0.0049   0.0108   0.0084  -0.0025  -0.0080  -0.0015   0.00   13.0
2173 301656.000    807700.0157  -5649861.3727   2837755.8406   1   7   0.0050   0.0109   0.0084  -0.0023  -0.0079  -0.0021   0.00   13.0
2173 301657.000    807700.0110  -5649861.3670   2837755.8368   1   7   0.0047   0.0107   0.0083  -0.0028  -0.0080  -0.0015   0.00   13.0
2173 301658.000    807700.0098  -5649861.3645   2837755.8366   1   7   0.0046   0.0107   0.0084  -0.0028  -0.0081   0.0008   0.00   13.1
2173 301659.000    807700.0094  -5649861.3662   2837755.8382   1   7   0.0049   0.0108   0.0084  -0.0026  -0.0079  -0.0017   0.00   13.1
2173 301660.000    807700.0101  -5649861.3718   2837755.8400   1   7   0.0046   0.0109   0.0084  -0.0023  -0.0080  -0.0004   0.00   13.1
2173 301661.000    807700.0119  -5649861.3643   2837755.8356   1   7   0.0048   0.0109   0.0084  -0.0023  -0.0079  -0.0014   0.00   13.2
2173 301662.000    807700.0131  -5649861.3632   2837755.8373   1   7   0.0047   0.0108   0.0084  -0.0023  -0.0080  -0.0013   0.00   13.2
2173 301663.000    807700.0136  -5649861.3649   2837755.8366   1   7   0.0050   0.0109   0.0084  -0.0016  -0.0080  -0.0017   0.00   13.3
2173 301664.000    807700.0131  -5649861.3632   2837755.8364   1   7   0.0048   0.0108   0.0084  -0.0026  -0.0080  -0.0012   0.00   13.3
2173 301665.000    807700.0113  -5649861.3720   2837755.8367   1   7   0.0050   0.0108   0.0084  -0.0025  -0.0079  -0.0011   0.00   13.3
2173 301666.000    807700.0143  -5649861.3732   2837755.8382   1   7   0.0044   0.0108   0.0084  -0.0026  -0.0079  -0.0022   0.00   13.4
2173 301667.000    807700.0137  -5649861.3676   2837755.8368   1   7   0.0047   0.0109   0.0083  -0.0022  -0.0079  -0.0015   0.00   13.4
2173 301668.000    807700.0091  -5649861.3729   2837755.8387   1   7   0.0047   0.0108   0.0084  -0.0021  -0.0080  -0.0018   0.00   13.5
2173 301669.000    807700.0132  -5649861.3707   2837755.8362   1   7   0.0049   0.0108   0.0084  -0.0026  -0.0080  -0.0019   0.00   13.5
2173 301670.000    807700.0145  -5649861.3686   2837755.8355   1   7   0.0048   0.0108   0.0085  -0.0029  -0.0079  -0.0011   0.00   13.5
2173 301671.000    807700.0135  -5649861.3685   2837755.8375   1   7   0.0052   0.0110   0.0085  -0.0023  -0.0079  -0.0017   0.00   13.6
2173 301672.000    807700.0148  -5649861.3656   2837755.8351   1   7   0.0050   0.0109   0.0084  -0.0021  -0.0080  -0.0019   0.00   13.6
2173 301673.000    807700.0127  -5649861.3663   2837755.8378   1   7   0.0048   0.0108   0.0086  -0.0029  -0.0080  -0.0017   0.00   13.7
2173 301674.000    807700.0139  -5649861.3669   2837755.8372   1   7   0.0047   0.0108   0.0084  -0.0021  -0.0079  -0.0013   0.00   13.7
2173 301675.000    807700.0119  -5649861.3673   2837755.8353   1   7   0.0051   0.0109   0.0086  -0.0023  -0.0079  -0.0011   0.00   13.8
2173 301676.000    807700.0111  -5649861.3716   2837755.8403   1   7   0.0051   0.0107   0.0084  -0.0029  -0.0080  -0.0016   0.00   13.8
2173 301677.000    807700.0144  -5649861.3670   2837755.8375   1   7   0.0045   0.0107   0.0084  -0.0029  -0.0080  -0.0013   0.00   13.8
2173 301678.000    807700.0111  -5649861.3638   2837755.8360   1   7   0.0048   0.0107   0.0084  -0.0029  -0.0080  -0.0011   0.00   13.8
2173 301679.000    807700.0099  -5649861.3602   2837755.8343   1   7   0.0048   0.0109   0.0084  -0.0021  -0.0080  -0.0016   0.00   13.9
2173 301680.000    807700.0080  -5649861.3635   2837755.8372   1   7   0.0050   0.0108   0.0084  -0.0030  -0.0080  -0.0024   0.00   13.9
2173 301681.000    807700.0122  -5649861.3630   2837755.8347   1   7   0.0047   0.0108   0.0084  -0.0027  -0.0080  -0.0016   0.00   14.0
2173 301682.000    807700.0114  -5649861.3653   2837755.8359   1   7   0.0051   0.0108   0.0085  -0.0030  -0.0079  -0.0021   0.00   14.0
2173 301683.000    807700.0119  -5649861.3698   2837755.8374   1   7   0.0047   0.0107   0.0084  -0.0032  -0.0080  -0.0019   0.00   14.0
2173 301684.000    807700.0120  -5649861.3699   2837755.8350   1   7   0.0049   0.0109   0.0084  -0.0020  -0.0079  -0.0007   0.00   14.1
2173 301685.000    807700.0150  -5649861.3627   2837755.8324   1   7   0.0049   0.0109   0.0085  -0.0027  -0.0079  -0.0020   0.00   14.1
2173 301686.000    807700.0129  -5649861.3602   2837755.8330   1   7   0.0050   0.0108   0.0085  -0.0028  -0.0080  -0.0012   0.00   14.2
2173 301687.000    807700.0119  -5649861.3685   2837755.8366   1   7   0.0050   0.0109   0.0084  -0.0026  -0.0079  -0.0017   0.00   14.2
2173 301688.000    807700.0091  -5649861.3611   2837755.8353   1   7   0.0047   0.0108   0.0082  -0.0025  -0.0080  -0.0017   0.00   14.2
2173 301689.000    807700.0130  -5649861.3622   2837755.8355   1   7   0.0047   0.0109   0.0084  -0.0019  -0.0080  -0.0014   0.00   14.2
2173 301690.000    807700.0108  -5649861.3631   2837755.8347   1   7   0.0045   0.0108   0.0084  -0.0027  -0.0080  -0.0016   0.00   14.2
2173 301691.000    807700.0124  -5649861.3643   2837755.8354   1   7   0.0049   0.0108   0.0085  -0.0026  -0.0079  -0.0018   0.00   14.3
2173 301692.000    807700.0108  -5649861.3639   2837755.8346   1   7   0.0051   0.0109   0.0084  -0.0025  -0.0079  -0.0004   0.00   14.3
2173 301693.000    807700.0104  -5649861.3621   2837755.8352   1   7   0.0047   0.0109   0.0085  -0.0025  -0.0079  -0.0013   0.00   14.4
2173 301694.000    807700.0120  -5649861.3690   2837755.8384   1   7   0.0050   0.0108   0.0085  -0.0028  -0.0080  -0.0015   0.00   14.4
2173 301695.000    807700.0128  -5649861.3691   2837755.8380   1   7   0.0050   0.0108   0.0084  -0.0025  -0.0079  -0.0019   0.00   14.4
2173 301696.000    807700.0142  -5649861.3677   2837755.8396   1   7   0.0049   0.0108   0.0085  -0.0030  -0.0081  -0.0013   0.00   14.4
2173 301697.000    807700.0139  -5649861.3637   2837755.8366   1   7   0.0047   0.0109   0.0084  -0.0021  -0.0079  -0.0018   0.00   14.5
2173 301698.000    807700.0110  -5649861.3695   2837755.8395   1   7   0.0049   0.0109   0.0084  -0.0020  -0.0079  -0.0012   0.00   14.5
2173 301699.000    807700.0128  -5649861.3688   2837755.8388   1   7   0.0047   0.0108   0.0084  -0.0024  -0.0080  -0.0017   0.00   14.5
2173 301700.000    807700.0127  -5649861.3708   2837755.8389   1   7   0.0049   0.0109   0.0083  -0.0025  -0.0079  -0.0019   0.00   14.5
2173 301701.000    807700.0108  -5649861.3707   2837755.8408   1   7   0.0048   0.0108   0.0084  -0.0025  -0.0080  -0.0013   0.00   14.5
2173 301702.000    807700.0128  -5649861.3628   2837755.8362   1   7   0.0051   0.0108   0.0084  -0.0028  -0.0079  -0.0021   0.00   14.6
2173 301703.000    807700.0136  -5649861.3677   2837755.8392   1   7   0.0049   0.0107   0.0086  -0.0034  -0.0080  -0.0018   0.00   14.6
2173 301704.000    807700.0124  -5649861.3685   2837755.8387   1   7   0.0048   0.0108   0.0084  -0.0024  -0.0080  -0.0017   0.00   14.6
2173 301705.000    807700.0116  -5649861.3637   2837755.8359   1   7   0.0046   0.0108   0.0084  -0.0028  -0.0080  -0.0017   0.00   14.6
2173 301706.000    807700.0124  -5649861.3622   2837755.8346   1   7   0.0046   0.0108   0.0084  -0.0026  -0.0080  -0.0014   0.00   14.7
2173 301707.000    807700.0140  -5649861.3673   2837755.8364   1   7   0.0047   0.0107   0.0084  -0.0028  -0.0080  -0.0013   0.00   14.7
2173 301708.000    807700.0129  -5649861.3669   2837755.8377   1   7   0.0048   0.0108   0.0085  -0.0030  -0.0080  -0.0022   0.00   14.8
2173 301709.000    807700.0124  -5649861.3688   2837755.8403   1   7   0.0050   0.0108   0.0085  -0.0026  -0.0080  -0.0010   0.00   14.8
2173 301710.000    807700.0089  -5649861.3703   2837755.8427   1   7   0.0045   0.0108   0.0084  -0.0028  -0.0080  -0.0015   0.00   14.8
2173 301711.000    807700.0105  -5649861.3665   2837755.8403   1   7   0.0049   0.0109   0.0084  -0.0025  -0.0079  -0.0019   0.00   14.8
2173 301712.000    807700.0103  -5649861.3716   2837755.8403   1   7   0.0047   0.0108   0.0084  -0.0029  -0.0080  -0.0006   0.00   14.8
2173 301713.000    807700.0084  -5649861.3659   2837755.8406   1   7   0.0050   0.0108   0.0084  -0.0027  -0.0080  -0.0014   0.00   14.8
2173 301714.000    807700.0105  -5649861.3678   2837755.8401   1   7   0.0048   0.0109   0.0084  -0.0021  -0.0079  -0.0004   0.00   14.9
2173 301715.000    807700.0116  -5649861.3673   2837755.8373   1   7   0.0050   0.0108   0.0083  -0.0027  -0.0080  -0.0011   0.00   14.9
2173 301716.000    807700.0112  -5649861.3627   2837755.8404   1   7   0.0049   0.0109   0.0084  -0.0023  -0.0080   0.0002   0.00   14.9
2173 301717.000    807700.0131  -5649861.3583   2837755.8360   1   7   0.0047   0.0109   0.0084  -0.0019  -0.0079  -0.0012   0.00   15.0
2173 301718.000    807700.0084  -5649861.3605   2837755.8397   1   7   0.0052   0.0108   0.0085  -0.0023  -0.0080  -0.0015   0.00   15.0
2173 301719.000    807700.0124  -5649861.3706   2837755.8423   1   7   0.0045   0.0107   0.0083  -0.0027  -0.0081  -0.0007   0.00   15.0
2173 301720.000    807700.0078  -5649861.3648   2837755.8404   1   7   0.0048   0.0108   0.0084  -0.0030  -0.0080  -0.0017   0.00   15.0
2173 301721.000    807700.0135  -5649861.3665   2837755.8390   1   7   0.0049   0.0108   0.0084  -0.0026  -0.0080  -0.0006   0.00   15.0
2173 301722.000    807700.0147  -5649861.3703   2837755.8427   1   7   0.0050   0.0108   0.0085  -0.0026  -0.0080  -0.0015   0.00   15.0
2173 301723.000    807700.0124  -5649861.3663   2837755.8386   1   7   0.0049   0.0108   0.0084  -0.0027  -0.0080  -0.0015   0.00   15.0
2173 301724.000    807700.0141  -5649861.3677   2837755.8406   1   7   0.0049   0.0108   0.0085  -0.0029  -0.0079  -0.0011   0.00   15.1
2173 301725.000    807700.0129  -5649861.3740   2837755.8436   1   7   0.0050   0.0108   0.0085  -0.0023  -0.0080  -0.0007   0.00   15.1
2173 301726.000    807700.0119  -5649861.3640   2837755.8388   1   7   0.0045   0.0108   0.0084  -0.0023  -0.0080  -0.0009   0.00   15.1
2173 301727.000    807700.0135  -5649861.3668   2837755.8422   1   7   0.0050   0.0108   0.0084  -0.0029  -0.0080  -0.0022   0.00   15.1
2173 301728.000    807700.0137  -5649861.3652   2837755.8404   1   7   0.0048   0.0109   0.0084  -0.0023  -0.0080  -0.0017   0.00   15.1
2173 301729.000    807700.0138  -5649861.3677   2837755.8413   1   7   0.0048   0.0109   0.0083  -0.0022  -0.0080  -0.0009   0.00   15.1
2173 301730.000    807700.0139  -5649861.3710   2837755.8427   1   7   0.0049   0.0109   0.0084  -0.0022  -0.0079  -0.0016   0.00   15.2
2173 301731.000    807700.0133  -5649861.3637   2837755.8387   1   7   0.0047   0.0108   0.0085  -0.0028  -0.0080   0.0003   0.00   15.1
2173 301732.000    807700.0115  -5649861.3686   2837755.8403   1   7   0.0050   0.0109   0.0084  -0.0025  -0.0080  -0.0014   0.00   15.2
2173 301733.000    807700.0114  -5649861.3658   2837755.8409   1   7   0.0049   0.0108   0.0084  -0.0025  -0.0079  -0.0019   0.00   15.2
2173 301734.000    807700.0140  -5649861.3702   2837755.8428   1   7   0.0051   0.0108   0.0084  -0.0028  -0.0079  -0.0017   0.00   15.2
2173 301735.000    807700.0133  -5649861.3658   2837755.8406   1   7   0.0052   0.0109   0.0084  -0.0026  -0.0079  -0.0015   0.00   15.2
2173 301736.000    807700.0132  -5649861.3661   2837755.8402   1   7   0.0051   0.0109   0.0084  -0.0024  -0.0079  -0.0014   0.00   15.2
2173 301737.000    807700.0137  -5649861.3661   2837755.8389   1   7   0.0048   0.0108   0.0084  -0.0027  -0.0080  -0.0017   0.00   15.2
2173 301738.000    807700.0109  -5649861.3733   2837755.8444   1   7   0.0047   0.0109   0.0083  -0.0027  -0.0080  -0.0019   0.00   15.3
2173 301739.000    807700.0141  -5649861.3679   2837755.8406   1   7   0.0048   0.0109   0.0084  -0.0029  -0.0079  -0.0019   0.00   15.3
2173 301740.000    807700.0113  -5649861.3731   2837755.8438   1   7   0.0048   0.0108   0.0083  -0.0024  -0.0080  -0.0013   0.00   15.3
2173 301741.000    807700.0145  -5649861.3694   2837755.8426   1   7   0.0050   0.0108   0.0083  -0.0027  -0.0080  -0.0019   0.00   15.3
2173 301742.000    807700.0116  -5649861.3724   2837755.8449   1   7   0.0047   0.0107   0.0084  -0.0031  -0.0081  -0.0012   0.00   15.3
2173 301743.000    807700.0147  -5649861.3734   2837755.8432   1   7   0.0050   0.0110   0.0084  -0.0024  -0.0079  -0.0015   0.00   15.3
2173 301744.000    807700.0148  -5649861.3700   2837755.8422   1   7   0.0050   0.0108   0.0083  -0.0026  -0.0080  -0.0020   0.00   15.3
2173 301745.000    807700.0139  -5649861.3683   2837755.8426   1   7   0.0049   0.0109   0.0084  -0.0026  -0.0079  -0.0019   0.00   15.3
2173 301746.000    807700.0125  -5649861.3694   2837755.8413   1   7   0.0048   0.0109   0.0084  -0.0020  -0.0080  -0.0012   0.00   15.3
2173 301747.000    807700.0111  -5649861.3706   2837755.8424   1   7   0.0047   0.0108   0.0084  -0.0027  -0.0080  -0.0011   0.00   15.3
2173 301748.000    807700.0156  -5649861.3666   2837755.8420   1   7   0.0050   0.0109   0.0084  -0.0024  -0.0079  -0.0021   0.00   15.3
2173 301749.000    807700.0111  -5649861.3692   2837755.8439   1   7   0.0046   0.0108   0.0084  -0.0029  -0.0080  -0.0014   0.00   15.4
2173 301750.000    807700.0132  -5649861.3716   2837755.8440   1   7   0.0050   0.0109   0.0083  -0.0025  -0.0080  -0.0018   0.00   15.4
2173 301751.000    807700.0115  -5649861.3741   2837755.8457   1   7   0.0050   0.0109   0.0084  -0.0025  -0.0079  -0.0018   0.00   15.4
2173 301752.000    807700.0140  -5649861.3699   2837755.8417   1   7   0.0048   0.0109   0.0083  -0.0025  -0.0079  -0.0019   0.00   15.4
2173 301753.000    807700.0124  -5649861.3669   2837755.8426   1   7   0.0050   0.0109   0.0084  -0.0024  -0.0080  -0.0017   0.00   15.4
2173 301754.000    807700.0144  -5649861.3700   2837755.8431   1   7   0.0047   0.0108   0.0084  -0.0028  -0.0080  -0.0011   0.00   15.4
2173 301755.000    807700.0124  -5649861.3757   2837755.8473   1   7   0.0046   0.0109   0.0083  -0.0022  -0.0079  -0.0020   0.00   15.4
2173 301756.000    807700.0149  -5649861.3725   2837755.8450   1   7   0.0047   0.0109   0.0083  -0.0026  -0.0080  -0.0018   0.00   15.4
2173 301757.000    807700.0141  -5649861.3713   2837755.8429   1   7   0.0048   0.0109   0.0084  -0.0027  -0.0080  -0.0018   0.00   15.4
2173 301758.000    807700.0121  -5649861.3724   2837755.8449   1   7   0.0049   0.0107   0.0084  -0.0031  -0.0081  -0.0017   0.00   15.4
2173 301759.000    807700.0132  -5649861.3662   2837755.8431   1   7   0.0046   0.0108   0.0084  -0.0027  -0.0079  -0.0012   0.00   15.4
2173 301760.000    807700.0136  -5649861.3680   2837755.8425   1   7   0.0052   0.0109   0.0085  -0.0028  -0.0079  -0.0021   0.00   15.4
2173 301761.000    807700.0134  -5649861.3681   2837755.8406   1   7   0.0048   0.0109   0.0083  -0.0022  -0.0079  -0.0018   0.00   15.4
2173 301762.000    807700.0131  -5649861.3694   2837755.8416   1   7   0.0046   0.0108   0.0084  -0.0026  -0.0080  -0.0013   0.00   15.4
2173 301763.000    807700.0151  -5649861.3659   2837755.8411   1   7   0.0046   0.0108   0.0083  -0.0023  -0.0080  -0.0013   0.00   15.4
2173 301764.000    807700.0154  -5649861.3700   2837755.8418   1   7   0.0051   0.0109   0.0084  -0.0024  -0.0079  -0.0020   0.00   15.4
2173 301765.000    807700.0137  -5649861.3737   2837755.8437   1   7   0.0049   0.0108   0.0084  -0.0026  -0.0080  -0.0017   0.00   15.4
2173 301766.000    807700.0155  -5649861.3734   2837755.8461   1   7   0.0051   0.0109   0.0084  -0.0027  -0.0080  -0.0015   0.00   15.4
2173 301767.000    807700.0137  -5649861.3692   2837755.8400   1   7   0.0050   0.0109   0.0084  -0.0028  -0.0080  -0.0017   0.00   15.4
2173 301768.000    807700.0135  -5649861.3694   2837755.8439   1   7   0.0049   0.0109   0.0084  -0.0027  -0.0079  -0.0016   0.00   15.4
2173 301769.000    807700.0150  -5649861.3722   2837755.8428   1   7   0.0045   0.0108   0.0084  -0.0027  -0.0080  -0.0009   0.00   15.4
2173 301770.000    807700.0147  -5649861.3725   2837755.8432   1   7   0.0049   0.0109   0.0083  -0.0023  -0.0079  -0.0018   0.00   15.4
2173 301771.000    807700.0123  -5649861.3666   2837755.8410   1   7   0.0047   0.0108   0.0083  -0.0026  -0.0080  -0.0018   0.00   15.4
2173 301772.000    807700.0120  -5649861.3732   2837755.8449   1   7   0.0051   0.0110   0.0084  -0.0025  -0.0079  -0.0019   0.00   15.4
2173 301773.000    807700.0135  -5649861.3708   2837755.8437   1   7   0.0048   0.0108   0.0084  -0.0028  -0.0080  -0.0015   0.00   15.4
2173 301774.000    807700.0133  -5649861.3676   2837755.8447   1   7   0.0048   0.0110   0.0083  -0.0017  -0.0079  -0.0013   0.00   15.4
2173 301775.000    807700.0143  -5649861.3670   2837755.8424   1   7   0.0047   0.0108   0.0085  -0.0029  -0.0080  -0.0009   0.00   15.4
2173 301776.000    807700.0129  -5649861.3728   2837755.8464   1   7   0.0048   0.0108   0.0084  -0.0032  -0.0080  -0.0021   0.00   15.4
2173 301777.000    807700.0146  -5649861.3682   2837755.8438   1   7   0.0050   0.0109   0.0084  -0.0026  -0.0079  -0.0018   0.00   15.4
2173 301778.000    807700.0139  -5649861.3682   2837755.8424   1   7   0.0046   0.0108   0.0083  -0.0024  -0.0079  -0.0012   0.00   15.4
2173 301779.000    807700.0168  -5649861.3755   2837755.8469   1   7   0.0049   0.0109   0.0084  -0.0026  -0.0079  -0.0013   0.00   15.4
2173 301780.000    807700.0157  -5649861.3694   2837755.8433   1   7   0.0050   0.0109   0.0084  -0.0030  -0.0079  -0.0015   0.00   15.4
2173 301781.000    807700.0157  -5649861.3691   2837755.8444   1   7   0.0052   0.0108   0.0084  -0.0029  -0.0080  -0.0016   0.00   15.4
2173 301782.000    807700.0157  -5649861.3690   2837755.8438   1   7   0.0049   0.0107   0.0084  -0.0034  -0.0081  -0.0012   0.00   15.4
2173 301783.000    807700.0158  -5649861.3647   2837755.8398   1   7   0.0048   0.0108   0.0085  -0.0029  -0.0080  -0.0015   0.00   15.3
2173 301784.000    807700.0142  -5649861.3704   2837755.8426   1   7   0.0050   0.0109   0.0085  -0.0026  -0.0079  -0.0013   0.00   15.4
2173 301785.000    807700.0165  -5649861.3692   2837755.8405   1   7   0.0052   0.0110   0.0084  -0.0020  -0.0078  -0.0014   0.00   15.4
2173 301786.000    807700.0168  -5649861.3726   2837755.8446   1   7   0.0047   0.0109   0.0083  -0.0025  -0.0079  -0.0015   0.00   15.4
2173 301787.000    807700.0142  -5649861.3702   2837755.8424   1   7   0.0050   0.0109   0.0084  -0.0028  -0.0079  -0.0021   0.00   15.4
2173 301788.000    807700.0169  -5649861.3712   2837755.8423   1   7   0.0047   0.0109   0.0084  -0.0024  -0.0079  -0.0013   0.00   15.4
2173 301789.000    807700.0150  -5649861.3703   2837755.8428   1   7   0.0049   0.0108   0.0083  -0.0026  -0.0080  -0.0010   0.00   15.4
