% program   : rnx2rtkp ver.2.4.3 b31
% inp file  : ngs/21_08_31_20_49_05_mada.obs
% inp file  : ngs/21_08_31_20_49_05_mada_P1.obs
% inp file  : ngs/21_08_31_20_49_05_brdc.nav
% obs start : 2021/08/31 20:00:00.0 GPST (week2173 244800.0s)
% obs end   : 2021/08/31 20:59:59.0 GPST (week2173 248399.0s)
% ref pos   :  1570788.7510  -4496741.5230   4227532.4040
%
% (x/y/z-ecef=WGS84,Q=1:fix,2:float,3:sbas,4:dgps,5:single,6:ppp,ns=# of satellites)
%  GPST              x-ecef(m)      y-ecef(m)      z-ecef(m)   Q  ns   sdx(m)   sdy(m)   sdz(m)  sdxy(m)  sdyz(m)  sdzx(m) age(s)  ratio
2173 247720.000   1551940.9731  -4514374.1539   4215783.1525   2   6   0.4979   1.0279   0.9931  -0.4018  -0.8431   0.3098 -30.00    1.3
2173 247721.000   1551940.9728  -4514374.1502   4215783.1450   2   6   0.3543   0.7309   0.7064  -0.2862  -0.5996   0.2214 -29.00    1.4
2173 247722.000   1551940.9766  -4514374.1551   4215783.1393   2   6   0.2901   0.5983   0.5783  -0.2344  -0.4909   0.1813 -28.00    1.4
2173 247723.000   1551940.9763  -4514374.1532   4215783.1368   2   6   0.2517   0.5191   0.5016  -0.2034  -0.4258   0.1573 -27.00    1.6
2173 247724.000   1551940.9758  -4514374.1469   4215783.1339   2   6   0.2255   0.4649   0.4492  -0.1822  -0.3813   0.1408 -26.00    1.7
2173 247725.000   1551940.9754  -4514374.1494   4215783.1369   2   6   0.2061   0.4248   0.4105  -0.1665  -0.3484   0.1286 -25.00    1.8
2173 247726.000   1551940.9756  -4514374.1453   4215783.1327   2   6   0.1909   0.3936   0.3803  -0.1543  -0.3228   0.1191 -24.00    1.8
2173 247727.000   1551940.9767  -4514374.1398   4215783.1293   2   6   0.1787   0.3684   0.3559  -0.1445  -0.3021   0.1115 -23.00    1.9
2173 247728.000   1551940.9763  -4514374.1420   4215783.1281   2   6   0.1686   0.3475   0.3356  -0.1363  -0.2849   0.1051 -22.00    2.0
2173 247729.000   1551940.9773  -4514374.1452   4215783.1280   2   6   0.1600   0.3297   0.3184  -0.1294  -0.2703   0.0998 -21.00    2.1
2173 247730.000   1551940.9760  -4514374.1377   4215783.1221   2   6   0.1526   0.3144   0.3036  -0.1234  -0.2577   0.0952 -20.00    2.2
2173 247731.000   1551940.9767  -4514374.1347   4215783.1204   2   6   0.1461   0.3010   0.2907  -0.1182  -0.2467   0.0912 -19.00    2.3
2173 247732.000   1551940.9770  -4514374.1338   4215783.1191   2   6   0.1404   0.2892   0.2792  -0.1136  -0.2370   0.0876 -18.00    2.5
2173 247733.000   1551940.9807  -4514374.1353   4215783.1179   2   6   0.1353   0.2786   0.2690  -0.1095  -0.2283   0.0845 -17.00    2.7
2173 247734.000   1551940.9808  -4514374.1297   4215783.1127   2   6   0.1307   0.2691   0.2597  -0.1058  -0.2205   0.0816 -16.00    2.9
2173 247735.000   1551941.2838  -4514373.7904   4215783.0129   1   6   0.0143   0.0310   0.0295  -0.0105  -0.0244  -0.0038 -15.00    3.1
2173 247736.000   1551941.2868  -4514373.7904   4215783.0135   1   6   0.0135   0.0292   0.0278  -0.0099  -0.0230  -0.0032 -14.00    3.3
2173 247737.000   1551941.2873  -4514373.7916   4215783.0131   1   6   0.0126   0.0274   0.0261  -0.0093  -0.0216  -0.0026 -13.00    3.5
2173 247738.000   1551941.2864  -4514373.7870   4215783.0099   1   6   0.0119   0.0256   0.0245  -0.0088  -0.0202  -0.0018 -12.00    3.7
2173 247739.000   1551941.2915  -4514373.7874   4215783.0109   1   6   0.0110   0.0239   0.0228  -0.0082  -0.0189  -0.0009 -11.00    4.0
2173 247740.000   1551941.2896  -4514373.7872   4215783.0132   1   6   0.0103   0.0221   0.0212  -0.0077  -0.0176   0.0015 -10.00    4.3
2173 247741.000   1551941.2899  -4514373.7875   4215783.0111   1   6   0.0095   0.0205   0.0196  -0.0072  -0.0163   0.0022  -9.00    4.6
2173 247742.000   1551941.2916  -4514373.7825   4215783.0071   1   6   0.0088   0.0188   0.0181  -0.0067  -0.0150   0.0026  -8.00    5.0
2173 247743.000   1551941.2931  -4514373.7833   4215783.0064   1   6   0.0081   0.0172   0.0166  -0.0063  -0.0138   0.0029  -7.00    5.4
2173 247744.000   1551941.2942  -4514373.7812   4215783.0076   1   6   0.0074   0.0157   0.0152  -0.0058  -0.0127   0.0030  -6.00    6.0
2173 247745.000   1551941.2944  -4514373.7804   4215783.0069   1   6   0.0068   0.0143   0.0139  -0.0054  -0.0116   0.0032  -5.00    6.7
2173 247746.000   1551941.2956  -4514373.7765   4215783.0047   1   6   0.0062   0.0131   0.0127  -0.0049  -0.0106   0.0032  -4.00    7.4
2173 247747.000   1551941.2958  -4514373.7752   4215783.0024   1   6   0.0058   0.0120   0.0116  -0.0046  -0.0098   0.0032  -3.00    8.2
2173 247748.000   1551941.2974  -4514373.7743   4215783.0024   1   6   0.0054   0.0110   0.0108  -0.0045  -0.0091   0.0033  -2.00    9.0
2173 247749.000   1551941.2986  -4514373.7701   4215783.0000   1   6   0.0052   0.0106   0.0101  -0.0042  -0.0086   0.0033  -1.00    9.4
2173 247750.000   1551941.3002  -4514373.7669   4215782.9972   1   6   0.0048   0.0104   0.0100  -0.0038  -0.0085   0.0029   0.00    9.5
2173 247751.000   1551941.3025  -4514373.7712   4215782.9996   1   6   0.0050   0.0103   0.0100  -0.0041  -0.0085   0.0031   0.00    4.0
2173 247752.000   1551941.3020  -4514373.7700   4215782.9999   1   6   0.0050   0.0103   0.0100  -0.0041  -0.0085   0.0031   0.00    4.7
2173 247753.000   1551941.3013  -4514373.7729   4215782.9996   1   6   0.0050   0.0103   0.0100  -0.0041  -0.0085   0.0031   0.00    5.9
2173 247754.000   1551941.3011  -4514373.7701   4215782.9986   1   6   0.0050   0.0103   0.0100  -0.0041  -0.0085   0.0031   0.00    4.6
2173 247755.000   1551941.2997  -4514373.7673   4215782.9963   1   6   0.0050   0.0103   0.0100  -0.0041  -0.0085   0.0031   0.00    5.6
2173 247756.000   1551941.3010  -4514373.7684   4215782.9973   1   6   0.0050   0.0103   0.0099  -0.0041  -0.0085   0.0031   0.00    4.4
2173 247757.000   1551941.3013  -4514373.7679   4215782.9988   1   6   0.0050   0.0103   0.0099  -0.0041  -0.0085   0.0031   0.00    4.2
2173 247758.000   1551941.3020  -4514373.7698   4215782.9984   1   6   0.0050   0.0103   0.0099  -0.0041  -0.0085   0.0031   0.00    4.0
2173 247759.000   1551941.3030  -4514373.7682   4215782.9993   1   6   0.0050   0.0103   0.0099  -0.0041  -0.0085   0.0031   0.00    3.8
2173 247760.000   1551941.3003  -4514373.7685   4215782.9979   1   6   0.0050   0.0103   0.0099  -0.0041  -0.0085   0.0031   0.00    3.7
2173 247761.000   1551941.3026  -4514373.7694   4215782.9986   1   6   0.0050   0.0103   0.0099  -0.0041  -0.0085   0.0031   0.00    3.6
2173 247762.000   1551941.3024  -4514373.7659   4215782.9956   1   6   0.0050   0.0103   0.0099  -0.0041  -0.0084   0.0031   0.00    3.8
2173 247763.000   1551941.3020  -4514373.7701   4215782.9983   1   6   0.0050   0.0103   0.0099  -0.0041  -0.0084   0.0031   0.00    3.9
2173 247764.000   1551941.3019  -4514373.7673   4215782.9979   1   6   0.0050   0.0103   0.0099  -0.0041  -0.0084   0.0031   0.00    4.6
2173 247765.000   1551941.3021  -4514373.7677   4215782.9971   1   6   0.0050   0.0103   0.0099  -0.0041  -0.0084   0.0031   0.00    3.2
2173 247766.000   1551941.3019  -4514373.7684   4215782.9972   1   6   0.0050   0.0103   0.0099  -0.0041  -0.0084   0.0031   0.00    3.6
2173 247767.000   1551941.3028  -4514373.7691   4215782.9979   1   6   0.0050   0.0103   0.0099  -0.0041  -0.0084   0.0031   0.00    3.7
2173 247768.000   1551941.3043  -4514373.7703   4215782.9987   1   6   0.0050   0.0103   0.0099  -0.0041  -0.0084   0.0031   0.00    4.1
2173 247769.000   1551941.3021  -4514373.7669   4215782.9959   1   6   0.0050   0.0103   0.0099  -0.0041  -0.0084   0.0031   0.00    3.6
2173 247770.000   1551941.3029  -4514373.7686   4215782.9994   1   6   0.0050   0.0103   0.0099  -0.0041  -0.0084   0.0031   0.00    3.5
2173 247771.000   1551941.3027  -4514373.7669   4215782.9976   1   6   0.0050   0.0103   0.0099  -0.0041  -0.0084   0.0031   0.00    4.1
2173 247772.000   1551941.3029  -4514373.7670   4215782.9967   1   6   0.0050   0.0103   0.0099  -0.0041  -0.0084   0.0031   0.00    4.4
2173 247773.000   1551941.3035  -4514373.7706   4215782.9981   1   6   0.0050   0.0103   0.0099  -0.0041  -0.0084   0.0031   0.00    4.6
2173 247774.000   1551941.3028  -4514373.7657   4215782.9977   1   6   0.0050   0.0103   0.0099  -0.0041  -0.0084   0.0031   0.00    5.5
2173 247775.000   1551941.3018  -4514373.7657   4215782.9969   1   6   0.0050   0.0103   0.0099  -0.0041  -0.0084   0.0031   0.00    5.1
2173 247776.000   1551941.3034  -4514373.7652   4215782.9948   1   6   0.0050   0.0103   0.0099  -0.0041  -0.0084   0.0031   0.00    5.3
2173 247777.000   1551941.3029  -4514373.7656   4215782.9957   1   6   0.0050   0.0103   0.0099  -0.0041  -0.0084   0.0031   0.00    5.4
2173 247778.000   1551941.3037  -4514373.7659   4215782.9962   1   6   0.0050   0.0103   0.0099  -0.0041  -0.0084   0.0031   0.00    4.7
2173 247779.000   1551941.3039  -4514373.7649   4215782.9950   1   6   0.0050   0.0103   0.0099  -0.0041  -0.0084   0.0031   0.00    5.4
2173 247780.000   1551941.3027  -4514373.7631   4215782.9929   1   6   0.0050   0.0103   0.0099  -0.0041  -0.0084   0.0031   0.00    5.3
2173 247781.000   1551941.3035  -4514373.7624   4215782.9920   1   6   0.0050   0.0103   0.0099  -0.0041  -0.0084   0.0031   0.00    5.0
2173 247782.000   1551941.3038  -4514373.7724   4215783.0010   1   6   0.0050   0.0103   0.0099  -0.0041  -0.0084   0.0031   0.00    6.8
2173 247783.000   1551941.3046  -4514373.7661   4215782.9967   1   6   0.0050   0.0103   0.0099  -0.0041  -0.0084   0.0031   0.00    7.1
2173 247784.000   1551941.3033  -4514373.7663   4215782.9960   1   6   0.0050   0.0103   0.0099  -0.0041  -0.0084   0.0031   0.00    8.7
2173 247785.000   1551941.3044  -4514373.7663   4215782.9955   1   6   0.0050   0.0103   0.0099  -0.0041  -0.0084   0.0031   0.00    8.8
2173 247786.000   1551941.3043  -4514373.7699   4215782.9991   1   6   0.0050   0.0103   0.0099  -0.0041  -0.0084   0.0031   0.00   10.8
2173 247787.000   1551941.3039  -4514373.7667   4215782.9964   1   6   0.0050   0.0103   0.0099  -0.0041  -0.0084   0.0031   0.00   10.2
2173 247788.000   1551941.3042  -4514373.7662   4215782.9970   1   6   0.0050   0.0103   0.0099  -0.0041  -0.0084   0.0031   0.00    9.8
2173 247789.000   1551941.3031  -4514373.7641   4215782.9953   1   6   0.0050   0.0103   0.0099  -0.0041  -0.0084   0.0031   0.00   10.6
2173 247790.000   1551941.3051  -4514373.7690   4215782.9994   1   6   0.0050   0.0103   0.0099  -0.0041  -0.0084   0.0031   0.00   10.6
2173 247791.000   1551941.3047  -4514373.7655   4215782.9957   1   6   0.0050   0.0103   0.0099  -0.0041  -0.0084   0.0031   0.00    9.2
2173 247792.000   1551941.3036  -4514373.7668   4215782.9997   1   6   0.0050   0.0103   0.0099  -0.0041  -0.0084   0.0031   0.00    7.9
2173 247793.000   1551941.3031  -4514373.7662   4215782.9986   1   6   0.0050   0.0103   0.0099  -0.0041  -0.0084   0.0031   0.00    6.4
2173 247794.000   1551941.3051  -4514373.7677   4215782.9997   1   6   0.0050   0.0103   0.0099  -0.0041  -0.0084   0.0031   0.00    7.3
2173 247795.000   1551941.3041  -4514373.7656   4215782.9958   1   6   0.0050   0.0103   0.0099  -0.0041  -0.0084   0.0031   0.00    6.6
2173 247796.000   1551941.3048  -4514373.7689   4215782.9977   1   6   0.0050   0.0103   0.0099  -0.0041  -0.0084   0.0031   0.00    8.4
2173 247797.000   1551941.3054  -4514373.7664   4215782.9977   1   6   0.0050   0.0103   0.0099  -0.0041  -0.0084   0.0031   0.00    7.4
2173 247798.000   1551941.3042  -4514373.7684   4215782.9958   1   6   0.0050   0.0103   0.0099  -0.0041  -0.0084   0.0031   0.00    8.4
2173 247799.000   1551941.3053  -4514373.7722   4215782.9981   1   6   0.0050   0.0103   0.0099  -0.0041  -0.0084   0.0031   0.00    7.4
2173 247800.000   1551941.3049  -4514373.7657   4215782.9956   1   6   0.0050   0.0103   0.0099  -0.0041  -0.0084   0.0031   0.00    7.1
2173 247801.000   1551941.3044  -4514373.7682   4215782.9966   1   6   0.0050   0.0103   0.0099  -0.0041  -0.0084   0.0031   0.00    7.1
2173 247802.000   1551941.3033  -4514373.7667   4215782.9938   1   6   0.0050   0.0103   0.0099  -0.0041  -0.0084   0.0031   0.00    6.9
2173 247803.000   1551941.3047  -4514373.7671   4215782.9956   1   6   0.0050   0.0103   0.0099  -0.0041  -0.0084   0.0031   0.00    7.3
2173 247804.000   1551941.3039  -4514373.7678   4215782.9968   1   6   0.0050   0.0103   0.0099  -0.0041  -0.0084   0.0031   0.00    7.6
2173 247805.000   1551941.3057  -4514373.7697   4215782.9982   1   6   0.0050   0.0103   0.0099  -0.0041  -0.0084   0.0031   0.00    7.9
2173 247806.000   1551941.3065  -4514373.7689   4215782.9965   1   6   0.0050   0.0103   0.0099  -0.0041  -0.0084   0.0031   0.00    7.6
2173 247807.000   1551941.3048  -4514373.7670   4215782.9963   1   6   0.0050   0.0103   0.0099  -0.0041  -0.0084   0.0031   0.00    7.1
2173 247808.000   1551941.3056  -4514373.7722   4215782.9988   1   6   0.0050   0.0103   0.0099  -0.0041  -0.0084   0.0031   0.00    7.9
2173 247809.000   1551941.3041  -4514373.7690   4215782.9981   1   6   0.0050   0.0103   0.0099  -0.0041  -0.0084   0.0031   0.00    8.2
2173 247810.000   1551941.3059  -4514373.7682   4215782.9963   1   6   0.0050   0.0103   0.0099  -0.0041  -0.0084   0.0031   0.00    7.6
2173 247811.000   1551941.3046  -4514373.7652   4215782.9943   1   6   0.0050   0.0103   0.0099  -0.0041  -0.0084   0.0031   0.00    7.8
2173 247812.000   1551941.3044  -4514373.7683   4215782.9962   1   6   0.0050   0.0103   0.0099  -0.0041  -0.0084   0.0031   0.00    7.0
2173 247813.000   1551941.3036  -4514373.7659   4215782.9967   1   6   0.0050   0.0103   0.0099  -0.0041  -0.0084   0.0031   0.00    7.3
2173 247814.000   1551941.3029  -4514373.7673   4215782.9934   1   6   0.0050   0.0103   0.0099  -0.0041  -0.0084   0.0031   0.00    7.7
2173 247815.000   1551941.3044  -4514373.7688   4215782.9945   1   6   0.0050   0.0103   0.0098  -0.0041  -0.0084   0.0031   0.00    6.5
2173 247816.000   1551941.3035  -4514373.7670   4215782.9952   1   6   0.0050   0.0103   0.0098  -0.0041  -0.0084   0.0031   0.00    7.8
2173 247817.000   1551941.3055  -4514373.7705   4215782.9975   1   6   0.0050   0.0103   0.0098  -0.0041  -0.0084   0.0031   0.00    8.0
2173 247818.000   1551941.3044  -4514373.7670   4215782.9940   1   6   0.0050   0.0103   0.0098  -0.0041  -0.0084   0.0031   0.00    8.2
2173 247819.000   1551941.3029  -4514373.7635   4215782.9917   1   6   0.0050   0.0103   0.0098  -0.0041  -0.0084   0.0031   0.00    8.4
2173 247820.000   1551941.3033  -4514373.7661   4215782.9925   1   6   0.0050   0.0103   0.0098  -0.0041  -0.0084   0.0031   0.00    8.7
2173 247821.000   1551941.3039  -4514373.7650   4215782.9910   1   6   0.0050   0.0103   0.0098  -0.0041  -0.0084   0.0031   0.00    8.8
2173 247822.000   1551941.3049  -4514373.7646   4215782.9914   1   6   0.0050   0.0103   0.0098  -0.0041  -0.0084   0.0031   0.00    8.8
2173 247823.000   1551941.3021  -4514373.7664   4215782.9936   1   6   0.0050   0.0103   0.0098  -0.0041  -0.0084   0.0031   0.00    8.3
2173 247824.000   1551941.3037  -4514373.7652   4215782.9921   1   6   0.0050   0.0103   0.0098  -0.0041  -0.0084   0.0031   0.00    8.5
2173 247825.000   1551941.3028  -4514373.7639   4215782.9931   1   6   0.0050   0.0103   0.0098  -0.0041  -0.0084   0.0031   0.00    7.9
2173 247826.000   1551941.3035  -4514373.7674   4215782.9963   1   6   0.0050   0.0103   0.0098  -0.0041  -0.0084   0.0031   0.00    7.9
2173 247827.000   1551941.3032  -4514373.7641   4215782.9924   1   6   0.0050   0.0103   0.0098  -0.0041  -0.0084   0.0031   0.00    6.8
2173 247828.000   1551941.3030  -4514373.7660   4215782.9936   1   6   0.0050   0.0103   0.0098  -0.0041  -0.0084   0.0031   0.00    6.5
2173 247829.000   1551941.3048  -4514373.7646   4215782.9921   1   6   0.0050   0.0103   0.0098  -0.0041  -0.0084   0.0031   0.00    6.6
2173 247830.000   1551941.3036  -4514373.7631   4215782.9941   1   6   0.0050   0.0103   0.0098  -0.0041  -0.0084   0.0031   0.00    7.0
2173 247831.000   1551941.3014  -4514373.7620   4215782.9909   1   6   0.0050   0.0103   0.0098  -0.0041  -0.0084   0.0031   0.00    6.9
2173 247832.000   1551941.3041  -4514373.7655   4215782.9942   1   6   0.0050   0.0103   0.0098  -0.0041  -0.0084   0.0031   0.00    6.8
2173 247833.000   1551941.3024  -4514373.7627   4215782.9903   1   6   0.0050   0.0103   0.0098  -0.0041  -0.0084   0.0031   0.00    6.6
2173 247834.000   1551941.3018  -4514373.7601   4215782.9895   1   6   0.0050   0.0103   0.0098  -0.0041  -0.0084   0.0031   0.00    6.6
2173 247835.000   1551941.3027  -4514373.7611   4215782.9911   1   6   0.0050   0.0103   0.0098  -0.0041  -0.0084   0.0031   0.00    7.5
2173 247836.000   1551941.3023  -4514373.7634   4215782.9903   1   6   0.0050   0.0103   0.0098  -0.0041  -0.0084   0.0031   0.00    8.6
2173 247837.000   1551941.3011  -4514373.7609   4215782.9897   1   6   0.0050   0.0103   0.0098  -0.0041  -0.0084   0.0031   0.00    9.1
2173 247838.000   1551941.3016  -4514373.7610   4215782.9905   1   6   0.0050   0.0103   0.0098  -0.0041  -0.0084   0.0031   0.00    7.9
2173 247839.000   1551941.3010  -4514373.7610   4215782.9896   1   6   0.0050   0.0103   0.0098  -0.0041  -0.0084   0.0031   0.00    7.4
2173 247840.000   1551941.3019  -4514373.7572   4215782.9877   1   6   0.0050   0.0103   0.0098  -0.0041  -0.0084   0.0031   0.00    7.6
2173 247841.000   1551941.3022  -4514373.7639   4215782.9920   1   6   0.0050   0.0103   0.0098  -0.0041  -0.0084   0.0031   0.00    8.0
2173 247842.000   1551941.3005  -4514373.7616   4215782.9914   1   6   0.0050   0.0103   0.0098  -0.0041  -0.0083   0.0031   0.00    8.4
2173 247843.000   1551941.3016  -4514373.7620   4215782.9903   1   6   0.0050   0.0103   0.0098  -0.0041  -0.0083   0.0031   0.00    7.6
2173 247844.000   1551941.3024  -4514373.7626   4215782.9909   1   6   0.0050   0.0103   0.0098  -0.0041  -0.0083   0.0031   0.00    8.2
2173 247845.000   1551941.3017  -4514373.7604   4215782.9881   1   6   0.0050   0.0103   0.0098  -0.0041  -0.0083   0.0031   0.00    8.2
2173 247846.000   1551941.3019  -4514373.7612   4215782.9911   1   6   0.0050   0.0103   0.0098  -0.0041  -0.0083   0.0031   0.00    8.2
2173 247847.000   1551941.3016  -4514373.7580   4215782.9864   1   6   0.0050   0.0103   0.0098  -0.0041  -0.0083   0.0031   0.00    8.5
2173 247848.000   1551941.3025  -4514373.7607   4215782.9890   1   6   0.0050   0.0103   0.0098  -0.0041  -0.0083   0.0031   0.00    7.9
2173 247849.000   1551941.3022  -4514373.7580   4215782.9861   1   6   0.0050   0.0103   0.0098  -0.0041  -0.0083   0.0031   0.00    8.3
2173 247850.000   1551941.3025  -4514373.7587   4215782.9854   1   6   0.0050   0.0103   0.0098  -0.0041  -0.0083   0.0031   0.00    8.2
2173 247851.000   1551941.3036  -4514373.7616   4215782.9880   1   6   0.0050   0.0103   0.0098  -0.0041  -0.0083   0.0031   0.00    8.9
2173 247852.000   1551941.3020  -4514373.7591   4215782.9863   1   6   0.0050   0.0103   0.0098  -0.0041  -0.0083   0.0031   0.00    9.5
2173 247853.000   1551941.3033  -4514373.7610   4215782.9890   1   6   0.0050   0.0103   0.0098  -0.0041  -0.0083   0.0031   0.00    8.7
2173 247854.000   1551941.3019  -4514373.7592   4215782.9876   1   6   0.0050   0.0103   0.0098  -0.0041  -0.0083   0.0031   0.00    8.2
2173 247855.000   1551941.3018  -4514373.7578   4215782.9868   1   6   0.0050   0.0103   0.0098  -0.0041  -0.0083   0.0031   0.00    8.1
2173 247856.000   1551941.3031  -4514373.7609   4215782.9900   1   6   0.0050   0.0103   0.0098  -0.0041  -0.0083   0.0031   0.00    8.9
2173 247857.000   1551941.3011  -4514373.7601   4215782.9877   1   6   0.0050   0.0103   0.0098  -0.0041  -0.0083   0.0031   0.00    8.7
2173 247858.000   1551941.3022  -4514373.7585   4215782.9887   1   6   0.0050   0.0103   0.0098  -0.0041  -0.0083   0.0031   0.00    8.2
2173 247859.000   1551941.3023  -4514373.7600   4215782.9899   1   6   0.0050   0.0103   0.0098  -0.0041  -0.0083   0.0031   0.00    7.8
2173 247860.000   1551941.3014  -4514373.7589   4215782.9894   1   6   0.0050   0.0103   0.0098  -0.0041  -0.0083   0.0031   0.00    8.3
2173 247861.000   1551941.3034  -4514373.7612   4215782.9905   1   6   0.0050   0.0103   0.0098  -0.0041  -0.0083   0.0031   0.00   10.1
2173 247862.000   1551941.3030  -4514373.7623   4215782.9888   1   6   0.0050   0.0103   0.0098  -0.0041  -0.0083   0.0031   0.00   10.2
2173 247863.000   1551941.3030  -4514373.7615   4215782.9909   1   6   0.0050   0.0103   0.0098  -0.0041  -0.0083   0.0031   0.00   10.4
2173 247864.000   1551941.3020  -4514373.7622   4215782.9898   1   6   0.0050   0.0103   0.0098  -0.0041  -0.0083   0.0031   0.00    9.0
2173 247865.000   1551941.3023  -4514373.7605   4215782.9891   1   6   0.0050   0.0103   0.0098  -0.0041  -0.0083   0.0031   0.00    9.5
2173 247866.000   1551941.3021  -4514373.7603   4215782.9891   1   6   0.0050   0.0103   0.0098  -0.0041  -0.0083   0.0031   0.00    9.3
2173 247867.000   1551941.3029  -4514373.7618   4215782.9910   1   6   0.0050   0.0103   0.0098  -0.0041  -0.0083   0.0031   0.00   10.5
2173 247868.000   1551941.3017  -4514373.7614   4215782.9902   1   6   0.0050   0.0103   0.0098  -0.0041  -0.0083   0.0031   0.00   10.4
2173 247869.000   1551941.3014  -4514373.7625   4215782.9897   1   6   0.0050   0.0103   0.0098  -0.0041  -0.0083   0.0031   0.00   10.3
2173 247870.000   1551941.3022  -4514373.7608   4215782.9905   1   6   0.0050   0.0103   0.0098  -0.0041  -0.0083   0.0031   0.00    9.1
2173 247871.000   1551941.3020  -4514373.7642   4215782.9916   1   6   0.0050   0.0103   0.0098  -0.0041  -0.0083   0.0031   0.00   10.0
2173 247872.000   1551941.3017  -4514373.7635   4215782.9900   1   6   0.0050   0.0103   0.0098  -0.0041  -0.0083   0.0031   0.00   11.2
2173 247873.000   1551941.3021  -4514373.7656   4215782.9906   1   6   0.0050   0.0103   0.0098  -0.0041  -0.0083   0.0031   0.00   10.7
2173 247874.000   1551941.3027  -4514373.7628   4215782.9919   1   6   0.0050   0.0103   0.0098  -0.0041  -0.0083   0.0031   0.00    9.7
2173 247875.000   1551941.3015  -4514373.7636   4215782.9918   1   6   0.0050   0.0103   0.0098  -0.0041  -0.0083   0.0031   0.00   10.6
2173 247876.000   1551941.3024  -4514373.7624   4215782.9912   1   6   0.0050   0.0103   0.0097  -0.0041  -0.0083   0.0031   0.00   11.3
2173 247877.000   1551941.3030  -4514373.7668   4215782.9915   1   6   0.0050   0.0103   0.0097  -0.0041  -0.0083   0.0031   0.00   10.7
2173 247878.000   1551941.3016  -4514373.7602   4215782.9878   1   6   0.0050   0.0103   0.0097  -0.0041  -0.0083   0.0031   0.00   11.0
2173 247879.000   1551941.3030  -4514373.7626   4215782.9884   1   6   0.0050   0.0103   0.0097  -0.0041  -0.0083   0.0031   0.00   11.2
2173 247880.000   1551941.3029  -4514373.7616   4215782.9880   1   6   0.0050   0.0103   0.0097  -0.0041  -0.0083   0.0031   0.00   11.3
2173 247881.000   1551941.3014  -4514373.7591   4215782.9853   1   6   0.0050   0.0103   0.0097  -0.0041  -0.0083   0.0031   0.00   11.3
2173 247882.000   1551941.3008  -4514373.7608   4215782.9847   1   6   0.0050   0.0103   0.0097  -0.0041  -0.0083   0.0031   0.00   11.0
2173 247883.000   1551941.3025  -4514373.7626   4215782.9884   1   6   0.0050   0.0103   0.0097  -0.0041  -0.0083   0.0031   0.00    9.7
2173 247884.000   1551941.3036  -4514373.7636   4215782.9890   1   6   0.0050   0.0103   0.0097  -0.0041  -0.0083   0.0031   0.00    8.3
2173 247885.000   1551941.3016  -4514373.7612   4215782.9856   1   6   0.0050   0.0103   0.0097  -0.0041  -0.0083   0.0031   0.00    8.8
2173 247886.000   1551941.3039  -4514373.7645   4215782.9882   1   6   0.0050   0.0103   0.0097  -0.0041  -0.0083   0.0031   0.00    8.2
2173 247887.000   1551941.3045  -4514373.7639   4215782.9897   1   6   0.0050   0.0103   0.0097  -0.0041  -0.0083   0.0031   0.00    8.1
2173 247888.000   1551941.3036  -4514373.7617   4215782.9856   1   6   0.0050   0.0103   0.0097  -0.0041  -0.0083   0.0031   0.00    6.6
2173 247889.000   1551941.3030  -4514373.7622   4215782.9875   1   6   0.0050   0.0103   0.0097  -0.0041  -0.0083   0.0031   0.00    7.3
2173 247890.000   1551941.3036  -4514373.7637   4215782.9887   1   6   0.0050   0.0103   0.0097  -0.0041  -0.0083   0.0031   0.00    7.2
2173 247891.000   1551941.3016  -4514373.7600   4215782.9867   1   6   0.0050   0.0103   0.0097  -0.0041  -0.0083   0.0031   0.00    8.7
2173 247892.000   1551941.3031  -4514373.7630   4215782.9886   1   6   0.0050   0.0103   0.0097  -0.0041  -0.0083   0.0031   0.00    7.9
2173 247893.000   1551941.3046  -4514373.7611   4215782.9853   1   6   0.0050   0.0103   0.0097  -0.0041  -0.0083   0.0031   0.00    6.7
2173 247894.000   1551941.3026  -4514373.7638   4215782.9885   1   6   0.0050   0.0103   0.0097  -0.0041  -0.0083   0.0031   0.00    6.5
2173 247895.000   1551941.3017  -4514373.7603   4215782.9865   1   6   0.0050   0.0103   0.0097  -0.0041  -0.0083   0.0031   0.00    6.5
2173 247896.000   1551941.3024  -4514373.7603   4215782.9847   1   6   0.0050   0.0103   0.0097  -0.0041  -0.0083   0.0031   0.00    7.1
2173 247897.000   1551941.3012  -4514373.7573   4215782.9834   1   6   0.0050   0.0103   0.0097  -0.0041  -0.0083   0.0031   0.00    7.5
2173 247898.000   1551941.2993  -4514373.7563   4215782.9812   1   6   0.0050   0.0103   0.0097  -0.0041  -0.0083   0.0031   0.00    6.3
2173 247899.000   1551941.3000  -4514373.7576   4215782.9836   1   6   0.0050   0.0103   0.0097  -0.0041  -0.0083   0.0031   0.00    7.7
2173 247900.000   1551941.3001  -4514373.7585   4215782.9859   1   6   0.0050   0.0103   0.0097  -0.0041  -0.0083   0.0031   0.00    6.9
2173 247901.000   1551941.3012  -4514373.7586   4215782.9833   1   6   0.0050   0.0103   0.0097  -0.0041  -0.0083   0.0031   0.00    6.4
2173 247902.000   1551941.3014  -4514373.7584   4215782.9843   1   6   0.0050   0.0103   0.0097  -0.0041  -0.0083   0.0031   0.00    6.0
2173 247903.000   1551941.3001  -4514373.7545   4215782.9817   1   6   0.0050   0.0103   0.0097  -0.0041  -0.0083   0.0031   0.00    6.0
2173 247904.000   1551941.3006  -4514373.7549   4215782.9805   1   6   0.0050   0.0103   0.0097  -0.0041  -0.0083   0.0031   0.00    5.7
2173 247905.000   1551941.3019  -4514373.7588   4215782.9834   1   6   0.0050   0.0103   0.0097  -0.0041  -0.0083   0.0031   0.00    7.4
2173 247906.000   1551941.3029  -4514373.7574   4215782.9836   1   6   0.0050   0.0103   0.0097  -0.0041  -0.0083   0.0031   0.00    6.3
2173 247907.000   1551941.3019  -4514373.7569   4215782.9822   1   6   0.0050   0.0103   0.0097  -0.0041  -0.0083   0.0031   0.00    5.1
2173 247908.000   1551941.3009  -4514373.7570   4215782.9804   1   6   0.0050   0.0103   0.0097  -0.0041  -0.0083   0.0031   0.00    6.4
2173 247909.000   1551941.3009  -4514373.7560   4215782.9817   1   6   0.0050   0.0103   0.0097  -0.0041  -0.0083   0.0031   0.00    4.2
2173 247910.000   1551941.3018  -4514373.7559   4215782.9807   1   6   0.0050   0.0103   0.0097  -0.0041  -0.0083   0.0031   0.00    4.2
2173 247911.000   1551941.3023  -4514373.7596   4215782.9836   1   6   0.0050   0.0103   0.0097  -0.0041  -0.0083   0.0031   0.00    4.4
2173 247912.000   1551941.3011  -4514373.7559   4215782.9834   1   6   0.0050   0.0103   0.0097  -0.0041  -0.0083   0.0031   0.00    4.2
2173 247913.000   1551941.3025  -4514373.7595   4215782.9821   1   6   0.0050   0.0103   0.0097  -0.0041  -0.0083   0.0031   0.00    4.1
2173 247914.000   1551941.3020  -4514373.7590   4215782.9821   1   6   0.0050   0.0103   0.0097  -0.0041  -0.0083   0.0031   0.00    4.6
2173 247915.000   1551941.3021  -4514373.7559   4215782.9826   1   6   0.0050   0.0103   0.0097  -0.0041  -0.0083   0.0031   0.00    4.6
2173 247916.000   1551941.3011  -4514373.7591   4215782.9855   1   6   0.0050   0.0103   0.0097  -0.0041  -0.0083   0.0031   0.00    4.7
2173 247917.000   1551941.3012  -4514373.7575   4215782.9815   1   6   0.0050   0.0103   0.0097  -0.0041  -0.0083   0.0031   0.00    4.0
2173 247918.000   1551941.3010  -4514373.7574   4215782.9822   1   6   0.0050   0.0103   0.0097  -0.0041  -0.0083   0.0031   0.00    5.1
2173 247919.000   1551941.3006  -4514373.7567   4215782.9809   1   6   0.0050   0.0103   0.0097  -0.0041  -0.0083   0.0031   0.00    4.3
2173 247920.000   1551941.3029  -4514373.7602   4215782.9842   1   6   0.0050   0.0103   0.0097  -0.0041  -0.0083   0.0031   0.00    4.2
2173 247921.000   1551941.3020  -4514373.7573   4215782.9820   1   6   0.0050   0.0103   0.0097  -0.0041  -0.0083   0.0031   0.00    4.0
2173 247922.000   1551941.3011  -4514373.7584   4215782.9839   1   6   0.0050   0.0103   0.0097  -0.0041  -0.0083   0.0030   0.00    3.6
2173 247923.000   1551941.3022  -4514373.7586   4215782.9828   1   6   0.0050   0.0103   0.0097  -0.0041  -0.0083   0.0030   0.00    3.8
2173 247924.000   1551941.3023  -4514373.7570   4215782.9806   1   6   0.0050   0.0103   0.0097  -0.0041  -0.0083   0.0030   0.00    3.7
2173 247925.000   1551941.3026  -4514373.7604   4215782.9838   1   6   0.0050   0.0103   0.0097  -0.0041  -0.0082   0.0030   0.00    3.7
2173 247926.000   1551941.3031  -4514373.7590   4215782.9833   1   6   0.0050   0.0103   0.0097  -0.0041  -0.0082   0.0030   0.00    3.5
2173 247927.000   1551941.3009  -4514373.7540   4215782.9802   1   6   0.0050   0.0103   0.0097  -0.0041  -0.0082   0.0030   0.00    4.1
2173 247928.000   1551941.3021  -4514373.7584   4215782.9827   1   6   0.0050   0.0103   0.0097  -0.0041  -0.0082   0.0030   0.00    3.7
2173 247929.000   1551941.3015  -4514373.7591   4215782.9828   1   6   0.0050   0.0103   0.0097  -0.0041  -0.0082   0.0030   0.00    4.0
2173 247930.000   1551941.3012  -4514373.7559   4215782.9806   1   6   0.0050   0.0103   0.0097  -0.0041  -0.0082   0.0030   0.00    4.0
2173 247931.000   1551941.3026  -4514373.7609   4215782.9848   1   6   0.0050   0.0103   0.0097  -0.0041  -0.0082   0.0030   0.00    4.6
2173 247932.000   1551941.3003  -4514373.7554   4215782.9828   1   6   0.0050   0.0103   0.0097  -0.0041  -0.0082   0.0030   0.00    4.1
2173 247933.000   1551941.3026  -4514373.7612   4215782.9846   1   6   0.0050   0.0103   0.0097  -0.0041  -0.0082   0.0030   0.00    3.9
2173 247934.000   1551941.3013  -4514373.7592   4215782.9828   1   6   0.0050   0.0103   0.0097  -0.0041  -0.0082   0.0030   0.00    4.0
2173 247935.000   1551941.3017  -4514373.7596   4215782.9846   1   6   0.0050   0.0103   0.0097  -0.0041  -0.0082   0.0030   0.00    3.8
2173 247936.000   1551941.3017  -4514373.7597   4215782.9850   1   6   0.0050   0.0103   0.0097  -0.0041  -0.0082   0.0030   0.00    4.2
2173 247937.000   1551941.3005  -4514373.7601   4215782.9837   1   6   0.0050   0.0103   0.0097  -0.0041  -0.0082   0.0030   0.00    4.0
2173 247938.000   1551941.3013  -4514373.7593   4215782.9832   1   6   0.0050   0.0103   0.0096  -0.0041  -0.0082   0.0030   0.00    4.6
2173 247939.000   1551941.3016  -4514373.7588   4215782.9841   1   6   0.0050   0.0103   0.0096  -0.0041  -0.0082   0.0030   0.00    4.4
2173 247940.000   1551941.3009  -4514373.7620   4215782.9883   1   6   0.0050   0.0103   0.0096  -0.0041  -0.0082   0.0030   0.00    4.2
2173 247941.000   1551941.3023  -4514373.7601   4215782.9867   1   6   0.0050   0.0103   0.0096  -0.0041  -0.0082   0.0030   0.00    5.0
2173 247942.000   1551941.3008  -4514373.7617   4215782.9858   1   6   0.0050   0.0103   0.0096  -0.0041  -0.0082   0.0030   0.00    5.8
2173 247943.000   1551941.3007  -4514373.7598   4215782.9853   1   6   0.0050   0.0103   0.0096  -0.0041  -0.0082   0.0030   0.00    5.7
2173 247944.000   1551941.3015  -4514373.7597   4215782.9853   1   6   0.0050   0.0103   0.0096  -0.0042  -0.0082   0.0030   0.00    5.0
2173 247945.000   1551941.3010  -4514373.7596   4215782.9877   1   6   0.0050   0.0103   0.0096  -0.0042  -0.0082   0.0030   0.00    5.3
2173 247946.000   1551941.3008  -4514373.7586   4215782.9852   1   6   0.0050   0.0103   0.0096  -0.0042  -0.0082   0.0030   0.00    5.5
2173 247947.000   1551941.3021  -4514373.7600   4215782.9861   1   6   0.0050   0.0103   0.0096  -0.0042  -0.0082   0.0030   0.00    4.4
2173 247948.000   1551941.3017  -4514373.7569   4215782.9826   1   6   0.0050   0.0103   0.0096  -0.0042  -0.0082   0.0030   0.00    4.8
2173 247949.000   1551941.3019  -4514373.7599   4215782.9835   1   6   0.0050   0.0103   0.0096  -0.0042  -0.0082   0.0030   0.00    5.8
2173 247950.000   1551941.3022  -4514373.7580   4215782.9840   1   6   0.0050   0.0103   0.0096  -0.0042  -0.0082   0.0030   0.00    5.9
2173 247951.000   1551941.3019  -4514373.7571   4215782.9835   1   6   0.0050   0.0103   0.0096  -0.0042  -0.0082   0.0030   0.00    5.9
2173 247952.000   1551941.3022  -4514373.7574   4215782.9834   1   6   0.0050   0.0103   0.0096  -0.0042  -0.0082   0.0030   0.00    4.9
2173 247953.000   1551941.3022  -4514373.7589   4215782.9843   1   6   0.0050   0.0103   0.0096  -0.0042  -0.0082   0.0030   0.00    5.1
2173 247954.000   1551941.3022  -4514373.7585   4215782.9823   1   6   0.0050   0.0103   0.0096  -0.0042  -0.0082   0.0030   0.00    5.9
2173 247955.000   1551941.3025  -4514373.7554   4215782.9819   1   6   0.0050   0.0103   0.0096  -0.0042  -0.0082   0.0030   0.00    4.4
2173 247956.000   1551941.3039  -4514373.7568   4215782.9813   1   6   0.0050   0.0103   0.0096  -0.0042  -0.0082   0.0030   0.00    4.8
2173 247957.000   1551941.3040  -4514373.7591   4215782.9833   1   6   0.0050   0.0103   0.0096  -0.0042  -0.0082   0.0030   0.00    4.4
2173 247958.000   1551941.3031  -4514373.7583   4215782.9843   1   6   0.0050   0.0103   0.0096  -0.0042  -0.0082   0.0030   0.00    5.4
2173 247959.000   1551941.3039  -4514373.7587   4215782.9827   1   6   0.0050   0.0103   0.0096  -0.0042  -0.0082   0.0030   0.00    4.5
2173 247960.000   1551941.3034  -4514373.7589   4215782.9851   1   6   0.0050   0.0103   0.0096  -0.0042  -0.0082   0.0030   0.00    4.3
2173 247961.000   1551941.3049  -4514373.7599   4215782.9828   1   6   0.0050   0.0103   0.0096  -0.0042  -0.0082   0.0030   0.00    5.0
2173 247962.000   1551941.3041  -4514373.7575   4215782.9844   1   6   0.0050   0.0103   0.0096  -0.0042  -0.0082   0.0030   0.00    4.8
2173 247963.000   1551941.3046  -4514373.7553   4215782.9841   1   6   0.0050   0.0103   0.0096  -0.0042  -0.0082   0.0030   0.00    5.0
2173 247964.000   1551941.3046  -4514373.7585   4215782.9845   1   6   0.0050   0.0103   0.0096  -0.0042  -0.0082   0.0030   0.00    4.1
2173 247965.000   1551941.3046  -4514373.7570   4215782.9834   1   6   0.0050   0.0103   0.0096  -0.0042  -0.0082   0.0030   0.00    4.1
2173 247966.000   1551941.3032  -4514373.7569   4215782.9828   1   6   0.0050   0.0103   0.0096  -0.0042  -0.0082   0.0030   0.00    5.2
2173 247967.000   1551941.3045  -4514373.7546   4215782.9834   1   6   0.0050   0.0103   0.0096  -0.0042  -0.0082   0.0030   0.00    4.9
2173 247968.000   1551941.3048  -4514373.7573   4215782.9836   1   6   0.0050   0.0103   0.0096  -0.0042  -0.0082   0.0030   0.00    4.9
2173 247969.000   1551941.3041  -4514373.7568   4215782.9839   1   6   0.0050   0.0103   0.0096  -0.0042  -0.0082   0.0030   0.00    4.7
2173 247970.000   1551941.3045  -4514373.7569   4215782.9851   1   6   0.0050   0.0103   0.0096  -0.0042  -0.0082   0.0030   0.00    5.2
2173 247971.000   1551941.3033  -4514373.7571   4215782.9842   1   6   0.0050   0.0103   0.0096  -0.0042  -0.0082   0.0030   0.00    5.6
2173 247972.000   1551941.3027  -4514373.7556   4215782.9836   1   6   0.0050   0.0103   0.0096  -0.0042  -0.0082   0.0030   0.00    5.3
2173 247973.000   1551941.3033  -4514373.7542   4215782.9835   1   6   0.0050   0.0103   0.0096  -0.0042  -0.0082   0.0030   0.00    5.6
2173 247974.000   1551941.3035  -4514373.7537   4215782.9796   1   6   0.0050   0.0103   0.0096  -0.0042  -0.0082   0.0030   0.00    4.5
2173 247975.000   1551941.3042  -4514373.7548   4215782.9848   1   6   0.0050   0.0103   0.0096  -0.0042  -0.0082   0.0030   0.00    6.3
2173 247976.000   1551941.3045  -4514373.7580   4215782.9831   1   6   0.0050   0.0103   0.0096  -0.0042  -0.0082   0.0030   0.00    5.7
2173 247977.000   1551941.3035  -4514373.7562   4215782.9821   1   6   0.0050   0.0103   0.0096  -0.0042  -0.0082   0.0030   0.00    6.2
2173 247978.000   1551941.3044  -4514373.7569   4215782.9844   1   6   0.0050   0.0103   0.0096  -0.0042  -0.0082   0.0030   0.00    5.6
2173 247979.000   1551941.3046  -4514373.7592   4215782.9866   1   6   0.0050   0.0103   0.0096  -0.0042  -0.0082   0.0030   0.00    6.4
2173 247980.000   1551941.3048  -4514373.7562   4215782.9849   1   6   0.0050   0.0103   0.0096  -0.0042  -0.0082   0.0030   0.00    6.0
2173 247981.000   1551941.3048  -4514373.7577   4215782.9815   1   6   0.0050   0.0103   0.0096  -0.0042  -0.0082   0.0030   0.00    5.6
2173 247982.000   1551941.3066  -4514373.7584   4215782.9832   1   6   0.0050   0.0103   0.0096  -0.0042  -0.0082   0.0030   0.00    5.1
2173 247983.000   1551941.3062  -4514373.7600   4215782.9865   1   6   0.0050   0.0103   0.0096  -0.0042  -0.0082   0.0030   0.00    4.8
2173 247984.000   1551941.3067  -4514373.7584   4215782.9829   1   6   0.0050   0.0103   0.0096  -0.0042  -0.0082   0.0030   0.00    5.4
2173 247985.000   1551941.3058  -4514373.7589   4215782.9836   1   6   0.0050   0.0103   0.0096  -0.0042  -0.0082   0.0030   0.00    5.4
2173 247986.000   1551941.3067  -4514373.7583   4215782.9840   1   6   0.0050   0.0103   0.0096  -0.0042  -0.0082   0.0030   0.00    5.3
2173 247987.000   1551941.3063  -4514373.7599   4215782.9848   1   6   0.0050   0.0103   0.0096  -0.0042  -0.0082   0.0030   0.00    6.5
2173 247988.000   1551941.3081  -4514373.7594   4215782.9856   1   6   0.0050   0.0103   0.0096  -0.0042  -0.0082   0.0030   0.00    5.1
2173 247989.000   1551941.3079  -4514373.7610   4215782.9854   1   6   0.0050   0.0103   0.0096  -0.0042  -0.0082   0.0030   0.00    6.4
2173 247990.000   1551941.3072  -4514373.7598   4215782.9835   1   6   0.0050   0.0103   0.0096  -0.0042  -0.0082   0.0030   0.00    6.6
2173 247991.000   1551941.3075  -4514373.7589   4215782.9835   1   6   0.0050   0.0103   0.0096  -0.0042  -0.0082   0.0030   0.00    5.5
2173 247992.000   1551941.3082  -4514373.7617   4215782.9860   1   6   0.0050   0.0103   0.0096  -0.0042  -0.0082   0.0030   0.00    5.1
2173 247993.000   1551941.3070  -4514373.7606   4215782.9870   1   6   0.0050   0.0103   0.0096  -0.0042  -0.0082   0.0030   0.00    5.3
2173 247994.000   1551941.3062  -4514373.7596   4215782.9851   1   6   0.0050   0.0103   0.0096  -0.0042  -0.0082   0.0030   0.00    6.1
2173 247995.000   1551941.3048  -4514373.7588   4215782.9845   1   6   0.0050   0.0103   0.0096  -0.0042  -0.0082   0.0030   0.00    5.8
2173 247996.000   1551941.3064  -4514373.7588   4215782.9863   1   6   0.0050   0.0103   0.0096  -0.0042  -0.0082   0.0030   0.00    5.8
2173 247997.000   1551941.3077  -4514373.7634   4215782.9887   1   6   0.0050   0.0103   0.0096  -0.0042  -0.0082   0.0030   0.00    5.2
2173 247998.000   1551941.3062  -4514373.7621   4215782.9884   1   6   0.0050   0.0103   0.0096  -0.0042  -0.0082   0.0030   0.00    4.9
2173 247999.000   1551941.3072  -4514373.7627   4215782.9894   1   6   0.0050   0.0103   0.0096  -0.0042  -0.0082   0.0030   0.00    4.1
2173 248000.000   1551941.3074  -4514373.7630   4215782.9886   1   6   0.0050   0.0103   0.0096  -0.0042  -0.0082   0.0030   0.00    4.6
2173 248001.000   1551941.3084  -4514373.7610   4215782.9885   1   6   0.0050   0.0103   0.0096  -0.0042  -0.0082   0.0030   0.00    4.6
2173 248002.000   1551941.3074  -4514373.7617   4215782.9886   1   6   0.0050   0.0103   0.0095  -0.0042  -0.0082   0.0030   0.00    3.7
2173 248003.000   1551941.3076  -4514373.7611   4215782.9871   1   6   0.0050   0.0103   0.0095  -0.0042  -0.0082   0.0030   0.00    4.4
2173 248004.000   1551941.3066  -4514373.7614   4215782.9872   1   6   0.0050   0.0103   0.0095  -0.0042  -0.0082   0.0030   0.00    4.2
2173 248005.000   1551941.3064  -4514373.7613   4215782.9870   1   6   0.0050   0.0103   0.0095  -0.0042  -0.0082   0.0030   0.00    4.0
2173 248006.000   1551941.3059  -4514373.7613   4215782.9868   1   6   0.0050   0.0103   0.0095  -0.0042  -0.0082   0.0030   0.00    3.8
2173 248007.000   1551941.3071  -4514373.7633   4215782.9886   1   6   0.0050   0.0103   0.0095  -0.0042  -0.0082   0.0030   0.00    4.2
2173 248008.000   1551941.2767  -4514373.9084   4215782.9634   2   6   0.4999   1.0190   0.9455  -0.4136  -0.8075   0.2949   0.00    3.0
2173 248009.000   1551941.3055  -4514373.7590   4215782.9840   1   6   0.0050   0.0103   0.0095  -0.0042  -0.0082   0.0030   0.00    3.8
2173 248010.000   1551941.3072  -4514373.7620   4215782.9866   1   6   0.0050   0.0103   0.0095  -0.0042  -0.0082   0.0030   0.00    3.5
2173 248011.000   1551941.3063  -4514373.7612   4215782.9867   1   6   0.0050   0.0103   0.0095  -0.0042  -0.0081   0.0030   0.00    3.6
2173 248012.000   1551941.3066  -4514373.7626   4215782.9890   1   6   0.0050   0.0103   0.0095  -0.0042  -0.0081   0.0030   0.00    3.8
2173 248013.000   1551941.1886  -4514373.9799   4215782.9999   2   6   0.5000   1.0189   0.9448  -0.4138  -0.8069   0.2947   0.00    2.8
2173 248014.000   1551941.3050  -4514373.7607   4215782.9864   1   6   0.0050   0.0103   0.0095  -0.0042  -0.0081   0.0030   0.00    3.5
2173 248015.000   1551941.0783  -4514373.9239   4215783.0570   2   6   0.5000   1.0189   0.9445  -0.4139  -0.8067   0.2946   0.00    2.8
2173 248016.000   1551941.3067  -4514373.7631   4215782.9877   1   6   0.0050   0.0103   0.0095  -0.0042  -0.0081   0.0030   0.00    3.3
2173 248017.000   1551941.3042  -4514373.7606   4215782.9859   1   6   0.0050   0.0103   0.0095  -0.0042  -0.0081   0.0030   0.00    3.2
2173 248018.000   1551941.3048  -4514373.7590   4215782.9852   1   6   0.0050   0.0103   0.0095  -0.0042  -0.0081   0.0030   0.00    3.3
2173 248019.000   1551941.1005  -4514373.7924   4215783.0557   2   6   0.5000   1.0188   0.9439  -0.4142  -0.8063   0.2944   0.00    2.9
2173 248020.000   1551941.0728  -4514373.6348   4215782.9106   2   6   0.5001   1.0188   0.9437  -0.4142  -0.8061   0.2944   0.00    2.7
2173 248021.000   1551941.3046  -4514373.7597   4215782.9870   1   6   0.0050   0.0103   0.0095  -0.0042  -0.0081   0.0030   0.00    3.2
2173 248022.000   1551941.3045  -4514373.7579   4215782.9864   1   6   0.0050   0.0103   0.0095  -0.0042  -0.0081   0.0030   0.00    3.2
2173 248023.000   1551941.3047  -4514373.7599   4215782.9884   1   6   0.0050   0.0103   0.0095  -0.0042  -0.0081   0.0030   0.00    3.9
2173 248024.000   1551941.3047  -4514373.7613   4215782.9878   1   6   0.0050   0.0103   0.0095  -0.0042  -0.0081   0.0030   0.00    3.3
2173 248025.000   1551941.3064  -4514373.7620   4215782.9892   1   6   0.0050   0.0103   0.0095  -0.0042  -0.0081   0.0030   0.00    3.6
2173 248026.000   1551941.3040  -4514373.7590   4215782.9863   1   6   0.0050   0.0103   0.0095  -0.0042  -0.0081   0.0030   0.00    3.3
2173 248027.000   1551941.3054  -4514373.7624   4215782.9893   1   6   0.0050   0.0103   0.0095  -0.0042  -0.0081   0.0030   0.00    3.2
2173 248028.000   1551941.3047  -4514373.7624   4215782.9890   1   6   0.0050   0.0103   0.0095  -0.0042  -0.0081   0.0030   0.00    3.4
2173 248029.000   1551941.2768  -4514373.8138   4215782.9608   2   6   0.5002   1.0187   0.9424  -0.4147  -0.8052   0.2940   0.00    2.7
2173 248030.000   1551941.3049  -4514373.7631   4215782.9916   1   6   0.0050   0.0103   0.0095  -0.0042  -0.0081   0.0030   0.00    3.1
2173 248031.000   1551941.2834  -4514373.9346   4215783.0430   2   6   0.5002   1.0187   0.9421  -0.4148  -0.8049   0.2939   0.00    2.8
2173 248032.000   1551941.3050  -4514373.7645   4215782.9916   1   6   0.0050   0.0103   0.0095  -0.0042  -0.0081   0.0030   0.00    3.2
2173 248033.000   1551941.2051  -4514373.9281   4215783.0046   2   6   0.5002   1.0186   0.9418  -0.4149  -0.8047   0.2939   0.00    2.5
2173 248034.000   1551941.3060  -4514373.7654   4215782.9919   1   6   0.0050   0.0103   0.0095  -0.0042  -0.0081   0.0030   0.00    3.3
2173 248035.000   1551941.3065  -4514373.7677   4215782.9943   1   6   0.0050   0.0103   0.0095  -0.0042  -0.0081   0.0030   0.00    3.1
2173 248036.000   1551941.0536  -4514373.9278   4215783.0261   2   6   0.5003   1.0186   0.9414  -0.4150  -0.8044   0.2937   0.00    2.7
2173 248037.000   1551941.0149  -4514373.9033   4215783.0856   2   6   0.5003   1.0186   0.9412  -0.4151  -0.8043   0.2937   0.00    2.7
2173 248038.000   1551941.3043  -4514373.7658   4215782.9925   1   6   0.0051   0.0103   0.0095  -0.0042  -0.0081   0.0030   0.00    3.0
2173 248039.000   1551941.3058  -4514373.7669   4215782.9949   1   6   0.0051   0.0103   0.0095  -0.0042  -0.0081   0.0030   0.00    3.3
2173 248040.000   1551941.3049  -4514373.7702   4215782.9964   1   6   0.0051   0.0103   0.0095  -0.0042  -0.0081   0.0030   0.00    3.1
2173 248041.000   1551941.3053  -4514373.7667   4215782.9928   1   6   0.0051   0.0103   0.0095  -0.0042  -0.0081   0.0030   0.00    3.6
2173 248042.000   1551941.3036  -4514373.7671   4215782.9955   1   6   0.0051   0.0103   0.0095  -0.0042  -0.0081   0.0030   0.00    3.7
2173 248043.000   1551941.3031  -4514373.7673   4215782.9950   1   6   0.0051   0.0103   0.0095  -0.0042  -0.0081   0.0030   0.00    3.7
2173 248044.000   1551941.3059  -4514373.7687   4215782.9961   1   6   0.0051   0.0103   0.0095  -0.0042  -0.0081   0.0030   0.00    3.6
2173 248045.000   1551941.3054  -4514373.7685   4215782.9953   1   6   0.0051   0.0103   0.0095  -0.0042  -0.0081   0.0030   0.00    3.8
2173 248046.000   1551941.3033  -4514373.7667   4215782.9929   1   6   0.0051   0.0103   0.0095  -0.0042  -0.0081   0.0030   0.00    3.5
2173 248047.000   1551941.3033  -4514373.7686   4215782.9950   1   6   0.0051   0.0103   0.0095  -0.0042  -0.0081   0.0030   0.00    3.2
2173 248048.000   1551941.3036  -4514373.7670   4215782.9955   1   6   0.0051   0.0103   0.0095  -0.0042  -0.0081   0.0030   0.00    3.5
2173 248049.000   1551941.3036  -4514373.7677   4215782.9959   1   6   0.0051   0.0103   0.0095  -0.0042  -0.0081   0.0030   0.00    3.9
2173 248050.000   1551941.3029  -4514373.7669   4215782.9955   1   6   0.0051   0.0103   0.0095  -0.0042  -0.0081   0.0030   0.00    3.6
2173 248051.000   1551941.3033  -4514373.7682   4215782.9960   1   6   0.0051   0.0103   0.0095  -0.0042  -0.0081   0.0030   0.00    4.2
2173 248052.000   1551941.3040  -4514373.7699   4215782.9932   1   6   0.0051   0.0103   0.0095  -0.0042  -0.0081   0.0030   0.00    5.3
2173 248053.000   1551941.3032  -4514373.7708   4215782.9989   1   6   0.0051   0.0103   0.0095  -0.0042  -0.0081   0.0030   0.00    3.7
2173 248054.000   1551941.3026  -4514373.7715   4215783.0001   1   6   0.0051   0.0103   0.0095  -0.0042  -0.0081   0.0030   0.00    3.2
2173 248055.000   1551941.3031  -4514373.7727   4215782.9984   1   6   0.0051   0.0103   0.0095  -0.0042  -0.0081   0.0030   0.00    3.4
2173 248056.000   1551941.3021  -4514373.7685   4215782.9953   1   6   0.0051   0.0103   0.0095  -0.0042  -0.0081   0.0030   0.00    3.3
2173 248057.000   1551941.3027  -4514373.7703   4215782.9962   1   6   0.0051   0.0103   0.0095  -0.0042  -0.0081   0.0030   0.00    3.7
2173 248058.000   1551941.3007  -4514373.7656   4215782.9931   1   6   0.0051   0.0103   0.0095  -0.0042  -0.0081   0.0030   0.00    4.4
2173 248059.000   1551941.3020  -4514373.7706   4215783.0001   1   6   0.0051   0.0103   0.0095  -0.0042  -0.0081   0.0030   0.00    3.6
2173 248060.000   1551941.3012  -4514373.7672   4215782.9942   1   6   0.0051   0.0103   0.0095  -0.0042  -0.0081   0.0030   0.00    3.5
2173 248061.000   1551941.3011  -4514373.7669   4215782.9952   1   6   0.0051   0.0103   0.0095  -0.0042  -0.0081   0.0030   0.00    3.4
2173 248062.000   1551941.3023  -4514373.7681   4215782.9975   1   6   0.0051   0.0103   0.0095  -0.0042  -0.0081   0.0030   0.00    3.6
2173 248063.000   1551941.3015  -4514373.7663   4215782.9956   1   6   0.0051   0.0103   0.0095  -0.0042  -0.0081   0.0030   0.00    4.1
2173 248064.000   1551941.3001  -4514373.7675   4215782.9982   1   6   0.0051   0.0103   0.0095  -0.0042  -0.0081   0.0030   0.00    4.4
2173 248065.000   1551941.3008  -4514373.7677   4215782.9988   1   6   0.0051   0.0103   0.0095  -0.0042  -0.0081   0.0030   0.00    3.1
2173 248066.000   1551941.3018  -4514373.7655   4215782.9954   1   6   0.0051   0.0103   0.0095  -0.0042  -0.0081   0.0030   0.00    3.6
2173 248067.000   1551941.3008  -4514373.7684   4215782.9929   1   6   0.0051   0.0103   0.0095  -0.0042  -0.0081   0.0030   0.00    5.0
2173 248068.000   1551941.3018  -4514373.7702   4215782.9999   1   6   0.0051   0.0103   0.0094  -0.0042  -0.0081   0.0030   0.00    4.4
2173 248069.000   1551941.3018  -4514373.7691   4215782.9959   1   6   0.0051   0.0103   0.0094  -0.0042  -0.0081   0.0030   0.00    3.8
2173 248070.000   1551941.3025  -4514373.7669   4215782.9954   1   6   0.0051   0.0103   0.0094  -0.0042  -0.0081   0.0030   0.00    3.8
2173 248071.000   1551941.3014  -4514373.7692   4215783.0000   1   6   0.0051   0.0103   0.0094  -0.0042  -0.0081   0.0030   0.00    4.5
2173 248072.000   1551941.3026  -4514373.7704   4215782.9963   1   6   0.0051   0.0103   0.0094  -0.0042  -0.0081   0.0030   0.00    4.3
2173 248073.000   1551941.3027  -4514373.7710   4215782.9986   1   6   0.0051   0.0103   0.0094  -0.0042  -0.0081   0.0030   0.00    4.0
2173 248074.000   1551941.3006  -4514373.7709   4215782.9970   1   6   0.0051   0.0103   0.0094  -0.0042  -0.0081   0.0030   0.00    4.3
2173 248075.000   1551941.3025  -4514373.7715   4215783.0022   1   6   0.0051   0.0103   0.0094  -0.0042  -0.0081   0.0030   0.00    4.0
2173 248076.000   1551941.3026  -4514373.7707   4215782.9988   1   6   0.0051   0.0103   0.0094  -0.0042  -0.0081   0.0030   0.00    4.0
2173 248077.000   1551941.3024  -4514373.7717   4215782.9998   1   6   0.0051   0.0103   0.0094  -0.0042  -0.0081   0.0030   0.00    4.2
2173 248078.000   1551941.3017  -4514373.7710   4215782.9973   1   6   0.0051   0.0103   0.0094  -0.0042  -0.0081   0.0030   0.00    4.0
2173 248079.000   1551941.3021  -4514373.7722   4215783.0002   1   6   0.0051   0.0103   0.0094  -0.0042  -0.0081   0.0030   0.00    3.9
2173 248080.000   1551941.3025  -4514373.7708   4215782.9989   1   6   0.0051   0.0103   0.0094  -0.0042  -0.0081   0.0030   0.00    4.7
2173 248081.000   1551941.3016  -4514373.7712   4215782.9991   1   6   0.0051   0.0103   0.0094  -0.0042  -0.0081   0.0030   0.00    4.8
2173 248082.000   1551941.3023  -4514373.7706   4215782.9971   1   6   0.0051   0.0103   0.0094  -0.0042  -0.0081   0.0030   0.00    4.6
2173 248083.000   1551941.3024  -4514373.7734   4215783.0002   1   6   0.0051   0.0103   0.0094  -0.0042  -0.0081   0.0030   0.00    3.4
2173 248084.000   1551941.3011  -4514373.7754   4215782.9982   1   6   0.0051   0.0103   0.0094  -0.0042  -0.0081   0.0030   0.00    4.9
2173 248085.000   1551941.3011  -4514373.7736   4215783.0006   1   6   0.0051   0.0103   0.0094  -0.0042  -0.0081   0.0030   0.00    4.1
2173 248086.000   1551941.3008  -4514373.7723   4215783.0027   1   6   0.0051   0.0103   0.0094  -0.0042  -0.0081   0.0030   0.00    3.9
2173 248087.000   1551941.3006  -4514373.7733   4215783.0004   1   6   0.0051   0.0103   0.0094  -0.0042  -0.0081   0.0030   0.00    4.0
2173 248088.000   1551941.2997  -4514373.7732   4215783.0001   1   6   0.0051   0.0103   0.0094  -0.0042  -0.0081   0.0030   0.00    3.6
2173 248089.000   1551941.3004  -4514373.7723   4215783.0001   1   6   0.0051   0.0103   0.0094  -0.0042  -0.0081   0.0030   0.00    3.9
2173 248090.000   1551941.3010  -4514373.7734   4215783.0002   1   6   0.0051   0.0103   0.0094  -0.0042  -0.0081   0.0030   0.00    4.1
2173 248091.000   1551941.3018  -4514373.7714   4215783.0000   1   6   0.0051   0.0103   0.0094  -0.0042  -0.0081   0.0030   0.00    3.9
2173 248092.000   1551941.3012  -4514373.7749   4215783.0002   1   6   0.0051   0.0103   0.0094  -0.0042  -0.0081   0.0030   0.00    4.5
2173 248093.000   1551941.3007  -4514373.7762   4215783.0012   1   6   0.0051   0.0103   0.0094  -0.0042  -0.0081   0.0030   0.00    4.4
2173 248094.000   1551941.3017  -4514373.7744   4215783.0000   1   6   0.0051   0.0103   0.0094  -0.0042  -0.0081   0.0030   0.00    4.8
2173 248095.000   1551941.3021  -4514373.7769   4215783.0012   1   6   0.0051   0.0103   0.0094  -0.0042  -0.0081   0.0030   0.00    4.5
2173 248096.000   1551941.3017  -4514373.7734   4215783.0000   1   6   0.0051   0.0103   0.0094  -0.0042  -0.0081   0.0030   0.00    4.3
2173 248097.000   1551941.3030  -4514373.7725   4215783.0004   1   6   0.0051   0.0103   0.0094  -0.0042  -0.0081   0.0030   0.00    5.1
2173 248098.000   1551941.3034  -4514373.7741   4215783.0008   1   6   0.0051   0.0103   0.0094  -0.0042  -0.0081   0.0030   0.00    5.3
2173 248099.000   1551941.3033  -4514373.7765   4215783.0009   1   6   0.0051   0.0103   0.0094  -0.0042  -0.0081   0.0030   0.00    4.8
2173 248100.000   1551941.3045  -4514373.7768   4215782.9986   1   6   0.0051   0.0103   0.0094  -0.0042  -0.0081   0.0030   0.00    5.4
2173 248101.000   1551941.3054  -4514373.7769   4215782.9976   1   6   0.0051   0.0103   0.0094  -0.0042  -0.0080   0.0030   0.00    4.7
2173 248102.000   1551941.3039  -4514373.7764   4215783.0029   1   6   0.0051   0.0103   0.0094  -0.0042  -0.0080   0.0030   0.00    4.5
2173 248103.000   1551941.3037  -4514373.7769   4215782.9999   1   6   0.0051   0.0103   0.0094  -0.0042  -0.0080   0.0030   0.00    5.3
2173 248104.000   1551941.3043  -4514373.7785   4215782.9998   1   6   0.0051   0.0103   0.0094  -0.0042  -0.0080   0.0030   0.00    5.6
2173 248105.000   1551941.3044  -4514373.7742   4215782.9981   1   6   0.0051   0.0103   0.0094  -0.0042  -0.0080   0.0030   0.00    5.0
2173 248106.000   1551941.3039  -4514373.7753   4215782.9973   1   6   0.0051   0.0103   0.0094  -0.0042  -0.0080   0.0030   0.00    4.6
2173 248107.000   1551941.3049  -4514373.7758   4215783.0001   1   6   0.0051   0.0103   0.0094  -0.0042  -0.0080   0.0030   0.00    4.3
2173 248108.000   1551941.3040  -4514373.7766   4215782.9980   1   6   0.0051   0.0103   0.0094  -0.0042  -0.0080   0.0030   0.00    4.5
2173 248109.000   1551941.3038  -4514373.7793   4215783.0013   1   6   0.0051   0.0103   0.0094  -0.0042  -0.0080   0.0030   0.00    4.6
2173 248110.000   1551941.3038  -4514373.7786   4215783.0023   1   6   0.0051   0.0103   0.0094  -0.0042  -0.0080   0.0030   0.00    4.8
2173 248111.000   1551941.3050  -4514373.7815   4215783.0048   1   6   0.0051   0.0103   0.0094  -0.0042  -0.0080   0.0030   0.00    4.7
2173 248112.000   1551941.3019  -4514373.7795   4215783.0025   1   6   0.0051   0.0103   0.0094  -0.0042  -0.0080   0.0030   0.00    5.5
2173 248113.000   1551941.3030  -4514373.7809   4215783.0018   1   6   0.0051   0.0103   0.0094  -0.0042  -0.0080   0.0030   0.00    4.9
2173 248114.000   1551941.3021  -4514373.7778   4215783.0011   1   6   0.0051   0.0103   0.0094  -0.0042  -0.0080   0.0030   0.00    5.2
2173 248115.000   1551941.3035  -4514373.7818   4215783.0022   1   6   0.0051   0.0103   0.0094  -0.0042  -0.0080   0.0030   0.00    5.3
2173 248116.000   1551941.3038  -4514373.7826   4215783.0058   1   6   0.0051   0.0103   0.0094  -0.0042  -0.0080   0.0030   0.00    5.1
2173 248117.000   1551941.3036  -4514373.7812   4215783.0024   1   6   0.0051   0.0103   0.0094  -0.0042  -0.0080   0.0030   0.00    5.0
2173 248118.000   1551941.3041  -4514373.7830   4215783.0052   1   6   0.0051   0.0103   0.0094  -0.0042  -0.0080   0.0030   0.00    5.6
2173 248119.000   1551941.3037  -4514373.7821   4215783.0065   1   6   0.0051   0.0103   0.0094  -0.0042  -0.0080   0.0030   0.00    5.5
2173 248120.000   1551941.3030  -4514373.7802   4215783.0070   1   6   0.0051   0.0103   0.0094  -0.0042  -0.0080   0.0030   0.00    5.8
2173 248121.000   1551941.3045  -4514373.7814   4215783.0046   1   6   0.0051   0.0103   0.0094  -0.0042  -0.0080   0.0030   0.00    5.7
2173 248122.000   1551941.3041  -4514373.7835   4215783.0035   1   6   0.0051   0.0103   0.0094  -0.0042  -0.0080   0.0030   0.00    5.8
2173 248123.000   1551941.3040  -4514373.7815   4215783.0065   1   6   0.0051   0.0103   0.0094  -0.0042  -0.0080   0.0030   0.00    5.2
2173 248124.000   1551941.3048  -4514373.7829   4215783.0059   1   6   0.0051   0.0103   0.0094  -0.0042  -0.0080   0.0030   0.00    5.2
2173 248125.000   1551941.3034  -4514373.7817   4215783.0065   1   6   0.0051   0.0103   0.0094  -0.0042  -0.0080   0.0030   0.00    5.4
2173 248126.000   1551941.3045  -4514373.7864   4215783.0086   1   6   0.0051   0.0103   0.0094  -0.0042  -0.0080   0.0030   0.00    5.1
2173 248127.000   1551941.3041  -4514373.7836   4215783.0069   1   6   0.0051   0.0103   0.0094  -0.0042  -0.0080   0.0030   0.00    5.4
2173 248128.000   1551941.3040  -4514373.7848   4215783.0061   1   6   0.0051   0.0103   0.0094  -0.0042  -0.0080   0.0030   0.00    6.2
2173 248129.000   1551941.3047  -4514373.7864   4215783.0084   1   6   0.0051   0.0103   0.0094  -0.0042  -0.0080   0.0030   0.00    6.4
2173 248130.000   1551941.3034  -4514373.7863   4215783.0093   1   6   0.0051   0.0103   0.0094  -0.0042  -0.0080   0.0030   0.00    5.8
2173 248131.000   1551941.3045  -4514373.7852   4215783.0082   1   6   0.0051   0.0103   0.0094  -0.0042  -0.0080   0.0030   0.00    5.2
2173 248132.000   1551941.3053  -4514373.7863   4215783.0087   1   6   0.0051   0.0103   0.0094  -0.0042  -0.0080   0.0030   0.00    5.0
2173 248133.000   1551941.3045  -4514373.7831   4215783.0106   1   6   0.0051   0.0103   0.0094  -0.0042  -0.0080   0.0030   0.00    5.8
2173 248134.000   1551941.3060  -4514373.7857   4215783.0113   1   6   0.0051   0.0103   0.0094  -0.0042  -0.0080   0.0030   0.00    6.6
2173 248135.000   1551941.3056  -4514373.7847   4215783.0117   1   6   0.0051   0.0103   0.0093  -0.0042  -0.0080   0.0030   0.00    6.8
2173 248136.000   1551941.3042  -4514373.7829   4215783.0117   1   6   0.0051   0.0103   0.0093  -0.0042  -0.0080   0.0030   0.00    7.0
2173 248137.000   1551941.3035  -4514373.7863   4215783.0106   1   6   0.0051   0.0103   0.0093  -0.0042  -0.0080   0.0030   0.00    6.9
2173 248138.000   1551941.3051  -4514373.7870   4215783.0122   1   6   0.0051   0.0103   0.0093  -0.0042  -0.0080   0.0030   0.00    6.5
2173 248139.000   1551941.3048  -4514373.7872   4215783.0118   1   6   0.0051   0.0103   0.0093  -0.0042  -0.0080   0.0030   0.00    6.5
2173 248140.000   1551941.3047  -4514373.7855   4215783.0151   1   6   0.0051   0.0103   0.0093  -0.0042  -0.0080   0.0030   0.00    7.2
2173 248141.000   1551941.3058  -4514373.7870   4215783.0134   1   6   0.0051   0.0103   0.0093  -0.0042  -0.0080   0.0030   0.00    6.3
2173 248142.000   1551941.3053  -4514373.7858   4215783.0133   1   6   0.0051   0.0103   0.0093  -0.0043  -0.0080   0.0030   0.00    6.1
2173 248143.000   1551941.3044  -4514373.7871   4215783.0158   1   6   0.0051   0.0103   0.0093  -0.0043  -0.0080   0.0030   0.00    5.8
2173 248144.000   1551941.3049  -4514373.7884   4215783.0159   1   6   0.0051   0.0103   0.0093  -0.0043  -0.0080   0.0030   0.00    6.6
2173 248145.000   1551941.3047  -4514373.7894   4215783.0160   1   6   0.0051   0.0103   0.0093  -0.0043  -0.0080   0.0030   0.00    5.7
2173 248146.000   1551941.3049  -4514373.7891   4215783.0175   1   6   0.0051   0.0103   0.0093  -0.0043  -0.0080   0.0030   0.00    5.9
2173 248147.000   1551941.3056  -4514373.7901   4215783.0132   1   6   0.0051   0.0103   0.0093  -0.0043  -0.0080   0.0029   0.00    4.8
2173 248148.000   1551941.3050  -4514373.7908   4215783.0154   1   6   0.0051   0.0103   0.0093  -0.0043  -0.0080   0.0029   0.00    6.2
2173 248149.000   1551941.3044  -4514373.7908   4215783.0114   1   6   0.0051   0.0103   0.0093  -0.0043  -0.0080   0.0029   0.00    5.7
2173 248150.000   1551941.3026  -4514373.7889   4215783.0129   1   6   0.0051   0.0103   0.0093  -0.0043  -0.0080   0.0029   0.00    6.1
2173 248151.000   1551941.3037  -4514373.7877   4215783.0116   1   6   0.0051   0.0103   0.0093  -0.0043  -0.0080   0.0029   0.00    7.0
2173 248152.000   1551941.3057  -4514373.7911   4215783.0138   1   6   0.0051   0.0103   0.0093  -0.0043  -0.0080   0.0029   0.00    6.9
