% program   : rnx2rtkp ver.2.4.3 b31
% inp file  : ngs/21_08_29_06_57_53_mifw.obs
% inp file  : ngs/21_08_29_06_57_53_mifw_SW.obs
% inp file  : ngs/21_08_29_06_57_53_brdc.nav
% obs start : 2021/08/29 06:00:00.0 GPST (week2173  21600.0s)
% obs end   : 2021/08/29 06:59:59.0 GPST (week2173  25199.0s)
% ref pos   :   576224.6741  -4756536.8173   4195921.0743
%
% (x/y/z-ecef=WGS84,Q=1:fix,2:float,3:sbas,4:dgps,5:single,6:ppp,ns=# of satellites)
%  GPST              x-ecef(m)      y-ecef(m)      z-ecef(m)   Q  ns   sdx(m)   sdy(m)   sdz(m)  sdxy(m)  sdyz(m)  sdzx(m) age(s)  ratio
2173  25048.000    568227.6177  -4690530.8169   4270317.5444   2   4   0.9008   4.1961   1.2091  -1.4891  -2.0708   0.7375 -30.00    2.3
2173  25049.000    568227.6280  -4690530.8478   4270317.5499   2   4   0.6405   2.9897   0.8618  -1.0591  -1.4763   0.5244 -29.00    2.2
2173  25050.000    568227.6245  -4690530.8518   4270317.5507   2   4   0.5249   2.4513   0.7063  -0.8686  -1.2104   0.4300 -28.00    2.3
2173  25051.000    568227.6351  -4690530.8806   4270317.5619   2   4   0.4559   2.1296   0.6133  -0.7551  -1.0515   0.3737 -27.00    2.3
2173  25052.000    568227.6317  -4690530.8820   4270317.5629   2   4   0.4087   1.9098   0.5497  -0.6777  -0.9429   0.3353 -26.00    2.3
2173  25053.000    568227.6385  -4690530.8899   4270317.5645   2   4   0.3739   1.7474   0.5027  -0.6205  -0.8626   0.3070 -25.00    2.3
2173  25054.000    568227.6401  -4690530.9007   4270317.5672   2   4   0.3468   1.6210   0.4661  -0.5760  -0.8001   0.2849 -24.00    2.3
2173  25055.000    568227.6418  -4690530.8851   4270317.5649   2   4   0.3249   1.5190   0.4365  -0.5401  -0.7496   0.2671 -23.00    2.2
2173  25056.000    568227.6446  -4690530.8811   4270317.5625   2   4   0.3067   1.4344   0.4120  -0.5103  -0.7078   0.2523 -22.00    2.2
2173  25057.000    568227.6398  -4690530.8695   4270317.5596   2   4   0.2913   1.3627   0.3912  -0.4850  -0.6724   0.2398 -21.00    2.2
2173  25058.000    568227.6411  -4690530.8890   4270317.5602   2   4   0.2779   1.3010   0.3733  -0.4632  -0.6419   0.2290 -20.00    2.1
2173  25059.000    568227.6391  -4690530.8795   4270317.5580   2   4   0.2663   1.2470   0.3577  -0.4442  -0.6152   0.2195 -19.00    2.1
2173  25060.000    568227.6391  -4690530.8787   4270317.5565   2   4   0.2560   1.1993   0.3439  -0.4273  -0.5916   0.2111 -18.00    2.1
2173  25061.000    568227.6413  -4690530.8834   4270317.5579   2   4   0.2468   1.1567   0.3316  -0.4122  -0.5706   0.2036 -17.00    2.0
2173  25062.000    568227.6406  -4690530.8781   4270317.5556   2   4   0.2385   1.1184   0.3205  -0.3986  -0.5517   0.1969 -16.00    1.9
2173  25063.000    568227.6481  -4690530.8972   4270317.5592   2   4   0.2309   1.0837   0.3104  -0.3863  -0.5345   0.1908 -15.00    1.9
2173  25064.000    568227.6500  -4690530.8915   4270317.5610   2   4   0.2240   1.0521   0.3012  -0.3751  -0.5189   0.1852 -14.00    1.8
2173  25065.000    568227.6593  -4690530.9191   4270317.5686   2   4   0.2177   1.0231   0.2928  -0.3647  -0.5046   0.1801 -13.00    1.7
2173  25066.000    568227.6600  -4690530.9230   4270317.5687   2   4   0.2119   0.9964   0.2851  -0.3552  -0.4914   0.1754 -12.00    1.7
2173  25067.000    568227.6553  -4690530.9134   4270317.5678   2   4   0.2065   0.9717   0.2780  -0.3465  -0.4792   0.1710 -11.00    1.7
2173  25068.000    568227.6598  -4690530.9224   4270317.5672   2   4   0.2015   0.9488   0.2713  -0.3383  -0.4679   0.1670 -10.00    1.7
2173  25069.000    568227.6548  -4690530.9024   4270317.5640   2   4   0.1968   0.9274   0.2651  -0.3307  -0.4574   0.1632  -9.00    1.7
2173  25070.000    568227.6587  -4690530.9204   4270317.5705   2   4   0.1925   0.9076   0.2594  -0.3236  -0.4476   0.1597  -8.00    1.7
2173  25071.000    568227.6649  -4690530.9608   4270317.5808   2   4   0.1884   0.8889   0.2540  -0.3170  -0.4384   0.1564  -7.00    1.7
2173  25072.000    568227.6687  -4690530.9726   4270317.5835   2   4   0.1846   0.8715   0.2489  -0.3108  -0.4298   0.1533  -6.00    1.6
2173  25073.000    568227.6709  -4690530.9742   4270317.5843   2   4   0.1810   0.8551   0.2442  -0.3050  -0.4217   0.1504  -5.00    1.5
2173  25074.000    568227.6628  -4690530.9513   4270317.5784   2   4   0.1777   0.8398   0.2397  -0.2996  -0.4141   0.1477  -4.00    1.5
2173  25075.000    568227.6658  -4690530.9640   4270317.5771   2   4   0.1745   0.8253   0.2355  -0.2944  -0.4070   0.1452  -3.00    1.4
2173  25076.000    568227.6656  -4690530.9771   4270317.5859   2   4   0.1715   0.8116   0.2315  -0.2896  -0.4002   0.1428  -2.00    1.3
2173  25077.000    568227.6731  -4690530.9870   4270317.5871   2   4   0.1687   0.7987   0.2277  -0.2851  -0.3938   0.1406  -1.00    1.2
2173  25078.000    568227.6714  -4690530.9977   4270317.5878   2   4   0.1661   0.7866   0.2242  -0.2809  -0.3878   0.1384   0.00    1.2
2173  25079.000    568227.6848  -4690531.0370   4270317.5972   2   4   0.1636   0.7751   0.2208  -0.2769  -0.3821   0.1365   0.00    1.1
2173  25080.000    568227.6964  -4690531.0940   4270317.6201   2   4   0.1612   0.7641   0.2176  -0.2731  -0.3767   0.1346   0.00    1.1
2173  25081.000    568227.7034  -4690531.1058   4270317.6219   2   4   0.1590   0.7536   0.2145  -0.2694  -0.3715   0.1327   0.00    1.1
2173  25082.000    568227.6984  -4690531.0881   4270317.6186   2   4   0.1568   0.7436   0.2115  -0.2660  -0.3665   0.1310   0.00    1.1
2173  25083.000    568227.7065  -4690531.1133   4270317.6262   2   4   0.1547   0.7341   0.2087  -0.2627  -0.3618   0.1294   0.00    1.0
2173  25084.000    568227.7075  -4690531.1018   4270317.6239   2   4   0.1527   0.7249   0.2060  -0.2595  -0.3572   0.1278   0.00    1.0
2173  25085.000    568227.7024  -4690531.0829   4270317.6138   2   4   0.1508   0.7161   0.2034  -0.2565  -0.3529   0.1263   0.00    1.0
2173  25086.000    568227.7021  -4690531.0812   4270317.6135   2   4   0.1490   0.7077   0.2010  -0.2535  -0.3487   0.1248   0.00    1.0
2173  25087.000    568227.6998  -4690531.0872   4270317.6144   2   4   0.1472   0.6996   0.1986  -0.2507  -0.3447   0.1234   0.00    1.0
2173  25088.000    568227.6953  -4690531.0496   4270317.6081   2   4   0.1455   0.6918   0.1963  -0.2481  -0.3408   0.1221   0.00    1.0
2173  25089.000    568227.6905  -4690531.0378   4270317.6062   2   4   0.1439   0.6843   0.1941  -0.2455  -0.3371   0.1208   0.00    1.0
2173  25090.000    568227.6748  -4690530.9466   4270317.5818   2   5   0.1316   0.5919   0.1761  -0.2031  -0.2935   0.1008   0.00    1.2
2173  25091.000    568227.6606  -4690530.8994   4270317.5674   2   5   0.1237   0.5309   0.1644  -0.1742  -0.2648   0.0873   0.00    1.2
2173  25092.000    568227.6511  -4690530.8713   4270317.5603   2   5   0.1179   0.4866   0.1560  -0.1527  -0.2440   0.0773   0.00    1.2
2173  25093.000    568227.6417  -4690530.8368   4270317.5456   2   6   0.1135   0.4367   0.1464  -0.1351  -0.2199   0.0691   0.00    1.1
2173  25094.000    568227.6397  -4690530.8157   4270317.5373   2   6   0.1099   0.4000   0.1394  -0.1220  -0.2023   0.0632   0.00    1.0
2173  25095.000    568227.6418  -4690530.8038   4270317.5371   2   6   0.1068   0.3713   0.1338  -0.1118  -0.1885   0.0586   0.00    1.0
2173  25096.000    568227.6383  -4690530.7844   4270317.5273   2   6   0.1042   0.3481   0.1293  -0.1034  -0.1773   0.0550   0.00    1.0
2173  25097.000    568227.6378  -4690530.7772   4270317.5271   2   7   0.1017   0.3236   0.1251  -0.0979  -0.1662   0.0524   0.00    1.0
2173  25098.000    568227.6403  -4690530.7685   4270317.5256   2   7   0.0994   0.3038   0.1216  -0.0934  -0.1571   0.0504   0.00    1.0
2173  25099.000    568227.6398  -4690530.7628   4270317.5235   2   7   0.0973   0.2872   0.1186  -0.0895  -0.1496   0.0486   0.00    1.0
2173  25100.000    568227.6366  -4690530.7529   4270317.5230   2   7   0.0953   0.2731   0.1160  -0.0862  -0.1431   0.0471   0.00    1.0
2173  25101.000    568227.6367  -4690530.7392   4270317.5165   2   7   0.0934   0.2609   0.1137  -0.0832  -0.1376   0.0457   0.00    1.0
2173  25102.000    568227.6365  -4690530.7452   4270317.5210   2   7   0.0917   0.2502   0.1116  -0.0806  -0.1327   0.0446   0.00    1.0
2173  25103.000    568227.6353  -4690530.7340   4270317.5185   2   7   0.0901   0.2407   0.1097  -0.0783  -0.1284   0.0434   0.00    1.0
2173  25104.000    568227.6336  -4690530.7311   4270317.5182   2   7   0.0885   0.2322   0.1079  -0.0761  -0.1245   0.0425   0.00    1.1
2173  25105.000    568227.6325  -4690530.7296   4270317.5155   2   7   0.0870   0.2245   0.1063  -0.0742  -0.1210   0.0415   0.00    1.1
2173  25106.000    568227.6297  -4690530.7217   4270317.5095   2   7   0.0856   0.2176   0.1048  -0.0724  -0.1178   0.0407   0.00    1.1
2173  25107.000    568227.6271  -4690530.7129   4270317.5067   2   7   0.0843   0.2112   0.1033  -0.0707  -0.1148   0.0399   0.00    1.1
2173  25108.000    568227.6257  -4690530.7124   4270317.5036   2   7   0.0830   0.2054   0.1020  -0.0692  -0.1121   0.0392   0.00    1.1
2173  25109.000    568227.6243  -4690530.7081   4270317.4974   2   7   0.0818   0.2000   0.1007  -0.0677  -0.1096   0.0384   0.00    1.1
2173  25110.000    568227.6240  -4690530.7042   4270317.4991   2   7   0.0806   0.1949   0.0995  -0.0663  -0.1072   0.0378   0.00    1.1
2173  25111.000    568227.6251  -4690530.7008   4270317.4949   2   7   0.0795   0.1902   0.0983  -0.0650  -0.1050   0.0372   0.00    1.1
2173  25112.000    568227.6250  -4690530.7013   4270317.4993   2   7   0.0784   0.1859   0.0972  -0.0638  -0.1030   0.0365   0.00    1.1
2173  25113.000    568227.6280  -4690530.7044   4270317.5005   2   7   0.0774   0.1818   0.0961  -0.0626  -0.1010   0.0360   0.00    1.1
2173  25114.000    568227.6242  -4690530.7014   4270317.5031   2   7   0.0764   0.1779   0.0950  -0.0615  -0.0992   0.0354   0.00    1.1
2173  25115.000    568227.6263  -4690530.7044   4270317.5032   2   7   0.0754   0.1742   0.0940  -0.0605  -0.0974   0.0349   0.00    1.1
2173  25116.000    568227.6259  -4690530.7014   4270317.5040   2   7   0.0745   0.1708   0.0930  -0.0594  -0.0957   0.0343   0.00    1.2
2173  25117.000    568227.6235  -4690530.6973   4270317.5035   2   7   0.0736   0.1675   0.0921  -0.0585  -0.0942   0.0338   0.00    1.2
2173  25118.000    568227.6234  -4690530.6952   4270317.5064   2   7   0.0727   0.1644   0.0911  -0.0575  -0.0926   0.0334   0.00    1.2
2173  25119.000    568227.6208  -4690530.6881   4270317.5020   2   7   0.0719   0.1614   0.0902  -0.0566  -0.0912   0.0329   0.00    1.2
2173  25120.000    568227.6188  -4690530.6838   4270317.5002   2   7   0.0711   0.1585   0.0894  -0.0558  -0.0898   0.0325   0.00    1.2
2173  25121.000    568227.6137  -4690530.6814   4270317.4983   2   7   0.0703   0.1558   0.0885  -0.0549  -0.0884   0.0321   0.00    1.2
2173  25122.000    568227.6150  -4690530.6844   4270317.4943   2   7   0.0696   0.1532   0.0877  -0.0541  -0.0871   0.0316   0.00    1.2
2173  25123.000    568227.6167  -4690530.6975   4270317.4945   2   7   0.0689   0.1507   0.0869  -0.0533  -0.0859   0.0312   0.00    1.2
2173  25124.000    568227.6181  -4690530.7098   4270317.4929   2   7   0.0681   0.1483   0.0861  -0.0526  -0.0847   0.0308   0.00    1.1
2173  25125.000    568227.6215  -4690530.7275   4270317.4966   2   7   0.0674   0.1460   0.0853  -0.0518  -0.0835   0.0304   0.00    1.1
2173  25126.000    568227.6272  -4690530.7552   4270317.5033   2   7   0.0668   0.1438   0.0845  -0.0511  -0.0823   0.0300   0.00    1.1
2173  25127.000    568227.6344  -4690530.7768   4270317.5157   2   7   0.0661   0.1417   0.0837  -0.0504  -0.0813   0.0296   0.00    1.1
2173  25128.000    568227.6351  -4690530.7901   4270317.5223   2   7   0.0655   0.1396   0.0831  -0.0497  -0.0802   0.0293   0.00    1.1
2173  25129.000    568227.6382  -4690530.8027   4270317.5281   2   7   0.0649   0.1376   0.0824  -0.0491  -0.0791   0.0289   0.00    1.1
2173  25130.000    568227.6414  -4690530.8094   4270317.5316   2   7   0.0643   0.1356   0.0816  -0.0484  -0.0781   0.0286   0.00    1.1
2173  25131.000    568227.6423  -4690530.8203   4270317.5347   2   7   0.0637   0.1338   0.0809  -0.0478  -0.0771   0.0282   0.00    1.0
2173  25132.000    568227.6437  -4690530.8324   4270317.5362   2   7   0.0631   0.1319   0.0802  -0.0472  -0.0762   0.0278   0.00    1.0
2173  25133.000    568227.6427  -4690530.8346   4270317.5357   2   7   0.0625   0.1302   0.0796  -0.0466  -0.0752   0.0275   0.00    1.0
2173  25134.000    568227.6379  -4690530.8582   4270317.5496   2   7   0.0620   0.1285   0.0789  -0.0460  -0.0743   0.0272   0.00    1.0
2173  25135.000    568227.6434  -4690530.8789   4270317.5387   2   7   0.0615   0.1268   0.0782  -0.0454  -0.0734   0.0268   0.00    1.0
2173  25136.000    568227.6459  -4690530.8930   4270317.5236   2   7   0.0610   0.1252   0.0776  -0.0449  -0.0725   0.0265   0.00    1.0
2173  25137.000    568227.6513  -4690530.9167   4270317.5139   2   7   0.0604   0.1236   0.0770  -0.0443  -0.0717   0.0263   0.00    1.0
2173  25138.000    568227.6562  -4690530.9359   4270317.5029   2   7   0.0600   0.1220   0.0763  -0.0438  -0.0708   0.0259   0.00    1.0
2173  25139.000    568227.6604  -4690530.9537   4270317.4936   2   7   0.0595   0.1205   0.0757  -0.0432  -0.0700   0.0256   0.00    1.0
2173  25140.000    568227.6655  -4690530.9769   4270317.4862   2   7   0.0590   0.1191   0.0751  -0.0427  -0.0692   0.0253   0.00    1.0
2173  25141.000    568227.6742  -4690530.9867   4270317.4772   2   7   0.0586   0.1176   0.0746  -0.0422  -0.0684   0.0250   0.00    1.0
2173  25142.000    568227.6760  -4690531.0010   4270317.4722   2   7   0.0581   0.1162   0.0739  -0.0417  -0.0676   0.0247   0.00    1.1
2173  25143.000    568227.6791  -4690531.0105   4270317.4632   2   7   0.0576   0.1149   0.0734  -0.0412  -0.0668   0.0244   0.00    1.1
2173  25144.000    568227.6817  -4690531.0181   4270317.4548   2   7   0.0572   0.1135   0.0728  -0.0407  -0.0661   0.0241   0.00    1.1
2173  25145.000    568227.6833  -4690531.0150   4270317.4408   2   7   0.0568   0.1122   0.0722  -0.0402  -0.0654   0.0239   0.00    1.1
2173  25146.000    568227.6874  -4690531.0273   4270317.4295   2   7   0.0563   0.1110   0.0717  -0.0397  -0.0646   0.0236   0.00    1.2
2173  25147.000    568227.6884  -4690531.0293   4270317.4191   2   7   0.0559   0.1097   0.0711  -0.0393  -0.0639   0.0233   0.00    1.2
2173  25148.000    568227.6881  -4690531.0336   4270317.4060   2   7   0.0556   0.1085   0.0706  -0.0388  -0.0632   0.0230   0.00    1.2
2173  25149.000    568227.6885  -4690531.0470   4270317.3885   2   7   0.0551   0.1073   0.0700  -0.0384  -0.0625   0.0228   0.00    1.3
2173  25150.000    568227.6932  -4690531.0491   4270317.3725   2   7   0.0548   0.1061   0.0695  -0.0379  -0.0619   0.0225   0.00    1.3
2173  25151.000    568227.6963  -4690531.0642   4270317.3598   2   7   0.0544   0.1050   0.0690  -0.0375  -0.0612   0.0222   0.00    1.3
2173  25152.000    568227.7010  -4690531.0773   4270317.3543   2   7   0.0540   0.1038   0.0684  -0.0370  -0.0605   0.0219   0.00    1.4
2173  25153.000    568227.7061  -4690531.0826   4270317.3410   2   7   0.0537   0.1027   0.0679  -0.0366  -0.0599   0.0217   0.00    1.4
2173  25154.000    568227.7085  -4690531.0992   4270317.3416   2   7   0.0533   0.1017   0.0674  -0.0362  -0.0592   0.0214   0.00    1.4
2173  25155.000    568227.7158  -4690531.1016   4270317.3267   2   7   0.0530   0.1006   0.0669  -0.0358  -0.0586   0.0212   0.00    1.4
2173  25156.000    568227.7178  -4690531.1005   4270317.3131   2   7   0.0526   0.0995   0.0664  -0.0354  -0.0580   0.0209   0.00    1.5
2173  25157.000    568227.7174  -4690531.0945   4270317.2964   2   7   0.0522   0.0985   0.0659  -0.0350  -0.0574   0.0207   0.00    1.5
2173  25158.000    568227.7181  -4690531.0996   4270317.2795   2   7   0.0519   0.0975   0.0654  -0.0346  -0.0568   0.0204   0.00    1.5
2173  25159.000    568227.7174  -4690531.0941   4270317.2631   2   7   0.0516   0.0965   0.0650  -0.0342  -0.0562   0.0203   0.00    1.6
2173  25160.000    568227.7196  -4690531.0940   4270317.2517   2   7   0.0513   0.0956   0.0645  -0.0338  -0.0556   0.0200   0.00    1.6
2173  25161.000    568227.7209  -4690531.0889   4270317.2365   2   7   0.0510   0.0946   0.0640  -0.0334  -0.0550   0.0197   0.00    1.7
2173  25162.000    568227.7224  -4690531.0885   4270317.2249   2   7   0.0506   0.0936   0.0635  -0.0331  -0.0545   0.0195   0.00    1.7
2173  25163.000    568227.7239  -4690531.0920   4270317.2197   2   7   0.0504   0.0927   0.0631  -0.0327  -0.0539   0.0193   0.00    1.7
2173  25164.000    568227.7240  -4690531.0884   4270317.2155   2   7   0.0501   0.0918   0.0627  -0.0323  -0.0533   0.0192   0.00    1.7
2173  25165.000    568227.7240  -4690531.0798   4270317.2055   2   7   0.0497   0.0909   0.0621  -0.0320  -0.0528   0.0188   0.00    1.7
2173  25166.000    568227.7217  -4690531.0653   4270317.1923   2   7   0.0495   0.0900   0.0617  -0.0316  -0.0522   0.0186   0.00    1.7
2173  25167.000    568227.7222  -4690531.0570   4270317.1821   2   7   0.0491   0.0892   0.0613  -0.0312  -0.0517   0.0184   0.00    1.7
2173  25168.000    568227.7192  -4690531.0518   4270317.1751   2   7   0.0489   0.0883   0.0608  -0.0309  -0.0512   0.0181   0.00    1.7
2173  25169.000    568227.7211  -4690531.0411   4270317.1608   2   7   0.0486   0.0875   0.0604  -0.0305  -0.0506   0.0179   0.00    1.7
2173  25170.000    568227.7225  -4690531.0367   4270317.1521   2   7   0.0483   0.0867   0.0600  -0.0302  -0.0501   0.0178   0.00    1.7
2173  25171.000    568227.7186  -4690531.0267   4270317.1433   2   7   0.0480   0.0858   0.0595  -0.0298  -0.0496   0.0175   0.00    1.7
2173  25172.000    568227.7138  -4690531.0105   4270317.1301   2   7   0.0478   0.0851   0.0591  -0.0295  -0.0491   0.0173   0.00    1.7
2173  25173.000    568227.7154  -4690530.9951   4270317.1154   2   7   0.0475   0.0843   0.0587  -0.0292  -0.0486   0.0171   0.00    1.7
2173  25174.000    568227.7124  -4690530.9873   4270317.1106   2   7   0.0473   0.0835   0.0583  -0.0288  -0.0481   0.0169   0.00    1.7
2173  25175.000    568227.7112  -4690530.9703   4270317.1033   2   7   0.0470   0.0827   0.0579  -0.0285  -0.0477   0.0167   0.00    1.7
2173  25176.000    568227.7054  -4690530.9565   4270317.0924   2   7   0.0468   0.0820   0.0575  -0.0282  -0.0472   0.0164   0.00    1.7
2173  25177.000    568227.7022  -4690530.9361   4270317.0803   2   7   0.0465   0.0812   0.0571  -0.0279  -0.0467   0.0163   0.00    1.7
2173  25178.000    568227.6996  -4690530.9270   4270317.0713   2   7   0.0463   0.0805   0.0567  -0.0275  -0.0462   0.0161   0.00    1.7
2173  25179.000    568227.6966  -4690530.9122   4270317.0619   2   7   0.0460   0.0798   0.0563  -0.0273  -0.0458   0.0158   0.00    1.6
2173  25180.000    568227.6930  -4690530.8952   4270317.0467   2   7   0.0458   0.0790   0.0559  -0.0270  -0.0453   0.0157   0.00    1.6
2173  25181.000    568227.6909  -4690530.8833   4270317.0392   2   7   0.0455   0.0784   0.0555  -0.0267  -0.0449   0.0154   0.00    1.6
2173  25182.000    568227.6888  -4690530.8701   4270317.0307   2   7   0.0453   0.0777   0.0551  -0.0263  -0.0444   0.0153   0.00    1.6
2173  25183.000    568227.6875  -4690530.8587   4270317.0275   2   7   0.0450   0.0770   0.0547  -0.0261  -0.0440   0.0151   0.00    1.6
2173  25184.000    568227.6833  -4690530.8440   4270317.0216   2   7   0.0448   0.0763   0.0544  -0.0257  -0.0436   0.0149   0.00    1.6
2173  25185.000    568227.6820  -4690530.8304   4270317.0150   2   7   0.0446   0.0757   0.0540  -0.0254  -0.0431   0.0148   0.00    1.6
2173  25186.000    568227.6771  -4690530.8165   4270317.0096   2   7   0.0445   0.0750   0.0536  -0.0252  -0.0427   0.0144   0.00    1.6
2173  25187.000    568227.6774  -4690530.8110   4270317.0029   2   7   0.0442   0.0744   0.0533  -0.0249  -0.0423   0.0143   0.00    1.6
2173  25188.000    568227.6767  -4690530.8046   4270316.9951   2   7   0.0440   0.0737   0.0529  -0.0246  -0.0419   0.0142   0.00    1.6
2173  25189.000    568227.6776  -4690530.8012   4270316.9925   2   7   0.0438   0.0731   0.0525  -0.0244  -0.0415   0.0139   0.00    1.6
2173  25190.000    568227.6790  -4690530.7978   4270316.9856   2   7   0.0436   0.0725   0.0522  -0.0241  -0.0411   0.0138   0.00    1.6
2173  25191.000    568227.6783  -4690530.7959   4270316.9836   2   7   0.0434   0.0719   0.0518  -0.0238  -0.0407   0.0137   0.00    1.6
2173  25192.000    568227.6770  -4690530.7857   4270316.9764   2   7   0.0432   0.0713   0.0515  -0.0235  -0.0403   0.0134   0.00    1.5
2173  25193.000    568227.6770  -4690530.7775   4270316.9678   2   7   0.0430   0.0707   0.0511  -0.0232  -0.0399   0.0133   0.00    1.5
2173  25194.000    568227.6727  -4690530.7688   4270316.9607   2   7   0.0428   0.0701   0.0508  -0.0230  -0.0395   0.0131   0.00    1.5
2173  25195.000    568227.6702  -4690530.7663   4270316.9532   2   7   0.0426   0.0695   0.0505  -0.0227  -0.0392   0.0130   0.00    1.5
2173  25196.000    568227.6693  -4690530.7686   4270316.9483   2   7   0.0424   0.0689   0.0501  -0.0224  -0.0387   0.0130   0.00    1.5
2173  25197.000    568227.6709  -4690530.7705   4270316.9490   2   7   0.0422   0.0684   0.0498  -0.0222  -0.0384   0.0126   0.00    1.5
2173  25198.000    568227.6731  -4690530.7774   4270316.9496   2   7   0.0420   0.0678   0.0495  -0.0219  -0.0380   0.0125   0.00    1.5
2173  25199.000    568227.6748  -4690530.7775   4270316.9514   2   7   0.0418   0.0673   0.0491  -0.0217  -0.0377   0.0123   0.00    1.5
