     2.11           OBSERVATION DATA    M (MIXED)           RINEX VERSION / TYPE
CONVBIN 2.4.3                           20210901 191213 UTC PGM / RUN BY / DATE 
log: logs/21_09_01_10_12_33_pin1_SNCA.rtcm                  COMMENT             
format: RTCM 3, station ID: 2369                            COMMENT             
2369                                                        MARKER NAME         
                                                            MARKER NUMBER       
                                                            OBSERVER / AGENCY   
                    TRIMBLE NETR9                           REC # / TYPE / VERS 
                    GPPNULLANTENNA                          ANT # / TYPE        
 -2369043.6199 -4760271.1192  3510700.5672                  APPROX POSITION XYZ 
        0.0083        0.0000        0.0000                  ANTENNA: DELTA H/E/N
     1     1                                                WAVELENGTH FACT L1/2
     5    C1    L1    P2    L2    P1                        # / TYPES OF OBSERV 
  2021     9     1    10    12   40.0000000     GPS         TIME OF FIRST OBS   
  2021     9     1    10    42   37.0000000     GPS         TIME OF LAST OBS    
                                                            END OF HEADER       
 21  9  1 10 12 40.0000000  0  9G 1G 6G13G14G15G17G19G24G30
  23598662.709   124011809.821    23598668.945    96632604.430                  
  22885677.132   120265045.964    22885684.672    93713052.763                  
  22296383.629   117168284.873    22296388.150    91299982.670                  
  21420162.007   112563709.738    21420167.100    87712004.208                  
  23522426.971   123611184.784    23522432.617    96320428.908                  
  20752604.793   109055675.433    20752610.172    84978469.417                  
  20174183.394   106016049.843    20174186.182    82609920.029                  
  23373348.393   122827776.075    23373356.380    95709986.204                  
  22321142.876   117298397.316    22321150.506    91401379.909                  
 21  9  1 10 12 41.0000000  0  9G 1G 6G13G14G15G17G19G24G30
  23599105.450   124014140.424    23599112.544    96634420.508                  
  22885042.245   120261711.301    22885050.197    93710454.324                  
  22296811.646   117170533.688    22296816.024    91301735.002                  
  21420396.538   112564941.012    21420401.470    87712963.640                  
  23522694.631   123612588.316    23522699.759    96321522.553                  
  20752892.735   109057186.498    20752897.702    84979646.877                  
  20174068.961   106015447.647    20174071.641    82609450.785                  
  23372755.606   122824657.986    23372762.985    95707556.547                  
  22321697.798   117301315.384    22321705.607    91403653.728                  
 21  9  1 10 12 42.0000000  0  9G 1G 6G13G14G15G17G19G24G30
  23599549.174   124016471.535    23599556.125    96636236.949                  
  22884408.074   120258376.832    22884415.704    93707856.032                  
  22297238.894   117172782.896    22297244.184    91303487.624                  
  21420630.801   112566172.436    21420635.876    87713923.191                  
  23522960.844   123613992.306    23522966.830    96322616.591                  
  20753180.176   109058697.909    20753185.322    84980824.595                  
  20173954.474   106014845.985    20173957.208    82608981.963                  
  23372161.586   122821540.126    23372169.537    95705127.011                  
  22322253.257   117304233.813    22322260.780    91405927.834                  
 21  9  1 10 12 43.0000000  0  9G 1G 6G13G14G15G17G19G24G30
  23599992.629   124018803.268    23599999.777    96638053.897                  
  22883773.437   120255042.588    22883781.318    93705257.922                  
  22297667.304   117175032.561    22297672.129    91305240.610                  
  21420865.153   112567404.086    21420870.264    87714882.918                  
  23523229.147   123615396.703    23523233.972    96323710.914                  
  20753468.332   109060209.731    20753473.013    84982002.643                  
  20173839.916   106014244.914    20173842.900    82608513.590                  
  23371568.477   122818422.559    23371576.232    95702697.741                  
  22322808.680   117307152.627    22322816.203    91408202.232                  
 21  9  1 10 12 44.0000000  0 14G 1G 6G13G14G15G17G19G24G30R13R14R15
                                R17R24
  23600435.566   124021135.477    23600443.429    96639871.201                  
  22883139.123   120251708.474    22883146.842    93702659.906                  
  22298094.642   117177282.608    22298100.342    91306993.885                  
  21421099.166   112568635.853    21421104.598    87715842.734                  
  23523496.289   123616801.547    23523501.346    96324805.599                  
  20753755.451   109061721.876    20753760.883    84983180.938                  
  20173725.715   106013644.373    20173728.520    82608045.641                  
  23370975.315   122815305.189    23370983.016    95700268.637                  
  22323363.799   117310071.772    22323371.840    91410476.886                  
                 121382824.299    22731108.135    94408881.211    22731104.025  
                 105486187.676    19788944.628    82044830.406    19788940.321  
                 113179791.425    21180057.947    88028739.484    21180054.874  
                 105506171.676    19716353.241    82060368.958    19716350.006  
                 106510820.228    19918062.667    82841757.980    19918060.648  
 21  9  1 10 12 45.0000000  0 14G 1G 6G13G14G15G17G19G24G30R13R14R15
                                R17R24
  23600880.505   124023468.299    23600887.295    96641688.970                  
  22882504.272   120248374.618    22882512.313    93700062.103                  
  22298523.338   117179533.087    22298528.591    91308747.500                  
  21421333.679   112569867.848    21421338.986    87716802.729                  
  23523763.681   123618206.846    23523768.791    96325900.644                  
  20754043.017   109063234.408    20754048.628    84984359.539                  
  20173611.675   106013044.410    20173614.462    82607578.135                  
  23370381.902   122812188.097    23370389.908    95697839.728                  
  22323919.508   117312991.302    22323927.442    91412751.844                  
                 121385472.198    22731604.001    94410940.716    22731600.069  
                 105486175.412    19788942.305    82044820.860    19788938.052  
                 113177100.785    21179554.416    88026646.764    21179551.182  
                 105503721.842    19715895.383    82058463.534    19715892.327  
                 106512595.027    19918394.459    82843138.373    19918392.279  
 21  9  1 10 12 46.0000000  0 14G 1G 6G13G14G15G17G19G24G30R13R14R15
                                R17R24
  23601323.603   124025801.632    23601331.484    96643507.144                  
  22881869.832   120245040.932    22881877.963    93697464.419                  
  22298951.819   117181783.976    22298956.965    91310501.448                  
  21421568.836   112571100.047    21421573.571    87717762.883                  
  23524031.538   123619612.614    23524036.309    96326996.050                  
  20754331.638   109064747.328    20754336.498    84985538.430                  
  20173497.563   106012445.011    20173500.297    82607111.076                  
  23369789.026   122809071.235    23369796.728    95695410.997                  
  22324475.199   117315911.198    22324483.132    91415027.088                  
                 121388120.482    22732099.991    94413000.506    22732096.006  
                 105486163.583    19788940.035    82044811.662    19788935.800  
                 113174410.255    21179050.956    88024554.129    21179047.793  
                 105501272.738    19715437.650    82056558.687    19715434.541  
                 106514370.642    19918726.573    82844519.408    19918724.536  
 21  9  1 10 12 47.0000000  0 14G 1G 6G13G14G15G17G19G24G30R13R14R15
                                R17R24
  23601768.810   124028135.516    23601775.672    96645325.749                  
  22881235.804   120241707.445    22881243.648    93694866.902                  
  22299379.871   117184035.270    22299385.375    91312255.694                  
  21421803.027   112572332.395    21421808.102    87718723.152                  
  23524298.822   123621018.822    23524303.915    96328091.803                  
  20754619.079   109066260.584    20754624.547    84986717.591                  
  20173383.487   106011846.158    20173386.257    82606644.430                  
  23369196.454   122805954.610    23369203.780    95692982.469                  
  22325031.015   117318831.453    22325038.788    91417302.609                  
                 121390769.008    22732595.928    94415060.459    22732591.782  
                 105486152.171    19788937.802    82044802.781    19788933.692  
                 113171719.778    21178547.532    88022461.555    21178544.423  
                 105498824.377    19714980.167    82054654.395    19714977.147  
                 106516147.033    19919058.687    82845901.046    19919056.775  
 21  9  1 10 12 48.0000000  0 14G 1G 6G13G14G15G17G19G24G30R13R14R15
                                R17R24
  23602212.534   124030470.007    23602220.092    96647144.835                  
  22880601.650   120238374.179    22880609.441    93692269.547                  
  22299808.692   117186286.975    22299813.856    91314010.274                  
  21422038.183   112573564.928    21422042.597    87719683.570                  
  23524566.268   123622425.464    23524571.593    96329187.877                  
  20754907.270   109067774.232    20754912.560    84987897.059                  
  20173269.733   106011247.876    20173272.467    82606178.241                  
  23368602.898   122802838.217    23368610.814    95690554.109                  
  22325587.009   117321752.068    22325594.407    91419578.413                  
                 121393417.930    22733091.901    94417120.734    22733087.987  
                 105486141.220    19788935.729    82044794.271    19788931.726  
                 113169029.442    21178043.947    88020369.058    21178040.910  
                 105496376.764    19714522.774    82052750.700    19714519.825  
                 106517924.230    19919391.104    82847283.310    19919389.174  
 21  9  1 10 12 49.0000000  0 14G 1G 6G13G14G15G17G19G24G30R13R14R15
                                R17R24
  23602657.222   124032804.966    23602664.548    96648964.292                  
  22879967.139   120235041.068    22879975.162    93689672.327                  
  22300236.441   117188539.044    22300242.373    91315765.140                  
  21422272.768   112574797.619    21422277.217    87720644.120                  
  23524833.982   123623832.591    23524839.307    96330284.337                  
  20755195.283   109069288.205    20755200.626    84989076.778                  
  20173156.193   106010650.120    20173158.641    82605712.453                  
  23368010.719   122799722.026    23368017.866    95688125.906                  
  22326142.182   117324673.021    22326150.330    91421854.485                  
                 121396067.052    22733588.034    94419181.193    22733583.728  
                 105486130.680    19788933.924    82044786.066    19788929.582  
                 113166339.192    21177540.666    88018276.634    21177537.468  
                 105493929.865    19714065.559    82050847.559    19714062.468  
                 106519702.147    19919723.504    82848666.137    19919721.592  
 21  9  1 10 12 50.0000000  0 14G 1G 6G13G14G15G17G19G24G30R13R14R15
                                R17R24
  23603101.482   124035140.496    23603108.987    96650784.179                  
  22879332.860   120231708.212    22879340.973    93687075.292                  
  22300665.673   117190791.582    22300670.944    91317520.362                  
  21422507.102   112576030.519    21422511.820    87721604.816                  
  23525102.303   123625240.126    23525107.235    96331381.129                  
  20755483.689   109070802.582    20755488.800    84990256.815                  
  20173042.278   106010052.957    20173045.084    82605247.128                  
  23367417.146   122796606.158    23367424.954    95685697.955                  
  22326698.409   117327594.382    22326706.128    91424130.870                  
                 121398716.607    22734084.150    94421241.943    22734080.093  
                 105486120.613    19788931.994    82044778.245    19788927.777  
                 113163649.092    21177037.171    88016184.330    21177034.222  
                 105491483.775    19713608.505    82048945.036    19713605.324  
                 106521480.873    19920055.993    82850049.584    19920054.188  
 21  9  1 10 12 51.0000000  0 14G 1G 6G13G14G15G17G19G24G30R13R14R15
                                R17R24
  23603546.349   124037476.587    23603553.586    96652604.503                  
  22878698.510   120228375.509    22878706.622    93684478.378                  
  22301093.975   117193044.511    22301099.818    91319275.891                  
  21422741.419   112577263.600    21422746.297    87722565.659                  
  23525369.516   123626648.112    23525375.127    96332478.261                  
  20755771.577   109072317.315    20755777.134    84991437.126                  
  20172928.685   106009456.343    20172931.669    82604782.239                  
  23366824.269   122793490.470    23366832.078    95683270.141                  
  22327254.511   117330516.083    22327262.105    91426407.522                  
                 121401366.447    22734580.194    94423302.940    22734576.370  
                 105486110.966    19788930.154    82044770.733    19788925.919  
                 113160959.048    21176533.586    88014092.085    21176530.870  
                 105489038.379    19713151.505    82047043.075    19713148.503  
                 106523260.328    19920388.893    82851433.615    19920387.070  
 21  9  1 10 12 52.0000000  0 14G 1G 6G13G14G15G17G19G24G30R13R14R15
                                R17R24
  23603990.823   124039813.253    23603998.078    96654425.312                  
  22878064.517   120225043.021    22878072.540    93681881.647                  
  22301522.778   117195297.844    22301528.586    91321031.742                  
  21422976.414   112578496.846    21422981.114    87723526.644                  
  23525637.873   123628056.545    23525643.055    96333575.730                  
  20756060.144   109073832.418    20756065.380    84992617.730                  
  20172815.360   106008860.271    20172818.111    82604317.765                  
  23366230.839   122790375.048    23366239.309    95680842.542                  
  22327810.702   117333438.128    22327818.064    91428684.433                  
                 121404016.574    22735076.613    94425364.191    22735072.771  
                 105486101.756    19788928.349    82044763.570    19788924.078  
                 113158269.139    21176030.269    88011999.926    21176027.303  
                 105486593.757    19712694.612    82045141.702    19712691.503  
                 106525040.562    19920721.792    82852818.244    19920720.041  
 21  9  1 10 12 53.0000000  0 14G 1G 6G13G14G15G17G19G24G30R13R14R15
                                R17R24
  23604435.458   124042150.394    23604442.802    96656246.456                  
  22877430.452   120221710.702    22877438.404    93679285.026                  
  22301951.349   117197551.574    22301957.371    91322787.889                  
  21423210.731   112579730.274    21423215.823    87724487.752                  
  23525906.248   123629465.391    23525911.073    96334673.546                  
  20756347.943   109075347.885    20756353.625    84993798.611                  
  20172702.124   106008264.766    20172704.840    82603853.735                  
  23365639.499   122787259.867    23365646.451    95678415.130                  
  22328366.571   117336360.551    22328374.344    91430961.648                  
                 121406667.077    22735572.961    94427425.638    22735569.030  
                 105486092.957    19788926.723    82044756.726    19788922.434  
                 113155579.349    21175527.006    88009907.872    21175523.843  
                 105484149.873    19712237.969    82043240.903    19712234.913  
                 106526821.590    19921054.853    82854203.489    19921053.102  
 21  9  1 10 12 54.0000000  0 14G 1G 6G13G14G15G17G19G24G30R13R14R15
                                R17R24
  23604880.182   124044488.137    23604887.616    96658068.042                  
  22876797.067   120218378.577    22876804.322    93676688.556                  
  22302380.080   117199805.735    22302386.388    91324544.371                  
  21423445.798   112580963.864    21423450.569    87725448.976                  
  23526174.873   123630874.686    23526179.287    96335771.677                  
  20756636.795   109076863.700    20756642.263    84994979.764                  
  20172589.084   106007669.812    20172591.568    82603390.137                  
  23365045.873   122784144.918    23365053.735    95675987.902                  
  22328922.477   117339283.308    22328930.500    91433239.117                  
                 121409317.797    22736069.452    94429487.314    22736064.841  
                 105486084.608    19788925.275    82044750.232    19788920.772  
                 113152889.648    21175023.636    88007815.880    21175020.669  
                 105481706.730    19711781.469    82041340.676    19711778.253  
                 106528603.452    19921388.093    82855589.381    19921386.324  
 21  9  1 10 12 55.0000000  0 14G 1G 6G13G14G15G17G19G24G30R13R14R15
                                R17R24
  23605326.014   124046826.438    23605332.554    96659890.095                  
  22876161.841   120215046.693    22876170.097    93674092.280                  
  22302810.223   117202060.313    22302815.423    91326301.173                  
  21423680.489   112582197.673    21423685.368    87726410.384                  
  23526442.623   123632284.469    23526447.697    96336870.209                  
  20756925.183   109078379.918    20756930.776    84996161.226                  
  20172475.777   106007075.434    20172478.475    82602926.983                  
  23364453.264   122781030.200    23364460.966    95673560.838                  
  22329478.972   117342206.471    22329486.763    91435516.908                  
                 121411968.905    22736565.907    94431549.317    22736561.672  
                 105486076.749    19788923.721    82044744.125    19788919.325  
                 113150200.088    21174520.194    88005723.998    21174517.371  
                 105479264.334    19711324.951    82039441.046    19711321.896  
                 106530386.155    19921721.529    82856975.914    19921719.563  
 21  9  1 10 12 56.0000000  0 14G 1G 6G13G14G15G17G19G24G30R13R14R15
                                R17R24
  23605770.828   124049165.229    23605777.707    96661712.531                  
  22875528.366   120211714.979    22875536.086    93671496.146                  
  22303239.044   117204315.287    22303244.726    91328058.298                  
  21423915.092   112583431.647    21423920.042    87727371.924                  
  23526710.908   123633694.659    23526716.054    96337969.079                  
  20757213.643   109079896.479    20757219.379    84997342.961                  
  20172362.541   106006481.598    20172365.561    82602464.252                  
  23363860.745   122777915.735    23363868.340    95671134.000                  
  22330035.038   117345129.974    22330043.168    91437794.963                  
                 121414620.347    22737062.415    94433611.512    22737058.645  
                 105486069.305    19788922.291    82044738.337    19788917.913  
                 113147510.617    21174016.913    88003632.194    21174014.125  
                 105476822.718    19710868.594    82037542.014    19710865.610  
                 106532169.608    19922054.947    82858363.053    19922053.106  
 21  9  1 10 12 57.0000000  0 14G 1G 6G13G14G15G17G19G24G30R13R14R15
                                R17R24
  23606215.266   124051504.706    23606222.968    96663535.487                  
  22874894.284   120208383.532    22874902.075    93668900.218                  
  22303667.758   117206570.722    22303673.762    91329815.780                  
  21424149.998   112584665.852    21424154.894    87728333.641                  
  23526979.480   123635105.342    23526984.483    96339068.304                  
  20757502.442   109081413.469    20757507.910    84998525.036                  
  20172249.984   106005888.379    20172252.610    82602002.007                  
  23363268.655   122774801.566    23363275.642    95668707.387                  
  22330592.015   117348053.876    22330599.467    91440073.326                  
                 121417272.141    22737559.031    94435674.049    22737554.564  
                 105486062.348    19788920.951    82044732.926    19788916.627  
                 113144821.314    21173513.685    88001540.511    21173511.005  
                 105474381.896    19710412.648    82035643.590    19710409.628  
                 106533953.873    19922388.633    82859750.818    19922386.810  
 21  9  1 10 12 58.0000000  0 14G 1G 6G13G14G15G17G19G24G30R13R14R15
                                R17R24
  23606660.830   124053844.529    23606668.228    96665358.735                  
  22874260.595   120205052.161    22874268.332    93666304.340                  
  22304097.758   117208826.467    22304102.976    91331573.504                  
  21424385.297   112585900.128    21424389.836    87729295.412                  
  23527247.658   123636516.375    23527253.019    96340167.810                  
  20757791.760   109082930.708    20757796.727    84999707.302                  
  20172136.766   106005295.597    20172139.678    82601540.095                  
  23362675.636   122771687.536    23362683.070    95666280.858                  
  22331148.135   117350978.057    22331155.854    91442351.908                  
                 121419924.164    22738055.719    94437736.713    22738051.216  
                 105486055.719    19788919.718    82044727.766    19788915.376  
                 113142131.983    21173010.333    87999448.810    21173007.742  
                 105471941.673    19709956.559    82033745.643    19709953.414  
                 106535738.769    19922722.408    82861139.069    19922720.657  
 21  9  1 10 12 59.0000000  0 13G 1G 6G13G14G15G17G19G24G30R14R15R17
                                R24
  23607105.912   124056185.010    23607113.667    96667182.509                  
  22873626.816   120201721.069    22873634.464    93663708.682                  
  22304527.043   117211082.688    22304532.565    91333331.596                  
  21424620.007   112587134.683    21424624.867    87730257.407                  
  23527516.783   123637927.930    23527521.733    96341267.713                  
  20758080.058   109084448.416    20758085.383    85000889.928                  
  20172024.298   106004703.481    20172027.157    82601078.710                  
  23362083.081   122768573.827    23362090.533    95663854.573                  
  22331705.202   117353902.675    22331712.332    91444630.836                  
                 105486049.620    19788918.610    82044723.020    19788914.179  
                 113139442.865    21172507.123    87997357.266    21172504.747  
                 105469502.286    19709500.613    82031848.345    19709497.558  
                 106537524.488    19923056.416    82862527.953    19923054.343  
 21  9  1 10 13  0.0000000  0 13G 1G 6G13G14G15G17G19G24G30R14R15R17
                                R24
  23607551.494   124058526.002    23607559.213    96669006.651                  
  22872992.895   120198390.150    22873000.561    93661113.163                  
  22304956.239   117213339.323    22304962.047    91335090.013                  
  21424855.074   112588369.384    21424859.934    87731219.512                  
  23527785.122   123639339.922    23527790.394    96342367.969                  
  20758369.179   109085966.433    20758374.397    85002072.805                  
  20171911.455   106004111.888    20171914.564    82600617.726                  
  23361491.724   122765460.325    23361498.014    95661428.463                  
  22332261.161   117356827.630    22332269.077    91446910.017                  
                 105486043.944    19788917.556    82044718.612    19788913.071  
                 113136753.824    21172003.824    87995265.797    21172001.305  
                 105467063.634    19709044.953    82029951.613    19709041.916  
                 106539310.963    19923390.460    82863917.433    19923388.458  
 21  9  1 10 13  1.0000000  0 13G 1G 6G13G14G15G17G19G24G30R14R15R17
                                R24
  23607996.575   124060867.598    23608004.652    96670831.278                  
  22872358.491   120195059.443    22872366.747    93658517.807                  
  22305385.578   117215596.343    22305391.475    91336848.731                  
  21425090.069   112589604.259    21425094.715    87732181.750                  
  23528054.087   123640752.324    23528059.090    96343468.545                  
  20758657.907   109087484.837    20758663.285    85003255.965                  
  20171799.309   106003520.852    20171802.061    82600157.183                  
  23360898.222   122762347.054    23360905.691    95659002.547                  
  22332817.834   117359752.938    22332825.840    91449189.480                  
                 105486038.708    19788916.573    82044714.537    19788912.124  
                 113134064.908    21171500.722    87993174.418    21171498.435  
                 105464625.726    19708589.311    82028055.460    19708586.255  
                 106541098.259    19923724.592    82865307.562    19923723.038  
 21  9  1 10 13  2.0000000  0 13G 1G 6G13G14G15G17G19G24G30R14R15R17
                                R24
  23608443.498   124063209.722    23608450.484    96672656.297                  
  22871724.659   120191728.926    22871733.075    93655922.606                  
  22305815.936   117217853.784    22305820.975    91338607.772                  
  21425325.083   112590839.324    21425329.854    87733144.141                  
  23528322.408   123642165.173    23528327.983    96344569.466                  
  20758947.153   109089003.590    20758952.335    85004439.423                  
  20171686.663   106002930.376    20171689.665    82599697.065                  
  23360306.025   122759234.068    23360313.333    95656576.839                  
  22333375.044   117362678.627    22333382.549    91451469.247                  
                 105486033.913    19788915.769    82044710.805    19788911.177  
                 113131376.126    21170997.477    87991083.143    21170995.118  
                 105462188.589    19708133.990    82026159.912    19708130.738  
                 106542886.415    19924059.011    82866698.348    19924057.189  
 21  9  1 10 13  3.0000000  0 13G 1G 6G13G14G15G17G19G24G30R14R15R17
                                R24
  23608888.722   124065552.398    23608896.084    96674481.747                  
  22871091.452   120188398.600    22871099.422    93653327.537                  
  22306244.382   117220111.622    22306250.546    91340367.124                  
  21425559.971   112592074.557    21425565.046    87734106.657                  
  23528591.802   123643578.492    23528597.073    96345670.751                  
  20759236.095   109090522.698    20759241.313    85005623.141                  
  20171574.713   106002340.434    20171577.394    82599237.377                  
  23359714.167   122756121.270    23359721.082    95654151.286                  
  22333931.664   117365604.653    22333939.223    91453749.258                  
                 105486029.546    19788914.858    82044707.406    19788910.337  
                 113128687.425    21170494.303    87988991.931    21170491.730  
                 105459752.193    19707678.759    82024264.935    19707675.436  
                 106544675.345    19924393.537    82868089.726    19924391.697  
 21  9  1 10 13  4.0000000  0 13G 1G 6G13G14G15G17G19G24G30R14R15R17
                                R24
  23609333.643   124067895.605    23609341.988    96676307.652                  
  22870457.245   120185068.521    22870465.733    93650732.659                  
  22306674.650   117222369.924    22306680.368    91342126.842                  
  21425794.842   112593310.007    21425800.149    87735069.357                  
  23528860.945   123644992.262    23528866.252    96346772.392                  
  20759524.912   109092042.211    20759530.630    85006807.180                  
  20171462.335   106001751.097    20171465.230    82598778.156                  
  23359121.791   122753008.733    23359128.814    95651725.937                  
  22334489.124   117368531.073    22334496.057    91456029.595                  
                 105486025.650    19788914.125    82044704.374    19788909.569  
                 113125998.838    21169991.147    87986900.812    21169988.931  
                 105457316.560    19707223.599    82022370.553    19707220.383  
                 106546465.062    19924728.188    82869481.742    19924726.383  
 21  9  1 10 13  5.0000000  0 13G 1G 6G13G14G15G17G19G24G30R14R15R17
                                R24
  23609779.404   124070239.343    23609788.159    96678133.935                  
  22869824.074   120181738.550    22869832.151    93648137.885                  
  22307104.972   117224628.563    22307110.279    91343886.823                  
  21426030.016   112594545.597    21426035.180    87736032.155                  
  23529129.713   123646406.434    23529135.324    96347874.345                  
  20759814.712   109093562.044    20759819.733    85007991.465                  
  20171350.028   106001162.271    20171353.209    82598319.326                  
  23358529.147   122749896.454    23358536.456    95649300.771                  
  22335045.691   117371457.827    22335053.160    91458310.180                  
                 105486022.137    19788913.518    82044701.651    19788908.979  
                 113123310.328    21169487.955    87984809.740    21169485.632  
                 105454881.604    19706768.493    82020476.703    19706765.366  
                 106548255.491    19925063.000    82870874.288    19925061.142  
 21  9  1 10 13  6.0000000  0 13G 1G 6G13G14G15G17G19G24G30R14R15R17
                                R24
  23610225.468   124072583.650    23610234.349    96679960.647                  
  22869190.188   120178408.851    22869198.479    93645543.322                  
  22307534.829   117226887.654    22307540.243    91345647.151                  
  21426265.583   112595781.393    21426270.318    87736995.106                  
  23529398.749   123647821.088    23529404.574    96348976.677                  
  20760104.011   109095082.267    20760108.997    85009176.059                  
  20171238.508   106000574.031    20171241.242    82597860.957                  
  23357937.450   122746784.392    23357944.366    95646875.799                  
  22335602.507   117374384.946    22335610.119    91460591.049                  
                 105486019.089    19788912.874    82044699.264    19788908.479  
                 113120621.931    21168984.764    87982718.776    21168982.423  
                 105452447.425    19706313.709    82018583.456    19706310.528  
                 106550046.704    19925398.009    82872267.462    19925396.257  
 21  9  1 10 13  7.0000000  0 13G 1G 6G13G14G15G17G19G24G30R14R15R17
                                R24
  23610671.658   124074928.500    23610680.521    96681787.826                  
  22868556.856   120175079.315    22868564.790    93642948.873                  
  22307964.364   117229147.109    22307970.261    91347407.770                  
  21426500.561   112597017.354    21426505.600    87737958.198                  
  23529668.696   123649236.196    23529673.771    96350079.361                  
  20760393.150   109096602.852    20760398.457    85010360.921                  
  20171126.540   105999986.335    20171129.471    82597403.012                  
  23357344.717   122743672.615    23357352.007    95644451.033                  
  22336159.699   117377312.433    22336167.115    91462872.206                  
                 105486016.482    19788912.428    82044697.245    19788908.014  
                 113117933.678    21168481.822    87980627.910    21168479.231  
                 105450014.018    19705858.978    82016690.803    19705855.762  
                 106551838.709    19925733.124    82873661.243    19925731.194  
 21  9  1 10 13  8.0000000  0 13G 1G 6G13G14G15G17G19G24G30R14R15R17
                                R24
  23611118.240   124077273.890    23611126.656    96683615.403                  
  22867922.881   120171749.978    22867931.369    93640354.587                  
  22308394.454   117231407.001    22308400.297    91349168.727                  
  21426735.646   112598253.478    21426740.774    87738921.408                  
  23529937.786   123650651.710    23529942.968    96351182.361                  
  20760682.592   109098123.791    20760687.685    85011546.071                  
  20171014.948   105999399.175    20171017.646    82596945.489                  
  23356752.913   122740561.034    23356760.060    95642026.439                  
  22336716.730   117380240.265    22336724.307    91465153.633                  
                 105486014.309    19788911.999    82044695.555    19788907.478  
                 113115245.520    21167978.809    87978537.114    21167976.325  
                 105447581.351    19705404.283    82014798.733    19705401.191  
                 106553631.488    19926068.436    82875055.629    19926066.489  
 21  9  1 10 13  9.0000000  0 14G 1G 6G13G14G15G17G19G24G30R13R14R15
                                R17R24
  23611564.519   124079619.797    23611572.953    96685443.380                  
  22867289.282   120168420.861    22867297.877    93637760.479                  
  22308824.686   117233667.280    22308830.369    91350929.977                  
  21426971.016   112599489.805    21426976.145    87739884.775                  
  23530206.464   123652067.666    23530212.343    96352285.697                  
  20760972.535   109099645.100    20760977.378    85012731.502                  
  20170903.374   105998812.605    20170906.019    82596488.417                  
  23356159.965   122737449.691    23356167.917    95639602.025                  
  22337273.368   117383168.457    22337281.606    91467435.348                  
                 121449118.431    22743522.871    94460443.388    22743518.082  
                 105486012.597    19788911.802    82044694.222    19788907.371  
                 113112557.494    21167475.903    87976446.431    21167473.563  
                 105445149.440    19704949.945    82012907.252    19704946.782  
                 106555425.061    19926403.909    82876450.644    19926401.801  
 21  9  1 10 13 10.0000000  0 14G 1G 6G13G14G15G17G19G24G30R13R14R15
                                R17R24
  23612010.905   124081966.273    23612019.500    96687271.786                  
  22866656.128   120165091.911    22866664.420    93635166.478                  
  22309255.401   117235927.985    22309260.530    91352691.558                  
  21427205.905   112600726.314    21427211.373    87740848.286                  
  23530476.501   123653484.110    23530481.683    96353389.419                  
  20761262.120   109101166.776    20761266.838    85013917.225                  
  20170791.585   105998226.581    20170794.534    82596031.780                  
  23355568.697   122734338.604    23355575.719    95637177.796                  
  22337830.989   117386097.010    22337838.905    91469717.333                  
                 121451774.345    22744020.452    94462509.113    22744016.074  
                 105486011.314    19788911.516    82044693.228    19788906.978  
                 113109869.569    21166972.837    87974355.825    21166970.335  
                 105442718.241    19704495.607    82011016.321    19704492.355  
                 106557219.380    19926739.347    82877846.216    19926737.435  
 21  9  1 10 13 11.0000000  0 14G 1G 6G13G14G15G17G19G24G30R13R14R15
                                R17R24
  23612457.077   124084313.330    23612466.101    96689100.692                  
  22866022.457   120161763.184    22866031.052    93632572.668                  
  22309685.348   117238189.075    22309690.744    91354453.451                  
  21427441.204   112601962.997    21427446.654    87741811.930                  
  23530745.537   123654900.958    23530751.219    96354493.461                  
  20761551.956   109102688.810    20761556.495    85015103.233                  
  20170680.208   105997641.100    20170683.067    82595575.563                  
  23354977.250   122731227.763    23354983.701    95634753.760                  
  22338388.627   117389025.930    22338396.132    91471999.611                  
                 121454430.639    22744517.818    94464575.114    22744513.548  
                 105486010.469    19788911.266    82044692.571    19788906.906  
                 113107181.730    21166469.806    87972265.284    21166467.519  
                 105440287.792    19704041.520    82009125.977    19704038.250  
                 106559014.470    19927074.963    82879242.390    19927073.140  
 21  9  1 10 13 12.0000000  0 14G 1G 6G13G14G15G17G19G24G30R13R14R15
                                R17R24
  23612905.268   124086660.900    23612913.076    96690929.945                  
  22865389.536   120158434.654    22865397.792    93629979.017                  
  22310115.491   117240450.587    22310121.066    91356215.675                  
  21427676.753   112603199.855    21427682.078    87742775.725                  
  23531015.574   123656318.259    23531020.863    96355597.858                  
  20761841.345   109104211.219    20761846.187    85016289.521                  
  20170568.795   105997056.191    20170571.850    82595119.785                  
  23354384.284   122728117.183    23354391.879    95632329.936                  
  22338946.266   117391955.208    22338953.521    91474282.165                  
                 121457087.200    22745015.435    94466641.317    22745011.129  
                 105486010.085    19788911.195    82044692.270    19788906.710  
                 113104493.993    21165966.882    87970174.824    21165964.381  
                 105437858.131    19703587.396    82007236.227    19703584.341  
                 106560810.354    19927410.865    82880639.203    19927409.060  
 21  9  1 10 13 13.0000000  0 14G 1G 6G13G14G15G17G19G24G30R13R14R15
                                R17R24
  23613352.029   124089009.037    23613359.963    96692759.678                  
  22864755.240   120155106.347    22864764.406    93627385.531                  
  22310546.295   117242712.521    22310551.459    91357978.223                  
  21427912.214   112604436.916    21427917.521    87743739.664                  
  23531285.324   123657736.023    23531290.739    96356702.584                  
  20762131.109   109105733.995    20762135.987    85017476.105                  
  20170457.631   105996471.843    20170460.580    82594664.449                  
  23353792.677   122725006.826    23353799.949    95629906.290                  
  22339503.637   117394884.864    22339510.999    91476565.014                  
                 121459744.093    22745512.944    94468707.847    22745508.495  
                 105486010.141    19788911.230    82044692.314    19788906.924  
                 113101806.366    21165463.923    87968084.448    21165461.564  
                 105435429.227    19703133.523    82005347.090    19703130.092  
                 106562607.077    19927746.927    82882036.649    19927745.069  
 21  9  1 10 13 14.0000000  0 14G 1G 6G13G14G15G17G19G24G30R13R14R15
                                R17R24
  23613798.665   124091357.699    23613806.921    96694589.815                  
  22864122.676   120151778.183    22864131.093    93624792.148                  
  22310977.099   117244974.860    22310982.013    91359741.076                  
  21428147.709   112605674.123    21428152.927    87744703.719                  
  23531554.325   123659154.206    23531560.686    96357807.660                  
  20762421.230   109107257.132    20762425.894    85018662.960                  
  20170346.361   105995888.028    20170349.452    82594209.531                  
  23353200.444   122721896.721    23353208.110    95627482.830                  
  22340061.222   117397814.849    22340068.619    91478848.117                  
                 121462401.445    22746010.775    94470774.630    22746006.201  
                 105486010.597    19788911.302    82044692.661    19788906.924  
                 113099118.853    21164960.981    87965994.158    21164958.658  
                 105433001.045    19702679.739    82003458.491    19702676.487  
                 106564404.537    19928083.008    82883434.665    19928081.221  
 21  9  1 10 13 15.0000000  0 14G 1G 6G13G14G15G17G19G24G30R13R14R15
                                R17R24
  23614245.587   124093706.910    23614254.004    96696420.346                  
  22863489.398   120148450.258    22863497.743    93622198.975                  
  22311407.403   117247237.628    22311412.514    91361504.267                  
  21428383.187   112606911.536    21428388.512    87745667.944                  
  23531825.040   123660572.839    23531830.794    96358913.111                  
  20762711.209   109108780.645    20762715.873    85019850.111                  
  20170235.466   105995304.801    20170238.414    82593755.068                  
  23352608.604   122718786.858    23352616.538    95625059.548                  
  22340619.003   117400745.234    22340626.151    91481131.531                  
                 121465059.077    22746508.410    94472841.636    22746503.692  
                 105486011.505    19788911.552    82044693.374    19788907.031  
                 113096431.516    21164458.111    87963904.002    21164455.610  
                 105430573.617    19702226.134    82001570.493    19702222.846  
                 106566202.774    19928419.285    82884833.298    19928417.641  
 21  9  1 10 13 16.0000000  0 14G 1G 6G13G14G15G17G19G24G30R13R14R15
                                R17R24
  23614693.582   124096056.667    23614701.051    96698251.325                  
  22862855.888   120145122.532    22862864.358    93619605.925                  
  22311837.993   117249500.748    22311843.193    91363267.744                  
  21428618.094   112608149.119    21428624.026    87746632.290                  
  23532095.202   123661991.906    23532100.849    96360018.866                  
  20763001.330   109110304.487    20763005.690    85021037.527                  
  20170124.517   105994722.116    20170127.644    82593301.023                  
  23352017.389   122715677.217    23352024.894    95622636.463                  
  22341176.392   117403675.949    22341183.897    91483415.201                  
                 121467716.910    22747006.151    94474908.894    22747001.255  
                 105486012.835    19788911.802    82044694.404    19788907.371  
                 113093744.256    21163955.170    87961813.913    21163952.525  
                 105428146.897    19701772.654    81999683.058    19701769.473  
                 106568001.731    19928755.669    82886232.480    19928753.811  
 21  9  1 10 13 17.0000000  0 14G 1G 6G13G14G15G17G19G24G30R13R14R15
                                R17R24
  23615139.985   124098407.028    23615148.330    96700082.783                  
  22862223.199   120141795.017    22862231.151    93617013.057                  
  22312268.815   117251764.314    22312273.890    91365031.569                  
  21428853.661   112609386.905    21428859.433    87747596.801                  
  23532365.185   123663411.419    23532370.868    96361124.966                  
  20763291.577   109111828.751    20763295.669    85022225.253                  
  20170013.711   105994140.010    20170016.910    82592847.441                  
  23351425.067   122712567.849    23351433.322    95620213.558                  
  22341734.459   117406607.061    22341741.607    91485699.185                  
                 121470375.159    22747504.215    94476976.394    22747499.211  
                 105486014.642    19788912.052    82044695.810    19788907.817  
                 113091057.119    21163452.318    87959723.913    21163449.691  
                 105425720.971    19701319.299    81997796.227    19701316.136  
                 106569801.517    19929092.232    82887632.316    19929090.463  
 21  9  1 10 13 18.0000000  0 14G 1G 6G13G14G15G17G19G24G30R13R14R15
                                R17R24
  23615587.354   124100757.867    23615595.610    96701914.601                  
  22861589.689   120138467.663    22861598.105    93614420.318                  
  22312699.780   117254028.262    22312704.569    91366795.679                  
  21429089.496   112610624.840    21429095.125    87748561.423                  
  23532634.900   123664831.361    23532641.172    96362231.419                  
  20763581.609   109113353.332    20763585.880    85023413.238                  
  20169903.459   105993558.426    20169906.193    82592394.253                  
  23350833.388   122709458.692    23350841.608    95617790.852                  
  22342292.401   117409538.470    22342299.317    91487983.403                  
                 121473033.674    22748002.189    94479044.139    22747996.810  
                 105486016.871    19788912.463    82044697.553    19788908.139  
                 113088370.011    21162949.430    87957633.952    21162947.035  
                 105423295.760    19700866.033    81995909.952    19700862.746  
                 106571602.060    19929429.046    82889032.745    19929427.259  
 21  9  1 10 13 19.0000000  0 14G 1G 6G13G14G15G17G19G24G30R13R14R15
                                R17R24
  23616036.153   124103109.259    23616043.104    96703746.856                  
  22860956.571   120135140.568    22860964.970    93611827.779                  
  22313130.674   117256292.667    22313135.624    91368560.142                  
  21429325.457   112611862.992    21429330.657    87749526.222                  
  23532905.634   123666251.783    23532911.513    96363338.239                  
  20763871.784   109114878.315    20763876.126    85024601.541                  
  20169792.814   105992977.458    20169795.655    82591941.556                  
  23350241.941   122706349.814    23350249.911    95615368.350                  
  22342849.808   117412470.309    22342857.348    91490267.961                  
                 121475692.573    22748500.216    94481112.198    22748494.909  
                 105486019.571    19788912.910    82044699.653    19788908.818  
                 113085683.110    21162446.506    87955544.133    21162444.272  
                 105420871.376    19700412.964    81994024.318    19700409.605  
                 106573403.450    19929765.877    82890433.838    19929764.126  
 21  9  1 10 13 20.0000000  0 14G 1G 6G13G14G15G17G19G24G30R13R14R15
                                R17R24
  23616482.860   124105461.213    23616490.544    96705579.518                  
  22860324.115   120131813.646    22860331.977    93609235.374                  
  22313561.264   117258557.457    22313566.392    91370324.915                  
  21429561.078   112613101.321    21429566.278    87750491.151                  
  23533175.313   123667672.608    23533181.817    96364445.378                  
  20764161.834   109116403.653    20764166.391    85025790.121                  
  20169681.937   105992397.024    20169685.171    82591489.267                  
  23349650.244   122703241.192    23349658.160    95612946.051                  
  22343408.197   117415402.492    22343415.398    91492552.772                  
                 121478351.813    22748998.136    94483180.472    22748993.133  
                 105486022.715    19788913.607    82044702.086    19788909.318  
                 113082996.331    21161943.743    87953454.413    21161941.527  
                 105418447.713    19699960.038    81992139.247    19699956.661  
                 106575205.640    19930102.940    82891835.518    19930101.046  
 21  9  1 10 13 21.0000000  0 14G 1G 6G13G14G15G17G19G24G30R13R14R15
                                R17R24
  23616930.658   124107813.716    23616938.270    96707412.651                  
  22859691.087   120128486.941    22859698.842    93606643.125                  
  22313992.443   117260822.663    22313997.429    91372090.004                  
  21429796.877   112614339.831    21429802.095    87751456.221                  
  23533445.886   123669093.911    23533452.426    96365552.905                  
  20764452.259   109117929.372    20764456.655    85026978.989                  
  20169572.203   105991817.150    20169574.884    82591037.420                  
  23349059.298   122700132.813    23349066.767    95610523.951                  
  22343966.086   117418335.036    22343973.305    91494837.873                  
                 121481011.291    22749496.235    94485248.978    22749491.357  
                 105486026.287    19788914.179    82044704.871    19788909.980  
                 113080309.641    21161441.070    87951364.761    21161438.836  
                 105416024.782    19699507.309    81990254.747    19699503.896  
                 106577008.580    19930440.111    82893237.809    19930438.252  
 21  9  1 10 13 22.0000000  0 14G 1G 6G13G14G15G17G19G24G30R13R14R15
                                R17R24
  23617379.135   124110166.751    23617385.979    96709246.189                  
  22859057.612   120125160.430    22859065.850    93604051.048                  
  22314423.069   117263088.266    22314428.608    91373855.409                  
  21430032.641   112615578.520    21430037.698    87752421.441                  
  23533716.655   123670515.619    23533722.963    96366660.729                  
  20764742.399   109119455.447    20764747.152    85028168.138                  
  20169461.380   105991237.834    20169464.614    82590586.008                  
  23348468.208   122697024.648    23348475.302    95608101.984                  
  22344524.421   117421267.935    22344531.479    91497123.249                  
                 121483671.172    22749994.317    94487317.721    22749989.563  
                 105486030.320    19788915.019    82044708.004    19788910.730  
                 113077623.056    21160938.307    87949275.188    21160935.805  
                 105413602.592    19699054.561    81988370.817    19699051.309  
                 106578812.270    19930777.442    82894640.684    19930775.691  
 21  9  1 10 13 23.0000000  0 14G 1G 6G13G14G15G17G19G24G30R13R14R15
                                R17R24
  23617826.879   124112520.337    23617833.812    96711080.136                  
  22858424.638   120121834.121    22858432.876    93601459.126                  
  22314854.338   117265354.276    22314859.913    91375621.136                  
  21430268.905   112616817.392    21430273.373    87753386.795                  
  23533987.371   123671937.811    23533993.679    96367768.940                  
  20765033.145   109120981.879    20765037.577    85029357.568                  
  20169351.557   105990659.070    20169354.434    82590135.025                  
  23347876.333   122693916.765    23347883.981    95605680.250                  
  22345082.381   117424201.192    22345089.636    91499408.902                  
                 121486331.288    22750492.451    94489386.737    22750487.609  
                 105486034.770    19788915.841    82044711.469    19788911.695  
                 113074936.554    21160435.562    87947185.705    21160433.132  
                 105411181.173    19698602.100    81986487.497    19698598.705  
                 106580616.748    19931114.863    82896044.159    19931112.897  
 21  9  1 10 13 24.0000000  0 14G 1G 6G13G14G15G17G19G24G30R13R14R15
                                R17R24
  23618274.784   124114874.536    23618281.914    96712914.619                  
  22857791.306   120118507.979    22857799.937    93598867.322                  
  22315285.893   117267620.668    22315291.271    91377387.155                  
  21430504.026   112618056.424    21430509.119    87754352.275                  
  23534258.355   123673360.417    23534264.305    96368877.421                  
  20765323.553   109122508.687    20765328.056    85030547.293                  
  20169241.394   105990080.869    20169244.450    82589684.467                  
  23347285.225   122690809.049    23347292.623    95603258.681                  
  22345640.949   117427134.796    22345647.882    91501694.835                  
                 121488991.702    22750990.622    94491455.909    22750985.958  
                 105486039.649    19788916.806    82044715.255    19788912.517  
                 113072250.207    21159932.728    87945096.322    21159930.458  
                 105408760.521    19698149.763    81984604.766    19698146.297  
                 106582421.984    19931452.498    82897448.244    19931450.658  
 21  9  1 10 13 25.0000000  0 14G 1G 6G13G14G15G17G19G24G30R13R14R15
                                R17R24
  23618722.403   124117229.170    23618730.015    96714749.407                  
  22857158.242   120115182.075    22857166.891    93596275.711                  
  22315716.768   117269887.465    22315722.558    91379153.493                  
  21430739.754   112619295.648    21430744.918    87755317.901                  
  23534529.124   123674783.446    23534535.146    96369986.279                  
  20765613.978   109124035.836    20765618.642    85031737.279                  
  20169131.660   105989503.194    20169134.430    82589234.344                  
  23346692.778   122687701.594    23346701.409    95600837.281                  
  22346199.213   117430068.757    22346206.164    91503981.037                  
                 121491652.465    22751488.828    94493525.403    22751484.039  
                 105486044.938    19788917.878    82044719.373    19788913.536  
                 113069563.959    21159430.001    87943007.004    21159427.588  
                 105406340.596    19697697.391    81982722.607    19697694.085  
                 106584228.011    19931790.205    82898852.923    19931788.400  
 21  9  1 10 13 26.0000000  0 14G 1G 6G13G14G15G17G19G24G30R13R14R15
                                R17R24
  23619171.559   124119584.455    23619178.295    96716584.685                  
  22856526.483   120111856.365    22856534.006    93593684.242                  
  22316148.162   117272154.717    22316153.898    91380920.182                  
  21430975.196   112620535.082    21430980.754    87756283.697                  
  23534799.947   123676206.967    23534806.004    96371095.525                  
  20765904.653   109125563.390    20765909.317    85032927.578                  
  20169021.444   105988926.129    20169024.589    82588784.681                  
  23346102.868   122684594.436    23346110.283    95598416.134                  
  22346757.799   117433003.115    22346764.607    91506267.547                  
                 121494313.592    22751987.124    94495595.145    22751982.835  
                 105486050.701    19788918.825    82044723.856    19788914.590  
                 113066877.828    21158927.470    87940917.795    21158925.004  
                 105403921.430    19697245.305    81980841.031    19697242.053  
                 106586034.824    19932128.090    82900258.221    19932126.017  
 21  9  1 10 13 27.0000000  0 14G 1G 6G13G14G15G17G19G24G30R13R14R15
                                R17R24
  23619619.589   124121940.221    23619626.736    96718420.345                  
  22855893.455   120108530.855    22855901.460    93591092.940                  
  22316580.521   117274422.359    22316585.382    91382687.176                  
  21431211.675   112621774.661    21431216.607    87757249.602                  
  23535071.413   123677630.896    23535077.042    96372205.081                  
  20766195.883   109127091.286    20766200.261    85034118.150                  
  20168911.925   105988349.586    20168915.070    82588335.427                  
  23345511.475   122681487.539    23345519.158    95595995.153                  
  22347316.206   117435937.807    22347323.139    91508554.320                  
                 121496974.979    22752485.544    94497665.147    22752481.399  
                 105486056.907    19788919.986    82044728.683    19788915.912  
                 113064191.803    21158424.797    87938828.670    21158422.259  
                 105401502.990    19696793.522    81978960.029    19696789.966  
                 106587842.387    19932466.208    82901664.117    19932464.260  
 21  9  1 10 13 28.0000000  0 14G 1G 6G13G14G15G17G19G24G30R13R14R15
                                R17R24
  23620068.351   124124296.519    23620075.195    96720256.453                  
  22855260.284   120105205.529    22855268.611    93588501.784                  
  22317011.969   117276690.367    22317017.026    91384454.465                  
  21431447.278   112623014.421    21431452.657    87758215.643                  
  23535342.504   123679055.245    23535348.240    96373314.968                  
  20766486.165   109128619.527    20766490.882    85035308.986                  
  20168802.209   105987773.586    20168805.319    82587886.595                  
  23344920.457   122678380.809    23344928.230    95593574.340                  
  22347874.756   117438872.827    22347881.528    91510841.351                  
                 121499636.711    22752984.001    94499735.349    22752979.516  
                 105486063.560    19788921.255    82044733.852    19788916.949  
                 113061505.889    21157922.195    87936739.623    21157919.639  
                 105399085.297    19696341.633    81977079.606    19696338.202  
                 106589650.710    19932804.343    82903070.589    19932802.449  
 21  9  1 10 13 29.0000000  0 14G 1G 6G13G14G15G17G19G24G30R13R14R15
                                R17R24
  23620516.524   124126653.380    23620523.618    96722092.932                  
  22854627.971   120101880.447    22854635.851    93585910.788                  
  22317444.042   117278958.834    22317448.741    91386222.078                  
  21431683.757   112624254.376    21431688.599    87759181.847                  
