% program   : rnx2rtkp ver.2.4.3 b31
% inp file  : ngs/21_09_01_08_42_11_pamm.obs
% inp file  : ngs/21_09_01_08_42_11_pamm_SW.obs
% inp file  : ngs/21_09_01_08_42_11_brdc.nav
% obs start : 2021/09/01 08:00:00.0 GPST (week2173 288000.0s)
% obs end   : 2021/09/01 08:59:59.0 GPST (week2173 291599.0s)
% ref pos   :   824987.9304  -4798612.5637   4106112.1974
%
% (x/y/z-ecef=WGS84,Q=1:fix,2:float,3:sbas,4:dgps,5:single,6:ppp,ns=# of satellites)
%  GPST              x-ecef(m)      y-ecef(m)      z-ecef(m)   Q  ns   sdx(m)   sdy(m)   sdz(m)  sdxy(m)  sdyz(m)  sdzx(m) age(s)  ratio
2173 290506.000    813987.8149  -4734633.4799   4181860.9964   2   8   0.3822   0.9644   1.1501  -0.3413  -0.9255   0.3522 -30.00    1.5
2173 290507.000    813987.8608  -4734633.5280   4181861.0951   2   8   0.2720   0.6865   0.8178  -0.2434  -0.6585   0.2511 -29.00    1.4
2173 290508.000    813987.8821  -4734633.5506   4181861.0503   2   8   0.2227   0.5621   0.6695  -0.1994  -0.5391   0.2056 -28.00    1.4
2173 290509.000    813987.9023  -4734633.4942   4181860.9292   2   8   0.1932   0.4876   0.5809  -0.1730  -0.4677   0.1783 -27.00    1.4
2173 290510.000    813987.9531  -4734633.5681   4181861.0016   2   8   0.1731   0.4367   0.5202  -0.1549  -0.4188   0.1597 -26.00    1.3
2173 290511.000    813987.9718  -4734633.5675   4181860.9931   2   8   0.1581   0.3990   0.4753  -0.1416  -0.3827   0.1459 -25.00    1.3
2173 290512.000    813987.9757  -4734633.5490   4181860.9980   2   8   0.1465   0.3696   0.4404  -0.1311  -0.3545   0.1351 -24.00    1.3
2173 290513.000    813987.9725  -4734633.5309   4181860.9914   2   8   0.1371   0.3459   0.4122  -0.1227  -0.3318   0.1264 -23.00    1.3
2173 290514.000    813987.9757  -4734633.5203   4181860.9793   2   8   0.1294   0.3262   0.3887  -0.1158  -0.3129   0.1193 -22.00    1.3
2173 290515.000    813987.9691  -4734633.5094   4181860.9569   2   8   0.1228   0.3095   0.3688  -0.1099  -0.2969   0.1132 -21.00    1.3
2173 290516.000    813987.9736  -4734633.4948   4181860.9491   2   8   0.1171   0.2951   0.3516  -0.1048  -0.2830   0.1079 -20.00    1.3
2173 290517.000    813987.9780  -4734633.5193   4181860.9666   2   8   0.1121   0.2826   0.3366  -0.1004  -0.2709   0.1033 -19.00    1.3
2173 290518.000    813987.9796  -4734633.5271   4181860.9574   2   8   0.1077   0.2714   0.3233  -0.0964  -0.2602   0.0992 -18.00    1.3
2173 290519.000    813987.9838  -4734633.5386   4181860.9626   2   8   0.1038   0.2615   0.3114  -0.0929  -0.2507   0.0956 -17.00    1.3
2173 290520.000    813987.9802  -4734633.5269   4181860.9552   2   8   0.1003   0.2526   0.3006  -0.0898  -0.2421   0.0924 -16.00    1.3
2173 290521.000    813987.9744  -4734633.5253   4181860.9542   2   8   0.0971   0.2445   0.2909  -0.0869  -0.2342   0.0894 -15.00    1.3
2173 290522.000    813987.9743  -4734633.5253   4181860.9693   2   8   0.0941   0.2370   0.2820  -0.0843  -0.2271   0.0867 -14.00    1.3
2173 290523.000    813987.9729  -4734633.5465   4181861.0077   2   8   0.0915   0.2303   0.2738  -0.0819  -0.2205   0.0843 -13.00    1.3
2173 290524.000    813987.9782  -4734633.5665   4181861.0518   2   8   0.0890   0.2240   0.2662  -0.0798  -0.2145   0.0820 -12.00    1.3
2173 290525.000    813987.9832  -4734633.5639   4181861.0606   2   8   0.0867   0.2182   0.2592  -0.0777  -0.2088   0.0799 -11.00    1.3
2173 290526.000    813987.9862  -4734633.5801   4181861.0751   2   8   0.0846   0.2128   0.2527  -0.0758  -0.2036   0.0779 -10.00    1.3
2173 290527.000    813987.9807  -4734633.5769   4181861.0635   2   8   0.0826   0.2077   0.2466  -0.0741  -0.1987   0.0760  -9.00    1.3
2173 290528.000    813987.9827  -4734633.5780   4181861.0560   2   8   0.0808   0.2030   0.2408  -0.0724  -0.1941   0.0743  -8.00    1.3
2173 290529.000    813987.9844  -4734633.5867   4181861.0546   2   8   0.0790   0.1986   0.2354  -0.0708  -0.1898   0.0727  -7.00    1.3
2173 290530.000    813987.9831  -4734633.5812   4181861.0429   2   8   0.0774   0.1944   0.2303  -0.0694  -0.1857   0.0712  -6.00    1.3
2173 290531.000    813987.9827  -4734633.5803   4181861.0377   2   8   0.0759   0.1905   0.2254  -0.0680  -0.1818   0.0697  -5.00    1.3
2173 290532.000    813987.9796  -4734633.5740   4181861.0376   2   8   0.0744   0.1867   0.2208  -0.0667  -0.1782   0.0683  -4.00    1.2
2173 290533.000    813987.9774  -4734633.5641   4181861.0265   2   8   0.0731   0.1832   0.2164  -0.0654  -0.1747   0.0670  -3.00    1.2
2173 290534.000    813987.9746  -4734633.5591   4181861.0105   2   8   0.0718   0.1799   0.2123  -0.0642  -0.1713   0.0657  -2.00    1.1
2173 290535.000    813987.9714  -4734633.5517   4181860.9963   2   8   0.0705   0.1767   0.2083  -0.0631  -0.1682   0.0645  -1.00    1.1
2173 290536.000    813987.9680  -4734633.5363   4181860.9820   2   8   0.0694   0.1736   0.2045  -0.0620  -0.1652   0.0634   0.00    1.1
2173 290537.000    813987.9526  -4734633.5398   4181860.9428   2   8   0.0683   0.1708   0.2010  -0.0610  -0.1623   0.0623   0.00    1.0
2173 290538.000    813987.9515  -4734633.5249   4181860.9162   2   8   0.0673   0.1680   0.1976  -0.0600  -0.1596   0.0613   0.00    1.0
2173 290539.000    813987.9477  -4734633.5098   4181860.8867   2   8   0.0663   0.1654   0.1943  -0.0591  -0.1570   0.0602   0.00    1.0
2173 290540.000    813987.9448  -4734633.4889   4181860.8513   2   8   0.0653   0.1629   0.1911  -0.0582  -0.1544   0.0593   0.00    1.0
2173 290541.000    813987.9381  -4734633.4598   4181860.8240   2   8   0.0644   0.1604   0.1881  -0.0573  -0.1520   0.0584   0.00    1.0
2173 290542.000    813987.9375  -4734633.4606   4181860.8204   2   8   0.0635   0.1581   0.1851  -0.0565  -0.1497   0.0575   0.00    1.0
2173 290543.000    813987.9401  -4734633.4671   4181860.8267   2   8   0.0627   0.1558   0.1822  -0.0557  -0.1474   0.0566   0.00    1.0
2173 290544.000    813987.9427  -4734633.4770   4181860.8416   2   8   0.0618   0.1536   0.1794  -0.0549  -0.1451   0.0557   0.00    1.0
2173 290545.000    813987.9440  -4734633.4797   4181860.8522   2   8   0.0611   0.1515   0.1767  -0.0542  -0.1430   0.0549   0.00    1.0
2173 290546.000    813987.9458  -4734633.4885   4181860.8631   2   8   0.0603   0.1495   0.1740  -0.0534  -0.1409   0.0541   0.00    1.0
2173 290547.000    813987.9452  -4734633.4874   4181860.8595   2   8   0.0596   0.1475   0.1715  -0.0527  -0.1388   0.0533   0.00    1.0
2173 290548.000    813987.9454  -4734633.4928   4181860.8676   2   8   0.0589   0.1455   0.1689  -0.0520  -0.1368   0.0526   0.00    1.0
2173 290549.000    813987.9445  -4734633.4928   4181860.8706   2   8   0.0582   0.1437   0.1664  -0.0514  -0.1349   0.0518   0.00    1.0
2173 290550.000    813987.9459  -4734633.5035   4181860.8854   2   8   0.0576   0.1418   0.1640  -0.0507  -0.1329   0.0511   0.00    1.0
2173 290551.000    813987.9449  -4734633.5011   4181860.8800   2   8   0.0569   0.1401   0.1616  -0.0500  -0.1311   0.0504   0.00    1.0
2173 290552.000    813987.9438  -4734633.5044   4181860.8862   2   8   0.0563   0.1383   0.1593  -0.0494  -0.1292   0.0497   0.00    1.0
2173 290553.000    813987.9473  -4734633.4990   4181860.8829   2   8   0.0557   0.1366   0.1570  -0.0488  -0.1274   0.0490   0.00    1.0
2173 290554.000    813987.9473  -4734633.4773   4181860.8674   2   8   0.0551   0.1350   0.1547  -0.0482  -0.1256   0.0483   0.00    1.0
2173 290555.000    813987.9468  -4734633.4686   4181860.8608   2   8   0.0545   0.1333   0.1525  -0.0476  -0.1239   0.0477   0.00    1.0
2173 290556.000    813987.9460  -4734633.4477   4181860.8329   2   8   0.0540   0.1318   0.1503  -0.0470  -0.1222   0.0470   0.00    1.0
2173 290557.000    813987.9459  -4734633.4353   4181860.8143   2   8   0.0534   0.1302   0.1482  -0.0465  -0.1205   0.0463   0.00    1.1
2173 290558.000    813987.9432  -4734633.4241   4181860.7911   2   8   0.0530   0.1287   0.1460  -0.0459  -0.1188   0.0457   0.00    1.1
2173 290559.000    813987.9394  -4734633.4122   4181860.7702   2   8   0.0524   0.1272   0.1440  -0.0454  -0.1172   0.0451   0.00    1.1
2173 290560.000    813987.9359  -4734633.3995   4181860.7534   2   8   0.0519   0.1258   0.1419  -0.0449  -0.1156   0.0445   0.00    1.1
2173 290561.000    813987.9345  -4734633.3860   4181860.7378   2   8   0.0515   0.1244   0.1399  -0.0444  -0.1141   0.0439   0.00    1.1
2173 290562.000    813987.9294  -4734633.3622   4181860.7157   2   8   0.0510   0.1230   0.1379  -0.0439  -0.1125   0.0433   0.00    1.1
2173 290563.000    813987.9259  -4734633.3448   4181860.7010   2   8   0.0506   0.1216   0.1360  -0.0434  -0.1110   0.0427   0.00    1.1
2173 290564.000    813987.9228  -4734633.3228   4181860.6781   2   8   0.0501   0.1203   0.1340  -0.0429  -0.1095   0.0422   0.00    1.1
2173 290565.000    813987.9209  -4734633.3065   4181860.6543   2   8   0.0496   0.1190   0.1321  -0.0425  -0.1080   0.0416   0.00    1.1
2173 290566.000    813987.9197  -4734633.2989   4181860.6457   2   8   0.0493   0.1177   0.1303  -0.0420  -0.1066   0.0411   0.00    1.1
2173 290567.000    813987.9136  -4734633.2885   4181860.6265   2   8   0.0488   0.1164   0.1284  -0.0415  -0.1052   0.0405   0.00    1.1
2173 290568.000    813987.9104  -4734633.2790   4181860.6142   2   8   0.0484   0.1152   0.1266  -0.0411  -0.1038   0.0400   0.00    1.1
2173 290569.000    813987.9057  -4734633.2638   4181860.5924   2   8   0.0480   0.1140   0.1248  -0.0407  -0.1024   0.0395   0.00    1.1
2173 290570.000    813987.9008  -4734633.2602   4181860.5831   2   8   0.0476   0.1128   0.1231  -0.0402  -0.1010   0.0389   0.00    1.1
2173 290571.000    813987.9008  -4734633.2553   4181860.5730   2   8   0.0472   0.1117   0.1213  -0.0398  -0.0997   0.0384   0.00    1.1
2173 290572.000    813987.8984  -4734633.2483   4181860.5657   2   8   0.0469   0.1105   0.1196  -0.0394  -0.0984   0.0379   0.00    1.1
2173 290573.000    813987.8975  -4734633.2405   4181860.5432   2   8   0.0465   0.1094   0.1180  -0.0390  -0.0971   0.0374   0.00    1.1
2173 290574.000    813987.8955  -4734633.2459   4181860.5491   2   8   0.0462   0.1083   0.1163  -0.0386  -0.0958   0.0369   0.00    1.1
2173 290575.000    813987.8907  -4734633.2412   4181860.5449   2   8   0.0458   0.1072   0.1147  -0.0382  -0.0946   0.0365   0.00    1.1
2173 290576.000    813987.8845  -4734633.2351   4181860.5327   2   8   0.0455   0.1062   0.1131  -0.0378  -0.0933   0.0360   0.00    1.1
2173 290577.000    813987.8819  -4734633.2361   4181860.5311   2   8   0.0451   0.1052   0.1115  -0.0374  -0.0921   0.0355   0.00    1.1
2173 290578.000    813987.8812  -4734633.2417   4181860.5410   2   8   0.0448   0.1041   0.1100  -0.0371  -0.0909   0.0351   0.00    1.1
2173 290579.000    813987.8795  -4734633.2476   4181860.5507   2   8   0.0445   0.1032   0.1084  -0.0367  -0.0898   0.0346   0.00    1.1
2173 290580.000    813987.8779  -4734633.2550   4181860.5576   2   8   0.0442   0.1022   0.1069  -0.0363  -0.0886   0.0342   0.00    1.1
2173 290581.000    813987.8770  -4734633.2569   4181860.5686   2   8   0.0439   0.1012   0.1055  -0.0360  -0.0875   0.0338   0.00    1.1
2173 290582.000    813987.8750  -4734633.2568   4181860.5705   2   8   0.0436   0.1003   0.1040  -0.0356  -0.0864   0.0333   0.00    1.1
2173 290583.000    813987.8741  -4734633.2597   4181860.5791   2   8   0.0433   0.0994   0.1026  -0.0353  -0.0853   0.0329   0.00    1.1
2173 290584.000    813987.8723  -4734633.2561   4181860.5813   2   8   0.0430   0.0985   0.1012  -0.0350  -0.0842   0.0325   0.00    1.1
2173 290585.000    813987.8739  -4734633.2536   4181860.5850   2   8   0.0428   0.0976   0.0998  -0.0347  -0.0832   0.0321   0.00    1.1
2173 290586.000    813987.8731  -4734633.2534   4181860.5946   2   8   0.0424   0.0967   0.0985  -0.0344  -0.0821   0.0317   0.00    1.1
2173 290587.000    813987.8731  -4734633.2477   4181860.5953   2   8   0.0422   0.0959   0.0971  -0.0340  -0.0811   0.0313   0.00    1.1
2173 290588.000    813987.8729  -4734633.2552   4181860.6114   2   8   0.0419   0.0950   0.0958  -0.0337  -0.0801   0.0310   0.00    1.1
2173 290589.000    813987.8736  -4734633.2513   4181860.6151   2   8   0.0417   0.0942   0.0945  -0.0334  -0.0792   0.0306   0.00    1.1
2173 290590.000    813987.8724  -4734633.2486   4181860.6153   2   8   0.0414   0.0934   0.0933  -0.0331  -0.0782   0.0302   0.00    1.1
2173 290591.000    813987.8724  -4734633.2449   4181860.6186   2   8   0.0411   0.0926   0.0920  -0.0328  -0.0772   0.0299   0.00    1.1
2173 290592.000    813987.8730  -4734633.2384   4181860.6172   2   8   0.0409   0.0918   0.0908  -0.0326  -0.0763   0.0295   0.00    1.1
2173 290593.000    813987.8730  -4734633.2293   4181860.6127   2   8   0.0406   0.0911   0.0896  -0.0323  -0.0754   0.0292   0.00    1.2
2173 290594.000    813987.8720  -4734633.2182   4181860.6007   2   8   0.0405   0.0903   0.0884  -0.0320  -0.0745   0.0288   0.00    1.2
2173 290595.000    813987.8714  -4734633.2161   4181860.6040   2   8   0.0401   0.0896   0.0873  -0.0318  -0.0736   0.0285   0.00    1.2
2173 290596.000    813987.8649  -4734633.2169   4181860.6201   2   8   0.0399   0.0889   0.0861  -0.0315  -0.0728   0.0282   0.00    1.2
2173 290597.000    813987.8622  -4734633.2172   4181860.6251   2   8   0.0397   0.0881   0.0850  -0.0312  -0.0719   0.0278   0.00    1.2
2173 290598.000    813987.8591  -4734633.2202   4181860.6370   2   8   0.0394   0.0874   0.0839  -0.0310  -0.0711   0.0275   0.00    1.1
2173 290599.000    813987.8547  -4734633.2159   4181860.6463   2   8   0.0392   0.0868   0.0828  -0.0307  -0.0703   0.0272   0.00    1.1
2173 290600.000    813987.8533  -4734633.2091   4181860.6503   2   8   0.0391   0.0861   0.0818  -0.0305  -0.0695   0.0269   0.00    1.1
2173 290601.000    813987.8509  -4734633.1969   4181860.6493   2   8   0.0387   0.0854   0.0807  -0.0302  -0.0687   0.0266   0.00    1.1
2173 290602.000    813987.8464  -4734633.1854   4181860.6464   2   8   0.0387   0.0848   0.0797  -0.0300  -0.0679   0.0263   0.00    1.1
2173 290603.000    813987.8422  -4734633.1791   4181860.6486   2   8   0.0384   0.0842   0.0787  -0.0298  -0.0672   0.0260   0.00    1.1
2173 290604.000    813987.8388  -4734633.1757   4181860.6441   2   8   0.0382   0.0835   0.0777  -0.0295  -0.0664   0.0257   0.00    1.1
2173 290605.000    813987.8366  -4734633.1781   4181860.6523   2   8   0.0380   0.0829   0.0768  -0.0293  -0.0657   0.0254   0.00    1.1
2173 290606.000    813987.8336  -4734633.1820   4181860.6583   2   8   0.0377   0.0823   0.0758  -0.0291  -0.0650   0.0252   0.00    1.1
2173 290607.000    813987.8313  -4734633.1844   4181860.6689   2   8   0.0375   0.0817   0.0749  -0.0289  -0.0643   0.0249   0.00    1.1
2173 290608.000    813987.8260  -4734633.1876   4181860.6775   2   8   0.0374   0.0811   0.0740  -0.0287  -0.0636   0.0246   0.00    1.1
2173 290609.000    813987.8217  -4734633.1914   4181860.6866   2   8   0.0372   0.0805   0.0731  -0.0285  -0.0629   0.0244   0.00    1.1
2173 290610.000    813987.8188  -4734633.1983   4181860.7015   2   8   0.0370   0.0800   0.0722  -0.0282  -0.0622   0.0241   0.00    1.1
2173 290611.000    813987.8157  -4734633.2070   4181860.7153   2   8   0.0368   0.0794   0.0713  -0.0281  -0.0616   0.0239   0.00    1.1
2173 290612.000    813987.8123  -4734633.2142   4181860.7251   2   8   0.0366   0.0789   0.0705  -0.0279  -0.0609   0.0236   0.00    1.1
2173 290613.000    813987.8113  -4734633.2230   4181860.7405   2   8   0.0365   0.0784   0.0696  -0.0277  -0.0603   0.0234   0.00    1.1
2173 290614.000    813987.8091  -4734633.2374   4181860.7614   2   8   0.0362   0.0778   0.0688  -0.0275  -0.0597   0.0232   0.00    1.1
2173 290615.000    813987.8094  -4734633.2402   4181860.7726   2   8   0.0361   0.0773   0.0680  -0.0273  -0.0591   0.0229   0.00    1.1
2173 290616.000    813987.8081  -4734633.2430   4181860.7853   2   8   0.0359   0.0768   0.0672  -0.0271  -0.0585   0.0227   0.00    1.0
2173 290617.000    813987.8079  -4734633.2499   4181860.7972   2   8   0.0357   0.0763   0.0664  -0.0269  -0.0579   0.0225   0.00    1.0
2173 290618.000    813987.8052  -4734633.2557   4181860.8076   2   8   0.0355   0.0758   0.0657  -0.0268  -0.0573   0.0223   0.00    1.0
2173 290619.000    813987.8045  -4734633.2643   4181860.8181   2   8   0.0354   0.0753   0.0649  -0.0266  -0.0567   0.0221   0.00    1.0
2173 290620.000    813987.8022  -4734633.2747   4181860.8335   2   8   0.0352   0.0748   0.0642  -0.0264  -0.0562   0.0218   0.00    1.0
2173 290621.000    813987.8029  -4734633.2847   4181860.8482   2   8   0.0351   0.0744   0.0634  -0.0262  -0.0556   0.0216   0.00    1.0
2173 290622.000    813987.7999  -4734633.2989   4181860.8707   2   8   0.0350   0.0739   0.0627  -0.0261  -0.0551   0.0214   0.00    1.0
2173 290623.000    813987.7991  -4734633.3009   4181860.8808   2   8   0.0347   0.0735   0.0620  -0.0259  -0.0546   0.0212   0.00    1.0
2173 290624.000    813987.7982  -4734633.3136   4181860.9030   2   8   0.0346   0.0730   0.0613  -0.0257  -0.0541   0.0210   0.00    1.0
2173 290625.000    813987.7961  -4734633.3126   4181860.9066   2   8   0.0344   0.0726   0.0607  -0.0256  -0.0536   0.0208   0.00    1.0
2173 290626.000    813987.7964  -4734633.3128   4181860.9153   2   8   0.0344   0.0721   0.0600  -0.0254  -0.0531   0.0206   0.00    1.0
2173 290627.000    813987.7963  -4734633.3139   4181860.9201   2   8   0.0341   0.0717   0.0594  -0.0253  -0.0526   0.0204   0.00    1.0
2173 290628.000    813987.7971  -4734633.3249   4181860.9413   2   8   0.0339   0.0713   0.0587  -0.0251  -0.0521   0.0203   0.00    1.0
2173 290629.000    813987.7971  -4734633.3315   4181860.9498   2   8   0.0339   0.0709   0.0581  -0.0250  -0.0516   0.0201   0.00    1.0
2173 290630.000    813987.7967  -4734633.3458   4181860.9726   2   8   0.0336   0.0705   0.0575  -0.0248  -0.0512   0.0200   0.00    1.0
2173 290631.000    813987.7965  -4734633.3517   4181860.9830   2   8   0.0336   0.0701   0.0569  -0.0247  -0.0507   0.0197   0.00    1.0
2173 290632.000    813987.7985  -4734633.3597   4181861.0018   2   8   0.0333   0.0697   0.0563  -0.0245  -0.0502   0.0195   0.00    1.0
2173 290633.000    813987.7955  -4734633.3552   4181861.0029   2   8   0.0334   0.0693   0.0557  -0.0244  -0.0498   0.0194   0.00    1.0
2173 290634.000    813987.7940  -4734633.3639   4181861.0153   2   8   0.0332   0.0689   0.0551  -0.0242  -0.0494   0.0192   0.00    1.0
2173 290635.000    813987.7943  -4734633.3643   4181861.0178   2   8   0.0331   0.0686   0.0545  -0.0240  -0.0489   0.0190   0.00    1.0
2173 290636.000    813987.7916  -4734633.3665   4181861.0204   2   8   0.0329   0.0682   0.0540  -0.0240  -0.0485   0.0189   0.00    1.0
2173 290637.000    813987.7925  -4734633.3779   4181861.0358   2   8   0.0327   0.0678   0.0534  -0.0239  -0.0481   0.0188   0.00    1.0
2173 290638.000    813987.7911  -4734633.3828   4181861.0472   2   8   0.0326   0.0674   0.0529  -0.0237  -0.0477   0.0186   0.00    1.0
2173 290639.000    813987.7920  -4734633.3923   4181861.0625   2   8   0.0325   0.0671   0.0524  -0.0236  -0.0473   0.0184   0.00    1.0
2173 290640.000    813987.7923  -4734633.4015   4181861.0770   2   8   0.0323   0.0667   0.0518  -0.0235  -0.0469   0.0183   0.00    1.0
2173 290641.000    813987.7927  -4734633.4083   4181861.0968   2   8   0.0322   0.0664   0.0513  -0.0233  -0.0465   0.0181   0.00    1.0
2173 290642.000    813987.7898  -4734633.4068   4181861.1035   2   8   0.0321   0.0660   0.0508  -0.0232  -0.0462   0.0180   0.00    1.0
2173 290643.000    813987.7931  -4734633.4081   4181861.1149   2   8   0.0319   0.0657   0.0503  -0.0231  -0.0458   0.0179   0.00    1.0
2173 290644.000    813987.7909  -4734633.4100   4181861.1191   2   8   0.0318   0.0654   0.0498  -0.0230  -0.0454   0.0178   0.00    1.0
2173 290645.000    813987.7893  -4734633.4156   4181861.1283   2   8   0.0317   0.0650   0.0494  -0.0228  -0.0451   0.0175   0.00    1.0
2173 290646.000    813987.7863  -4734633.4136   4181861.1277   2   8   0.0316   0.0647   0.0489  -0.0228  -0.0447   0.0175   0.00    1.1
2173 290647.000    813987.7854  -4734633.4113   4181861.1316   2   8   0.0313   0.0644   0.0484  -0.0227  -0.0444   0.0173   0.00    1.1
2173 290648.000    813987.7907  -4734633.3540   4181861.1482   2   8   0.0313   0.0641   0.0480  -0.0225  -0.0440   0.0172   0.00    1.0
2173 290649.000    813987.7905  -4734633.3637   4181861.2020   2   8   0.0311   0.0637   0.0475  -0.0224  -0.0437   0.0171   0.00    1.0
2173 290650.000    813987.7922  -4734633.3739   4181861.2535   2   8   0.0310   0.0634   0.0471  -0.0223  -0.0434   0.0169   0.00    1.0
2173 290651.000    813987.7949  -4734633.3832   4181861.3041   2   8   0.0309   0.0631   0.0467  -0.0222  -0.0430   0.0168   0.00    1.0
2173 290652.000    813987.7940  -4734633.3909   4181861.3539   2   8   0.0309   0.0628   0.0462  -0.0221  -0.0427   0.0167   0.00    1.0
2173 290653.000    813987.7970  -4734633.3985   4181861.3992   2   8   0.0307   0.0625   0.0458  -0.0220  -0.0424   0.0166   0.00    1.0
2173 290654.000    813987.7959  -4734633.4114   4181861.4473   2   8   0.0306   0.0623   0.0454  -0.0218  -0.0421   0.0165   0.00    1.0
2173 290655.000    813987.7988  -4734633.4191   4181861.4944   2   8   0.0304   0.0620   0.0450  -0.0218  -0.0418   0.0164   0.00    1.0
2173 290656.000    813987.8003  -4734633.4194   4181861.5285   2   8   0.0304   0.0617   0.0446  -0.0217  -0.0415   0.0162   0.00    1.0
2173 290657.000    813987.8004  -4734633.4243   4181861.5688   2   8   0.0303   0.0614   0.0442  -0.0215  -0.0412   0.0162   0.00    1.1
2173 290658.000    813987.8001  -4734633.4203   4181861.6039   2   8   0.0301   0.0611   0.0438  -0.0215  -0.0409   0.0160   0.00    1.1
2173 290659.000    813987.8196  -4734633.4331   4181861.6567   2   8   0.0300   0.0609   0.0435  -0.0213  -0.0406   0.0159   0.00    1.1
2173 290660.000    813987.8229  -4734633.4462   4181861.7092   2   8   0.0299   0.0606   0.0431  -0.0213  -0.0403   0.0158   0.00    1.1
2173 290661.000    813987.8242  -4734633.4638   4181861.7610   2   8   0.0299   0.0603   0.0427  -0.0212  -0.0401   0.0156   0.00    1.1
2173 290662.000    813987.8285  -4734633.4829   4181861.8134   2   8   0.0297   0.0600   0.0423  -0.0211  -0.0398   0.0155   0.00    1.1
2173 290663.000    813987.8310  -4734633.5020   4181861.8637   2   8   0.0296   0.0598   0.0420  -0.0210  -0.0395   0.0155   0.00    1.1
2173 290664.000    813987.8365  -4734633.5217   4181861.9145   2   8   0.0295   0.0595   0.0416  -0.0209  -0.0392   0.0154   0.00    1.0
2173 290665.000    813987.8396  -4734633.5465   4181861.9640   2   8   0.0294   0.0593   0.0413  -0.0208  -0.0390   0.0153   0.00    1.0
2173 290666.000    813987.8403  -4734633.5598   4181862.0071   2   8   0.0293   0.0590   0.0410  -0.0206  -0.0387   0.0151   0.00    1.0
2173 290667.000    813987.8438  -4734633.5738   4181862.0487   2   8   0.0293   0.0587   0.0406  -0.0206  -0.0385   0.0151   0.00    1.0
2173 290668.000    813987.8454  -4734633.5936   4181862.0979   2   8   0.0291   0.0585   0.0403  -0.0205  -0.0382   0.0150   0.00    1.0
2173 290669.000    813987.8442  -4734633.6120   4181862.1420   2   8   0.0290   0.0582   0.0400  -0.0205  -0.0380   0.0149   0.00    1.0
2173 290670.000    813987.8467  -4734633.6250   4181862.1848   2   8   0.0291   0.0580   0.0396  -0.0203  -0.0377   0.0147   0.00    1.0
2173 290671.000    813987.8484  -4734633.6396   4181862.2277   2   8   0.0288   0.0578   0.0393  -0.0203  -0.0375   0.0147   0.00    1.0
2173 290672.000    813987.8467  -4734633.6503   4181862.2627   2   8   0.0287   0.0575   0.0390  -0.0202  -0.0373   0.0146   0.00    1.0
2173 290673.000    813987.8499  -4734633.6625   4181862.2982   2   8   0.0285   0.0573   0.0387  -0.0201  -0.0370   0.0146   0.00    1.0
2173 290674.000    813987.8519  -4734633.6686   4181862.3293   2   8   0.0286   0.0571   0.0384  -0.0200  -0.0368   0.0144   0.00    1.0
2173 290675.000    813987.8510  -4734633.6758   4181862.3567   2   8   0.0285   0.0568   0.0381  -0.0199  -0.0366   0.0143   0.00    1.0
2173 290676.000    813987.8533  -4734633.6791   4181862.3865   2   8   0.0283   0.0566   0.0378  -0.0199  -0.0363   0.0142   0.00    1.0
2173 290677.000    813987.8532  -4734633.6791   4181862.4099   2   8   0.0283   0.0564   0.0375  -0.0197  -0.0361   0.0141   0.00    1.0
2173 290678.000    813987.8529  -4734633.6754   4181862.4278   2   8   0.0282   0.0562   0.0373  -0.0197  -0.0359   0.0140   0.00    1.0
2173 290679.000    813987.8550  -4734633.6803   4181862.4551   2   8   0.0280   0.0559   0.0370  -0.0196  -0.0357   0.0140   0.00    1.0
2173 290680.000    813987.8532  -4734633.6782   4181862.4759   2   8   0.0279   0.0557   0.0367  -0.0196  -0.0355   0.0139   0.00    1.0
2173 290681.000    813987.8536  -4734633.6812   4181862.5032   2   8   0.0279   0.0555   0.0364  -0.0195  -0.0353   0.0138   0.00    1.0
2173 290682.000    813987.8568  -4734633.6874   4181862.5330   2   8   0.0279   0.0553   0.0362  -0.0194  -0.0351   0.0137   0.00    1.0
2173 290683.000    813987.8570  -4734633.6876   4181862.5546   2   8   0.0277   0.0551   0.0359  -0.0193  -0.0349   0.0136   0.00    1.0
2173 290684.000    813987.8572  -4734633.6908   4181862.5811   2   8   0.0276   0.0549   0.0356  -0.0192  -0.0347   0.0135   0.00    1.0
2173 290685.000    813987.8552  -4734633.6891   4181862.5995   2   8   0.0276   0.0547   0.0354  -0.0191  -0.0345   0.0135   0.00    1.0
2173 290686.000    813987.8539  -4734633.6837   4181862.6162   2   8   0.0275   0.0544   0.0351  -0.0192  -0.0343   0.0134   0.00    1.0
2173 290687.000    813987.8527  -4734633.6766   4181862.6298   2   8   0.0274   0.0543   0.0349  -0.0190  -0.0341   0.0134   0.00    1.0
2173 290688.000    813987.8524  -4734633.6772   4181862.6488   2   8   0.0273   0.0540   0.0346  -0.0190  -0.0339   0.0132   0.00    1.1
2173 290689.000    813987.8510  -4734633.6712   4181862.6627   2   8   0.0270   0.0539   0.0344  -0.0188  -0.0337   0.0132   0.00    1.1
2173 290690.000    813987.8508  -4734633.6658   4181862.6761   2   8   0.0273   0.0536   0.0342  -0.0188  -0.0335   0.0131   0.00    1.1
2173 290691.000    813987.8498  -4734633.6655   4181862.6910   2   8   0.0270   0.0535   0.0339  -0.0188  -0.0333   0.0131   0.00    1.1
2173 290692.000    813987.8489  -4734633.6644   4181862.7026   2   8   0.0270   0.0533   0.0337  -0.0186  -0.0332   0.0130   0.00    1.1
2173 290693.000    813987.8507  -4734633.6638   4181862.7165   2   8   0.0268   0.0530   0.0335  -0.0187  -0.0330   0.0129   0.00    1.1
2173 290694.000    813987.8501  -4734633.6628   4181862.7308   2   8   0.0269   0.0529   0.0332  -0.0185  -0.0328   0.0129   0.00    1.1
2173 290695.000    813987.8469  -4734633.6519   4181862.7383   2   8   0.0267   0.0527   0.0330  -0.0184  -0.0327   0.0128   0.00    1.1
2173 290696.000    813987.8449  -4734633.6533   4181862.7503   2   8   0.0266   0.0525   0.0328  -0.0183  -0.0325   0.0127   0.00    1.1
2173 290697.000    813987.8441  -4734633.6512   4181862.7630   2   8   0.0265   0.0523   0.0326  -0.0183  -0.0323   0.0127   0.00    1.1
2173 290698.000    813987.8415  -4734633.6402   4181862.7662   2   8   0.0263   0.0521   0.0324  -0.0183  -0.0321   0.0126   0.00    1.1
2173 290699.000    813987.8398  -4734633.6375   4181862.7752   2   8   0.0263   0.0519   0.0322  -0.0183  -0.0320   0.0126   0.00    1.1
2173 290700.000    813987.8407  -4734633.6369   4181862.7867   2   8   0.0262   0.0518   0.0319  -0.0181  -0.0318   0.0126   0.00    1.1
2173 290701.000    813987.8409  -4734633.6241   4181862.7882   2   8   0.0263   0.0516   0.0318  -0.0181  -0.0317   0.0124   0.00    1.1
2173 290702.000    813987.8392  -4734633.6144   4181862.7886   2   8   0.0261   0.0514   0.0316  -0.0181  -0.0315   0.0123   0.00    1.1
2173 290703.000    813987.8366  -4734633.6102   4181862.7916   2   8   0.0261   0.0512   0.0313  -0.0180  -0.0314   0.0123   0.00    1.1
2173 290704.000    813987.8382  -4734633.6099   4181862.7952   2   8   0.0261   0.0511   0.0311  -0.0178  -0.0312   0.0122   0.00    1.1
2173 290705.000    813987.8352  -4734633.6020   4181862.7951   2   8   0.0259   0.0509   0.0310  -0.0178  -0.0310   0.0122   0.00    1.1
2173 290706.000    813987.8313  -4734633.5977   4181862.7936   2   8   0.0258   0.0507   0.0308  -0.0178  -0.0309   0.0122   0.00    1.1
2173 290707.000    813987.8282  -4734633.5894   4181862.7864   2   8   0.0257   0.0506   0.0306  -0.0177  -0.0307   0.0120   0.00    1.1
2173 290708.000    813987.8250  -4734633.5904   4181862.7894   2   8   0.0257   0.0504   0.0304  -0.0177  -0.0306   0.0119   0.00    1.1
2173 290709.000    813987.8229  -4734633.5801   4181862.7844   2   8   0.0256   0.0502   0.0302  -0.0176  -0.0305   0.0120   0.00    1.1
2173 290710.000    813987.8183  -4734633.5712   4181862.7797   2   8   0.0255   0.0500   0.0300  -0.0176  -0.0303   0.0118   0.00    1.1
2173 290711.000    813987.8201  -4734633.5710   4181862.7843   2   8   0.0255   0.0499   0.0299  -0.0175  -0.0302   0.0118   0.00    1.1
2173 290712.000    813987.8171  -4734633.5648   4181862.7824   2   8   0.0255   0.0497   0.0297  -0.0174  -0.0300   0.0118   0.00    1.1
2173 290713.000    813987.8128  -4734633.5560   4181862.7820   2   8   0.0255   0.0496   0.0295  -0.0173  -0.0299   0.0117   0.00    1.1
2173 290714.000    813987.7986  -4734633.5327   4181862.7731   2   8   0.0253   0.0494   0.0293  -0.0173  -0.0298   0.0116   0.00    1.1
2173 290715.000    813987.7982  -4734633.5230   4181862.7650   2   8   0.0251   0.0492   0.0292  -0.0172  -0.0296   0.0115   0.00    1.2
2173 290716.000    813987.7970  -4734633.5135   4181862.7579   2   8   0.0250   0.0491   0.0290  -0.0172  -0.0295   0.0116   0.00    1.2
2173 290717.000    813987.7960  -4734633.5082   4181862.7556   2   8   0.0250   0.0489   0.0288  -0.0171  -0.0294   0.0116   0.00    1.2
2173 290718.000    813987.7937  -4734633.4991   4181862.7496   2   8   0.0250   0.0487   0.0287  -0.0171  -0.0292   0.0114   0.00    1.2
2173 290719.000    813987.7937  -4734633.4938   4181862.7442   2   8   0.0249   0.0486   0.0285  -0.0170  -0.0291   0.0114   0.00    1.2
2173 290720.000    813987.7910  -4734633.4786   4181862.7294   2   8   0.0248   0.0485   0.0284  -0.0169  -0.0290   0.0114   0.00    1.2
2173 290721.000    813987.7912  -4734633.4686   4181862.7224   2   8   0.0248   0.0483   0.0282  -0.0169  -0.0288   0.0113   0.00    1.2
2173 290722.000    813987.7905  -4734633.4630   4181862.7182   2   8   0.0249   0.0482   0.0280  -0.0168  -0.0287   0.0113   0.00    1.2
2173 290723.000    813987.7884  -4734633.4500   4181862.7094   2   8   0.0246   0.0480   0.0279  -0.0168  -0.0286   0.0113   0.00    1.2
2173 290724.000    813987.7896  -4734633.4455   4181862.7067   2   8   0.0246   0.0479   0.0277  -0.0167  -0.0285   0.0112   0.00    1.2
2173 290725.000    813987.7857  -4734633.4268   4181862.6916   2   8   0.0244   0.0477   0.0276  -0.0167  -0.0284   0.0111   0.00    1.2
2173 290726.000    813987.7836  -4734633.4160   4181862.6820   2   8   0.0244   0.0475   0.0274  -0.0167  -0.0282   0.0112   0.00    1.2
2173 290727.000    813987.7805  -4734633.4081   4181862.6741   2   8   0.0244   0.0474   0.0273  -0.0165  -0.0281   0.0110   0.00    1.2
2173 290728.000    813987.7776  -4734633.3918   4181862.6596   2   8   0.0243   0.0473   0.0271  -0.0165  -0.0280   0.0110   0.00    1.2
2173 290729.000    813987.7752  -4734633.3842   4181862.6477   2   8   0.0243   0.0471   0.0270  -0.0165  -0.0279   0.0109   0.00    1.2
2173 290730.000    813987.7740  -4734633.3750   4181862.6363   2   8   0.0243   0.0470   0.0269  -0.0164  -0.0278   0.0109   0.00    1.2
2173 290731.000    813987.7717  -4734633.3642   4181862.6217   2   8   0.0241   0.0468   0.0267  -0.0164  -0.0277   0.0108   0.00    1.2
2173 290732.000    813987.7699  -4734633.3475   4181862.6083   2   8   0.0241   0.0467   0.0266  -0.0163  -0.0276   0.0108   0.00    1.2
2173 290733.000    813987.7699  -4734633.3397   4181862.5925   2   8   0.0239   0.0465   0.0265  -0.0164  -0.0274   0.0107   0.00    1.2
2173 290734.000    813987.7672  -4734633.3319   4181862.5788   2   8   0.0240   0.0464   0.0263  -0.0162  -0.0274   0.0107   0.00    1.2
2173 290735.000    813987.7648  -4734633.3265   4181862.5709   2   8   0.0239   0.0463   0.0262  -0.0161  -0.0272   0.0107   0.00    1.2
2173 290736.000    813987.7629  -4734633.3148   4181862.5587   2   8   0.0237   0.0461   0.0261  -0.0162  -0.0271   0.0106   0.00    1.2
2173 290737.000    813987.7633  -4734633.3042   4181862.5523   2   8   0.0236   0.0460   0.0259  -0.0161  -0.0270   0.0106   0.00    1.3
2173 290738.000    813987.7598  -4734633.2927   4181862.5424   2   8   0.0237   0.0459   0.0258  -0.0161  -0.0269   0.0105   0.00    1.3
2173 290739.000    813987.7600  -4734633.2828   4181862.5307   2   8   0.0237   0.0457   0.0257  -0.0160  -0.0268   0.0105   0.00    1.3
2173 290740.000    813987.7575  -4734633.2648   4181862.5128   2   8   0.0234   0.0456   0.0255  -0.0160  -0.0267   0.0106   0.00    1.3
2173 290741.000    813987.7580  -4734633.2546   4181862.5054   2   8   0.0234   0.0455   0.0254  -0.0160  -0.0266   0.0105   0.00    1.3
2173 290742.000    813987.7556  -4734633.2482   4181862.4989   2   8   0.0233   0.0453   0.0253  -0.0159  -0.0265   0.0105   0.00    1.3
2173 290743.000    813987.7513  -4734633.2386   4181862.4917   2   8   0.0234   0.0452   0.0252  -0.0158  -0.0264   0.0104   0.00    1.3
2173 290744.000    813987.7520  -4734633.2286   4181862.4815   2   8   0.0234   0.0451   0.0251  -0.0157  -0.0263   0.0102   0.00    1.3
2173 290745.000    813987.7505  -4734633.2224   4181862.4734   2   8   0.0232   0.0450   0.0250  -0.0158  -0.0262   0.0103   0.00    1.3
2173 290746.000    813987.7470  -4734633.2124   4181862.4677   2   8   0.0232   0.0448   0.0249  -0.0157  -0.0261   0.0103   0.00    1.3
2173 290747.000    813987.7451  -4734633.2020   4181862.4551   2   8   0.0232   0.0447   0.0247  -0.0157  -0.0260   0.0102   0.00    1.3
2173 290748.000    813987.7428  -4734633.1916   4181862.4454   2   8   0.0230   0.0446   0.0246  -0.0155  -0.0259   0.0101   0.00    1.3
2173 290749.000    813987.7409  -4734633.1794   4181862.4328   2   8   0.0230   0.0444   0.0245  -0.0156  -0.0258   0.0102   0.00    1.3
2173 290750.000    813987.7396  -4734633.1684   4181862.4306   2   8   0.0230   0.0443   0.0244  -0.0154  -0.0257   0.0101   0.00    1.3
2173 290751.000    813987.7387  -4734633.1629   4181862.4283   2   8   0.0228   0.0442   0.0242  -0.0154  -0.0256   0.0102   0.00    1.3
2173 290752.000    813987.7379  -4734633.1564   4181862.4228   2   8   0.0229   0.0441   0.0242  -0.0154  -0.0255   0.0100   0.00    1.3
2173 290753.000    813987.7356  -4734633.1518   4181862.4196   2   8   0.0228   0.0440   0.0241  -0.0153  -0.0254   0.0100   0.00    1.3
2173 290754.000    813987.7329  -4734633.1480   4181862.4194   2   8   0.0227   0.0438   0.0240  -0.0153  -0.0254   0.0098   0.00    1.3
2173 290755.000    813987.7314  -4734633.1436   4181862.4155   2   8   0.0225   0.0437   0.0238  -0.0153  -0.0253   0.0100   0.00    1.3
2173 290756.000    813987.7304  -4734633.1344   4181862.4063   2   8   0.0227   0.0436   0.0237  -0.0152  -0.0252   0.0099   0.00    1.4
2173 290757.000    813987.7293  -4734633.1261   4181862.3991   2   8   0.0225   0.0435   0.0236  -0.0153  -0.0251   0.0100   0.00    1.4
2173 290758.000    813987.7266  -4734633.1123   4181862.3902   2   8   0.0224   0.0433   0.0236  -0.0152  -0.0250   0.0098   0.00    1.4
2173 290759.000    813987.7263  -4734633.1071   4181862.3812   2   8   0.0225   0.0432   0.0235  -0.0151  -0.0249   0.0097   0.00    1.4
2173 290760.000    813987.7263  -4734633.0964   4181862.3768   2   8   0.0222   0.0431   0.0234  -0.0151  -0.0248   0.0097   0.00    1.4
2173 290761.000    813987.7258  -4734633.0842   4181862.3676   2   8   0.0224   0.0430   0.0233  -0.0149  -0.0248   0.0097   0.00    1.4
2173 290762.000    813987.7233  -4734633.0764   4181862.3563   2   8   0.0221   0.0429   0.0232  -0.0150  -0.0247   0.0096   0.00    1.4
2173 290763.000    813987.7225  -4734633.0747   4181862.3537   2   8   0.0222   0.0428   0.0231  -0.0150  -0.0246   0.0097   0.00    1.4
2173 290764.000    813987.7211  -4734633.0666   4181862.3482   2   8   0.0221   0.0427   0.0230  -0.0149  -0.0245   0.0096   0.00    1.4
2173 290765.000    813987.7191  -4734633.0634   4181862.3435   2   8   0.0222   0.0426   0.0229  -0.0148  -0.0245   0.0096   0.00    1.4
2173 290766.000    813987.7147  -4734633.0580   4181862.3379   2   8   0.0221   0.0424   0.0228  -0.0148  -0.0244   0.0095   0.00    1.4
2173 290767.000    813987.7100  -4734633.0501   4181862.3328   2   8   0.0220   0.0423   0.0227  -0.0149  -0.0243   0.0095   0.00    1.4
2173 290768.000    813987.7109  -4734633.0430   4181862.3293   2   8   0.0221   0.0422   0.0226  -0.0147  -0.0242   0.0094   0.00    1.4
2173 290769.000    813987.7092  -4734633.0366   4181862.3210   2   8   0.0218   0.0421   0.0225  -0.0148  -0.0241   0.0095   0.00    1.4
2173 290770.000    813987.7068  -4734633.0309   4181862.3178   2   8   0.0216   0.0420   0.0224  -0.0147  -0.0241   0.0096   0.00    1.4
2173 290771.000    813987.7031  -4734633.0269   4181862.3144   2   8   0.0218   0.0419   0.0223  -0.0146  -0.0240   0.0094   0.00    1.4
2173 290772.000    813987.7032  -4734633.0172   4181862.3055   2   8   0.0218   0.0418   0.0222  -0.0145  -0.0239   0.0094   0.00    1.4
2173 290773.000    813987.7003  -4734633.0085   4181862.2979   2   8   0.0216   0.0417   0.0222  -0.0146  -0.0238   0.0093   0.00    1.5
2173 290774.000    813987.6998  -4734632.9997   4181862.2887   2   8   0.0216   0.0416   0.0221  -0.0145  -0.0237   0.0093   0.00    1.5
2173 290775.000    813987.6965  -4734632.9864   4181862.2766   2   8   0.0217   0.0414   0.0220  -0.0144  -0.0237   0.0094   0.00    1.5
2173 290776.000    813987.6957  -4734632.9843   4181862.2734   2   8   0.0215   0.0413   0.0219  -0.0144  -0.0236   0.0092   0.00    1.5
2173 290777.000    813987.6946  -4734632.9778   4181862.2666   2   8   0.0216   0.0412   0.0218  -0.0143  -0.0235   0.0092   0.00    1.5
2173 290778.000    813987.6939  -4734632.9651   4181862.2516   2   8   0.0213   0.0411   0.0217  -0.0143  -0.0234   0.0092   0.00    1.5
2173 290779.000    813987.6910  -4734632.9481   4181862.2398   2   8   0.0213   0.0410   0.0216  -0.0144  -0.0234   0.0092   0.00    1.5
2173 290780.000    813987.6921  -4734632.9327   4181862.2275   2   8   0.0214   0.0409   0.0216  -0.0143  -0.0233   0.0091   0.00    1.5
2173 290781.000    813987.6905  -4734632.9212   4181862.2202   2   8   0.0214   0.0409   0.0215  -0.0141  -0.0232   0.0090   0.00    1.5
2173 290782.000    813987.6894  -4734632.9099   4181862.2109   2   8   0.0214   0.0407   0.0214  -0.0141  -0.0232   0.0091   0.00    1.5
2173 290783.000    813987.6866  -4734632.8915   4181862.1940   2   8   0.0212   0.0406   0.0214  -0.0142  -0.0231   0.0090   0.00    1.4
2173 290784.000    813987.6866  -4734632.8860   4181862.1908   2   8   0.0212   0.0405   0.0213  -0.0140  -0.0230   0.0090   0.00    1.4
2173 290785.000    813987.6857  -4734632.8738   4181862.1832   2   8   0.0210   0.0404   0.0212  -0.0141  -0.0230   0.0090   0.00    1.4
2173 290786.000    813987.6857  -4734632.8547   4181862.1707   2   8   0.0212   0.0403   0.0211  -0.0140  -0.0229   0.0090   0.00    1.4
2173 290787.000    813987.6875  -4734632.8414   4181862.1637   2   8   0.0209   0.0402   0.0211  -0.0141  -0.0228   0.0089   0.00    1.4
2173 290788.000    813987.6873  -4734632.8284   4181862.1552   2   8   0.0209   0.0401   0.0210  -0.0139  -0.0228   0.0090   0.00    1.4
2173 290789.000    813987.6864  -4734632.8181   4181862.1468   2   8   0.0210   0.0400   0.0209  -0.0140  -0.0227   0.0089   0.00    1.4
2173 290790.000    813987.6864  -4734632.8103   4181862.1423   2   8   0.0208   0.0399   0.0208  -0.0140  -0.0227   0.0090   0.00    1.4
2173 290791.000    813987.6846  -4734632.8036   4181862.1414   2   8   0.0208   0.0398   0.0208  -0.0139  -0.0226   0.0088   0.00    1.4
2173 290792.000    813987.6833  -4734632.7951   4181862.1344   2   8   0.0206   0.0397   0.0207  -0.0139  -0.0225   0.0089   0.00    1.4
2173 290793.000    813987.6811  -4734632.7795   4181862.1245   2   8   0.0208   0.0396   0.0206  -0.0138  -0.0225   0.0087   0.00    1.4
2173 290794.000    813987.6799  -4734632.7693   4181862.1137   2   8   0.0206   0.0395   0.0205  -0.0138  -0.0224   0.0088   0.00    1.4
2173 290795.000    813987.6787  -4734632.7544   4181862.1033   2   8   0.0206   0.0394   0.0205  -0.0137  -0.0223   0.0087   0.00    1.4
2173 290796.000    813987.6780  -4734632.7429   4181862.0918   2   8   0.0206   0.0393   0.0204  -0.0137  -0.0223   0.0087   0.00    1.4
2173 290797.000    813987.6746  -4734632.7321   4181862.0853   2   8   0.0203   0.0393   0.0204  -0.0137  -0.0222   0.0087   0.00    1.4
2173 290798.000    813987.6734  -4734632.7262   4181862.0786   2   8   0.0205   0.0391   0.0203  -0.0136  -0.0221   0.0086   0.00    1.3
2173 290799.000    813987.6703  -4734632.7187   4181862.0764   2   8   0.0204   0.0390   0.0203  -0.0136  -0.0221   0.0086   0.00    1.3
2173 290800.000    813987.6692  -4734632.7078   4181862.0696   2   8   0.0204   0.0389   0.0202  -0.0136  -0.0220   0.0086   0.00    1.3
2173 290801.000    813987.6666  -4734632.7005   4181862.0621   2   8   0.0204   0.0389   0.0201  -0.0135  -0.0219   0.0086   0.00    1.3
2173 290802.000    813987.6623  -4734632.6934   4181862.0580   2   8   0.0204   0.0388   0.0200  -0.0135  -0.0219   0.0086   0.00    1.3
2173 290803.000    813987.6603  -4734632.6821   4181862.0529   2   8   0.0201   0.0387   0.0200  -0.0134  -0.0218   0.0087   0.00    1.3
2173 290804.000    813987.6580  -4734632.6736   4181862.0483   2   8   0.0203   0.0386   0.0199  -0.0135  -0.0218   0.0084   0.00    1.3
2173 290805.000    813987.6570  -4734632.6624   4181862.0407   2   8   0.0200   0.0385   0.0199  -0.0134  -0.0217   0.0084   0.00    1.3
2173 290806.000    813987.6532  -4734632.6477   4181862.0274   2   8   0.0202   0.0384   0.0198  -0.0134  -0.0216   0.0084   0.00    1.3
2173 290807.000    813987.6528  -4734632.6350   4181862.0192   2   8   0.0199   0.0383   0.0197  -0.0133  -0.0216   0.0085   0.00    1.3
2173 290808.000    813987.6516  -4734632.6195   4181862.0124   2   8   0.0200   0.0382   0.0197  -0.0133  -0.0215   0.0084   0.00    1.3
2173 290809.000    813987.6495  -4734632.6042   4181861.9972   2   8   0.0201   0.0381   0.0196  -0.0133  -0.0215   0.0084   0.00    1.3
2173 290810.000    813987.6473  -4734632.5947   4181861.9904   2   8   0.0200   0.0380   0.0195  -0.0132  -0.0215   0.0083   0.00    1.3
2173 290811.000    813987.6436  -4734632.5841   4181861.9838   2   8   0.0197   0.0379   0.0195  -0.0133  -0.0214   0.0084   0.00    1.3
2173 290812.000    813987.6400  -4734632.5741   4181861.9761   2   8   0.0199   0.0379   0.0194  -0.0131  -0.0213   0.0083   0.00    1.3
2173 290813.000    813987.6370  -4734632.5684   4181861.9771   2   8   0.0200   0.0378   0.0194  -0.0131  -0.0213   0.0081   0.00    1.3
2173 290814.000    813987.6327  -4734632.5555   4181861.9686   2   8   0.0197   0.0377   0.0193  -0.0130  -0.0212   0.0083   0.00    1.3
2173 290815.000    813987.6289  -4734632.5435   4181861.9603   2   8   0.0198   0.0376   0.0192  -0.0130  -0.0212   0.0083   0.00    1.3
2173 290816.000    813987.6082  -4734632.5342   4181861.9598   2   8   0.0196   0.0375   0.0192  -0.0131  -0.0211   0.0083   0.00    1.3
2173 290817.000    813987.6049  -4734632.5165   4181861.9528   2   8   0.0196   0.0374   0.0192  -0.0131  -0.0210   0.0081   0.00    1.3
2173 290818.000    813987.6010  -4734632.5032   4181861.9494   2   8   0.0197   0.0374   0.0192  -0.0129  -0.0210   0.0081   0.00    1.3
2173 290819.000    813987.5998  -4734632.4865   4181861.9527   2   8   0.0195   0.0373   0.0190  -0.0129  -0.0209   0.0082   0.00    1.2
2173 290820.000    813987.5984  -4734632.4705   4181861.9491   2   8   0.0193   0.0372   0.0190  -0.0129  -0.0209   0.0082   0.00    1.2
2173 290821.000    813987.5962  -4734632.4500   4181861.9445   2   8   0.0195   0.0371   0.0190  -0.0129  -0.0208   0.0081   0.00    1.2
2173 290822.000    813987.5952  -4734632.4356   4181861.9378   2   8   0.0195   0.0370   0.0189  -0.0129  -0.0208   0.0081   0.00    1.2
2173 290823.000    813987.5972  -4734632.4222   4181861.9366   2   8   0.0195   0.0369   0.0188  -0.0128  -0.0208   0.0080   0.00    1.2
2173 290824.000    813987.5971  -4734632.4111   4181861.9365   2   8   0.0194   0.0368   0.0188  -0.0128  -0.0207   0.0080   0.00    1.2
2173 290825.000    813987.5973  -4734632.4029   4181861.9352   2   8   0.0195   0.0368   0.0187  -0.0126  -0.0206   0.0080   0.00    1.2
2173 290826.000    813987.5942  -4734632.3929   4181861.9334   2   8   0.0193   0.0367   0.0187  -0.0127  -0.0206   0.0080   0.00    1.2
2173 290827.000    813987.5905  -4734632.3824   4181861.9316   2   8   0.0192   0.0366   0.0186  -0.0127  -0.0205   0.0080   0.00    1.2
2173 290828.000    813987.5933  -4734632.3792   4181861.9317   2   8   0.0192   0.0365   0.0186  -0.0128  -0.0205   0.0079   0.00    1.2
2173 290829.000    813987.5920  -4734632.3670   4181861.9258   2   8   0.0191   0.0364   0.0185  -0.0127  -0.0204   0.0079   0.00    1.2
2173 290830.000    813987.5914  -4734632.3532   4181861.9231   2   8   0.0190   0.0364   0.0185  -0.0126  -0.0204   0.0079   0.00    1.2
2173 290831.000    813987.5892  -4734632.3375   4181861.9138   2   8   0.0190   0.0362   0.0184  -0.0127  -0.0204   0.0080   0.00    1.2
2173 290832.000    813987.5885  -4734632.3214   4181861.9027   2   8   0.0191   0.0362   0.0184  -0.0125  -0.0203   0.0078   0.00    1.2
2173 290833.000    813987.5881  -4734632.3076   4181861.8950   2   8   0.0187   0.0361   0.0184  -0.0125  -0.0202   0.0079   0.00    1.2
2173 290834.000    813987.5860  -4734632.3012   4181861.8885   2   8   0.0190   0.0361   0.0183  -0.0123  -0.0202   0.0078   0.00    1.2
2173 290835.000    813987.5890  -4734632.2945   4181861.8896   2   8   0.0189   0.0360   0.0183  -0.0124  -0.0201   0.0078   0.00    1.2
2173 290836.000    813987.5824  -4734632.2705   4181861.8777   2   8   0.0188   0.0359   0.0182  -0.0125  -0.0201   0.0078   0.00    1.2
2173 290837.000    813987.5813  -4734632.2626   4181861.8788   2   8   0.0189   0.0358   0.0182  -0.0124  -0.0201   0.0079   0.00    1.2
2173 290838.000    813987.5811  -4734632.2546   4181861.8731   2   8   0.0188   0.0358   0.0181  -0.0123  -0.0200   0.0078   0.00    1.2
2173 290839.000    813987.5797  -4734632.2452   4181861.8729   2   8   0.0186   0.0356   0.0181  -0.0124  -0.0200   0.0077   0.00    1.2
2173 290840.000    813987.5790  -4734632.2301   4181861.8635   2   8   0.0187   0.0356   0.0180  -0.0124  -0.0199   0.0077   0.00    1.2
2173 290841.000    813987.5796  -4734632.2137   4181861.8584   2   8   0.0186   0.0355   0.0180  -0.0122  -0.0199   0.0077   0.00    1.2
2173 290842.000    813987.5794  -4734632.2053   4181861.8512   2   8   0.0186   0.0354   0.0179  -0.0123  -0.0199   0.0077   0.00    1.2
2173 290843.000    813987.5795  -4734632.1952   4181861.8486   2   8   0.0187   0.0354   0.0179  -0.0122  -0.0198   0.0076   0.00    1.2
2173 290844.000    813987.5784  -4734632.1918   4181861.8491   2   8   0.0185   0.0353   0.0179  -0.0122  -0.0197   0.0076   0.00    1.1
2173 290845.000    813987.5771  -4734632.1870   4181861.8504   2   8   0.0186   0.0352   0.0178  -0.0123  -0.0197   0.0076   0.00    1.1
2173 290846.000    813987.5746  -4734632.1854   4181861.8518   2   8   0.0184   0.0351   0.0178  -0.0122  -0.0196   0.0076   0.00    1.1
2173 290847.000    813987.5709  -4734632.1754   4181861.8497   2   8   0.0185   0.0351   0.0177  -0.0121  -0.0196   0.0076   0.00    1.1
2173 290848.000    813987.5728  -4734632.1718   4181861.8504   2   8   0.0185   0.0349   0.0177  -0.0122  -0.0196   0.0076   0.00    1.1
2173 290849.000    813987.5709  -4734632.1645   4181861.8466   2   8   0.0184   0.0349   0.0176  -0.0121  -0.0195   0.0076   0.00    1.1
2173 290850.000    813987.5720  -4734632.1570   4181861.8451   2   8   0.0183   0.0348   0.0176  -0.0121  -0.0195   0.0075   0.00    1.1
2173 290851.000    813987.5707  -4734632.1509   4181861.8439   2   8   0.0183   0.0348   0.0175  -0.0120  -0.0194   0.0076   0.00    1.1
2173 290852.000    813987.5706  -4734632.1465   4181861.8403   2   8   0.0182   0.0347   0.0175  -0.0120  -0.0194   0.0075   0.00    1.1
2173 290853.000    813987.5698  -4734632.1380   4181861.8350   2   8   0.0181   0.0346   0.0175  -0.0120  -0.0194   0.0076   0.00    1.1
2173 290854.000    813987.5662  -4734632.1301   4181861.8266   2   8   0.0182   0.0346   0.0174  -0.0119  -0.0193   0.0075   0.00    1.1
2173 290855.000    813987.5623  -4734632.1290   4181861.8259   2   8   0.0182   0.0344   0.0174  -0.0120  -0.0193   0.0075   0.00    1.1
2173 290856.000    813987.5613  -4734632.1280   4181861.8224   2   8   0.0180   0.0344   0.0174  -0.0119  -0.0192   0.0074   0.00    1.1
2173 290857.000    813987.5577  -4734632.1253   4181861.8207   2   8   0.0180   0.0343   0.0173  -0.0118  -0.0192   0.0075   0.00    1.1
2173 290858.000    813987.5570  -4734632.1239   4181861.8154   2   8   0.0181   0.0343   0.0173  -0.0118  -0.0191   0.0074   0.00    1.1
2173 290859.000    813987.5567  -4734632.1187   4181861.8086   2   8   0.0180   0.0342   0.0173  -0.0116  -0.0191   0.0075   0.00    1.1
2173 290860.000    813987.5568  -4734632.1107   4181861.8012   2   8   0.0180   0.0341   0.0172  -0.0119  -0.0191   0.0073   0.00    1.0
2173 290861.000    813987.5571  -4734632.1008   4181861.7912   2   8   0.0181   0.0341   0.0171  -0.0117  -0.0191   0.0075   0.00    1.0
2173 290862.000    813987.5587  -4734632.1022   4181861.7910   2   8   0.0180   0.0340   0.0171  -0.0116  -0.0190   0.0074   0.00    1.0
2173 290863.000    813987.5612  -4734632.0993   4181861.7908   2   8   0.0178   0.0339   0.0171  -0.0118  -0.0189   0.0075   0.00    1.0
2173 290864.000    813987.5613  -4734632.1009   4181861.7886   2   8   0.0179   0.0338   0.0170  -0.0117  -0.0189   0.0072   0.00    1.0
2173 290865.000    813987.5613  -4734632.0995   4181861.7850   2   8   0.0177   0.0337   0.0171  -0.0118  -0.0189   0.0073   0.00    1.0
2173 290866.000    813987.5665  -4734632.1008   4181861.7871   2   8   0.0179   0.0337   0.0170  -0.0116  -0.0188   0.0073   0.00    1.0
2173 290867.000    813987.5669  -4734632.0960   4181861.7828   2   8   0.0174   0.0336   0.0170  -0.0117  -0.0188   0.0074   0.00    1.0
2173 290868.000    813987.5671  -4734632.0931   4181861.7792   2   8   0.0178   0.0335   0.0169  -0.0116  -0.0188   0.0072   0.00    1.0
2173 290869.000    813987.5688  -4734632.0882   4181861.7795   2   8   0.0178   0.0335   0.0169  -0.0115  -0.0187   0.0074   0.00    1.0
2173 290870.000    813987.5676  -4734632.0805   4181861.7722   2   8   0.0176   0.0334   0.0169  -0.0115  -0.0187   0.0072   0.00    1.0
2173 290871.000    813987.5675  -4734632.0747   4181861.7680   2   8   0.0175   0.0333   0.0168  -0.0117  -0.0187   0.0072   0.00    1.0
2173 290872.000    813987.5695  -4734632.0797   4181861.7755   2   8   0.0176   0.0333   0.0168  -0.0114  -0.0186   0.0072   0.00    1.0
2173 290873.000    813987.5688  -4734632.0694   4181861.7651   2   8   0.0175   0.0332   0.0168  -0.0115  -0.0186   0.0072   0.00    1.0
2173 290874.000    813987.5690  -4734632.0707   4181861.7646   2   8   0.0177   0.0332   0.0167  -0.0113  -0.0185   0.0071   0.00    1.0
2173 290875.000    813987.5684  -4734632.0660   4181861.7607   2   8   0.0174   0.0331   0.0167  -0.0115  -0.0185   0.0072   0.00    1.0
2173 290876.000    813987.5672  -4734632.0667   4181861.7580   2   8   0.0175   0.0330   0.0167  -0.0114  -0.0185   0.0071   0.00    1.0
2173 290877.000    813987.5654  -4734632.0592   4181861.7484   2   8   0.0174   0.0330   0.0166  -0.0114  -0.0184   0.0072   0.00    1.0
2173 290878.000    813987.5651  -4734632.0530   4181861.7403   2   8   0.0172   0.0329   0.0166  -0.0113  -0.0184   0.0070   0.00    1.0
2173 290879.000    813987.5636  -4734632.0511   4181861.7373   2   8   0.0175   0.0328   0.0166  -0.0113  -0.0184   0.0072   0.00    1.0
2173 290880.000    813987.5642  -4734632.0473   4181861.7318   2   8   0.0175   0.0328   0.0165  -0.0113  -0.0183   0.0071   0.00    1.0
2173 290881.000    813987.5633  -4734632.0398   4181861.7213   2   8   0.0172   0.0328   0.0165  -0.0112  -0.0183   0.0070   0.00    1.0
2173 290882.000    813987.5611  -4734632.0375   4181861.7198   2   8   0.0172   0.0327   0.0164  -0.0112  -0.0182   0.0071   0.00    1.0
2173 290883.000    813987.5604  -4734632.0278   4181861.7092   2   8   0.0171   0.0326   0.0164  -0.0113  -0.0182   0.0071   0.00    1.0
2173 290884.000    813987.5592  -4734632.0246   4181861.7086   2   8   0.0174   0.0325   0.0164  -0.0112  -0.0182   0.0070   0.00    1.0
2173 290885.000    813987.5586  -4734632.0115   4181861.6979   2   8   0.0170   0.0325   0.0164  -0.0112  -0.0182   0.0070   0.00    1.0
2173 290886.000    813987.5568  -4734632.0066   4181861.6920   2   8   0.0171   0.0324   0.0163  -0.0111  -0.0181   0.0071   0.00    1.0
2173 290887.000    813987.5560  -4734631.9942   4181861.6801   2   8   0.0170   0.0323   0.0163  -0.0111  -0.0181   0.0069   0.00    1.0
2173 290888.000    813987.5609  -4734632.0035   4181861.6911   2   8   0.0170   0.0323   0.0163  -0.0111  -0.0181   0.0071   0.00    1.1
2173 290889.000    813987.5617  -4734632.0039   4181861.6894   2   8   0.0171   0.0322   0.0163  -0.0110  -0.0180   0.0069   0.00    1.1
2173 290890.000    813987.5605  -4734631.9986   4181861.6813   2   8   0.0170   0.0322   0.0162  -0.0110  -0.0180   0.0069   0.00    1.1
2173 290891.000    813987.5615  -4734631.9967   4181861.6787   2   8   0.0170   0.0321   0.0162  -0.0110  -0.0179   0.0068   0.00    1.0
2173 290892.000    813987.5583  -4734631.9895   4181861.6714   2   8   0.0168   0.0320   0.0161  -0.0111  -0.0179   0.0069   0.00    1.0
2173 290893.000    813987.5582  -4734631.9872   4181861.6670   2   8   0.0167   0.0320   0.0161  -0.0110  -0.0179   0.0069   0.00    1.0
2173 290894.000    813987.5586  -4734631.9799   4181861.6614   2   8   0.0168   0.0319   0.0161  -0.0110  -0.0178   0.0068   0.00    1.0
2173 290895.000    813987.5585  -4734631.9720   4181861.6552   2   8   0.0168   0.0319   0.0160  -0.0108  -0.0178   0.0069   0.00    1.0
2173 290896.000    813987.5642  -4734631.9684   4181861.6638   2   8   0.0169   0.0318   0.0160  -0.0108  -0.0178   0.0070   0.00    1.0
2173 290897.000    813987.5628  -4734631.9687   4181861.6693   2   8   0.0168   0.0317   0.0160  -0.0110  -0.0178   0.0067   0.00    1.0
2173 290898.000    813987.5612  -4734631.9709   4181861.6727   2   8   0.0167   0.0317   0.0160  -0.0109  -0.0177   0.0068   0.00    1.0
2173 290899.000    813987.5598  -4734631.9697   4181861.6734   2   8   0.0167   0.0316   0.0160  -0.0109  -0.0177   0.0068   0.00    1.1
2173 290900.000    813987.5580  -4734631.9671   4181861.6725   2   8   0.0165   0.0315   0.0159  -0.0110  -0.0177   0.0067   0.00    1.1
2173 290901.000    813987.5570  -4734631.9687   4181861.6751   2   8   0.0166   0.0315   0.0159  -0.0108  -0.0176   0.0067   0.00    1.1
2173 290902.000    813987.5566  -4734631.9615   4181861.6661   2   8   0.0165   0.0314   0.0159  -0.0109  -0.0176   0.0067   0.00    1.1
2173 290903.000    813987.5565  -4734631.9564   4181861.6644   2   8   0.0168   0.0314   0.0159  -0.0107  -0.0175   0.0068   0.00    1.1
2173 290904.000    813987.5577  -4734631.9547   4181861.6664   2   8   0.0165   0.0313   0.0158  -0.0109  -0.0175   0.0068   0.00    1.1
2173 290905.000    813987.5580  -4734631.9491   4181861.6598   2   8   0.0164   0.0312   0.0158  -0.0107  -0.0175   0.0066   0.00    1.1
2173 290906.000    813987.5565  -4734631.9407   4181861.6554   2   8   0.0163   0.0312   0.0158  -0.0108  -0.0175   0.0067   0.00    1.1
2173 290907.000    813987.5549  -4734631.9362   4181861.6533   2   8   0.0166   0.0311   0.0158  -0.0107  -0.0174   0.0066   0.00    1.1
2173 290908.000    813987.5539  -4734631.9364   4181861.6540   2   8   0.0165   0.0310   0.0157  -0.0108  -0.0174   0.0068   0.00    1.1
2173 290909.000    813987.5510  -4734631.9301   4181861.6488   2   8   0.0163   0.0310   0.0157  -0.0106  -0.0174   0.0066   0.00    1.1
2173 290910.000    813987.5495  -4734631.9242   4181861.6453   2   8   0.0164   0.0309   0.0157  -0.0107  -0.0174   0.0066   0.00    1.1
2173 290911.000    813987.5483  -4734631.9154   4181861.6393   2   8   0.0162   0.0309   0.0157  -0.0107  -0.0173   0.0067   0.00    1.1
2173 290912.000    813987.5473  -4734631.9117   4181861.6337   2   8   0.0160   0.0308   0.0156  -0.0105  -0.0173   0.0067   0.00    1.1
2173 290913.000    813987.5438  -4734631.9028   4181861.6261   2   8   0.0161   0.0308   0.0156  -0.0106  -0.0173   0.0067   0.00    1.1
2173 290914.000    813987.5446  -4734631.9029   4181861.6272   2   8   0.0161   0.0308   0.0156  -0.0105  -0.0172   0.0066   0.00    1.1
2173 290915.000    813987.5433  -4734631.9038   4181861.6237   2   8   0.0163   0.0307   0.0155  -0.0104  -0.0172   0.0066   0.00    1.1
2173 290916.000    813987.5430  -4734631.9028   4181861.6257   2   8   0.0160   0.0307   0.0156  -0.0105  -0.0172   0.0066   0.00    1.1
2173 290917.000    813987.5449  -4734631.9053   4181861.6303   2   8   0.0162   0.0305   0.0155  -0.0105  -0.0172   0.0065   0.00    1.1
2173 290918.000    813987.5457  -4734631.9095   4181861.6323   2   8   0.0161   0.0305   0.0155  -0.0105  -0.0171   0.0066   0.00    1.1
2173 290919.000    813987.5454  -4734631.9105   4181861.6361   2   8   0.0162   0.0304   0.0155  -0.0104  -0.0171   0.0065   0.00    1.1
2173 290920.000    813987.5462  -4734631.9095   4181861.6393   2   8   0.0159   0.0304   0.0154  -0.0104  -0.0170   0.0065   0.00    1.1
2173 290921.000    813987.5466  -4734631.9158   4181861.6433   2   8   0.0160   0.0304   0.0154  -0.0104  -0.0170   0.0066   0.00    1.1
2173 290922.000    813987.5471  -4734631.9109   4181861.6409   2   8   0.0159   0.0303   0.0154  -0.0103  -0.0170   0.0065   0.00    1.1
2173 290923.000    813987.5464  -4734631.9065   4181861.6385   2   8   0.0159   0.0302   0.0153  -0.0103  -0.0170   0.0066   0.00    1.1
2173 290924.000    813987.5480  -4734631.9032   4181861.6361   2   8   0.0158   0.0302   0.0153  -0.0104  -0.0169   0.0065   0.00    1.1
2173 290925.000    813987.5471  -4734631.8970   4181861.6332   2   8   0.0160   0.0302   0.0153  -0.0103  -0.0169   0.0064   0.00    1.1
2173 290926.000    813987.5462  -4734631.8914   4181861.6242   2   8   0.0159   0.0300   0.0153  -0.0104  -0.0169   0.0064   0.00    1.1
2173 290927.000    813987.5451  -4734631.8928   4181861.6236   2   8   0.0159   0.0300   0.0153  -0.0103  -0.0169   0.0066   0.00    1.1
2173 290928.000    813987.5598  -4734631.8923   4181861.6043   2   8   0.0160   0.0300   0.0152  -0.0103  -0.0168   0.0064   0.00    1.1
2173 290929.000    813987.5591  -4734631.8986   4181861.6091   2   8   0.0157   0.0299   0.0153  -0.0102  -0.0168   0.0065   0.00    1.1
2173 290930.000    813987.5616  -4734631.9079   4181861.6127   2   8   0.0157   0.0299   0.0152  -0.0102  -0.0168   0.0064   0.00    1.1
2173 290931.000    813987.5617  -4734631.9111   4181861.6100   2   8   0.0157   0.0298   0.0152  -0.0102  -0.0168   0.0064   0.00    1.1
2173 290932.000    813987.5650  -4734631.9138   4181861.6093   2   8   0.0158   0.0298   0.0152  -0.0102  -0.0168   0.0064   0.00    1.1
2173 290933.000    813987.5660  -4734631.9170   4181861.6067   2   8   0.0158   0.0297   0.0151  -0.0101  -0.0167   0.0064   0.00    1.1
2173 290934.000    813987.5669  -4734631.9204   4181861.6024   2   8   0.0157   0.0297   0.0151  -0.0102  -0.0166   0.0062   0.00    1.1
2173 290935.000    813987.5709  -4734631.9256   4181861.6051   2   8   0.0156   0.0296   0.0151  -0.0102  -0.0167   0.0063   0.00    1.1
2173 290936.000    813987.5705  -4734631.9344   4181861.6059   2   8   0.0155   0.0296   0.0151  -0.0102  -0.0166   0.0064   0.00    1.1
2173 290937.000    813987.5711  -4734631.9419   4181861.6061   2   8   0.0155   0.0295   0.0151  -0.0100  -0.0166   0.0063   0.00    1.1
2173 290938.000    813987.5711  -4734631.9500   4181861.6099   2   8   0.0154   0.0295   0.0151  -0.0101  -0.0166   0.0064   0.00    1.1
