% program   : rnx2rtkp ver.2.4.3 b31
% inp file  : ngs/21_08_31_21_19_45_mego.obs
% inp file  : ngs/21_08_31_21_19_45_mego_SW.obs
% inp file  : ngs/21_08_31_21_19_45_brdc.nav
% obs start : 2021/08/31 21:00:00.0 GPST (week2173 248400.0s)
% obs end   : 2021/08/31 21:59:59.0 GPST (week2173 251999.0s)
% ref pos   :  1568794.5498  -4418135.9711   4309843.3785
%
% (x/y/z-ecef=WGS84,Q=1:fix,2:float,3:sbas,4:dgps,5:single,6:ppp,ns=# of satellites)
%  GPST              x-ecef(m)      y-ecef(m)      z-ecef(m)   Q  ns   sdx(m)   sdy(m)   sdz(m)  sdxy(m)  sdyz(m)  sdzx(m) age(s)  ratio
2173 249560.000   1545935.2682  -4353760.1150   4382600.1141   2   6   0.5468   1.0600   0.7917  -0.5399  -0.6687   0.2857 -30.00    1.8
2173 249561.000   1545935.3002  -4353760.2509   4382600.2907   2   6   0.3887   0.7541   0.5628  -0.3838  -0.4755   0.2031 -29.00    1.4
2173 249562.000   1545935.3637  -4353760.3126   4382600.2961   2   6   0.3183   0.6174   0.4607  -0.3142  -0.3892   0.1663 -28.00    1.5
2173 249563.000   1545935.3398  -4353760.2516   4382600.2631   2   6   0.2761   0.5357   0.3997  -0.2727  -0.3377   0.1443 -27.00    1.6
2173 249564.000   1545935.3267  -4353760.2304   4382600.2116   2   6   0.2473   0.4798   0.3579  -0.2443  -0.3024   0.1293 -26.00    1.6
2173 249565.000   1545935.3492  -4353760.2804   4382600.2559   2   6   0.2261   0.4384   0.3270  -0.2233  -0.2763   0.1182 -25.00    1.6
2173 249566.000   1545935.3594  -4353760.2765   4382600.2860   2   6   0.2095   0.4062   0.3030  -0.2069  -0.2560   0.1095 -24.00    1.6
2173 249567.000   1545935.3858  -4353760.2990   4382600.2900   2   6   0.1961   0.3802   0.2836  -0.1937  -0.2396   0.1025 -23.00    1.7
2173 249568.000   1545935.3862  -4353760.2805   4382600.2919   2   6   0.1850   0.3586   0.2674  -0.1827  -0.2259   0.0967 -22.00    1.7
2173 249569.000   1545935.4150  -4353760.2986   4382600.3049   2   6   0.1755   0.3403   0.2538  -0.1734  -0.2144   0.0918 -21.00    1.8
2173 249570.000   1545935.4454  -4353760.3387   4382600.3290   2   6   0.1674   0.3245   0.2420  -0.1654  -0.2044   0.0876 -20.00    1.8
2173 249571.000   1545935.4502  -4353760.3419   4382600.3080   2   6   0.1603   0.3107   0.2316  -0.1584  -0.1957   0.0839 -19.00    1.8
2173 249572.000   1545935.4404  -4353760.3206   4382600.2967   2   6   0.1540   0.2985   0.2225  -0.1522  -0.1880   0.0806 -18.00    1.8
2173 249573.000   1545935.4329  -4353760.2864   4382600.2703   2   6   0.1484   0.2877   0.2144  -0.1467  -0.1811   0.0776 -17.00    1.9
2173 249574.000   1545935.4308  -4353760.2608   4382600.2617   2   6   0.1434   0.2779   0.2070  -0.1417  -0.1749   0.0750 -16.00    2.0
2173 249575.000   1545935.4252  -4353760.2694   4382600.2782   2   6   0.1388   0.2690   0.2004  -0.1372  -0.1693   0.0726 -15.00    1.9
2173 249576.000   1545935.4336  -4353760.2934   4382600.2882   2   6   0.1346   0.2609   0.1943  -0.1330  -0.1642   0.0704 -14.00    1.9
2173 249577.000   1545935.4353  -4353760.2831   4382600.2842   2   6   0.1307   0.2534   0.1887  -0.1292  -0.1595   0.0684 -13.00    1.9
2173 249578.000   1545935.4249  -4353760.2540   4382600.2789   2   6   0.1272   0.2466   0.1836  -0.1257  -0.1552   0.0666 -12.00    2.0
2173 249579.000   1545935.4242  -4353760.2497   4382600.2773   2   6   0.1239   0.2403   0.1788  -0.1225  -0.1512   0.0649 -11.00    2.0
2173 249580.000   1545935.4097  -4353760.2469   4382600.2786   2   6   0.1209   0.2344   0.1744  -0.1195  -0.1475   0.0633 -10.00    2.0
2173 249581.000   1545935.4057  -4353760.2499   4382600.2855   2   6   0.1181   0.2289   0.1703  -0.1167  -0.1440   0.0619  -9.00    2.0
2173 249582.000   1545935.4054  -4353760.2470   4382600.2888   2   6   0.1154   0.2238   0.1665  -0.1141  -0.1408   0.0605  -8.00    2.0
2173 249583.000   1545935.4043  -4353760.2346   4382600.2911   2   6   0.1129   0.2190   0.1629  -0.1116  -0.1377   0.0592  -7.00    2.1
2173 249584.000   1545935.4118  -4353760.2312   4382600.2906   2   6   0.1106   0.2145   0.1595  -0.1093  -0.1349   0.0580  -6.00    2.1
2173 249585.000   1545935.4062  -4353760.2313   4382600.2878   2   6   0.1084   0.2102   0.1563  -0.1072  -0.1322   0.0569  -5.00    2.1
2173 249586.000   1545935.4021  -4353760.2317   4382600.2830   2   6   0.1064   0.2062   0.1533  -0.1051  -0.1297   0.0558  -4.00    2.1
2173 249587.000   1545935.3994  -4353760.2310   4382600.2845   2   6   0.1044   0.2024   0.1505  -0.1032  -0.1274   0.0548  -3.00    2.1
2173 249588.000   1545935.3892  -4353760.2157   4382600.2756   2   6   0.1026   0.1989   0.1478  -0.1014  -0.1251   0.0539  -2.00    2.1
2173 249589.000   1545935.3880  -4353760.2104   4382600.2719   2   6   0.1008   0.1955   0.1453  -0.0996  -0.1230   0.0530  -1.00    2.1
2173 249590.000   1545935.3939  -4353760.2112   4382600.2744   2   6   0.0992   0.1923   0.1429  -0.0980  -0.1210   0.0522   0.00    2.0
2173 249591.000   1545935.3868  -4353760.2031   4382600.2685   2   6   0.0976   0.1893   0.1406  -0.0965  -0.1191   0.0514   0.00    1.9
2173 249592.000   1545935.3819  -4353760.1977   4382600.2606   2   6   0.0961   0.1864   0.1384  -0.0950  -0.1173   0.0506   0.00    1.8
2173 249593.000   1545935.3823  -4353760.1980   4382600.2602   2   6   0.0947   0.1836   0.1363  -0.0936  -0.1156   0.0499   0.00    1.8
2173 249594.000   1545935.3850  -4353760.1839   4382600.2554   2   6   0.0933   0.1809   0.1344  -0.0922  -0.1139   0.0492   0.00    1.8
2173 249595.000   1545935.3845  -4353760.1764   4382600.2501   2   6   0.0920   0.1784   0.1325  -0.0909  -0.1123   0.0486   0.00    1.8
2173 249596.000   1545935.3816  -4353760.1698   4382600.2456   2   6   0.0908   0.1760   0.1306  -0.0897  -0.1108   0.0480   0.00    1.7
2173 249597.000   1545935.3834  -4353760.1657   4382600.2527   2   6   0.0896   0.1736   0.1289  -0.0885  -0.1094   0.0474   0.00    1.7
2173 249598.000   1545935.3782  -4353760.1569   4382600.2489   2   6   0.0884   0.1714   0.1272  -0.0873  -0.1080   0.0468   0.00    1.7
2173 249599.000   1545935.3745  -4353760.1530   4382600.2428   2   6   0.0873   0.1692   0.1256  -0.0862  -0.1066   0.0463   0.00    1.6
2173 249600.000   1545935.3620  -4353760.1382   4382600.2321   2   6   0.0862   0.1671   0.1240  -0.0852  -0.1053   0.0457   0.00    1.6
2173 249601.000   1545935.3633  -4353760.1372   4382600.2223   2   6   0.0852   0.1651   0.1225  -0.0841  -0.1041   0.0452   0.00    1.6
2173 249602.000   1545935.3637  -4353760.1334   4382600.2217   2   6   0.0842   0.1631   0.1210  -0.0831  -0.1029   0.0448   0.00    1.5
2173 249603.000   1545935.3613  -4353760.1337   4382600.2258   2   6   0.0832   0.1612   0.1196  -0.0822  -0.1017   0.0443   0.00    1.5
2173 249604.000   1545935.3640  -4353760.1276   4382600.2202   2   6   0.0822   0.1594   0.1182  -0.0812  -0.1006   0.0439   0.00    1.5
2173 249605.000   1545935.3633  -4353760.1139   4382600.2188   2   6   0.0813   0.1576   0.1169  -0.0803  -0.0996   0.0434   0.00    1.5
2173 249606.000   1545935.3630  -4353760.1085   4382600.2124   2   6   0.0804   0.1559   0.1156  -0.0794  -0.0985   0.0430   0.00    1.5
2173 249607.000   1545935.3700  -4353760.1239   4382600.2236   2   6   0.0796   0.1543   0.1144  -0.0786  -0.0975   0.0426   0.00    1.5
2173 249608.000   1545935.3713  -4353760.1306   4382600.2207   2   6   0.0788   0.1526   0.1132  -0.0777  -0.0966   0.0423   0.00    1.4
2173 249609.000   1545935.3723  -4353760.1339   4382600.2230   2   6   0.0779   0.1511   0.1120  -0.0769  -0.0956   0.0419   0.00    1.4
2173 249610.000   1545935.3788  -4353760.1325   4382600.2127   2   6   0.0772   0.1495   0.1109  -0.0761  -0.0947   0.0416   0.00    1.4
2173 249611.000   1545935.3842  -4353760.1392   4382600.2150   2   6   0.0764   0.1481   0.1098  -0.0753  -0.0938   0.0412   0.00    1.4
2173 249612.000   1545935.3877  -4353760.1376   4382600.2118   2   6   0.0757   0.1466   0.1087  -0.0746  -0.0930   0.0409   0.00    1.4
2173 249613.000   1545935.3855  -4353760.1337   4382600.2090   2   6   0.0749   0.1452   0.1076  -0.0739  -0.0922   0.0406   0.00    1.4
2173 249614.000   1545935.3875  -4353760.1212   4382600.2011   2   6   0.0742   0.1439   0.1066  -0.0732  -0.0914   0.0403   0.00    1.4
2173 249615.000   1545935.3905  -4353760.1270   4382600.1952   2   6   0.0735   0.1425   0.1056  -0.0724  -0.0906   0.0400   0.00    1.4
2173 249616.000   1545935.3900  -4353760.1253   4382600.1768   2   6   0.0729   0.1412   0.1046  -0.0718  -0.0898   0.0397   0.00    1.4
2173 249617.000   1545935.3920  -4353760.1235   4382600.1779   2   6   0.0722   0.1400   0.1037  -0.0711  -0.0891   0.0395   0.00    1.4
2173 249618.000   1545935.3890  -4353760.1238   4382600.1817   2   6   0.0716   0.1387   0.1028  -0.0705  -0.0884   0.0392   0.00    1.4
2173 249619.000   1545935.3870  -4353760.1207   4382600.1795   2   6   0.0710   0.1375   0.1019  -0.0698  -0.0877   0.0389   0.00    1.4
2173 249620.000   1545935.3884  -4353760.1168   4382600.1772   2   6   0.0703   0.1363   0.1010  -0.0692  -0.0870   0.0387   0.00    1.4
2173 249621.000   1545935.3896  -4353760.1161   4382600.1723   2   6   0.0697   0.1352   0.1001  -0.0686  -0.0863   0.0385   0.00    1.4
2173 249622.000   1545935.3890  -4353760.1158   4382600.1725   2   6   0.0692   0.1340   0.0993  -0.0680  -0.0857   0.0382   0.00    1.4
2173 249623.000   1545935.3944  -4353760.1227   4382600.1711   2   6   0.0686   0.1329   0.0984  -0.0674  -0.0851   0.0380   0.00    1.4
2173 249624.000   1545935.3966  -4353760.1285   4382600.1731   2   6   0.0680   0.1319   0.0976  -0.0668  -0.0845   0.0378   0.00    1.4
2173 249625.000   1545935.3972  -4353760.1277   4382600.1701   2   6   0.0675   0.1308   0.0969  -0.0662  -0.0839   0.0376   0.00    1.4
2173 249626.000   1545935.3949  -4353760.1365   4382600.1714   2   6   0.0669   0.1298   0.0961  -0.0657  -0.0833   0.0374   0.00    1.4
2173 249627.000   1545935.3914  -4353760.1423   4382600.1681   2   6   0.0664   0.1287   0.0953  -0.0652  -0.0827   0.0372   0.00    1.4
2173 249628.000   1545935.3944  -4353760.1496   4382600.1672   2   6   0.0659   0.1278   0.0946  -0.0646  -0.0822   0.0370   0.00    1.4
2173 249629.000   1545935.3940  -4353760.1594   4382600.1720   2   6   0.0654   0.1268   0.0939  -0.0641  -0.0817   0.0369   0.00    1.4
2173 249630.000   1545935.3932  -4353760.1637   4382600.1747   2   6   0.0649   0.1258   0.0931  -0.0636  -0.0811   0.0367   0.00    1.4
2173 249631.000   1545935.3919  -4353760.1651   4382600.1740   2   6   0.0644   0.1249   0.0924  -0.0631  -0.0806   0.0365   0.00    1.4
2173 249632.000   1545935.3905  -4353760.1641   4382600.1706   2   6   0.0639   0.1240   0.0918  -0.0626  -0.0801   0.0363   0.00    1.4
2173 249633.000   1545935.3913  -4353760.1590   4382600.1721   2   6   0.0634   0.1231   0.0911  -0.0621  -0.0796   0.0362   0.00    1.4
2173 249634.000   1545935.3827  -4353760.1457   4382600.1688   2   6   0.0630   0.1222   0.0904  -0.0616  -0.0792   0.0360   0.00    1.4
2173 249635.000   1545935.3807  -4353760.1465   4382600.1705   2   6   0.0625   0.1213   0.0898  -0.0611  -0.0787   0.0359   0.00    1.4
2173 249636.000   1545935.3812  -4353760.1450   4382600.1718   2   6   0.0621   0.1205   0.0891  -0.0607  -0.0782   0.0357   0.00    1.4
2173 249637.000   1545935.3814  -4353760.1438   4382600.1718   2   6   0.0617   0.1196   0.0885  -0.0602  -0.0778   0.0356   0.00    1.4
2173 249638.000   1545935.3839  -4353760.1437   4382600.1676   2   6   0.0612   0.1188   0.0879  -0.0598  -0.0774   0.0354   0.00    1.5
2173 249639.000   1545935.3834  -4353760.1452   4382600.1636   2   6   0.0608   0.1180   0.0873  -0.0593  -0.0769   0.0353   0.00    1.5
2173 249640.000   1545935.3840  -4353760.1433   4382600.1590   2   6   0.0604   0.1172   0.0867  -0.0589  -0.0765   0.0352   0.00    1.5
2173 249641.000   1545935.3819  -4353760.1426   4382600.1515   2   6   0.0600   0.1164   0.0861  -0.0584  -0.0761   0.0351   0.00    1.5
2173 249642.000   1545935.3818  -4353760.1379   4382600.1447   2   6   0.0596   0.1156   0.0855  -0.0580  -0.0757   0.0349   0.00    1.5
2173 249643.000   1545935.3815  -4353760.1327   4382600.1376   2   6   0.0592   0.1149   0.0850  -0.0576  -0.0753   0.0348   0.00    1.5
2173 249644.000   1545935.3791  -4353760.1284   4382600.1300   2   6   0.0588   0.1141   0.0844  -0.0572  -0.0749   0.0347   0.00    1.5
2173 249645.000   1545935.3801  -4353760.1291   4382600.1271   2   6   0.0584   0.1134   0.0839  -0.0568  -0.0745   0.0346   0.00    1.5
2173 249646.000   1545935.3790  -4353760.1407   4382600.1889   2   6   0.0581   0.1127   0.0833  -0.0564  -0.0742   0.0345   0.00    1.5
2173 249647.000   1545935.3668  -4353760.1215   4382600.2079   2   6   0.0577   0.1120   0.0828  -0.0560  -0.0738   0.0344   0.00    1.5
2173 249648.000   1545935.3590  -4353760.1030   4382600.2244   2   6   0.0573   0.1113   0.0823  -0.0556  -0.0734   0.0343   0.00    1.5
2173 249649.000   1545935.3495  -4353760.0910   4382600.2380   2   6   0.0569   0.1106   0.0818  -0.0552  -0.0731   0.0342   0.00    1.5
2173 249650.000   1545935.3442  -4353760.0838   4382600.2530   2   6   0.0566   0.1099   0.0813  -0.0548  -0.0727   0.0341   0.00    1.5
2173 249651.000   1545935.3394  -4353760.0741   4382600.2614   2   6   0.0562   0.1092   0.0808  -0.0545  -0.0724   0.0340   0.00    1.5
2173 249652.000   1545935.3334  -4353760.0680   4382600.2766   2   6   0.0559   0.1086   0.0803  -0.0541  -0.0721   0.0339   0.00    1.5
2173 249653.000   1545935.3299  -4353760.0601   4382600.2863   2   6   0.0556   0.1079   0.0798  -0.0537  -0.0717   0.0338   0.00    1.5
2173 249654.000   1545935.3220  -4353760.0537   4382600.2959   2   6   0.0552   0.1073   0.0793  -0.0534  -0.0714   0.0337   0.00    1.5
2173 249655.000   1545935.3181  -4353760.0468   4382600.3107   2   6   0.0549   0.1066   0.0789  -0.0530  -0.0711   0.0336   0.00    1.4
2173 249656.000   1545935.3104  -4353760.0399   4382600.3219   2   6   0.0546   0.1060   0.0784  -0.0527  -0.0708   0.0335   0.00    1.4
2173 249657.000   1545935.3048  -4353760.0321   4382600.3318   2   6   0.0543   0.1054   0.0780  -0.0523  -0.0705   0.0334   0.00    1.4
2173 249658.000   1545935.3011  -4353760.0248   4382600.3363   2   6   0.0540   0.1048   0.0775  -0.0520  -0.0702   0.0333   0.00    1.3
2173 249659.000   1545935.2984  -4353760.0206   4382600.3458   2   6   0.0536   0.1042   0.0771  -0.0516  -0.0699   0.0333   0.00    1.3
2173 249660.000   1545935.2910  -4353760.0118   4382600.3466   2   6   0.0533   0.1036   0.0766  -0.0513  -0.0696   0.0331   0.00    1.3
2173 249661.000   1545935.2894  -4353760.0122   4382600.3548   2   6   0.0531   0.1030   0.0762  -0.0510  -0.0693   0.0331   0.00    1.3
2173 249662.000   1545935.2871  -4353760.0080   4382600.3584   2   6   0.0528   0.1025   0.0758  -0.0507  -0.0690   0.0330   0.00    1.2
2173 249663.000   1545935.2851  -4353760.0039   4382600.3585   2   6   0.0524   0.1019   0.0754  -0.0503  -0.0687   0.0329   0.00    1.2
2173 249664.000   1545935.2823  -4353760.0005   4382600.3652   2   6   0.0521   0.1013   0.0750  -0.0500  -0.0685   0.0329   0.00    1.2
2173 249665.000   1545935.2818  -4353760.0002   4382600.3661   2   6   0.0519   0.1008   0.0746  -0.0497  -0.0682   0.0328   0.00    1.2
2173 249666.000   1545935.2843  -4353760.0041   4382600.3678   2   6   0.0516   0.1003   0.0742  -0.0494  -0.0679   0.0327   0.00    1.1
2173 249667.000   1545935.2873  -4353760.0116   4382600.3701   2   6   0.0513   0.0997   0.0737  -0.0491  -0.0677   0.0326   0.00    1.1
2173 249668.000   1545935.2872  -4353760.0093   4382600.3740   2   6   0.0510   0.0992   0.0734  -0.0488  -0.0674   0.0326   0.00    1.1
2173 249669.000   1545935.2850  -4353760.0052   4382600.3728   2   6   0.0507   0.0987   0.0730  -0.0485  -0.0672   0.0325   0.00    1.1
2173 249670.000   1545935.2874  -4353760.0058   4382600.3758   2   6   0.0505   0.0981   0.0726  -0.0482  -0.0669   0.0324   0.00    1.0
2173 249671.000   1545935.2849  -4353759.9964   4382600.3748   2   6   0.0502   0.0976   0.0722  -0.0479  -0.0667   0.0323   0.00    1.0
2173 249672.000   1545935.2867  -4353760.0029   4382600.3763   2   6   0.0499   0.0971   0.0719  -0.0476  -0.0664   0.0323   0.00    1.0
2173 249673.000   1545935.2884  -4353760.0077   4382600.3824   2   6   0.0497   0.0966   0.0715  -0.0473  -0.0662   0.0322   0.00    1.0
2173 249674.000   1545935.2881  -4353760.0072   4382600.3818   2   6   0.0495   0.0961   0.0711  -0.0471  -0.0659   0.0321   0.00    1.0
2173 249675.000   1545935.3004  -4353760.0511   4382600.3938   2   6   0.0492   0.0957   0.0708  -0.0468  -0.0657   0.0320   0.00    1.1
2173 249676.000   1545935.3098  -4353760.0682   4382600.3863   2   6   0.0489   0.0952   0.0704  -0.0465  -0.0654   0.0320   0.00    1.1
2173 249677.000   1545935.3183  -4353760.0940   4382600.3804   2   6   0.0486   0.0947   0.0701  -0.0462  -0.0652   0.0319   0.00    1.1
2173 249678.000   1545935.3299  -4353760.1114   4382600.3740   2   6   0.0484   0.0943   0.0697  -0.0460  -0.0650   0.0319   0.00    1.1
2173 249679.000   1545935.3385  -4353760.1283   4382600.3683   2   6   0.0482   0.0938   0.0694  -0.0457  -0.0648   0.0318   0.00    1.1
2173 249680.000   1545935.3472  -4353760.1402   4382600.3598   2   6   0.0480   0.0933   0.0691  -0.0454  -0.0645   0.0317   0.00    1.2
2173 249681.000   1545935.3578  -4353760.1587   4382600.3535   2   6   0.0477   0.0929   0.0687  -0.0452  -0.0643   0.0317   0.00    1.2
2173 249682.000   1545935.3637  -4353760.1723   4382600.3476   2   6   0.0475   0.0924   0.0684  -0.0449  -0.0641   0.0316   0.00    1.2
2173 249683.000   1545935.3725  -4353760.1902   4382600.3461   2   6   0.0473   0.0920   0.0681  -0.0447  -0.0639   0.0315   0.00    1.2
2173 249684.000   1545935.3826  -4353760.2097   4382600.3450   2   6   0.0470   0.0915   0.0678  -0.0444  -0.0637   0.0315   0.00    1.2
2173 249685.000   1545935.3922  -4353760.2218   4382600.3369   2   6   0.0468   0.0911   0.0674  -0.0442  -0.0635   0.0314   0.00    1.3
2173 249686.000   1545935.3999  -4353760.2359   4382600.3320   2   6   0.0466   0.0907   0.0671  -0.0439  -0.0633   0.0314   0.00    1.3
2173 249687.000   1545935.4070  -4353760.2491   4382600.3279   2   6   0.0464   0.0903   0.0668  -0.0437  -0.0631   0.0313   0.00    1.3
2173 249688.000   1545935.4143  -4353760.2681   4382600.3273   2   6   0.0462   0.0899   0.0665  -0.0435  -0.0628   0.0312   0.00    1.2
2173 249689.000   1545935.4220  -4353760.2794   4382600.3181   2   6   0.0459   0.0894   0.0662  -0.0432  -0.0626   0.0312   0.00    1.2
2173 249690.000   1545935.4292  -4353760.3006   4382600.3149   2   6   0.0458   0.0890   0.0659  -0.0430  -0.0624   0.0311   0.00    1.2
2173 249691.000   1545935.4399  -4353760.3158   4382600.3124   2   6   0.0456   0.0886   0.0656  -0.0428  -0.0622   0.0311   0.00    1.2
2173 249692.000   1545935.4477  -4353760.3260   4382600.3069   2   6   0.0453   0.0882   0.0653  -0.0425  -0.0620   0.0310   0.00    1.1
2173 249693.000   1545935.4531  -4353760.3351   4382600.2987   2   6   0.0451   0.0879   0.0650  -0.0423  -0.0618   0.0309   0.00    1.1
2173 249694.000   1545935.4580  -4353760.3417   4382600.2915   2   6   0.0449   0.0875   0.0648  -0.0421  -0.0617   0.0309   0.00    1.1
2173 249695.000   1545935.4663  -4353760.3544   4382600.2865   2   6   0.0447   0.0871   0.0645  -0.0418  -0.0615   0.0308   0.00    1.1
2173 249696.000   1545935.4681  -4353760.3563   4382600.2804   2   6   0.0445   0.0867   0.0642  -0.0416  -0.0613   0.0308   0.00    1.0
2173 249697.000   1545935.4764  -4353760.3654   4382600.2750   2   6   0.0443   0.0863   0.0639  -0.0414  -0.0611   0.0307   0.00    1.0
2173 249698.000   1545935.4791  -4353760.3728   4382600.2686   2   6   0.0441   0.0860   0.0636  -0.0412  -0.0609   0.0306   0.00    1.0
2173 249699.000   1545935.4862  -4353760.3797   4382600.2635   2   6   0.0440   0.0856   0.0634  -0.0410  -0.0607   0.0306   0.00    1.0
2173 249700.000   1545935.4921  -4353760.3901   4382600.2591   2   6   0.0438   0.0852   0.0631  -0.0408  -0.0605   0.0305   0.00    1.1
2173 249701.000   1545935.4978  -4353760.4015   4382600.2524   2   6   0.0436   0.0849   0.0629  -0.0406  -0.0604   0.0305   0.00    1.1
2173 249702.000   1545935.5086  -4353760.4115   4382600.2501   2   6   0.0434   0.0845   0.0626  -0.0404  -0.0602   0.0304   0.00    1.1
2173 249703.000   1545935.5160  -4353760.4198   4382600.2445   2   6   0.0432   0.0841   0.0623  -0.0402  -0.0600   0.0304   0.00    1.1
2173 249704.000   1545935.5226  -4353760.4258   4382600.2390   2   6   0.0430   0.0838   0.0621  -0.0400  -0.0598   0.0303   0.00    1.2
2173 249705.000   1545935.5294  -4353760.4340   4382600.2324   2   6   0.0429   0.0834   0.0618  -0.0398  -0.0596   0.0302   0.00    1.2
2173 249706.000   1545935.5343  -4353760.4402   4382600.2279   2   6   0.0427   0.0831   0.0616  -0.0395  -0.0595   0.0302   0.00    1.2
2173 249707.000   1545935.5385  -4353760.4462   4382600.2196   2   6   0.0425   0.0828   0.0613  -0.0394  -0.0593   0.0301   0.00    1.3
2173 249708.000   1545935.5446  -4353760.4529   4382600.2162   2   6   0.0423   0.0824   0.0611  -0.0392  -0.0591   0.0301   0.00    1.3
2173 249709.000   1545935.5508  -4353760.4635   4382600.2099   2   6   0.0421   0.0821   0.0608  -0.0390  -0.0590   0.0300   0.00    1.3
2173 249710.000   1545935.5573  -4353760.4653   4382600.1999   2   6   0.0420   0.0818   0.0606  -0.0388  -0.0588   0.0300   0.00    1.4
2173 249711.000   1545935.5625  -4353760.4750   4382600.1937   2   6   0.0418   0.0814   0.0603  -0.0386  -0.0586   0.0299   0.00    1.4
2173 249712.000   1545935.5688  -4353760.4836   4382600.1876   2   6   0.0417   0.0811   0.0601  -0.0384  -0.0585   0.0299   0.00    1.4
2173 249713.000   1545935.5701  -4353760.4868   4382600.1793   2   6   0.0415   0.0808   0.0599  -0.0382  -0.0583   0.0298   0.00    1.5
2173 249714.000   1545935.5783  -4353760.4999   4382600.1743   2   6   0.0413   0.0805   0.0596  -0.0380  -0.0581   0.0297   0.00    1.5
2173 249715.000   1545935.5849  -4353760.5079   4382600.1675   2   6   0.0412   0.0802   0.0594  -0.0379  -0.0580   0.0297   0.00    1.6
2173 249716.000   1545935.5913  -4353760.5163   4382600.1655   2   6   0.0410   0.0799   0.0592  -0.0377  -0.0578   0.0296   0.00    1.6
2173 249717.000   1545935.5950  -4353760.5235   4382600.1565   2   6   0.0409   0.0796   0.0590  -0.0375  -0.0577   0.0296   0.00    1.6
2173 249718.000   1545935.6006  -4353760.5307   4382600.1523   2   6   0.0407   0.0792   0.0588  -0.0373  -0.0575   0.0295   0.00    1.7
2173 249719.000   1545935.6051  -4353760.5343   4382600.1491   2   6   0.0405   0.0789   0.0585  -0.0372  -0.0573   0.0295   0.00    1.7
2173 249720.000   1545935.6102  -4353760.5431   4382600.1420   2   6   0.0404   0.0786   0.0583  -0.0370  -0.0572   0.0294   0.00    1.7
2173 249721.000   1545935.6167  -4353760.5479   4382600.1394   2   6   0.0402   0.0783   0.0581  -0.0368  -0.0570   0.0294   0.00    1.7
2173 249722.000   1545935.6230  -4353760.5571   4382600.1373   2   6   0.0401   0.0780   0.0579  -0.0367  -0.0569   0.0293   0.00    1.7
2173 249723.000   1545935.6279  -4353760.5643   4382600.1335   2   6   0.0399   0.0777   0.0577  -0.0365  -0.0567   0.0293   0.00    1.7
2173 249724.000   1545935.6312  -4353760.5683   4382600.1266   2   6   0.0398   0.0775   0.0575  -0.0363  -0.0566   0.0292   0.00    1.7
2173 249725.000   1545935.6358  -4353760.5749   4382600.1242   2   6   0.0396   0.0772   0.0572  -0.0362  -0.0564   0.0291   0.00    1.7
2173 249726.000   1545935.6422  -4353760.5879   4382600.1261   2   6   0.0395   0.0769   0.0571  -0.0360  -0.0563   0.0291   0.00    1.7
2173 249727.000   1545935.6452  -4353760.6009   4382600.1229   2   6   0.0394   0.0766   0.0568  -0.0358  -0.0561   0.0290   0.00    1.7
2173 249728.000   1545935.6453  -4353760.5961   4382600.1114   2   6   0.0392   0.0764   0.0566  -0.0357  -0.0560   0.0290   0.00    1.7
2173 249729.000   1545935.6486  -4353760.6023   4382600.1140   2   6   0.0391   0.0761   0.0564  -0.0355  -0.0558   0.0289   0.00    1.7
2173 249730.000   1545935.6545  -4353760.6102   4382600.1114   2   6   0.0389   0.0758   0.0562  -0.0354  -0.0557   0.0289   0.00    1.7
2173 249731.000   1545935.6562  -4353760.6216   4382600.1118   2   6   0.0388   0.0755   0.0560  -0.0352  -0.0555   0.0288   0.00    1.7
2173 249732.000   1545935.6599  -4353760.6271   4382600.1141   2   6   0.0386   0.0753   0.0558  -0.0351  -0.0554   0.0288   0.00    1.7
2173 249733.000   1545935.6596  -4353760.6291   4382600.1144   2   6   0.0386   0.0750   0.0557  -0.0349  -0.0553   0.0287   0.00    1.7
2173 249734.000   1545935.6591  -4353760.6309   4382600.1150   2   6   0.0384   0.0747   0.0555  -0.0348  -0.0551   0.0287   0.00    1.7
2173 249735.000   1545935.6666  -4353760.6252   4382600.1132   2   6   0.0382   0.0745   0.0553  -0.0346  -0.0550   0.0286   0.00    1.7
2173 249736.000   1545935.6725  -4353760.6320   4382600.1143   2   6   0.0382   0.0742   0.0551  -0.0345  -0.0548   0.0285   0.00    1.7
2173 249737.000   1545935.6762  -4353760.6388   4382600.1147   2   6   0.0380   0.0740   0.0549  -0.0343  -0.0547   0.0285   0.00    1.7
2173 249738.000   1545935.6775  -4353760.6422   4382600.1124   2   6   0.0379   0.0737   0.0547  -0.0342  -0.0545   0.0285   0.00    1.7
2173 249739.000   1545935.6785  -4353760.6442   4382600.1071   2   6   0.0377   0.0734   0.0545  -0.0340  -0.0544   0.0284   0.00    1.7
2173 249740.000   1545935.6807  -4353760.6458   4382600.1041   2   6   0.0376   0.0732   0.0544  -0.0339  -0.0543   0.0284   0.00    1.7
2173 249741.000   1545935.6825  -4353760.6458   4382600.0973   2   6   0.0375   0.0730   0.0542  -0.0337  -0.0541   0.0283   0.00    1.7
2173 249742.000   1545935.6860  -4353760.6520   4382600.0940   2   6   0.0374   0.0727   0.0540  -0.0336  -0.0540   0.0283   0.00    1.7
2173 249743.000   1545935.6902  -4353760.6558   4382600.0897   2   6   0.0373   0.0725   0.0538  -0.0335  -0.0539   0.0282   0.00    1.7
2173 249744.000   1545935.6955  -4353760.6643   4382600.0859   2   6   0.0372   0.0722   0.0536  -0.0334  -0.0537   0.0281   0.00    1.7
2173 249745.000   1545935.6995  -4353760.6695   4382600.0831   2   6   0.0370   0.0720   0.0534  -0.0332  -0.0536   0.0281   0.00    1.6
2173 249746.000   1545935.7051  -4353760.6780   4382600.0827   2   6   0.0369   0.0717   0.0533  -0.0331  -0.0535   0.0281   0.00    1.6
2173 249747.000   1545935.7091  -4353760.6849   4382600.0791   2   6   0.0368   0.0715   0.0531  -0.0329  -0.0533   0.0280   0.00    1.6
2173 249748.000   1545935.7130  -4353760.6928   4382600.0793   2   6   0.0367   0.0713   0.0529  -0.0328  -0.0532   0.0280   0.00    1.6
2173 249749.000   1545935.7143  -4353760.6947   4382600.0758   2   6   0.0366   0.0711   0.0528  -0.0327  -0.0531   0.0279   1.00    1.6
2173 249750.000   1545935.7169  -4353760.6981   4382600.0742   2   6   0.0365   0.0709   0.0527  -0.0326  -0.0530   0.0279   2.00    1.6
2173 249751.000   1545935.7187  -4353760.6985   4382600.0702   2   6   0.0365   0.0709   0.0526  -0.0327  -0.0529   0.0278   3.00    1.6
2173 249752.000   1545935.7203  -4353760.7005   4382600.0695   2   6   0.0365   0.0709   0.0526  -0.0327  -0.0529   0.0278   4.00    1.6
2173 249753.000   1545935.7176  -4353760.6947   4382600.0646   2   6   0.0366   0.0709   0.0527  -0.0328  -0.0529   0.0279   5.00    1.6
2173 249754.000   1545935.7186  -4353760.6949   4382600.0615   2   6   0.0367   0.0710   0.0527  -0.0329  -0.0529   0.0279   6.00    1.6
2173 249755.000   1545935.7195  -4353760.6908   4382600.0574   2   6   0.0368   0.0712   0.0528  -0.0331  -0.0530   0.0279   7.00    1.6
2173 249756.000   1545935.7188  -4353760.6907   4382600.0561   2   6   0.0369   0.0714   0.0530  -0.0333  -0.0530   0.0279   8.00    1.6
2173 249757.000   1545935.7170  -4353760.6903   4382600.0544   2   6   0.0371   0.0716   0.0532  -0.0336  -0.0531   0.0280   9.00    1.6
2173 249758.000   1545935.7170  -4353760.6860   4382600.0498   2   6   0.0374   0.0719   0.0535  -0.0339  -0.0533   0.0280  10.00    1.6
2173 249759.000   1545935.7151  -4353760.6850   4382600.0473   2   6   0.0376   0.0723   0.0538  -0.0342  -0.0534   0.0281  11.00    1.6
2173 249760.000   1545935.7142  -4353760.6910   4382600.0485   2   6   0.0379   0.0726   0.0541  -0.0346  -0.0536   0.0282  12.00    1.6
2173 249761.000   1545935.7143  -4353760.6956   4382600.0491   2   6   0.0382   0.0731   0.0545  -0.0350  -0.0538   0.0283  13.00    1.6
2173 249762.000   1545935.7134  -4353760.6952   4382600.0474   2   6   0.0385   0.0736   0.0549  -0.0354  -0.0540   0.0284  14.00    1.6
2173 249763.000   1545935.7126  -4353760.6985   4382600.0474   2   6   0.0389   0.0741   0.0553  -0.0358  -0.0543   0.0285  15.00    1.6
2173 249764.000   1545935.7106  -4353760.6956   4382600.0438   2   6   0.0393   0.0746   0.0558  -0.0363  -0.0545   0.0286  16.00    1.6
2173 249765.000   1545935.7106  -4353760.6975   4382600.0438   2   6   0.0397   0.0752   0.0563  -0.0368  -0.0548   0.0287  17.00    1.6
2173 249766.000   1545935.7077  -4353760.6949   4382600.0418   2   6   0.0402   0.0759   0.0568  -0.0373  -0.0552   0.0289  18.00    1.6
2173 249767.000   1545935.7070  -4353760.6948   4382600.0402   2   6   0.0406   0.0766   0.0574  -0.0379  -0.0555   0.0290  19.00    1.6
2173 249768.000   1545935.7064  -4353760.6968   4382600.0405   2   6   0.0411   0.0773   0.0580  -0.0385  -0.0559   0.0292  20.00    1.6
2173 249769.000   1545935.7067  -4353760.6976   4382600.0390   2   6   0.0416   0.0781   0.0586  -0.0391  -0.0563   0.0294  21.00    1.6
2173 249770.000   1545935.7044  -4353760.6895   4382600.0359   2   6   0.0422   0.0789   0.0593  -0.0397  -0.0567   0.0296  22.00    1.6
2173 249771.000   1545935.7038  -4353760.6888   4382600.0334   2   6   0.0427   0.0797   0.0600  -0.0404  -0.0572   0.0298  23.00    1.6
2173 249772.000   1545935.7014  -4353760.6827   4382600.0278   2   6   0.0433   0.0806   0.0607  -0.0411  -0.0576   0.0300  24.00    1.6
2173 249773.000   1545935.7011  -4353760.6823   4382600.0238   2   6   0.0439   0.0815   0.0615  -0.0417  -0.0581   0.0303  25.00    1.6
2173 249774.000   1545935.6984  -4353760.6814   4382600.0257   2   6   0.0445   0.0824   0.0622  -0.0425  -0.0586   0.0305  26.00    1.6
2173 249775.000   1545935.6944  -4353760.6782   4382600.0243   2   6   0.0452   0.0834   0.0630  -0.0432  -0.0591   0.0307  27.00    1.6
2173 249776.000   1545935.6931  -4353760.6726   4382600.0175   2   6   0.0458   0.0844   0.0638  -0.0439  -0.0597   0.0310  28.00    1.6
2173 249777.000   1545935.6911  -4353760.6738   4382600.0196   2   6   0.0465   0.0854   0.0647  -0.0447  -0.0602   0.0313  29.00    1.6
2173 249778.000   1545935.6888  -4353760.6743   4382600.0153   2   6   0.0472   0.0864   0.0655  -0.0455  -0.0608   0.0315  30.00    1.6
2173 250017.000   1545935.3275  -4353759.9319   4382599.7668   2   6   0.5607   1.0603   0.5598  -0.5818  -0.7369   0.2462   0.00    1.0
2173 250018.000   1545935.4399  -4353760.0330   4382599.7732   2   6   0.3983   0.7537   0.3985  -0.4133  -0.5237   0.1750   0.00    1.0
2173 250019.000   1545935.4385  -4353759.9474   4382599.7196   2   6   0.3257   0.6165   0.3263  -0.3379  -0.4282   0.1431   0.00    1.0
2173 250020.000   1545935.4464  -4353760.0265   4382599.7646   2   6   0.2823   0.5344   0.2831  -0.2929  -0.3711   0.1241   0.00    1.0
2173 250021.000   1545935.4404  -4353760.0131   4382599.7599   2   6   0.2526   0.4783   0.2537  -0.2621  -0.3319   0.1111   0.00    1.0
2173 250022.000   1545935.4439  -4353759.9853   4382599.7416   2   6   0.2307   0.4367   0.2319  -0.2393  -0.3030   0.1015   0.00    1.0
2173 250023.000   1545935.3989  -4353759.9344   4382599.7306   2   6   0.2136   0.4044   0.2150  -0.2215  -0.2805   0.0940   0.00    1.1
2173 250024.000   1545935.3438  -4353759.8567   4382599.7031   2   6   0.1998   0.3784   0.2013  -0.2072  -0.2623   0.0880   0.00    1.1
2173 250025.000   1545935.3415  -4353759.8366   4382599.6947   2   6   0.1884   0.3568   0.1900  -0.1953  -0.2473   0.0830   0.00    1.1
2173 250026.000   1545935.3287  -4353759.8052   4382599.6781   2   6   0.1787   0.3385   0.1805  -0.1853  -0.2345   0.0787   0.00    1.1
2173 250027.000   1545935.3389  -4353759.8070   4382599.6779   2   6   0.1703   0.3227   0.1723  -0.1766  -0.2235   0.0751   0.00    1.1
2173 250028.000   1545935.3410  -4353759.7782   4382599.6604   2   6   0.1631   0.3090   0.1651  -0.1690  -0.2139   0.0719   0.00    1.1
2173 250029.000   1545935.3446  -4353759.7561   4382599.6335   2   6   0.1566   0.2968   0.1588  -0.1624  -0.2055   0.0691   0.00    1.1
2173 250030.000   1545935.3486  -4353759.7440   4382599.6261   2   6   0.1509   0.2860   0.1532  -0.1564  -0.1979   0.0665   0.00    1.1
2173 250031.000   1545935.3603  -4353759.7413   4382599.6152   2   6   0.1457   0.2763   0.1481  -0.1510  -0.1911   0.0643   0.00    1.1
2173 250032.000   1545935.3548  -4353759.7303   4382599.6129   2   6   0.1411   0.2675   0.1436  -0.1461  -0.1850   0.0622   0.00    1.1
2173 250033.000   1545935.3534  -4353759.7230   4382599.6071   2   6   0.1368   0.2594   0.1394  -0.1417  -0.1794   0.0604   0.00    1.1
2173 250034.000   1545935.3663  -4353759.7356   4382599.6059   2   6   0.1329   0.2521   0.1356  -0.1376  -0.1743   0.0586   0.00    1.1
2173 250035.000   1545935.3607  -4353759.7331   4382599.6021   2   6   0.1293   0.2453   0.1321  -0.1339  -0.1695   0.0570   0.00    1.1
2173 250036.000   1545935.3445  -4353759.7044   4382599.5913   2   6   0.1259   0.2390   0.1289  -0.1304  -0.1652   0.0556   0.00    1.1
2173 250037.000   1545935.3368  -4353759.6928   4382599.5879   2   6   0.1228   0.2332   0.1259  -0.1271  -0.1611   0.0542   0.00    1.1
2173 250038.000   1545935.3332  -4353759.6842   4382599.5841   2   6   0.1199   0.2278   0.1231  -0.1241  -0.1573   0.0530   0.00    1.1
2173 250039.000   1545935.3328  -4353759.6634   4382599.5695   2   6   0.1173   0.2227   0.1205  -0.1213  -0.1538   0.0518   0.00    1.1
2173 250040.000   1545935.3251  -4353759.6495   4382599.5647   2   6   0.1147   0.2179   0.1181  -0.1186  -0.1505   0.0507   0.00    1.0
2173 250041.000   1545935.3304  -4353759.6549   4382599.5638   2   6   0.1123   0.2134   0.1158  -0.1161  -0.1474   0.0496   0.00    1.0
2173 250042.000   1545935.3320  -4353759.6455   4382599.5560   2   6   0.1101   0.2092   0.1136  -0.1137  -0.1444   0.0486   0.00    1.0
2173 250043.000   1545935.3389  -4353759.6445   4382599.5501   2   6   0.1079   0.2052   0.1116  -0.1115  -0.1417   0.0477   0.00    1.0
2173 250044.000   1545935.3372  -4353759.6389   4382599.5483   2   6   0.1059   0.2014   0.1097  -0.1094  -0.1390   0.0468   0.00    1.0
2173 250045.000   1545935.3317  -4353759.6323   4382599.5431   2   6   0.1040   0.1979   0.1079  -0.1073  -0.1365   0.0459   0.00    1.0
2173 250046.000   1545935.3206  -4353759.6287   4382599.5460   2   6   0.1021   0.1944   0.1061  -0.1054  -0.1342   0.0451   0.00    1.0
2173 250047.000   1545935.3138  -4353759.6309   4382599.5519   2   6   0.1004   0.1912   0.1045  -0.1036  -0.1319   0.0444   0.00    1.0
2173 250048.000   1545935.2998  -4353759.6293   4382599.5532   2   6   0.0987   0.1881   0.1029  -0.1018  -0.1298   0.0436   0.00    1.0
2173 250049.000   1545935.2897  -4353759.6194   4382599.5516   2   6   0.0971   0.1851   0.1014  -0.1001  -0.1277   0.0429   0.00    1.0
2173 250050.000   1545935.2794  -4353759.6053   4382599.5471   2   6   0.0956   0.1823   0.1000  -0.0985  -0.1258   0.0422   0.00    1.1
2173 250051.000   1545935.2749  -4353759.6084   4382599.5501   2   6   0.0941   0.1796   0.0987  -0.0970  -0.1239   0.0416   0.00    1.1
2173 250052.000   1545935.2736  -4353759.6077   4382599.5477   2   6   0.0927   0.1769   0.0974  -0.0955  -0.1221   0.0410   0.00    1.1
2173 250053.000   1545935.2624  -4353759.5987   4382599.5459   2   6   0.0914   0.1744   0.0961  -0.0940  -0.1204   0.0404   0.00    1.1
2173 250054.000   1545935.2618  -4353759.6026   4382599.5453   2   6   0.0901   0.1720   0.0949  -0.0927  -0.1187   0.0398   0.00    1.1
2173 250055.000   1545935.2602  -4353759.5959   4382599.5386   2   6   0.0888   0.1697   0.0937  -0.0913  -0.1171   0.0393   0.00    1.1
2173 250056.000   1545935.2617  -4353759.5941   4382599.5370   2   6   0.0876   0.1674   0.0926  -0.0900  -0.1156   0.0387   0.00    1.1
2173 250057.000   1545935.2661  -4353759.5975   4382599.5357   2   6   0.0864   0.1653   0.0916  -0.0888  -0.1141   0.0382   0.00    1.1
2173 250058.000   1545935.2665  -4353759.5983   4382599.5349   2   6   0.0853   0.1632   0.0905  -0.0876  -0.1126   0.0377   0.00    1.2
2173 250059.000   1545935.2683  -4353759.5959   4382599.5313   2   6   0.0842   0.1612   0.0895  -0.0864  -0.1113   0.0373   0.00    1.2
2173 250060.000   1545935.2649  -4353759.5906   4382599.5299   2   6   0.0831   0.1592   0.0886  -0.0853  -0.1099   0.0368   0.00    1.2
2173 250061.000   1545935.2604  -4353759.5887   4382599.5298   2   6   0.0821   0.1573   0.0876  -0.0841  -0.1086   0.0364   0.00    1.2
2173 250062.000   1545935.2586  -4353759.5917   4382599.5305   2   6   0.0811   0.1555   0.0867  -0.0831  -0.1074   0.0359   0.00    1.2
2173 250063.000   1545935.2545  -4353759.5881   4382599.5309   2   6   0.0801   0.1537   0.0859  -0.0820  -0.1062   0.0355   0.00    1.2
2173 250064.000   1545935.2522  -4353759.5842   4382599.5297   2   6   0.0792   0.1520   0.0851  -0.0810  -0.1050   0.0351   0.00    1.2
2173 250065.000   1545935.2509  -4353759.5790   4382599.5210   2   6   0.0782   0.1503   0.0842  -0.0800  -0.1039   0.0347   0.00    1.2
2173 250066.000   1545935.2520  -4353759.5806   4382599.5202   2   6   0.0773   0.1487   0.0834  -0.0791  -0.1028   0.0343   0.00    1.2
2173 250067.000   1545935.2498  -4353759.5741   4382599.5170   2   6   0.0765   0.1471   0.0827  -0.0781  -0.1017   0.0339   0.00    1.2
2173 250068.000   1545935.2493  -4353759.5738   4382599.5159   2   6   0.0756   0.1455   0.0819  -0.0772  -0.1006   0.0336   0.00    1.2
2173 250069.000   1545935.2550  -4353759.5803   4382599.5182   2   6   0.0748   0.1441   0.0812  -0.0763  -0.0996   0.0332   0.00    1.2
2173 250070.000   1545935.2513  -4353759.5769   4382599.5134   2   6   0.0740   0.1426   0.0805  -0.0755  -0.0986   0.0329   0.00    1.2
2173 250071.000   1545935.2499  -4353759.5742   4382599.5144   2   6   0.0732   0.1412   0.0798  -0.0746  -0.0977   0.0325   0.00    1.2
2173 250072.000   1545935.2434  -4353759.5645   4382599.5094   2   6   0.0725   0.1398   0.0792  -0.0738  -0.0968   0.0322   0.00    1.2
2173 250073.000   1545935.2428  -4353759.5597   4382599.5122   2   6   0.0717   0.1384   0.0785  -0.0730  -0.0958   0.0319   0.00    1.2
2173 250074.000   1545935.2368  -4353759.5614   4382599.5133   2   6   0.0710   0.1371   0.0779  -0.0722  -0.0950   0.0315   0.00    1.2
2173 250075.000   1545935.2370  -4353759.5643   4382599.5135   2   6   0.0703   0.1358   0.0773  -0.0714  -0.0941   0.0313   0.00    1.2
2173 250076.000   1545935.2350  -4353759.5632   4382599.5155   2   6   0.0696   0.1345   0.0767  -0.0706  -0.0933   0.0310   0.00    1.2
2173 250077.000   1545935.2343  -4353759.5671   4382599.5143   2   6   0.0689   0.1333   0.0761  -0.0699  -0.0924   0.0307   0.00    1.2
2173 250078.000   1545935.2368  -4353759.5769   4382599.5190   2   6   0.0682   0.1321   0.0755  -0.0692  -0.0916   0.0304   0.00    1.2
2173 250079.000   1545935.2360  -4353759.5784   4382599.5183   2   6   0.0676   0.1309   0.0750  -0.0684  -0.0908   0.0301   0.00    1.2
2173 250080.000   1545935.2341  -4353759.5786   4382599.5223   2   6   0.0670   0.1298   0.0744  -0.0677  -0.0901   0.0298   0.00    1.2
2173 250081.000   1545935.2321  -4353759.5795   4382599.5204   2   6   0.0663   0.1286   0.0739  -0.0671  -0.0893   0.0296   0.00    1.2
2173 250082.000   1545935.2291  -4353759.5747   4382599.5191   2   6   0.0657   0.1275   0.0734  -0.0664  -0.0886   0.0294   0.00    1.2
2173 250083.000   1545935.2243  -4353759.5716   4382599.5177   2   6   0.0651   0.1264   0.0728  -0.0657  -0.0879   0.0291   0.00    1.3
2173 250084.000   1545935.2263  -4353759.5718   4382599.5158   2   6   0.0645   0.1254   0.0724  -0.0651  -0.0872   0.0289   0.00    1.3
2173 250085.000   1545935.2212  -4353759.5709   4382599.5167   2   6   0.0639   0.1243   0.0719  -0.0644  -0.0865   0.0287   0.00    1.3
2173 250086.000   1545935.2183  -4353759.5711   4382599.5196   2   6   0.0634   0.1233   0.0714  -0.0638  -0.0858   0.0284   0.00    1.3
2173 250087.000   1545935.2153  -4353759.5624   4382599.5147   2   6   0.0628   0.1223   0.0710  -0.0632  -0.0852   0.0282   0.00    1.3
2173 250088.000   1545935.2115  -4353759.5606   4382599.5121   2   6   0.0623   0.1213   0.0705  -0.0626  -0.0845   0.0280   0.00    1.3
2173 250089.000   1545935.2048  -4353759.5504   4382599.5067   2   6   0.0617   0.1204   0.0701  -0.0620  -0.0839   0.0277   0.00    1.3
2173 250090.000   1545935.2031  -4353759.5495   4382599.5059   2   6   0.0612   0.1194   0.0696  -0.0614  -0.0833   0.0275   0.00    1.3
2173 250091.000   1545935.2010  -4353759.5427   4382599.5027   2   6   0.0607   0.1185   0.0692  -0.0608  -0.0827   0.0273   0.00    1.3
2173 250092.000   1545935.2005  -4353759.5440   4382599.5010   2   6   0.0602   0.1176   0.0688  -0.0602  -0.0821   0.0271   0.00    1.3
2173 250093.000   1545935.2050  -4353759.5506   4382599.5014   2   6   0.0597   0.1167   0.0684  -0.0597  -0.0815   0.0269   0.00    1.3
2173 250094.000   1545935.2074  -4353759.5534   4382599.5036   2   6   0.0592   0.1158   0.0680  -0.0591  -0.0810   0.0267   0.00    1.3
2173 250095.000   1545935.2127  -4353759.5550   4382599.5021   2   6   0.0587   0.1149   0.0676  -0.0586  -0.0804   0.0266   0.00    1.3
2173 250096.000   1545935.2145  -4353759.5578   4382599.5011   2   6   0.0583   0.1141   0.0672  -0.0580  -0.0798   0.0263   0.00    1.3
2173 250097.000   1545935.2122  -4353759.5574   4382599.5025   2   6   0.0578   0.1133   0.0668  -0.0575  -0.0793   0.0262   0.00    1.3
2173 250098.000   1545935.2102  -4353759.5588   4382599.5037   2   6   0.0573   0.1124   0.0664  -0.0570  -0.0788   0.0260   0.00    1.3
2173 250099.000   1545935.2096  -4353759.5548   4382599.4967   2   6   0.0568   0.1116   0.0661  -0.0565  -0.0783   0.0258   0.00    1.3
2173 250100.000   1545935.2096  -4353759.5556   4382599.4985   2   6   0.0564   0.1108   0.0657  -0.0560  -0.0778   0.0257   0.00    1.3
2173 250101.000   1545935.2088  -4353759.5540   4382599.4992   2   6   0.0560   0.1100   0.0654  -0.0555  -0.0773   0.0255   0.00    1.3
2173 250102.000   1545935.2065  -4353759.5550   4382599.4982   2   6   0.0555   0.1093   0.0650  -0.0550  -0.0768   0.0253   0.00    1.3
2173 250103.000   1545935.2027  -4353759.5524   4382599.4998   2   6   0.0551   0.1085   0.0647  -0.0545  -0.0763   0.0252   0.00    1.3
2173 250104.000   1545935.1995  -4353759.5519   4382599.5007   2   6   0.0547   0.1078   0.0643  -0.0541  -0.0758   0.0250   0.00    1.3
2173 250105.000   1545935.1979  -4353759.5495   4382599.5017   2   6   0.0543   0.1070   0.0640  -0.0536  -0.0753   0.0248   0.00    1.4
2173 250106.000   1545935.1949  -4353759.5530   4382599.5027   2   6   0.0539   0.1063   0.0637  -0.0531  -0.0749   0.0247   0.00    1.4
2173 250107.000   1545935.1944  -4353759.5523   4382599.5031   2   6   0.0535   0.1056   0.0634  -0.0527  -0.0744   0.0245   0.00    1.4
2173 250108.000   1545935.1899  -4353759.5516   4382599.5038   2   6   0.0531   0.1049   0.0630  -0.0522  -0.0740   0.0244   0.00    1.4
2173 250109.000   1545935.1870  -4353759.5465   4382599.5027   2   6   0.0527   0.1042   0.0628  -0.0518  -0.0736   0.0243   0.00    1.4
2173 250110.000   1545935.1899  -4353759.5544   4382599.5062   2   6   0.0523   0.1035   0.0625  -0.0514  -0.0731   0.0242   0.00    1.4
2173 250111.000   1545935.1872  -4353759.5485   4382599.5036   2   6   0.0520   0.1029   0.0621  -0.0509  -0.0727   0.0240   0.00    1.4
2173 250112.000   1545935.1860  -4353759.5493   4382599.5020   2   6   0.0516   0.1022   0.0618  -0.0505  -0.0723   0.0239   0.00    1.4
2173 250113.000   1545935.1849  -4353759.5507   4382599.5024   2   6   0.0512   0.1016   0.0616  -0.0501  -0.0719   0.0238   0.00    1.4
2173 250114.000   1545935.1849  -4353759.5477   4382599.5019   2   6   0.0509   0.1009   0.0613  -0.0497  -0.0715   0.0236   0.00    1.4
2173 250115.000   1545935.1846  -4353759.5482   4382599.5002   2   6   0.0506   0.1003   0.0610  -0.0493  -0.0711   0.0235   0.00    1.4
2173 250116.000   1545935.1807  -4353759.5404   4382599.5034   2   6   0.0502   0.0997   0.0607  -0.0489  -0.0707   0.0234   0.00    1.4
2173 250117.000   1545935.1747  -4353759.5333   4382599.5035   2   6   0.0498   0.0990   0.0605  -0.0485  -0.0703   0.0232   0.00    1.4
2173 250118.000   1545935.1758  -4353759.5318   4382599.5003   2   6   0.0495   0.0984   0.0602  -0.0481  -0.0699   0.0231   0.00    1.4
2173 250119.000   1545935.1746  -4353759.5336   4382599.5009   2   6   0.0492   0.0978   0.0599  -0.0477  -0.0696   0.0230   0.00    1.5
2173 250120.000   1545935.1713  -4353759.5281   4382599.5013   2   6   0.0488   0.0973   0.0597  -0.0473  -0.0692   0.0229   0.00    1.5
2173 250121.000   1545935.1725  -4353759.5333   4382599.5033   2   6   0.0485   0.0967   0.0594  -0.0469  -0.0688   0.0228   0.00    1.5
2173 250122.000   1545935.1697  -4353759.5282   4382599.5005   2   6   0.0482   0.0961   0.0591  -0.0466  -0.0685   0.0227   0.00    1.5
2173 250123.000   1545935.1709  -4353759.5339   4382599.5033   2   6   0.0479   0.0955   0.0589  -0.0462  -0.0681   0.0226   0.00    1.5
2173 250124.000   1545935.1672  -4353759.5346   4382599.5053   2   6   0.0476   0.0950   0.0586  -0.0458  -0.0678   0.0224   0.00    1.5
2173 250125.000   1545935.1685  -4353759.5327   4382599.5038   2   6   0.0473   0.0944   0.0584  -0.0455  -0.0674   0.0223   0.00    1.5
2173 250126.000   1545935.1697  -4353759.5349   4382599.5022   2   6   0.0470   0.0939   0.0582  -0.0451  -0.0671   0.0223   0.00    1.5
2173 250127.000   1545935.1689  -4353759.5374   4382599.5054   2   6   0.0467   0.0933   0.0579  -0.0448  -0.0668   0.0222   0.00    1.5
2173 250128.000   1545935.1710  -4353759.5436   4382599.5067   2   6   0.0463   0.0928   0.0577  -0.0444  -0.0665   0.0220   0.00    1.5
2173 250129.000   1545935.1859  -4353759.5564   4382599.5409   2   6   0.0461   0.0923   0.0575  -0.0440  -0.0661   0.0220   0.00    1.5
2173 250130.000   1545935.1947  -4353759.5741   4382599.5459   2   6   0.0458   0.0918   0.0573  -0.0437  -0.0658   0.0219   0.00    1.5
2173 250131.000   1545935.2014  -4353759.5830   4382599.5443   2   6   0.0455   0.0913   0.0570  -0.0434  -0.0655   0.0218   0.00    1.5
2173 250132.000   1545935.2092  -4353759.6007   4382599.5465   2   6   0.0452   0.0907   0.0568  -0.0431  -0.0652   0.0217   0.00    1.5
2173 250133.000   1545935.2170  -4353759.6129   4382599.5462   2   6   0.0450   0.0902   0.0566  -0.0427  -0.0649   0.0216   0.00    1.6
2173 250134.000   1545935.2272  -4353759.6242   4382599.5478   2   6   0.0447   0.0898   0.0564  -0.0424  -0.0646   0.0215   0.00    1.6
2173 250135.000   1545935.2348  -4353759.6393   4382599.5494   2   6   0.0444   0.0893   0.0561  -0.0421  -0.0643   0.0214   0.00    1.6
2173 250136.000   1545935.2429  -4353759.6487   4382599.5511   2   6   0.0442   0.0888   0.0559  -0.0418  -0.0640   0.0214   0.00    1.6
2173 250137.000   1545935.2493  -4353759.6621   4382599.5518   2   6   0.0439   0.0883   0.0557  -0.0415  -0.0637   0.0213   0.00    1.6
2173 250138.000   1545935.2556  -4353759.6702   4382599.5504   2   6   0.0436   0.0879   0.0555  -0.0412  -0.0634   0.0212   0.00    1.6
2173 250139.000   1545935.2623  -4353759.6822   4382599.5533   2   6   0.0434   0.0874   0.0553  -0.0409  -0.0631   0.0211   0.00    1.6
2173 250140.000   1545935.2664  -4353759.6883   4382599.5534   2   6   0.0431   0.0869   0.0551  -0.0406  -0.0629   0.0211   0.00    1.6
2173 250141.000   1545935.2716  -4353759.6989   4382599.5528   2   6   0.0429   0.0865   0.0549  -0.0403  -0.0626   0.0210   0.00    1.6
2173 250142.000   1545935.2765  -4353759.7069   4382599.5520   2   6   0.0426   0.0860   0.0547  -0.0400  -0.0623   0.0209   0.00    1.6
2173 250143.000   1545935.2819  -4353759.7197   4382599.5530   2   6   0.0424   0.0856   0.0545  -0.0397  -0.0621   0.0208   0.00    1.6
2173 250144.000   1545935.2854  -4353759.7304   4382599.5574   2   6   0.0422   0.0852   0.0543  -0.0394  -0.0618   0.0208   0.00    1.6
2173 250145.000   1545935.2916  -4353759.7432   4382599.5577   2   6   0.0419   0.0847   0.0541  -0.0391  -0.0615   0.0207   0.00    1.6
2173 250146.000   1545935.2998  -4353759.7553   4382599.5571   2   6   0.0417   0.0843   0.0540  -0.0389  -0.0613   0.0206   0.00    1.6
2173 250147.000   1545935.3031  -4353759.7584   4382599.5594   2   6   0.0415   0.0839   0.0538  -0.0386  -0.0610   0.0205   0.00    1.6
2173 250148.000   1545935.3117  -4353759.7718   4382599.5634   2   6   0.0413   0.0835   0.0536  -0.0383  -0.0608   0.0205   0.00    1.6
2173 250149.000   1545935.3091  -4353759.7723   4382599.5567   2   6   0.0410   0.0831   0.0534  -0.0380  -0.0605   0.0204   0.00    1.7
2173 250150.000   1545935.3143  -4353759.7789   4382599.5568   2   6   0.0408   0.0826   0.0532  -0.0378  -0.0603   0.0204   0.00    1.7
2173 250151.000   1545935.3227  -4353759.7883   4382599.5571   2   6   0.0405   0.0822   0.0531  -0.0375  -0.0600   0.0203   0.00    1.7
2173 250152.000   1545935.3276  -4353759.8021   4382599.5615   2   6   0.0404   0.0818   0.0529  -0.0372  -0.0598   0.0202   0.00    1.7
2173 250153.000   1545935.3338  -4353759.8112   4382599.5601   2   6   0.0402   0.0814   0.0527  -0.0370  -0.0595   0.0202   0.00    1.7
2173 250154.000   1545935.3425  -4353759.8276   4382599.5645   2   6   0.0399   0.0811   0.0525  -0.0367  -0.0593   0.0201   0.00    1.7
2173 250155.000   1545935.3519  -4353759.8463   4382599.5671   2   6   0.0397   0.0807   0.0523  -0.0365  -0.0591   0.0200   0.00    1.7
2173 250156.000   1545935.3678  -4353759.8740   4382599.5930   2   6   0.0395   0.0803   0.0522  -0.0362  -0.0588   0.0200   0.00    1.7
2173 250157.000   1545935.3686  -4353759.8828   4382599.5955   2   6   0.0393   0.0799   0.0520  -0.0360  -0.0586   0.0199   0.00    1.7
2173 250158.000   1545935.3742  -4353759.8957   4382599.5981   2   6   0.0391   0.0796   0.0518  -0.0357  -0.0584   0.0199   0.00    1.7
2173 250159.000   1545935.3770  -4353759.9019   4382599.5981   2   6   0.0389   0.0792   0.0517  -0.0355  -0.0582   0.0198   0.00    1.7
2173 250160.000   1545935.3779  -4353759.9069   4382599.6020   2   6   0.0387   0.0788   0.0515  -0.0352  -0.0580   0.0198   0.00    1.7
2173 250161.000   1545935.3787  -4353759.9127   4382599.6036   2   6   0.0386   0.0784   0.0514  -0.0350  -0.0577   0.0197   0.00    1.7
2173 250162.000   1545935.3800  -4353759.9195   4382599.6069   2   6   0.0383   0.0781   0.0512  -0.0348  -0.0575   0.0197   0.00    1.7
2173 250163.000   1545935.3806  -4353759.9235   4382599.6069   2   6   0.0382   0.0777   0.0511  -0.0345  -0.0573   0.0196   0.00    1.7
2173 250164.000   1545935.3823  -4353759.9331   4382599.6121   2   6   0.0379   0.0774   0.0509  -0.0343  -0.0571   0.0196   0.00    1.7
2173 250165.000   1545935.3853  -4353759.9403   4382599.6129   2   6   0.0378   0.0770   0.0507  -0.0341  -0.0569   0.0195   0.00    1.7
2173 250166.000   1545935.3859  -4353759.9449   4382599.6168   2   6   0.0376   0.0767   0.0506  -0.0338  -0.0567   0.0195   0.00    1.8
2173 250167.000   1545935.3882  -4353759.9526   4382599.6199   2   6   0.0374   0.0764   0.0504  -0.0336  -0.0565   0.0194   0.00    1.8
2173 250168.000   1545935.3913  -4353759.9603   4382599.6193   2   6   0.0373   0.0760   0.0503  -0.0334  -0.0563   0.0193   0.00    1.8
2173 250169.000   1545935.3915  -4353759.9649   4382599.6234   2   6   0.0371   0.0757   0.0501  -0.0332  -0.0561   0.0193   0.00    1.8
2173 250170.000   1545935.3904  -4353759.9702   4382599.6199   2   6   0.0369   0.0754   0.0500  -0.0330  -0.0559   0.0193   0.00    1.8
2173 250171.000   1545935.3942  -4353759.9780   4382599.6204   2   6   0.0367   0.0750   0.0498  -0.0328  -0.0557   0.0192   0.00    1.8
2173 250172.000   1545935.3965  -4353759.9849   4382599.6224   2   6   0.0366   0.0747   0.0497  -0.0326  -0.0555   0.0192   0.00    1.8
2173 250173.000   1545935.3945  -4353759.9848   4382599.6236   2   6   0.0364   0.0744   0.0496  -0.0324  -0.0553   0.0192   0.00    1.8
2173 250174.000   1545935.3999  -4353759.9934   4382599.6254   2   6   0.0362   0.0741   0.0494  -0.0322  -0.0551   0.0191   0.00    1.8
2173 250175.000   1545935.3992  -4353759.9964   4382599.6240   2   6   0.0361   0.0738   0.0493  -0.0320  -0.0549   0.0190   0.00    1.8
2173 250176.000   1545935.3999  -4353759.9995   4382599.6248   2   6   0.0359   0.0735   0.0491  -0.0317  -0.0547   0.0190   0.00    1.7
2173 250177.000   1545935.4012  -4353760.0028   4382599.6258   2   6   0.0357   0.0732   0.0490  -0.0315  -0.0545   0.0190   0.00    1.7
2173 250178.000   1545935.4056  -4353760.0071   4382599.6259   2   6   0.0356   0.0729   0.0489  -0.0314  -0.0544   0.0189   0.00    1.7
2173 250179.000   1545935.4075  -4353760.0125   4382599.6266   2   6   0.0354   0.0726   0.0487  -0.0312  -0.0542   0.0189   0.00    1.7
2173 250180.000   1545935.4079  -4353760.0106   4382599.6242   2   6   0.0353   0.0723   0.0486  -0.0310  -0.0540   0.0189   0.00    1.7
2173 250181.000   1545935.4112  -4353760.0160   4382599.6262   2   6   0.0351   0.0720   0.0484  -0.0308  -0.0538   0.0188   0.00    1.7
2173 250182.000   1545935.4141  -4353760.0249   4382599.6280   2   6   0.0350   0.0717   0.0483  -0.0306  -0.0536   0.0188   0.00    1.7
2173 250183.000   1545935.4165  -4353760.0283   4382599.6300   2   6   0.0348   0.0714   0.0482  -0.0304  -0.0535   0.0188   0.00    1.7
2173 250184.000   1545935.4191  -4353760.0345   4382599.6311   2   6   0.0347   0.0711   0.0480  -0.0303  -0.0533   0.0187   0.00    1.7
2173 250185.000   1545935.4281  -4353760.0465   4382599.6388   2   6   0.0345   0.0708   0.0479  -0.0301  -0.0531   0.0186   0.00    1.7
2173 250186.000   1545935.4287  -4353760.0506   4382599.6422   2   6   0.0343   0.0706   0.0478  -0.0298  -0.0530   0.0186   0.00    1.7
2173 250187.000   1545935.4314  -4353760.0555   4382599.6444   2   6   0.0343   0.0703   0.0476  -0.0297  -0.0528   0.0186   0.00    1.7
2173 250188.000   1545935.4371  -4353760.0610   4382599.6440   2   6   0.0341   0.0700   0.0475  -0.0295  -0.0526   0.0185   0.00    1.7
2173 250189.000   1545935.4402  -4353760.0680   4382599.6465   2   6   0.0339   0.0697   0.0474  -0.0293  -0.0525   0.0185   0.00    1.7
2173 250190.000   1545935.4410  -4353760.0760   4382599.6486   2   6   0.0338   0.0695   0.0473  -0.0291  -0.0523   0.0185   0.00    1.7
2173 250191.000   1545935.4411  -4353760.0753   4382599.6504   2   6   0.0337   0.0692   0.0471  -0.0290  -0.0521   0.0184   0.00    1.7
2173 250192.000   1545935.4433  -4353760.0789   4382599.6509   2   6   0.0336   0.0689   0.0470  -0.0288  -0.0520   0.0185   0.00    1.7
2173 250193.000   1545935.4477  -4353760.0868   4382599.6520   2   6   0.0334   0.0687   0.0469  -0.0287  -0.0518   0.0184   0.00    1.6
2173 250194.000   1545935.4481  -4353760.0880   4382599.6477   2   6   0.0333   0.0684   0.0468  -0.0285  -0.0517   0.0184   0.00    1.6
2173 250195.000   1545935.4519  -4353760.0988   4382599.6536   2   6   0.0332   0.0681   0.0467  -0.0283  -0.0515   0.0183   0.00    1.6
2173 250196.000   1545935.4516  -4353760.0968   4382599.6498   2   6   0.0330   0.0679   0.0466  -0.0282  -0.0513   0.0183   0.00    1.6
2173 250197.000   1545935.4530  -4353760.1042   4382599.6526   2   6   0.0329   0.0676   0.0464  -0.0280  -0.0512   0.0183   0.00    1.6
2173 250198.000   1545935.4533  -4353760.1102   4382599.6547   2   6   0.0328   0.0674   0.0463  -0.0279  -0.0510   0.0182   0.00    1.6
2173 250199.000   1545935.4551  -4353760.1158   4382599.6549   2   6   0.0327   0.0671   0.0462  -0.0277  -0.0509   0.0182   0.00    1.6
2173 250200.000   1545935.4583  -4353760.1217   4382599.6578   2   6   0.0325   0.0669   0.0461  -0.0275  -0.0507   0.0182   0.00    1.6
2173 250201.000   1545935.4616  -4353760.1261   4382599.6601   2   6   0.0324   0.0666   0.0459  -0.0274  -0.0506   0.0181   0.00    1.6
2173 250202.000   1545935.4609  -4353760.1245   4382599.6592   2   6   0.0323   0.0664   0.0458  -0.0272  -0.0504   0.0180   0.00    1.6
2173 250203.000   1545935.4652  -4353760.1326   4382599.6580   2   6   0.0321   0.0662   0.0457  -0.0271  -0.0503   0.0181   0.00    1.6
2173 250204.000   1545935.4650  -4353760.1338   4382599.6597   2   6   0.0321   0.0659   0.0456  -0.0269  -0.0501   0.0180   0.00    1.6
2173 250205.000   1545935.4642  -4353760.1361   4382599.6600   2   6   0.0320   0.0657   0.0455  -0.0268  -0.0500   0.0180   0.00    1.6
2173 250206.000   1545935.4661  -4353760.1420   4382599.6631   2   6   0.0318   0.0655   0.0454  -0.0266  -0.0499   0.0180   0.00    1.6
2173 250207.000   1545935.4726  -4353760.1531   4382599.6633   2   6   0.0317   0.0652   0.0453  -0.0265  -0.0497   0.0180   0.00    1.6
2173 250208.000   1545935.4790  -4353760.1686   4382599.6709   2   6   0.0315   0.0650   0.0452  -0.0263  -0.0496   0.0180   0.00    1.6
2173 250209.000   1545935.4749  -4353760.1654   4382599.6683   2   6   0.0314   0.0648   0.0451  -0.0262  -0.0494   0.0179   0.00    1.6
2173 250210.000   1545935.4803  -4353760.1765   4382599.6674   2   6   0.0314   0.0645   0.0450  -0.0261  -0.0493   0.0178   0.00    1.5
2173 250211.000   1545935.4827  -4353760.1828   4382599.6698   2   6   0.0313   0.0643   0.0449  -0.0259  -0.0492   0.0178   0.00    1.5
2173 250212.000   1545935.4859  -4353760.1878   4382599.6713   2   6   0.0312   0.0641   0.0447  -0.0258  -0.0490   0.0178   0.00    1.5
2173 250213.000   1545935.4893  -4353760.1970   4382599.6750   2   6   0.0311   0.0639   0.0446  -0.0257  -0.0489   0.0178   0.00    1.5
2173 250214.000   1545935.4914  -4353760.2031   4382599.6786   2   6   0.0309   0.0637   0.0445  -0.0255  -0.0487   0.0177   0.00    1.5
2173 250215.000   1545935.4929  -4353760.2084   4382599.6799   2   6   0.0308   0.0635   0.0444  -0.0254  -0.0486   0.0178   0.00    1.5
2173 250216.000   1545935.5147  -4353760.2563   4382599.6919   2   6   0.0307   0.0632   0.0443  -0.0253  -0.0485   0.0177   0.00    1.5
2173 250217.000   1545935.5248  -4353760.2739   4382599.6920   2   6   0.0306   0.0630   0.0442  -0.0251  -0.0483   0.0177   0.00    1.5
2173 250218.000   1545935.5335  -4353760.2882   4382599.6948   2   6   0.0304   0.0628   0.0441  -0.0250  -0.0482   0.0177   0.00    1.5
2173 250219.000   1545935.5440  -4353760.3062   4382599.6936   2   6   0.0304   0.0626   0.0440  -0.0249  -0.0481   0.0176   0.00    1.5
2173 250220.000   1545935.5509  -4353760.3166   4382599.6943   2   6   0.0303   0.0624   0.0439  -0.0247  -0.0480   0.0176   0.00    1.4
2173 250221.000   1545935.5597  -4353760.3334   4382599.6955   2   6   0.0302   0.0622   0.0438  -0.0246  -0.0479   0.0176   0.00    1.4
2173 250222.000   1545935.5683  -4353760.3469   4382599.6955   2   6   0.0301   0.0620   0.0437  -0.0245  -0.0477   0.0176   0.00    1.4
2173 250223.000   1545935.5770  -4353760.3611   4382599.6980   2   6   0.0300   0.0618   0.0436  -0.0244  -0.0476   0.0175   0.00    1.4
2173 250224.000   1545935.5871  -4353760.3772   4382599.6987   2   6   0.0299   0.0616   0.0435  -0.0242  -0.0475   0.0176   0.00    1.4
2173 250225.000   1545935.5982  -4353760.3960   4382599.6991   2   6   0.0298   0.0614   0.0434  -0.0241  -0.0473   0.0175   0.00    1.4
2173 250226.000   1545935.6067  -4353760.4089   4382599.6972   2   6   0.0297   0.0612   0.0433  -0.0240  -0.0472   0.0175   0.00    1.3
2173 250227.000   1545935.6167  -4353760.4256   4382599.6966   2   6   0.0296   0.0610   0.0432  -0.0239  -0.0471   0.0175   0.00    1.3
2173 250228.000   1545935.6283  -4353760.4441   4382599.6977   2   6   0.0296   0.0608   0.0431  -0.0238  -0.0470   0.0174   0.00    1.3
2173 250229.000   1545935.6366  -4353760.4588   4382599.6954   2   6   0.0295   0.0606   0.0430  -0.0237  -0.0469   0.0174   0.00    1.3
2173 250230.000   1545935.6457  -4353760.4720   4382599.6959   2   6   0.0293   0.0604   0.0429  -0.0235  -0.0467   0.0174   0.00    1.3
