     2.11           OBSERVATION DATA    M (MIXED)           RINEX VERSION / TYPE
CONVBIN 2.4.3                           20210831 054546 UTC PGM / RUN BY / DATE 
log: logs/21_08_31_03_04_47_tn31_SNTN.rtcm                  COMMENT             
format: RTCM 3, station ID: 697                             COMMENT             
0697                                                        MARKER NAME         
                                                            MARKER NUMBER       
                                                            OBSERVER / AGENCY   
1707503             LEICA GR30          4.50                REC # / TYPE / VERS 
                    GPPNULLANTENNA                          ANT # / TYPE        
   281404.8190 -5147182.6825  3743462.2143                  APPROX POSITION XYZ 
        0.0000        0.0000        0.0000                  ANTENNA: DELTA H/E/N
     1     1                                                WAVELENGTH FACT L1/2
     7    C1    L1    C2    L2    P2    C5    L5            # / TYPES OF OBSERV 
  2021     8    31     3     4   54.0000000     GPS         TIME OF FIRST OBS   
  2021     8    31     3    34   51.0000000     GPS         TIME OF LAST OBS    
                                                            END OF HEADER       
 21  8 31  3  4 54.0000000  0 14G 3G 4G16G22G26G31R 7R 8R 9E 1E 4E19
                                E21E27
  21652111.878   113782615.900    21652112.272    88661777.201    21652111.646  
  21652112.700    84967540.496  
  21800787.582   114563911.545    21800786.116    89270572.611    21800785.759  
  21800790.226    85550983.011  
  20380854.137   107102111.039                    83456176.559    20380850.653  
                                
  22541015.682   118453836.701                    92301671.175    22541010.893  
                                
  20388206.364   107140747.627    20388206.597    83486296.532    20388206.311  
  20388205.846    80007699.088  
  22539164.183   118444107.185    22539161.288    92294094.189    22539160.556  
                                
  19295735.792   103291584.903    19295734.970    80337895.042    19295734.809  
                                
  20486098.447   109702126.612    20486096.857    85323869.774    20486096.821  
                                
  20153921.137   107620814.262    20153920.494    83705074.942    20153920.512  
                                
  26184454.893   137600239.606                                                  
  26184457.913   102753437.000  
  27609063.731   145086609.597                                                  
  27609066.305   108343906.101  
  23351586.442   122713414.924                                                  
  23351587.425    91636644.243  
  23480306.860   123389846.294                                                  
  23480309.112    92141775.958  
  25071921.821   131753838.433                                                  
  25071924.287    98387615.591  
 21  8 31  3  4 55.0000000  0 14G 3G 4G16G22G26G31R 7R 8R 9E 1E 4E19
                                E21E27
  21652388.759   113784070.855    21652389.152    88662910.932    21652388.509  
  21652389.581    84968626.991  
  21800313.195   114561418.610    21800311.712    89268630.063    21800311.354  
  21800315.840    85549121.404  
  20380540.554   107100463.123                    83454892.466    20380537.051  
                                
  22541465.946   118456202.765                    92303514.861    22541461.139  
                                
  20388429.638   107141920.984    20388429.888    83487210.836    20388429.602  
  20388429.120    80008575.298  
  22539616.752   118446485.506    22539613.875    92295947.426    22539613.142  
                                
  19295948.380   103292722.887    19295947.558    80338780.141    19295947.397  
                                
  20485587.250   109699389.250    20485585.678    85321740.715    20485585.624  
                                
  20154325.906   107622975.641    20154325.245    83706756.014    20154325.245  
                                
  26183998.607   137597841.821                                                  
  26184001.627   102751646.444  
  27608559.110   145083957.709                                                  
  27608561.665   108341925.800  
  23351429.016   122712587.656                                                  
  23351429.999    91636026.484  
  23480239.012   123389489.697                                                  
  23480241.245    92141509.679  
  25072321.426   131755938.345                                                  
  25072323.892    98389183.703  
 21  8 31  3  4 56.0000000  0 14G 3G 4G16G22G26G31R 7R 8R 9E 1E 4E19
                                E21E27
  21652665.729   113785526.382    21652666.122    88664045.112    21652665.479  
  21652666.551    84969713.915  
  21799838.844   114558925.879    21799837.361    89266687.676    21799837.003  
  21799841.488    85547259.955  
  20380227.077   107098815.844                    83453608.874    20380223.593  
                                
  22541916.245   118458569.165                    92305358.810    22541911.456  
                                
  20388653.036   107143094.895    20388653.269    83488125.572    20388652.983  
  20388652.500    80009451.920  
  22540069.356   118448863.885    22540066.444    92297800.708    22540065.729  
                                
  19296161.111   103293861.669    19296160.289    80339665.860    19296160.128  
                                
  20485076.178   109696652.459    20485074.588    85319612.100    20485074.552  
                                
  20154730.729   107625137.324    20154730.050    83708437.321    20154730.068  
                                
  26183542.357   137595444.242                                                  
  26183545.377   102749856.048  
  27608054.453   145081305.831                                                  
  27608057.026   108339945.501  
  23351271.644   122711760.688                                                  
  23351272.608    91635408.938  
  23480171.217   123389133.467                                                  
  23480173.468    92141243.661  
  25072721.049   131758038.395                                                  
  25072723.515    98390751.926  
 21  8 31  3  4 57.0000000  0 14G 3G 4G16G22G26G31R 7R 8R 9E 1E 4E19
                                E21E27
  21652942.806   113786982.415    21652943.199    88665179.685    21652942.556  
  21652943.628    84970801.212  
  21799364.528   114556433.320    21799363.045    89264745.423    21799362.688  
  21799367.155    85545398.627  
  20379913.744   107097169.146                    83452325.733    20379910.242  
                                
  22542366.616   118460935.836                    92307202.967    22542361.809  
                                
  20388876.524   107144269.291    20388876.739    83489040.683    20388876.453  
  20388875.988    80010328.902  
  22540521.943   118451242.247    22540519.048    92299653.977    22540518.316  
                                
  19296373.984   103295001.207    19296373.162    80340552.166    19296373.002  
                                
  20484565.196   109693916.161    20484563.606    85317483.866    20484563.570  
                                
  20155135.570   107627299.231    20155134.908    83710118.804    20155134.908  
                                
  26183086.126   137593046.806                                                  
  26183089.145   102748065.764  
  27607549.814   145078653.896                                                  
  27607552.369   108337965.171  
  23351114.325   122710933.957                                                  
  23351115.307    91634791.576  
  23480103.493   123388777.533                                                  
  23480105.727    92140977.864  
  25073120.690   131760138.565                                                  
  25073123.156    98392320.233  
 21  8 31  3  4 58.0000000  0 14G 3G 4G16G22G26G31R 7R 8R 9E 1E 4E19
                                E21E27
  21653219.990   113788439.119    21653220.401    88666314.774    21653219.758  
  21653220.812    84971889.009  
  21798890.267   114553941.069    21798888.784    89262803.410    21798888.426  
  21798892.911    85543537.528  
  20379600.518   107095523.176                    83451043.159    20379597.016  
                                
  22542817.058   118463302.938                    92309047.464    22542812.269  
                                
  20389100.119   107145444.329    20389100.334    83489956.295    20389100.066  
  20389099.583    80011206.368  
  22540974.548   118453620.773    22540971.671    92301507.371    22540970.938  
                                
  19296587.037   103296141.696    19296586.215    80341439.213    19296586.054  
                                
  20484054.338   109691180.513    20484052.748    85315356.139    20484052.712  
                                
  20155540.517   107629461.555    20155539.856    83711800.611    20155539.856  
                                
  26182629.965   137590649.688                                                  
  26182632.985   102746275.717  
  27607045.175   145076002.088                                                  
  27607047.748   108335984.918  
  23350957.077   122710107.634                                                  
  23350958.060    91634174.515  
  23480035.841   123388422.048                                                  
  23480038.092    92140712.411  
  25073520.402   131762238.999                                                  
  25073522.868    98393888.745  
 21  8 31  3  4 59.0000000  0 14G 3G 4G16G22G26G31R 7R 8R 9E 1E 4E19
                                E21E27
  21653497.282   113789896.260    21653497.693    88667450.211    21653497.049  
  21653498.104    84972977.134  
  21798416.005   114551448.892    21798414.558    89260861.456    21798414.164  
  21798418.650    85541676.491  
  20379287.381   107093877.684                    83449760.962    20379283.879  
                                
  22543267.536   118465670.237                    92310892.117    22543262.730  
                                
  20389323.804   107146619.775    20389324.018    83490872.234    20389323.750  
  20389323.268    80012084.134  
  22541427.170   118455999.208    22541424.275    92303360.700    22541423.542  
                                
  19296800.232   103297282.867    19296799.392    80342326.794    19296799.231  
                                
  20483543.552   109688445.262    20483541.944    85313228.720    20483541.926  
                                
  20155945.483   107631624.046    20155944.822    83713482.549    20155944.822  
                                
  26182173.823   137588252.654                                                  
  26182176.860   102744485.718  
  27606540.518   145073350.130                                                  
  27606543.091   108334004.573  
  23350799.866   122709281.469                                                  
  23350800.848    91633557.580  
  23479968.242   123388066.789                                                  
  23479970.476    92140447.120  
  25073920.114   131764339.466                                                  
  25073922.562    98395457.273  
 21  8 31  3  5  0.0000000  0 14G 3G 4G16G22G26G31R 7R 8R 9E 1E 4E19
                                E21E27
  21653774.698   113791354.138    21653775.091    88668586.225    21653774.466  
  21653775.520    84974065.811  
  21797941.833   114548957.111    21797940.367    89258919.813    21797939.992  
  21797944.477    85539815.754  
  20378974.405   107092233.005                    83448479.396    20378970.921  
                                
  22543718.104   118468038.044                    92312737.159    22543713.315  
                                
  20389547.631   107147795.949    20389547.846    83491788.733    20389547.560  
  20389547.077    80012962.450  
  22541879.792   118458377.886    22541876.915    92305214.220    22541876.183  
                                
  19297013.588   103298425.045    19297012.766    80343215.152    19297012.605  
                                
  20483032.874   109685710.723    20483031.301    85311101.860    20483031.265  
                                
  20156350.520   107633787.014    20156349.859    83715164.857    20156349.859  
                                
  26181717.751   137585856.008                                                  
  26181720.789   102742696.019  
  27606035.915   145070698.392                                                  
  27606038.488   108332024.381  
  23350642.743   122708455.794                                                  
  23350643.726    91632941.001  
  23479900.733   123387712.070                                                  
  23479902.985    92140182.232  
  25074319.880   131766440.287                                                  
  25074322.346    98397026.062  
 21  8 31  3  5  1.0000000  0 14G 3G 4G16G22G26G31R 7R 8R 9E 1E 4E19
                                E21E27
  21654052.258   113792812.621    21654052.651    88669722.705    21654052.008  
  21654053.080    84975154.929  
  21797467.714   114546465.574    21797466.249    89256978.355    21797465.873  
  21797470.358    85537955.184  
  20378661.554   107090588.997                    83447198.349    20378658.070  
                                
  22544168.760   118470406.196                    92314582.473    22544163.972  
                                
  20389771.548   107148972.689    20389771.762    83492705.674    20389771.476  
  20389771.012    80013841.182  
  22542332.468   118460756.644    22542329.573    92307067.795    22542328.859  
                                
  19297227.123   103299568.048    19297226.301    80344104.157    19297226.140  
                                
  20482522.338   109682976.755    20482520.747    85308975.438    20482520.712  
                                
  20156755.647   107635950.346    20156754.985    83716847.447    20156754.985  
                                
  26181261.716   137583459.593                                                  
  26181264.772   102740906.487  
  27605531.294   145068046.649                                                  
  27605533.849   108330044.194  
  23350485.675   122707630.440                                                  
  23350486.675    91632324.671  
  23479833.295   123387357.721                                                  
  23479835.565    92139917.621  
  25074719.681   131768541.273                                                  
  25074722.147    98398594.987  
 21  8 31  3  5  2.0000000  0 14G 3G 4G16G22G26G31R 7R 8R 9E 1E 4E19
                                E21E27
  21654329.907   113794271.722    21654330.300    88670859.665    21654329.657  
  21654330.729    84976244.520  
  21796993.649   114543974.321    21796992.183    89255037.119    21796991.826  
  21796996.293    85536094.833  
  20378348.864   107088945.680                    83445917.842    20378345.362  
                                
  22544619.471   118472774.748                    92316428.095    22544614.682  
                                
  20389995.590   107150150.034    20389995.804    83493623.085    20389995.518  
  20389995.054    80014720.373  
  22542785.144   118463135.499    22542782.267    92308921.448    22542781.535  
                                
  19297440.783   103300711.896    19297439.961    80344993.817    19297439.800  
                                
  20482011.891   109680243.411    20482010.319    85306849.505    20482010.283  
                                
  20157160.845   107638114.039    20157160.183    83718530.321    20157160.183  
                                
  26180805.752   137581063.458                                                  
  26180808.790   102739117.169  
  27605026.708   145065395.005                                                  
  27605029.246   108328064.068  
  23350328.677   122706805.446                                                  
  23350329.660    91631708.609  
  23479765.947   123387003.797                                                  
  23479768.181    92139653.331  
  25075119.519   131770642.505                                                  
  25075122.003    98400164.089  
 21  8 31  3  5  3.0000000  0 14G 3G 4G16G22G26G31R 7R 8R 9E 1E 4E19
                                E21E27
  21654607.663   113795731.361    21654608.074    88671997.045    21654607.413  
  21654608.503    84977334.510  
  21796519.601   114541483.244    21796518.136    89253096.023    21796517.761  
  21796522.246    85534234.622  
  20378036.246   107087302.955                    83444637.797    20378032.761  
                                
  22545070.253   118475143.605                    92318273.958    22545065.446  
                                
  20390219.703   107151327.892    20390219.953    83494540.897    20390219.667  
  20390219.185    80015599.946  
  22543237.838   118465514.397    22543234.943    92310775.135    22543234.211  
                                
  19297654.622   103301856.510    19297653.800    80345884.073    19297653.639  
                                
  20481501.570   109677510.610    20481499.997    85304723.997    20481499.944  
                                
  20157566.096   107640277.988    20157565.417    83720213.390    20157565.435  
                                
  26180349.806   137578667.507                                                  
  26180352.844   102737327.985  
  27604522.105   145062743.329                                                  
  27604524.660   108326083.927  
  23350171.752   122705980.740                                                  
  23350172.734    91631092.750  
  23479698.652   123386650.204                                                  
  23479700.922    92139389.281  
  25075519.410   131772743.878                                                  
  25075521.875    98401733.294  
 21  8 31  3  5  4.0000000  0 14G 3G 4G16G22G26G31R 7R 8R 9E 1E 4E19
                                E21E27
  21654885.490   113797191.358    21654885.883    88673134.705    21654885.258  
  21654886.312    84978424.765  
  21796045.572   114538992.182    21796044.107    89251154.938    21796043.731  
  21796048.216    85532374.416  
  20377723.734   107085660.659                    83443358.088    20377720.250  
                                
  22545521.052   118477512.582                    92320119.916    22545516.246  
                                
  20390443.924   107152506.085    20390444.156    83495458.972    20390443.870  
  20390443.387    80016479.766  
  22543690.496   118467893.141    22543687.619    92312628.702    22543686.869  
                                
  19297868.549   103303001.731    19297867.728    80346774.793    19297867.567  
                                
  20480991.302   109674778.181    20480989.712    85302598.773    20480989.676  
                                
  20157971.330   107642442.048    20157970.669    83721896.552    20157970.669  
                                
  26179893.878   137576271.548                                                  
  26179896.934   102735538.792  
  27604017.466   145060091.450                                                  
  27604020.021   108324103.637  
  23350014.808   122705156.113                                                  
  23350015.809    91630476.959  
  23479631.393   123386296.744                                                  
  23479633.645    92139125.340  
  25075919.283   131774845.190                                                  
  25075921.731    98403302.457  
 21  8 31  3  5  5.0000000  0 14G 3G 4G16G22G26G31R 7R 8R 9E 1E 4E19
                                E21E27
  21655163.443   113798652.020    21655163.836    88674272.884    21655163.211  
  21655164.283    84979515.520  
  21795571.596   114536501.422    21795570.131    89249214.086    21795569.756  
  21795574.223    85530514.433  
  20377411.348   107084019.076                    83442078.934    20377407.846  
                                
  22545971.941   118479881.976                    92321966.197    22545967.135  
                                
  20390668.251   107153684.915    20390668.466    83496377.542    20390668.180  
  20390667.715    80017360.061  
  22544143.190   118470272.022    22544140.277    92314482.380    22544139.562  
                                
  19298082.656   103304147.873    19298081.852    80347666.239    19298081.691  
                                
  20480481.159   109672046.438    20480479.587    85300474.086    20480479.551  
                                
  20158376.671   107644606.528    20158376.010    83723580.035    20158376.010  
                                
  26179438.004   137573875.893                                                  
  26179441.041   102733749.827  
  27603512.862   145057439.680                                                  
  27603515.400   108322123.421  
  23349857.989   122704331.888                                                  
  23349858.972    91629861.469  
  23479564.224   123385943.742                                                  
  23479566.475    92138861.730  
  25076319.209   131776946.771                                                  
  25076321.657    98404871.820  
 21  8 31  3  5  6.0000000  0 14G 3G 4G16G22G26G31R 7R 8R 9E 1E 4E19
                                E21E27
  21655441.503   113800113.244    21655441.896    88675411.500    21655441.253  
  21655442.343    84980606.699  
  21795097.674   114534010.894    21795096.191    89247273.417    21795095.833  
  21795100.318    85528654.623  
  20377099.087   107082378.141                    83440800.284    20377095.585  
                                
  22546422.866   118482251.722                    92323812.753    22546418.095  
                                
  20390892.668   107154864.311    20390892.883    83497296.552    20390892.615  
  20390892.150    80018240.776  
  22544595.902   118472650.988    22544592.989    92316336.122    22544592.274  
                                
  19298296.941   103305294.851    19298296.119    80348558.331    19298295.941  
                                
  20479971.159   109669315.281    20479969.551    85298349.850    20479969.533  
                                
  20158782.083   107646771.327    20158781.404    83725263.772    20158781.422  
                                
  26178982.165   137571480.465                                                  
  26178985.220   102731961.038  
  27603008.241   145054787.931                                                  
  27603010.796   108320143.219  
  23349701.189   122703507.974                                                  
  23349702.171    91629246.211  
  23479497.108   123385591.106                                                  
  23479499.377    92138598.402  
  25076719.154   131779048.523                                                  
  25076721.602    98406441.314  
 21  8 31  3  5  7.0000000  0 14G 3G 4G16G22G26G31R 7R 8R 9E 1E 4E19
                                E21E27
  21655719.706   113801575.239    21655720.117    88676550.714    21655719.473  
  21655720.546    84981698.447  
  21794623.805   114531520.765    21794622.340    89245333.057    21794621.965  
  21794626.432    85526795.113  
  20376786.987   107080738.028                    83439522.273    20376783.484  
                                
  22546873.934   118484621.962                    92325659.685    22546869.127  
                                
  20391117.228   107156044.422    20391117.478    83498216.120    20391117.193  
  20391116.710    80019122.033  
  22545048.631   118475030.180    22545045.736    92318190.035    22545045.004  
                                
  19298511.388   103306442.837    19298510.566    80349451.206    19298510.405  
                                
  20479461.267   109666584.850    20479459.694    85296226.182    20479459.641  
                                
  20159187.567   107648936.627    20159186.906    83726947.892    20159186.906  
                                
  26178526.415   137569085.430                                                  
  26178529.453   102730172.535  
  27602503.638   145052136.354                                                  
  27602506.211   108318163.158  
  23349544.513   122702684.544                                                  
  23349545.478    91628631.312  
  23479430.135   123385239.014                                                  
  23479432.368    92138335.472  
  25077119.170   131781150.633                                                  
  25077121.636    98408011.069  
 21  8 31  3  5  8.0000000  0 14G 3G 4G16G22G26G31R 7R 8R 9E 1E 4E19
                                E21E27
  21655998.034   113803037.803    21655998.445    88677690.375    21655997.783  
  21655998.873    84982790.619  
  21794150.008   114529030.860    21794148.525    89243392.872    21794148.168  
  21794152.635    85524935.766  
  20376475.011   107079098.540                    83438244.750    20376471.509  
                                
  22547325.037   118486992.553                    92327506.902    22547320.249  
                                
  20391341.913   107157225.089    20391342.128    83499136.120    20391341.860  
  20391341.395    80020003.697  
  22545501.396   118477409.436    22545498.502    92320044.002    22545497.787  
                                
  19298725.977   103307591.633    19298725.155    80350344.717    19298724.994  
                                
  20478951.482   109663854.967    20478949.891    85294102.941    20478949.855  
                                
  20159593.105   107651102.216    20159592.443    83728632.241    20159592.443  
                                
  26178070.684   137566690.612                                                  
  26178073.722   102728384.206  
  27601999.088   145049484.810                                                  
  27602001.625   108316183.105  
  23349387.855   122701861.423                                                  
  23349388.856    91628016.648  
  23479363.179   123384887.279                                                  
  23479365.431    92138072.812  
  25077519.221   131783252.907                                                  
  25077521.669    98409580.949  
 21  8 31  3  5  9.0000000  0 14G 3G 4G16G22G26G31R 7R 8R 9E 1E 4E19
                                E21E27
  21656276.487   113804501.078    21656276.880    88678830.586    21656276.236  
  21656277.326    84983883.326  
  21793676.247   114526541.329    21793674.781    89241452.979    21793674.424  
  21793678.909    85523076.696  
  20376163.179   107077459.832                    83436967.838    20376159.677  
                                
  22547776.230   118489363.611                    92329354.479    22547771.441  
                                
  20391566.706   107158406.460    20391566.956    83500056.671    20391566.670  
  20391566.188    80020885.890  
  22545954.198   118479788.901    22545951.303    92321898.130    22545950.570  
                                
  19298940.762   103308741.386    19298939.958    80351238.969    19298939.797  
                                
  20478441.803   109661125.774    20478440.231    85291980.241    20478440.177  
                                
  20159998.749   107653268.261    20159998.070    83730316.941    20159998.070  
                                
  26177615.042   137564296.155                                                  
  26177618.079   102726596.133  
  27601494.538   145046833.439                                                  
  27601497.076   108314203.194  
  23349231.305   122701038.762                                                  
  23349232.306    91627402.316  
  23479296.349   123384536.046                                                  
  23479298.583    92137810.533  
  25077919.327   131785355.501                                                  
  25077921.792    98411151.075  
 21  8 31  3  5 10.0000000  0 14G 3G 4G16G22G26G31R 7R 8R 9E 1E 4E19
                                E21E27
  21656555.100   113805965.103    21656555.493    88679971.385    21656554.832  
  21656555.904    84984976.590  
  21793202.592   114524052.186    21793201.109    89239513.387    21793200.752  
  21793205.219    85521217.925  
  20375851.490   107075821.943                    83435691.558    20375847.987  
                                
  22548227.530   118491735.188                    92331202.466    22548222.724  
                                
  20391791.659   107159588.547    20391791.891    83500977.777    20391791.605  
  20391791.141    80021768.619  
  22546407.034   118482168.613    22546404.122    92323752.453    22546403.407  
                                
  19299155.745   103309892.148    19299154.923    80352134.006    19299154.762  
                                
  20477932.286   109658397.311    20477930.696    85289858.110    20477930.660  
                                
  20160404.465   107655434.814    20160403.786    83732002.037    20160403.804  
                                
  26177159.453   137561902.094                                                  
  26177162.509   102724808.367  
  27600990.024   145044182.250                                                  
  27600992.562   108312223.403  
  23349074.862   122700216.582                                                  
  23349075.862    91626788.355  
  23479229.626   123384185.362                                                  
  23479231.860    92137548.654  
  25078319.503   131787458.441                                                  
  25078321.969    98412721.446  
 21  8 31  3  5 11.0000000  0 14G 3G 4G16G22G26G31R 7R 8R 9E 1E 4E19
                                E21E27
  21656833.786   113807429.757    21656834.179    88681112.674    21656833.553  
  21656834.625    84986070.331  
  21792728.974   114521563.331    21792727.491    89237574.019    21792727.133  
  21792731.619    85519359.367  
  20375539.943   107074184.753                    83434415.825    20375536.459  
                                
  22548678.884   118494107.149                    92333050.752    22548674.077  
                                
  20392016.719   107160771.250    20392016.952    83501899.366    20392016.683  
  20392016.201    80022651.806  
  22546859.907   118484548.439    22546856.994    92325606.868    22546856.279  
                                
  19299370.870   103311043.808    19299370.083    80353029.742    19299369.887  
                                
  20477422.876   109655669.506    20477421.303    85287736.483    20477421.268  
                                
  20160810.253   107657601.733    20160809.592    83733687.421    20160809.592  
                                
  26176703.918   137559508.309                                                  
  26176706.992   102723020.804  
  27600485.546   145041531.131                                                  
  27600488.084   108310243.687  
  23348918.472   122699394.764                                                  
  23348919.437    91626174.655  
  23479162.957   123383835.091                                                  
  23479165.208    92137287.092  
  25078719.716   131789561.613                                                  
  25078722.182    98414291.994  
 21  8 31  3  5 12.0000000  0 14G 3G 4G16G22G26G31R 7R 8R 9E 1E 4E19
                                E21E27
  21657112.560   113808894.689    21657112.953    88682254.182    21657112.310  
  21657113.400    84987164.268  
  21792255.338   114519074.382    21792253.872    89235634.580    21792253.497  
  21792257.982    85517500.736  
  20375228.450   107072547.885                    83433140.349    20375224.948  
                                
  22549130.256   118496479.152                    92334899.064    22549125.484  
                                
  20392241.833   107161954.184    20392242.048    83502821.134    20392241.780  
  20392241.297    80023535.167  
  22547312.708   118486928.001    22547309.813    92327461.074    22547309.098  
                                
  19299586.102   103312195.979    19299585.298    80353925.874    19299585.155  
                                
  20476913.537   109652941.949    20476911.947    85285615.055    20476911.911  
                                
  20161216.059   107659768.643    20161215.380    83735372.793    20161215.397  
                                
  26176248.383   137557114.435                                                  
  26176251.439   102721233.165  
  27599980.979   145038879.716                                                  
  27599983.516   108308263.741  
  23348762.100   122698572.959                                                  
  23348763.065    91625560.968  
  23479096.306   123383484.874                                                  
  23479098.557    92137025.564  
  25079119.928   131791664.638                                                  
  25079122.359    98415862.444  
 21  8 31  3  5 13.0000000  0 14G 3G 4G16G22G26G31R 7R 8R 9E 1E 4E19
                                E21E27
  21657391.406   113810360.103    21657391.817    88683396.061    21657391.174  
  21657392.246    84988258.572  
  21791781.737   114516585.591    21791780.272    89233695.263    21791779.897  
  21791784.382    85515642.223  
  20374917.083   107070911.596                    83431865.316    20374913.580  
                                
  22549581.699   118498851.413                    92336747.581    22549576.892  
                                
  20392467.019   107163137.606    20392467.251    83503743.281    20392466.983  
  20392466.500    80024418.889  
  22547765.527   118489307.571    22547762.632    92329315.285    22547761.899  
                                
  19299801.495   103313348.894    19299800.673    80354822.584    19299800.513  
                                
  20476404.288   109650214.921    20476402.680    85283494.033    20476402.644  
                                
  20161621.900   107661935.813    20161621.221    83737058.372    20161621.239  
                                
  26175792.866   137554720.706                                                  
  26175795.939   102719445.644  
  27599476.411   145036228.240                                                  
  27599478.948   108306283.757  
  23348605.746   122697751.381                                                  
  23348606.747    91624947.459  
  23479029.726   123383134.955                                                  
  23479031.977    92136764.259  
  25079520.123   131793767.784                                                  
  25079522.589    98417432.964  
 21  8 31  3  5 14.0000000  0 14G 3G 4G16G22G26G31R 7R 8R 9E 1E 4E19
                                E21E27
  21657670.378   113811826.080    21657670.789    88684538.383    21657670.145  
  21657671.217    84989353.291  
  21791308.190   114514097.003    21791306.707    89231756.101    21791306.350  
  21791310.817    85513783.862  
  20374605.822   107069275.908                    83430590.751    20374602.320  
                                
  22550033.177   118501223.994                    92338596.345    22550028.388  
                                
  20392692.311   107164321.562    20392692.561    83504665.844    20392692.275  
  20392691.793    80025303.010  
  22548218.364   118491687.168    22548215.451    92331169.518    22548214.736  
                                
  19300017.014   103314502.562    19300016.192    80355719.884    19300016.031  
                                
  20475895.128   109647488.432    20475893.538    85281373.430    20475893.484  
                                
  20162027.777   107664103.257    20162027.098    83738744.160    20162027.116  
                                
  26175337.402   137552327.170                                                  
  26175340.440   102717658.264  
  27598971.879   145033576.769                                                  
  27598974.399   108304303.763  
  23348449.446   122696930.085                                                  
  23348450.446    91624334.155  
  23478963.217   123382785.363                                                  
  23478965.451    92136503.204  
  25079920.371   131795871.056                                                  
  25079922.837    98419003.595  
 21  8 31  3  5 15.0000000  0 14G 3G 4G16G22G26G31R 7R 8R 9E 1E 4E19
                                E21E27
  21657949.456   113813292.597    21657949.867    88685681.121    21657949.206  
  21657950.278    84990448.422  
  21790834.643   114511608.608    21790833.160    89229817.094    21790832.803  
  21790837.288    85511925.651  
  20374294.687   107067640.830                    83429316.672    20374291.184  
                                
  22550484.727   118503596.874                    92340445.345    22550479.921  
                                
  20392917.711   107165506.041    20392917.961    83505588.809    20392917.675  
  20392917.193    80026187.523  
  22548671.182   118494066.815    22548668.288    92333023.789    22548667.573  
                                
  19300232.657   103315657.017    19300231.853    80356617.793    19300231.692  
                                
  20475386.075   109644762.486    20475384.485    85279253.251    20475384.449  
                                
  20162433.725   107666271.011    20162433.064    83740430.193    20162433.064  
                                
  26174881.957   137549933.828                                                  
  26174885.030   102715871.032  
  27598467.311   145030925.292                                                  
  27598469.849   108302323.760  
  23348293.217   122696109.082                                                  
  23348294.200    91623721.071  
  23478896.744   123382436.111                                                  
  23478898.996    92136242.399  
  25080320.637   131797974.480                                                  
  25080323.103    98420574.332  
 21  8 31  3  5 16.0000000  0 14G 3G 4G16G22G26G31R 7R 8R 9E 1E 4E19
                                E21E27
  21658228.624   113814759.704    21658229.035    88686824.321    21658228.391  
  21658229.464    84991543.984  
  21790361.168   114509120.457    21790359.702    89227878.278    21790359.327  
  21790363.812    85510067.612  
  20373983.659   107066006.407                    83428043.093    20373980.156  
                                
  22550936.331   118505970.118                    92342294.628    22550931.542  
                                
  20393143.218   107166691.068    20393143.468    83506512.212    20393143.182  
  20393142.700    80027072.446  
  22549124.019   118496446.533    22549121.124    92334878.114    22549120.392  
                                
  19300448.479   103316812.293    19300447.675    80357516.339    19300447.514  
                                
  20474877.130   109642037.082    20474875.522    85277133.492    20474875.486  
                                
  20162839.727   107668439.066    20162839.066    83742116.456    20162839.066  
                                
  26174426.565   137547540.718                                                  
  26174429.620   102714083.970  
  27597962.762   145028273.845                                                  
  27597965.281   108300343.787  
  23348137.059   122695288.399                                                  
  23348138.024    91623108.216  
  23478830.361   123382087.231                                                  
  23478832.612    92135981.874  
  25080720.939   131800078.095                                                  
  25080723.405    98422145.211  
 21  8 31  3  5 17.0000000  0 14G 3G 4G16G22G26G31R 7R 8R 9E 1E 4E19
                                E21E27
  21658507.952   113816227.497    21658508.345    88687968.058    21658507.684  
  21658508.792    84992640.068  
  21789887.746   114506632.640    21789886.298    89225939.719    21789885.905  
  21789890.390    85508209.825  
  20373672.791   107064372.753                    83426770.116    20373669.289  
                                
  22551388.024   118508343.802                    92344144.250    22551383.236  
                                
  20393368.868   107167876.767    20393369.083    83507436.133    20393368.797  
  20393368.314    80027957.875  
  22549576.910   118498826.420    22549574.015    92336732.572    22549573.264  
                                
  19300664.480   103317968.547    19300663.658    80358415.650    19300663.497  
                                
  20474368.292   109639312.345    20474366.719    85275014.252    20474366.683  
                                
  20163245.837   107670607.566    20163245.158    83743803.066    20163245.158  
                                
  26173971.226   137545147.937                                                  
  26173974.300   102712297.154  
  27597458.212   145025622.518                                                  
  27597460.732   108298363.911  
  23347980.956   122694468.139                                                  
  23347981.939    91622495.691  
  23478764.049   123381738.839                                                  
  23478766.300    92135721.707  
  25081121.313   131802181.989                                                  
  25081123.743    98423716.307  
 21  8 31  3  5 18.0000000  0 14G 3G 4G16G22G26G31R 7R 8R 9E 1E 4E19
                                E21E27
  21658787.388   113817695.892    21658787.763    88689112.262    21658787.120  
  21658788.192    84993736.599  
  21789414.377   114504145.085    21789412.912    89224001.364    21789412.537  
  21789417.022    85506352.241  
  20373362.031   107062739.759                    83425497.655    20373358.529  
                                
  22551839.807   118510717.879                    92345994.180    22551835.000  
                                
  20393594.608   107169063.059    20393594.822    83508360.519    20393594.536  
  20393594.089    80028843.744  
  22550029.800   118501206.413    22550026.905    92338587.114    22550026.190  
                                
  19300880.641   103319125.665    19300879.837    80359315.628    19300879.659  
                                
  20473859.596   109636588.209    20473857.988    85272895.484    20473857.952  
                                
  20163651.982   107672776.414    20163651.320    83745489.949    20163651.320  
                                
  26173515.941   137542755.425                                                  
  26173518.997   102710510.539  
  27596953.698   145022971.259                                                  
  27596956.235   108296384.086  
  23347824.923   122693648.230                                                  
  23347825.924    91621883.419  
  23478697.844   123381390.842                                                  
  23478700.078    92135461.846  
  25081521.686   131804286.100                                                  
  25081524.152    98425287.559  
 21  8 31  3  5 19.0000000  0 14G 3G 4G16G22G26G31R 7R 8R 9E 1E 4E19
                                E21E27
  21659066.913   113819164.927    21659067.306    88690256.967    21659066.681  
  21659067.753    84994833.604  
  21788941.063   114501657.805    21788939.598    89222063.229    21788939.240  
  21788943.690    85504494.859  
  20373051.414   107061107.466                    83424225.738    20373047.929  
                                
  22552291.643   118513092.318                    92347844.387    22552286.836  
                                
  20393820.472   107170249.961    20393820.686    83509285.375    20393820.401  
  20393819.918    80029730.069  
  22550482.708   118503586.515    22550479.813    92340441.737    22550479.099  
                                
  19301096.946   103320283.641    19301096.142    80360216.276    19301095.981  
                                
  20473350.972   109633864.701    20473349.400    85270777.205    20473349.364  
                                
  20164058.198   107674945.623    20164057.537    83747177.111    20164057.537  
                                
  26173060.728   137540363.178                                                  
  26173063.784   102708724.120  
  27596449.184   145020320.070                                                  
  27596451.704   108294404.297  
  23347668.980   122692828.680                                                  
  23347669.963    91621271.415  
  23478631.693   123381043.260                                                  
  23478633.945    92135202.292  
  25081922.149   131806390.440                                                  
  25081924.597    98426858.980  
 21  8 31  3  5 20.0000000  0 14G 3G 4G16G22G26G31R 7R 8R 9E 1E 4E19
                                E21E27
  21659346.581   113820634.558    21659346.974    88691402.131    21659346.331  
  21659347.403    84995931.059  
  21788467.802   114499170.781    21788466.336    89220125.288    21788465.961  
  21788470.446    85502637.668  
  20372740.922   107059475.830                    83422954.336    20372737.437  
                                
  22552743.551   118515467.134                    92349694.894    22552738.762  
                                
  20394046.426   107171437.438    20394046.658    83510210.680    20394046.372  
  20394045.908    80030616.818  
  22550935.670   118505966.720    22550932.775    92342296.444    22550932.025  
                                
  19301313.411   103321442.441    19301312.625    80361117.568    19301312.464  
                                
  20472842.509   109631141.835    20472840.901    85268659.425    20472840.865  
                                
  20164464.486   107677115.163    20164463.825    83748864.534    20164463.825  
                                
  26172605.533   137537971.180                                                  
  26172608.588   102706937.888  
  27595944.688   145017668.919                                                  
  27595947.207   108292424.551  
  23347513.091   122692009.464                                                  
  23347514.074    91620659.670  
  23478565.613   123380696.074                                                  
  23478567.883    92134943.027  
  25082322.629   131808494.974                                                  
  25082325.059    98428430.549  
 21  8 31  3  5 21.0000000  0 14G 3G 4G16G22G26G31R 7R 8R 9E 1E 4E19
                                E21E27
  21659626.303   113822104.546    21659626.696    88692547.577    21659626.035  
  21659627.143    84997028.778  
  21787994.541   114496683.768    21787993.058    89218187.358    21787992.700  
  21787997.167    85500780.481  
  20372430.519   107057844.620                    83421683.264    20372427.017  
                                
  22553195.494   118517842.063                    92351545.485    22553190.687  
                                
  20394272.469   107172625.244    20394272.683    83511136.243    20394272.415  
  20394271.951    80031503.813  
  22551388.561   118508346.763    22551385.666    92344151.021    22551384.933  
                                
  19301530.002   103322601.831    19301529.215    80362019.315    19301529.055  
                                
  20472334.100   109628419.356    20472332.510    85266541.941    20472332.474  
                                
  20164870.792   107679284.790    20164870.131    83750552.019    20164870.131  
                                
  26172150.355   137535579.188                                                  
  26172153.428   102705151.658  
  27595440.156   145015017.577                                                  
  27595442.676   108290444.655  
  23347357.220   122691190.348                                                  
  23347358.220    91620047.990  
  23478499.569   123380349.031                                                  
  23478501.839    92134683.872  
  25082723.092   131810599.469                                                  
  25082725.558    98430002.092  
 21  8 31  3  5 22.0000000  0 14G 3G 4G16G22G26G31R 7R 8R 9E 1E 4E19
                                E21E27
  21659906.150   113823575.142    21659906.561    88693693.496    21659905.900  
  21659906.990    84998126.948  
  21787521.333   114494197.005    21787519.850    89216249.623    21787519.493  
  21787523.942    85498923.487  
  20372120.223   107056214.088                    83420412.721    20372116.739  
                                
  22553647.491   118520217.355                    92353396.360    22553642.702  
                                
  20394498.601   107173813.646    20394498.852    83512062.273    20394498.566  
  20394498.083    80032391.256  
  22551841.487   118510726.897    22551838.592    92346005.673    22551837.877  
                                
  19301746.753   103323762.085    19301745.949    80362921.732    19301745.788  
                                
  20471825.816   109625697.507    20471824.225    85264424.945    20471824.189  
                                
  20165277.169   107681454.792    20165276.490    83752239.801    20165276.490  
                                
  26171695.231   137533187.445                                                  
  26171698.287   102703365.618  
  27594935.606   145012366.274                                                  
  27594938.126   108288464.790  
  23347201.402   122690371.575                                                  
  23347202.402    91619436.571  
  23478433.615   123380002.388                                                  
  23478435.866    92134425.017  
  25083123.590   131812704.167                                                  
  25083126.056    98431573.776  
 21  8 31  3  5 23.0000000  0 14G 3G 4G16G22G26G31R 7R 8R 9E 1E 4E19
                                E21E27
  21660186.122   113825046.430    21660186.533    88694839.957    21660185.889  
  21660186.961    84999225.633  
  21787048.179   114491710.606    21787046.714    89214312.169    21787046.357  
  21787050.806    85497066.756  
  20371810.089   107054584.304                    83419142.758    20371806.586  
                                
  22554099.577   118522593.131                    92355247.617    22554094.806  
                                
  20394724.877   107175002.702    20394725.109    83512988.808    20394724.823  
  20394724.359    80033279.190  
  22552294.449   118513107.219    22552291.536    92347860.467    22552290.821  
                                
  19301963.665   103324923.304    19301962.879    80363824.905    19301962.718  
                                
  20471317.656   109622976.314    20471316.066    85262308.461    20471316.012  
                                
  20165683.618   107683625.221    20165682.939    83753927.910    20165682.957  
                                
  26171240.143   137530796.031                                                  
  26171243.216   102701579.831  
  27594431.128   145009715.114                                                  
  27594433.648   108286485.034  
  23347045.691   122689553.237                                                  
  23347046.674    91618825.463  
  23478367.732   123379656.228                                                  
  23478370.001    92134166.522  
  25083524.160   131814809.155                                                  
  25083526.626    98433145.685  
 21  8 31  3  5 24.0000000  0 14G 3G 4G16G22G26G31R 7R 8R 9E 1E 4E19
                                E21E27
  21660466.254   113826518.461    21660466.647    88695986.991    21660466.004  
  21660467.076    85000324.877  
  21786575.097   114489224.600    21786573.632    89212375.019    21786573.274  
  21786577.742    85495210.325  
  20371500.115   107052955.351                    83417873.448    20371496.612  
                                
  22554551.771   118524969.412                    92357099.262    22554547.000  
                                
  20394951.295   107176192.495    20394951.510    83513915.921    20394951.224  
  20394950.777    80034167.676  
  22552747.464   118515487.772    22552744.551    92349715.446    22552743.837  
                                
  19302180.809   103326085.533    19302179.987    80364728.859    19302179.827  
                                
  20470809.640   109620255.867    20470808.050    85260192.554    20470807.996  
                                
  20166090.156   107685796.139    20166089.495    83755616.401    20166089.495  
                                
  26170785.144   137528405.036                                                  
  26170788.217   102699794.346  
  27593926.668   145007064.157                                                  
  27593929.187   108284505.425  
  23346890.052   122688735.377                                                  
  23346891.053    91618214.732  
  23478301.974   123379310.609                                                  
  23478304.225    92133908.434  
  25083924.801   131816914.499                                                  
  25083927.249    98434717.855  
 21  8 31  3  5 25.0000000  0 14G 3G 4G16G22G26G31R 7R 8R 9E 1E 4E19
                                E21E27
  21660746.476   113827991.038    21660746.869    88697134.454    21660746.208  
  21660747.316    85001424.526  
  21786102.050   114486738.770    21786100.603    89210438.009    21786100.246  
  21786104.695    85493354.024  
  20371190.230   107051326.978                    83416604.584    20371186.763  
                                
  22555004.036   118527345.972                    92358951.129    22554999.229  
                                
  20395177.785   107177382.786    20395178.017    83514843.421    20395177.732  
  20395177.267    80035056.532  
  22553200.462   118517868.350    22553197.567    92351570.443    22553196.852  
                                
  19302398.061   103327248.534    19302397.257    80365633.415    19302397.096  
                                
  20470301.713   109617535.917    20470300.105    85258077.037    20470300.069  
                                
  20166496.766   107687967.349    20166496.069    83757305.123    20166496.069  
                                
  26170330.181   137526014.189                                                  
  26170333.254   102698008.983  
  27593422.189   145004413.161                                                  
  27593424.709   108282525.793  
  23346734.466   122687917.795                                                  
  23346735.449    91617604.194  
  23478236.269   123378965.310                                                  
  23478238.521    92133650.578  
  25084325.461   131819019.954                                                  
  25084327.891    98436290.119  
 21  8 31  3  5 26.0000000  0 14G 3G 4G16G22G26G31R 7R 8R 9E 1E 4E19
                                E21E27
  21661026.788   113829464.093    21661027.163    88698282.289    21661026.537  
  21661027.610    85002524.543  
  21785629.057   114484253.093    21785627.574    89208501.120    21785627.217  
  21785631.684    85491497.841  
  20370880.470   107049699.187                    83415336.178    20370877.004  
                                
  22555456.319   118529722.805                    92360803.204    22555451.530  
                                
  20395404.382   107178573.565    20395404.614    83515771.300    20395404.329  
  20395403.864    80035945.748  
  22553653.459   118520248.909    22553650.564    92353425.425    22553649.832  
                                
  19302615.438   103328412.267    19302614.651    80366538.540    19302614.491  
                                
  20469793.857   109614816.449    20469792.285    85255961.893    20469792.231  
                                
  20166903.375   107690138.768    20166902.714    83758994.004    20166902.714  
                                
  26169875.235   137523623.508                                                  
  26169878.327   102696223.733  
  27592917.711   145001762.113                                                  
  27592920.213   108280546.109  
  23346578.952   122687100.440                                                  
  23346579.917    91616993.834  
  23478170.619   123378620.306                                                  
  23478172.870    92133392.939  
  25084726.138   131821125.526                                                  
  25084728.586    98437862.457  
 21  8 31  3  5 27.0000000  0 14G 3G 4G16G22G26G31R 7R 8R 9E 1E 4E19
                                E21E27
  21661307.242   113830937.849    21661307.617    88699430.670    21661306.956  
  21661308.064    85003625.069  
  21785156.100   114481767.765    21785154.653    89206564.498    21785154.277  
  21785158.745    85489641.905  
  20370570.854   107048072.138                    83414068.349    20370567.369  
                                
  22555908.691   118532100.090                    92362655.629    22555903.920  
                                
  20395631.122   107179765.007    20395631.337    83516699.697    20395631.051  
  20395630.604    80036835.458  
  22554106.510   118522629.659    22554103.616    92355280.557    22554102.883  
                                
  19302833.011   103329576.941    19302832.207    80367444.396    19302832.064  
                                
  20469286.145   109612097.674    20469284.572    85253847.295    20469284.501  
                                
  20167310.110   107692310.637    20167309.431    83760683.238    20167309.449  
                                
  26169420.379   137521233.153                                                  
  26169423.453   102694438.719  
  27592413.251   144999111.197                                                  
  27592415.770   108278566.544  
  23346423.474   122686283.507                                                  
  23346424.474    91616383.793  
  23478105.039   123378275.767                                                  
  23478107.309    92133135.664  
  25085126.868   131823231.375                                                  
  25085129.334    98439435.004  
 21  8 31  3  5 28.0000000  0 14G 3G 4G16G22G26G31R 7R 8R 9E 1E 4E19
                                E21E27
  21661587.821   113832412.301    21661588.197    88700579.591    21661587.535  
  21661588.643    85004726.127  
  21784683.232   114479282.789    21784681.767    89204628.153    21784681.409  
  21784685.877    85487786.248  
  20370261.398   107046445.870                    83412801.130    20370257.896  
                                
  22556361.170   118534477.835                    92364508.416    22556356.381  
                                
  20395857.952   107180957.135    20395858.202    83517628.628    20395857.916  
  20395857.433    80037725.689  
  22554559.579   118525010.597    22554556.685    92357135.829    22554555.970  
