% program   : rnx2rtkp ver.2.4.3 b31
% inp file  : ngs/21_09_01_12_13_05_gacc.obs
% inp file  : ngs/21_09_01_12_13_05_gacc_SNGA.obs
% inp file  : ngs/21_09_01_12_13_05_brdc.nav
% obs start : 2021/09/01 12:00:00.0 GPST (week2173 302400.0s)
% obs end   : 2021/09/01 12:59:59.0 GPST (week2173 305999.0s)
% ref pos   :   728269.1534  -5271196.0165   3504564.7181
%
% (x/y/z-ecef=WGS84,Q=1:fix,2:float,3:sbas,4:dgps,5:single,6:ppp,ns=# of satellites)
%  GPST              x-ecef(m)      y-ecef(m)      z-ecef(m)   Q  ns   sdx(m)   sdy(m)   sdz(m)  sdxy(m)  sdyz(m)  sdzx(m) age(s)  ratio
2173 303162.000    728280.8826  -5271278.0454   3504619.1112   2   7   0.4726   1.0321   0.7222  -0.3908  -0.6552   0.1030 -30.00    1.5
2173 303163.000    728280.9255  -5271277.9202   3504619.1076   2   7   0.3366   0.7358   0.5135  -0.2791  -0.4666   0.0751 -29.00    1.4
2173 303164.000    728280.9032  -5271277.9555   3504619.1495   2   7   0.2756   0.6027   0.4204  -0.2288  -0.3821   0.0617 -28.00    1.6
2173 303165.000    728280.9265  -5271278.1360   3504619.1998   2   7   0.2391   0.5230   0.3647  -0.1985  -0.3315   0.0536 -27.00    1.7
2173 303166.000    728280.9576  -5271278.2697   3504619.2498   2   7   0.2142   0.4684   0.3266  -0.1778  -0.2969   0.0480 -26.00    1.7
2173 303167.000    728280.9880  -5271278.3152   3504619.3062   2   7   0.1957   0.4280   0.2985  -0.1625  -0.2713   0.0438 -25.00    1.9
2173 303168.000    728281.0088  -5271278.3943   3504619.3548   2   7   0.1813   0.3965   0.2765  -0.1506  -0.2513   0.0406 -24.00    1.9
2173 303169.000    728281.0252  -5271278.4479   3504619.3726   2   7   0.1697   0.3711   0.2588  -0.1409  -0.2352   0.0380 -23.00    2.0
2173 303170.000    728281.0128  -5271278.4546   3504619.3660   2   7   0.1601   0.3500   0.2441  -0.1330  -0.2218   0.0358 -22.00    2.0
2173 303171.000    728281.0013  -5271278.4689   3504619.3805   2   7   0.1519   0.3322   0.2316  -0.1262  -0.2105   0.0340 -21.00    2.1
2173 303172.000    728280.9898  -5271278.4702   3504619.3952   2   7   0.1448   0.3168   0.2209  -0.1204  -0.2007   0.0325 -20.00    2.3
2173 303173.000    728280.9658  -5271278.4816   3504619.4392   2   7   0.1387   0.3033   0.2114  -0.1153  -0.1921   0.0312 -19.00    2.6
2173 303174.000    728280.9574  -5271278.5213   3504619.4775   2   7   0.1333   0.2914   0.2031  -0.1108  -0.1846   0.0300 -18.00    2.8
2173 303175.000    728280.9516  -5271278.5262   3504619.4912   2   7   0.1284   0.2808   0.1957  -0.1068  -0.1778   0.0290 -17.00    2.9
2173 303176.000    728280.5408  -5271278.4937   3504619.9481   1   7   0.0129   0.0259   0.0240  -0.0075  -0.0186  -0.0062 -16.00    3.0
2173 303177.000    728280.5397  -5271278.4963   3504619.9470   1   7   0.0122   0.0246   0.0227  -0.0072  -0.0176  -0.0057 -15.00    3.3
2173 303178.000    728280.5402  -5271278.4902   3504619.9426   1   7   0.0115   0.0233   0.0213  -0.0068  -0.0166  -0.0053 -14.00    3.5
2173 303179.000    728280.5423  -5271278.4920   3504619.9435   1   7   0.0109   0.0220   0.0200  -0.0065  -0.0156  -0.0050 -13.00    3.7
2173 303180.000    728280.5418  -5271278.4895   3504619.9395   1   7   0.0102   0.0208   0.0187  -0.0062  -0.0147  -0.0045 -12.00    4.0
2173 303181.000    728280.5424  -5271278.4884   3504619.9389   1   7   0.0096   0.0196   0.0174  -0.0059  -0.0137  -0.0042 -11.00    4.2
2173 303182.000    728280.5428  -5271278.4893   3504619.9397   1   7   0.0090   0.0184   0.0161  -0.0055  -0.0128  -0.0037 -10.00    4.6
2173 303183.000    728280.5440  -5271278.4885   3504619.9376   1   7   0.0084   0.0172   0.0148  -0.0052  -0.0119  -0.0033  -9.00    5.0
2173 303184.000    728280.5437  -5271278.4853   3504619.9364   1   7   0.0078   0.0161   0.0136  -0.0051  -0.0111  -0.0028  -8.00    5.5
2173 303185.000    728280.5446  -5271278.4856   3504619.9373   1   7   0.0073   0.0151   0.0124  -0.0048  -0.0102  -0.0023  -7.00    5.8
2173 303186.000    728280.5458  -5271278.4814   3504619.9340   1   7   0.0066   0.0141   0.0113  -0.0047  -0.0095  -0.0021  -6.00    6.3
2173 303187.000    728280.5456  -5271278.4798   3504619.9334   1   7   0.0062   0.0131   0.0103  -0.0045  -0.0087  -0.0014  -5.00    7.1
2173 303188.000    728280.5466  -5271278.4822   3504619.9343   1   7   0.0058   0.0123   0.0093  -0.0044  -0.0080  -0.0009  -4.00    7.7
2173 303189.000    728280.5495  -5271278.4820   3504619.9331   1   7   0.0053   0.0116   0.0084  -0.0040  -0.0075   0.0005  -3.00    8.0
2173 303190.000    728280.5479  -5271278.4822   3504619.9315   1   7   0.0051   0.0110   0.0078  -0.0040  -0.0071   0.0011  -2.00    8.4
2173 303191.000    728280.5500  -5271278.4824   3504619.9280   1   7   0.0048   0.0106   0.0073  -0.0040  -0.0068   0.0022  -1.00    8.7
2173 303192.000    728280.5492  -5271278.4830   3504619.9315   1   7   0.0048   0.0105   0.0073  -0.0040  -0.0066   0.0012   0.00    8.9
2173 303193.000    728280.5491  -5271278.4835   3504619.9309   1   7   0.0048   0.0105   0.0073  -0.0042  -0.0066  -0.0013   0.00    8.6
2173 303194.000    728280.5485  -5271278.4839   3504619.9275   1   7   0.0048   0.0105   0.0073  -0.0040  -0.0066   0.0012   0.00    8.5
2173 303195.000    728280.5462  -5271278.4802   3504619.9280   1   7   0.0048   0.0105   0.0073  -0.0043  -0.0066   0.0015   0.00    8.1
2173 303196.000    728280.5435  -5271278.4831   3504619.9263   1   7   0.0047   0.0106   0.0073  -0.0038  -0.0065  -0.0013   0.00    8.0
2173 303197.000    728280.5458  -5271278.4852   3504619.9300   1   7   0.0050   0.0104   0.0075  -0.0043  -0.0066  -0.0006   0.00    7.7
2173 303198.000    728280.5465  -5271278.4864   3504619.9308   1   7   0.0048   0.0105   0.0074  -0.0040  -0.0066   0.0003   0.00    7.3
2173 303199.000    728280.5449  -5271278.4847   3504619.9312   1   7   0.0049   0.0105   0.0073  -0.0039  -0.0066  -0.0008   0.00    7.1
2173 303200.000    728280.5468  -5271278.4825   3504619.9293   1   7   0.0046   0.0106   0.0072  -0.0038  -0.0066   0.0015   0.00    6.8
2173 303201.000    728280.5457  -5271278.4781   3504619.9270   1   7   0.0050   0.0105   0.0072  -0.0040  -0.0066   0.0013   0.00    6.7
2173 303202.000    728280.5463  -5271278.4775   3504619.9264   1   7   0.0049   0.0105   0.0071  -0.0038  -0.0067   0.0015   0.00    6.6
2173 303203.000    728280.5461  -5271278.4787   3504619.9243   1   7   0.0048   0.0104   0.0072  -0.0042  -0.0067   0.0014   0.00    6.5
2173 303204.000    728280.5478  -5271278.4874   3504619.9333   1   7   0.0044   0.0105   0.0072  -0.0039  -0.0067   0.0016   0.00    6.3
2173 303205.000    728280.5479  -5271278.4888   3504619.9334   1   7   0.0049   0.0106   0.0074  -0.0038  -0.0065  -0.0011   0.00    6.0
2173 303206.000    728280.5471  -5271278.4860   3504619.9301   1   7   0.0050   0.0106   0.0072  -0.0037  -0.0066   0.0012   0.00    6.0
2173 303207.000    728280.5486  -5271278.4875   3504619.9304   1   7   0.0049   0.0106   0.0072  -0.0037  -0.0066   0.0012   0.00    5.8
2173 303208.000    728280.5502  -5271278.4871   3504619.9320   1   7   0.0048   0.0105   0.0072  -0.0041  -0.0066   0.0010   0.00    5.7
2173 303209.000    728280.5458  -5271278.4773   3504619.9241   1   7   0.0050   0.0106   0.0073  -0.0039  -0.0065   0.0015   0.00    5.7
2173 303210.000    728280.5456  -5271278.4824   3504619.9273   1   7   0.0049   0.0105   0.0074  -0.0043  -0.0065  -0.0010   0.00    5.5
2173 303211.000    728280.5481  -5271278.4847   3504619.9266   1   7   0.0047   0.0106   0.0072  -0.0040  -0.0066  -0.0005   0.00    5.5
2173 303212.000    728280.5483  -5271278.4874   3504619.9281   1   7   0.0044   0.0105   0.0072  -0.0040  -0.0067   0.0010   0.00    5.4
2173 303213.000    728280.5470  -5271278.4838   3504619.9263   1   7   0.0048   0.0104   0.0073  -0.0042  -0.0067   0.0010   0.00    5.4
2173 303214.000    728280.5492  -5271278.4857   3504619.9258   1   7   0.0049   0.0105   0.0072  -0.0039  -0.0066   0.0014   0.00    5.4
2173 303215.000    728280.5497  -5271278.4877   3504619.9284   1   7   0.0048   0.0105   0.0073  -0.0042  -0.0066   0.0012   0.00    5.3
2173 303216.000    728280.5494  -5271278.4841   3504619.9246   1   7   0.0047   0.0106   0.0072  -0.0037  -0.0066  -0.0004   0.00    5.1
2173 303217.000    728280.5498  -5271278.4854   3504619.9269   1   7   0.0047   0.0105   0.0071  -0.0041  -0.0067   0.0023   0.00    5.1
2173 303218.000    728280.5479  -5271278.4860   3504619.9283   1   7   0.0049   0.0106   0.0074  -0.0039  -0.0064   0.0007   0.00    5.0
2173 303219.000    728280.5463  -5271278.4819   3504619.9255   1   7   0.0047   0.0105   0.0072  -0.0040  -0.0066   0.0012   0.00    4.9
2173 303220.000    728280.5455  -5271278.4829   3504619.9286   1   7   0.0049   0.0106   0.0072  -0.0039  -0.0066   0.0008   0.00    4.9
2173 303221.000    728280.5486  -5271278.4855   3504619.9265   1   7   0.0043   0.0106   0.0071  -0.0039  -0.0067   0.0016   0.00    4.8
2173 303222.000    728280.5467  -5271278.4840   3504619.9274   1   7   0.0045   0.0105   0.0071  -0.0041  -0.0066   0.0011   0.00    4.7
2173 303223.000    728280.5478  -5271278.4832   3504619.9273   1   7   0.0050   0.0106   0.0073  -0.0039  -0.0066   0.0013   0.00    4.7
2173 303224.000    728280.5453  -5271278.4838   3504619.9263   1   7   0.0049   0.0105   0.0073  -0.0042  -0.0066   0.0006   0.00    4.7
2173 303225.000    728280.5485  -5271278.4921   3504619.9293   1   7   0.0046   0.0105   0.0072  -0.0042  -0.0066   0.0012   0.00    4.6
2173 303226.000    728280.5473  -5271278.4888   3504619.9296   1   7   0.0045   0.0105   0.0072  -0.0040  -0.0067   0.0018   0.00    4.6
2173 303227.000    728280.5487  -5271278.4903   3504619.9275   1   7   0.0048   0.0106   0.0072  -0.0036  -0.0066   0.0003   0.00    4.6
2173 303228.000    728280.5474  -5271278.4893   3504619.9280   1   7   0.0046   0.0106   0.0072  -0.0038  -0.0066   0.0007   0.00    4.6
2173 303229.000    728280.5502  -5271278.4893   3504619.9261   1   7   0.0050   0.0105   0.0072  -0.0041  -0.0067   0.0019   0.00    4.5
2173 303230.000    728280.5466  -5271278.4867   3504619.9281   1   7   0.0044   0.0105   0.0072  -0.0038  -0.0066   0.0018   0.00    4.5
2173 303231.000    728280.5510  -5271278.4896   3504619.9276   1   7   0.0050   0.0105   0.0075  -0.0042  -0.0065   0.0004   0.00    4.5
2173 303232.000    728280.5486  -5271278.4881   3504619.9267   1   7   0.0046   0.0105   0.0073  -0.0041  -0.0066   0.0007   0.00    4.4
2173 303233.000    728280.5491  -5271278.4860   3504619.9255   1   7   0.0045   0.0106   0.0073  -0.0037  -0.0067   0.0015   0.00    4.4
2173 303234.000    728280.5505  -5271278.4914   3504619.9260   1   7   0.0049   0.0106   0.0072  -0.0040  -0.0066   0.0009   0.00    4.4
2173 303235.000    728280.5523  -5271278.4954   3504619.9292   1   7   0.0048   0.0106   0.0073  -0.0039  -0.0066   0.0012   0.00    4.4
2173 303236.000    728280.5501  -5271278.4959   3504619.9299   1   7   0.0048   0.0105   0.0072  -0.0040  -0.0067   0.0016   0.00    4.4
2173 303237.000    728280.5485  -5271278.4880   3504619.9256   1   7   0.0046   0.0105   0.0072  -0.0039  -0.0066   0.0021   0.00    4.3
2173 303238.000    728280.5510  -5271278.4951   3504619.9290   1   7   0.0049   0.0105   0.0073  -0.0041  -0.0065   0.0008   0.00    4.3
2173 303239.000    728280.5506  -5271278.4934   3504619.9264   1   7   0.0047   0.0105   0.0072  -0.0043  -0.0067   0.0021   0.00    4.3
2173 303240.000    728280.5508  -5271278.4947   3504619.9266   1   7   0.0053   0.0107   0.0073  -0.0039  -0.0066  -0.0012   0.00    4.2
2173 303241.000    728280.5492  -5271278.4937   3504619.9283   1   7   0.0050   0.0105   0.0073  -0.0041  -0.0066  -0.0008   0.00    4.2
2173 303242.000    728280.5508  -5271278.4946   3504619.9293   1   7   0.0047   0.0104   0.0073  -0.0044  -0.0066   0.0015   0.00    4.2
2173 303243.000    728280.5484  -5271278.4912   3504619.9279   1   7   0.0048   0.0106   0.0073  -0.0041  -0.0065  -0.0007   0.00    4.2
2173 303244.000    728280.5491  -5271278.4913   3504619.9270   1   7   0.0045   0.0106   0.0072  -0.0039  -0.0067   0.0012   0.00    4.2
2173 303245.000    728280.5503  -5271278.4941   3504619.9300   1   7   0.0048   0.0106   0.0073  -0.0041  -0.0065  -0.0010   0.00    4.2
2173 303246.000    728280.5490  -5271278.4937   3504619.9293   1   7   0.0049   0.0107   0.0072  -0.0037  -0.0065   0.0014   0.00    4.2
2173 303247.000    728280.5472  -5271278.4954   3504619.9298   1   7   0.0050   0.0105   0.0074  -0.0043  -0.0065   0.0007   0.00    4.2
2173 303248.000    728280.5492  -5271278.4947   3504619.9299   1   7   0.0048   0.0105   0.0071  -0.0040  -0.0066   0.0013   0.00    4.2
2173 303249.000    728280.5490  -5271278.4965   3504619.9292   1   7   0.0047   0.0105   0.0072  -0.0043  -0.0066   0.0012   0.00    4.2
2173 303250.000    728280.5479  -5271278.4982   3504619.9317   1   7   0.0047   0.0105   0.0073  -0.0042  -0.0067   0.0011   0.00    4.2
2173 303251.000    728280.5485  -5271278.4962   3504619.9302   1   7   0.0048   0.0105   0.0071  -0.0042  -0.0066  -0.0008   0.00    4.1
2173 303252.000    728280.5481  -5271278.5007   3504619.9316   1   7   0.0050   0.0106   0.0072  -0.0039  -0.0065   0.0014   0.00    4.1
2173 303253.000    728280.5492  -5271278.4989   3504619.9318   1   7   0.0050   0.0106   0.0074  -0.0041  -0.0065   0.0003   0.00    4.1
2173 303254.000    728280.5464  -5271278.4956   3504619.9315   1   7   0.0047   0.0105   0.0072  -0.0040  -0.0066   0.0012   0.00    4.1
2173 303255.000    728280.5465  -5271278.4944   3504619.9310   1   7   0.0048   0.0106   0.0072  -0.0039  -0.0066   0.0020   0.00    4.1
2173 303256.000    728280.5465  -5271278.5000   3504619.9328   1   7   0.0048   0.0105   0.0072  -0.0040  -0.0066   0.0019   0.00    4.1
2173 303257.000    728280.5470  -5271278.4987   3504619.9330   1   7   0.0046   0.0106   0.0072  -0.0041  -0.0066   0.0014   0.00    4.0
2173 303258.000    728280.5473  -5271278.4977   3504619.9329   1   7   0.0048   0.0105   0.0072  -0.0043  -0.0066   0.0012   0.00    4.0
2173 303259.000    728280.5470  -5271278.4933   3504619.9287   1   7   0.0047   0.0105   0.0072  -0.0042  -0.0066   0.0005   0.00    4.0
2173 303260.000    728280.5472  -5271278.4941   3504619.9309   1   7   0.0045   0.0105   0.0071  -0.0041  -0.0066   0.0016   0.00    4.0
2173 303261.000    728280.5497  -5271278.4968   3504619.9292   1   7   0.0050   0.0105   0.0071  -0.0041  -0.0066   0.0007   0.00    3.9
2173 303262.000    728280.5483  -5271278.4985   3504619.9335   1   7   0.0049   0.0106   0.0072  -0.0041  -0.0066   0.0020   0.00    3.9
2173 303263.000    728280.5495  -5271278.4988   3504619.9311   1   7   0.0050   0.0105   0.0073  -0.0042  -0.0066   0.0012   0.00    3.9
2173 303264.000    728280.5509  -5271278.5031   3504619.9346   1   7   0.0045   0.0106   0.0072  -0.0039  -0.0066   0.0012   0.00    3.9
2173 303265.000    728280.5508  -5271278.5035   3504619.9335   1   7   0.0050   0.0105   0.0073  -0.0041  -0.0065   0.0010   0.00    3.9
2173 303266.000    728280.5487  -5271278.5023   3504619.9338   1   7   0.0052   0.0105   0.0074  -0.0043  -0.0065  -0.0007   0.00    3.9
2173 303267.000    728280.5500  -5271278.4959   3504619.9303   1   7   0.0046   0.0105   0.0074  -0.0044  -0.0066  -0.0009   0.00    3.8
2173 303268.000    728280.5489  -5271278.4992   3504619.9317   1   7   0.0049   0.0105   0.0072  -0.0040  -0.0066   0.0012   0.00    3.8
2173 303269.000    728280.5462  -5271278.4954   3504619.9321   1   7   0.0048   0.0105   0.0072  -0.0043  -0.0066  -0.0004   0.00    3.8
2173 303270.000    728280.5490  -5271278.4971   3504619.9319   1   7   0.0044   0.0105   0.0071  -0.0042  -0.0066   0.0018   0.00    3.8
2173 303271.000    728280.5469  -5271278.4925   3504619.9286   1   7   0.0046   0.0106   0.0072  -0.0041  -0.0066   0.0018   0.00    3.8
2173 303272.000    728280.5495  -5271278.4956   3504619.9313   1   7   0.0049   0.0105   0.0073  -0.0041  -0.0066   0.0019   0.00    3.8
2173 303273.000    728280.5479  -5271278.4975   3504619.9319   1   7   0.0046   0.0106   0.0072  -0.0037  -0.0067   0.0022   0.00    3.7
2173 303274.000    728280.5459  -5271278.4957   3504619.9323   1   7   0.0050   0.0105   0.0072  -0.0043  -0.0066   0.0006   0.00    3.7
2173 303275.000    728280.5450  -5271278.4927   3504619.9310   1   7   0.0046   0.0106   0.0071  -0.0040  -0.0066   0.0017   0.00    3.8
2173 303276.000    728280.5457  -5271278.4962   3504619.9329   1   7   0.0047   0.0106   0.0072  -0.0040  -0.0066   0.0016   0.00    3.8
2173 303277.000    728280.5456  -5271278.4920   3504619.9315   1   7   0.0049   0.0106   0.0074  -0.0041  -0.0065   0.0014   0.00    3.8
2173 303278.000    728280.5471  -5271278.4942   3504619.9334   1   7   0.0051   0.0105   0.0072  -0.0043  -0.0066  -0.0010   0.00    3.8
2173 303279.000    728280.5457  -5271278.4903   3504619.9306   1   7   0.0049   0.0106   0.0072  -0.0042  -0.0065  -0.0008   0.00    3.8
2173 303280.000    728280.5459  -5271278.4936   3504619.9306   1   7   0.0048   0.0106   0.0072  -0.0041  -0.0066   0.0017   0.00    3.8
2173 303281.000    728280.5445  -5271278.4927   3504619.9302   1   7   0.0048   0.0106   0.0073  -0.0040  -0.0065   0.0018   0.00    3.8
2173 303282.000    728280.5460  -5271278.4954   3504619.9302   1   7   0.0048   0.0106   0.0073  -0.0041  -0.0065   0.0016   0.00    3.7
2173 303283.000    728280.5462  -5271278.4961   3504619.9319   1   7   0.0051   0.0106   0.0072  -0.0040  -0.0066   0.0014   0.00    3.7
2173 303284.000    728280.5468  -5271278.4934   3504619.9316   1   7   0.0048   0.0105   0.0071  -0.0043  -0.0066   0.0013   0.00    3.7
2173 303285.000    728280.5472  -5271278.4961   3504619.9343   1   7   0.0046   0.0106   0.0073  -0.0040  -0.0066   0.0017   0.00    3.8
2173 303286.000    728280.5471  -5271278.4919   3504619.9317   1   7   0.0050   0.0107   0.0071  -0.0038  -0.0066   0.0014   0.00    3.8
2173 303287.000    728280.5457  -5271278.4922   3504619.9328   1   7   0.0048   0.0106   0.0073  -0.0041  -0.0065   0.0009   0.00    3.8
2173 303288.000    728280.5442  -5271278.4905   3504619.9338   1   7   0.0047   0.0105   0.0072  -0.0041  -0.0066   0.0017   0.00    3.8
2173 303289.000    728280.5420  -5271278.4836   3504619.9293   1   7   0.0044   0.0106   0.0071  -0.0039  -0.0066   0.0006   0.00    3.8
2173 303290.000    728280.5424  -5271278.4885   3504619.9326   1   7   0.0049   0.0106   0.0071  -0.0038  -0.0066   0.0018   0.00    3.8
2173 303291.000    728280.5458  -5271278.4953   3504619.9351   1   7   0.0047   0.0106   0.0073  -0.0042  -0.0066  -0.0007   0.00    3.8
2173 303292.000    728280.5448  -5271278.4896   3504619.9326   1   7   0.0051   0.0106   0.0073  -0.0040  -0.0066   0.0013   0.00    3.8
2173 303293.000    728280.5414  -5271278.4871   3504619.9291   1   7   0.0048   0.0107   0.0072  -0.0037  -0.0066  -0.0013   0.00    3.8
2173 303294.000    728280.5435  -5271278.4904   3504619.9281   1   7   0.0045   0.0106   0.0073  -0.0041  -0.0065   0.0013   0.00    3.8
2173 303295.000    728280.5444  -5271278.4930   3504619.9317   1   7   0.0051   0.0106   0.0073  -0.0041  -0.0065   0.0001   0.00    3.8
2173 303296.000    728280.5442  -5271278.4892   3504619.9306   1   7   0.0048   0.0106   0.0072  -0.0040  -0.0065   0.0013   0.00    3.9
2173 303297.000    728280.5429  -5271278.4904   3504619.9297   1   7   0.0049   0.0105   0.0074  -0.0045  -0.0066  -0.0003   0.00    3.9
2173 303298.000    728280.5436  -5271278.4887   3504619.9277   1   7   0.0048   0.0105   0.0073  -0.0042  -0.0066   0.0006   0.00    3.9
2173 303299.000    728280.5443  -5271278.4902   3504619.9277   1   7   0.0044   0.0106   0.0072  -0.0042  -0.0066   0.0015   0.00    3.9
2173 303300.000    728280.5459  -5271278.4959   3504619.9313   1   7   0.0044   0.0106   0.0071  -0.0040  -0.0066   0.0015   0.00    3.9
2173 303301.000    728280.5460  -5271278.4909   3504619.9287   1   7   0.0050   0.0106   0.0072  -0.0041  -0.0065   0.0016   0.00    3.9
2173 303302.000    728280.5459  -5271278.4950   3504619.9310   1   7   0.0048   0.0105   0.0073  -0.0043  -0.0067   0.0014   0.00    3.9
2173 303303.000    728280.5429  -5271278.4896   3504619.9295   1   7   0.0049   0.0106   0.0071  -0.0042  -0.0067   0.0017   0.00    4.0
2173 303304.000    728280.5413  -5271278.4838   3504619.9249   1   7   0.0050   0.0106   0.0072  -0.0041  -0.0065  -0.0004   0.00    4.0
2173 303305.000    728280.5416  -5271278.4863   3504619.9298   1   7   0.0051   0.0106   0.0072  -0.0042  -0.0066  -0.0003   0.00    4.0
2173 303306.000    728280.5412  -5271278.4879   3504619.9260   1   7   0.0050   0.0107   0.0074  -0.0039  -0.0063   0.0008   0.00    4.0
2173 303307.000    728280.5418  -5271278.4901   3504619.9285   1   7   0.0046   0.0106   0.0071  -0.0040  -0.0067   0.0022   0.00    4.0
2173 303308.000    728280.5411  -5271278.4871   3504619.9278   1   7   0.0046   0.0106   0.0071  -0.0041  -0.0066   0.0016   0.00    4.0
2173 303309.000    728280.5429  -5271278.4910   3504619.9289   1   7   0.0047   0.0106   0.0072  -0.0042  -0.0066   0.0007   0.00    4.0
2173 303310.000    728280.5426  -5271278.4902   3504619.9275   1   7   0.0047   0.0106   0.0072  -0.0043  -0.0065   0.0014   0.00    4.0
2173 303311.000    728280.5454  -5271278.4955   3504619.9292   1   7   0.0047   0.0106   0.0073  -0.0041  -0.0065  -0.0013   0.00    4.0
2173 303312.000    728280.5441  -5271278.4928   3504619.9256   1   7   0.0047   0.0106   0.0072  -0.0041  -0.0067   0.0017   0.00    4.0
2173 303313.000    728280.5454  -5271278.4941   3504619.9266   1   7   0.0047   0.0106   0.0072  -0.0042  -0.0066   0.0010   0.00    4.0
2173 303314.000    728280.5441  -5271278.4947   3504619.9311   1   7   0.0052   0.0107   0.0073  -0.0040  -0.0065   0.0007   0.00    4.0
2173 303315.000    728280.5443  -5271278.4919   3504619.9301   1   7   0.0048   0.0106   0.0073  -0.0042  -0.0066   0.0017   0.00    4.0
2173 303316.000    728280.5432  -5271278.4911   3504619.9284   1   7   0.0044   0.0106   0.0070  -0.0040  -0.0066   0.0014   0.00    4.0
2173 303317.000    728280.5438  -5271278.4893   3504619.9263   1   7   0.0046   0.0106   0.0070  -0.0042  -0.0067   0.0020   0.00    4.0
2173 303318.000    728280.5427  -5271278.4885   3504619.9282   1   7   0.0048   0.0107   0.0073  -0.0038  -0.0064  -0.0002   0.00    4.1
2173 303319.000    728280.5425  -5271278.4923   3504619.9281   1   7   0.0049   0.0107   0.0073  -0.0040  -0.0065   0.0013   0.00    4.1
2173 303320.000    728280.5425  -5271278.4880   3504619.9269   1   7   0.0047   0.0105   0.0072  -0.0042  -0.0067   0.0009   0.00    4.1
2173 303321.000    728280.5420  -5271278.4927   3504619.9288   1   7   0.0049   0.0107   0.0072  -0.0039  -0.0065   0.0015   0.00    4.1
2173 303322.000    728280.5419  -5271278.4869   3504619.9254   1   7   0.0045   0.0106   0.0072  -0.0041  -0.0066   0.0017   0.00    4.1
2173 303323.000    728280.5398  -5271278.4835   3504619.9247   1   7   0.0045   0.0107   0.0072  -0.0041  -0.0065   0.0016   0.00    4.1
2173 303324.000    728280.5408  -5271278.4821   3504619.9237   1   7   0.0049   0.0106   0.0072  -0.0041  -0.0066   0.0019   0.00    4.1
2173 303325.000    728280.5424  -5271278.4907   3504619.9283   1   7   0.0049   0.0106   0.0071  -0.0043  -0.0066   0.0018   0.00    4.1
2173 303326.000    728280.5402  -5271278.4894   3504619.9286   1   7   0.0048   0.0105   0.0072  -0.0044  -0.0065   0.0020   0.00    4.1
2173 303327.000    728280.5428  -5271278.4903   3504619.9265   1   7   0.0049   0.0107   0.0073  -0.0040  -0.0066   0.0013   0.00    4.2
2173 303328.000    728280.5404  -5271278.4871   3504619.9280   1   7   0.0049   0.0106   0.0073  -0.0042  -0.0064   0.0010   0.00    4.2
2173 303329.000    728280.5416  -5271278.4883   3504619.9265   1   7   0.0050   0.0106   0.0073  -0.0043  -0.0064   0.0007   0.00    4.2
2173 303330.000    728280.5398  -5271278.4853   3504619.9266   1   7   0.0047   0.0107   0.0072  -0.0039  -0.0066   0.0017   0.00    4.2
2173 303331.000    728280.5388  -5271278.4846   3504619.9243   1   7   0.0049   0.0106   0.0072  -0.0042  -0.0065   0.0022   0.00    4.2
2173 303332.000    728280.5398  -5271278.4830   3504619.9235   1   7   0.0048   0.0106   0.0073  -0.0042  -0.0066   0.0007   0.00    4.2
2173 303333.000    728280.5410  -5271278.4868   3504619.9271   1   7   0.0046   0.0107   0.0072  -0.0039  -0.0066  -0.0005   0.00    4.2
2173 303334.000    728280.5390  -5271278.4827   3504619.9248   1   7   0.0047   0.0107   0.0072  -0.0040  -0.0065   0.0007   0.00    4.2
2173 303335.000    728280.5411  -5271278.4823   3504619.9224   1   7   0.0047   0.0106   0.0073  -0.0042  -0.0066  -0.0005   0.00    4.2
2173 303336.000    728280.5393  -5271278.4779   3504619.9200   1   7   0.0046   0.0107   0.0071  -0.0040  -0.0065  -0.0004   0.00    4.2
2173 303337.000    728280.5397  -5271278.4793   3504619.9230   1   7   0.0049   0.0106   0.0074  -0.0043  -0.0066   0.0013   0.00    4.2
2173 303338.000    728280.5391  -5271278.4836   3504619.9238   1   7   0.0048   0.0106   0.0072  -0.0042  -0.0066  -0.0010   0.00    4.3
2173 303339.000    728280.5418  -5271278.4826   3504619.9250   1   7   0.0047   0.0106   0.0074  -0.0044  -0.0065   0.0007   0.00    4.3
2173 303340.000    728280.5403  -5271278.4810   3504619.9268   1   7   0.0050   0.0107   0.0073  -0.0041  -0.0065   0.0019   0.00    4.3
2173 303341.000    728280.5403  -5271278.4787   3504619.9249   1   7   0.0049   0.0106   0.0073  -0.0044  -0.0065   0.0014   0.00    4.3
2173 303342.000    728280.5389  -5271278.4744   3504619.9223   1   7   0.0048   0.0106   0.0071  -0.0040  -0.0066   0.0010   0.00    4.3
2173 303343.000    728280.5382  -5271278.4779   3504619.9243   1   7   0.0042   0.0106   0.0071  -0.0042  -0.0066   0.0009   0.00    4.3
2173 303344.000    728280.5396  -5271278.4775   3504619.9217   1   7   0.0050   0.0107   0.0072  -0.0040  -0.0066   0.0005   0.00    4.3
2173 303345.000    728280.5415  -5271278.4829   3504619.9243   1   7   0.0048   0.0107   0.0071  -0.0042  -0.0065   0.0009   0.00    4.4
2173 303346.000    728280.5420  -5271278.4834   3504619.9267   1   7   0.0047   0.0107   0.0072  -0.0041  -0.0065   0.0008   0.00    4.4
2173 303347.000    728280.5414  -5271278.4800   3504619.9251   1   7   0.0050   0.0107   0.0072  -0.0038  -0.0065   0.0017   0.00    4.4
2173 303348.000    728280.5402  -5271278.4829   3504619.9254   1   7   0.0045   0.0106   0.0072  -0.0044  -0.0066   0.0012   0.00    4.4
2173 303349.000    728280.5404  -5271278.4908   3504619.9296   1   7   0.0046   0.0107   0.0072  -0.0041  -0.0066   0.0006   0.00    4.4
2173 303350.000    728280.5393  -5271278.4860   3504619.9271   1   7   0.0046   0.0107   0.0072  -0.0039  -0.0066   0.0010   0.00    4.4
2173 303351.000    728280.5398  -5271278.4854   3504619.9251   1   7   0.0045   0.0106   0.0071  -0.0043  -0.0067   0.0014   0.00    4.4
2173 303352.000    728280.5391  -5271278.4794   3504619.9258   1   7   0.0051   0.0107   0.0072  -0.0039  -0.0065   0.0013   0.00    4.4
2173 303353.000    728280.5384  -5271278.4810   3504619.9262   1   7   0.0049   0.0107   0.0072  -0.0039  -0.0065   0.0012   0.00    4.4
2173 303354.000    728280.5400  -5271278.4805   3504619.9230   1   7   0.0047   0.0108   0.0071  -0.0037  -0.0065   0.0017   0.00    4.5
2173 303355.000    728280.5399  -5271278.4810   3504619.9256   1   7   0.0050   0.0107   0.0072  -0.0040  -0.0065   0.0007   0.00    4.5
2173 303356.000    728280.5387  -5271278.4802   3504619.9251   1   7   0.0048   0.0107   0.0071  -0.0039  -0.0065   0.0014   0.00    4.5
2173 303357.000    728280.5404  -5271278.4814   3504619.9240   1   7   0.0050   0.0107   0.0072  -0.0040  -0.0065   0.0012   0.00    4.5
2173 303358.000    728280.5415  -5271278.4846   3504619.9261   1   7   0.0048   0.0107   0.0072  -0.0041  -0.0066   0.0012   0.00    4.5
2173 303359.000    728280.5386  -5271278.4796   3504619.9215   1   7   0.0049   0.0107   0.0071  -0.0040  -0.0065   0.0018   0.00    4.5
2173 303360.000    728280.5393  -5271278.4869   3504619.9233   1   7   0.0050   0.0106   0.0071  -0.0043  -0.0066   0.0014   0.00    4.5
2173 303361.000    728280.5410  -5271278.4877   3504619.9251   1   7   0.0048   0.0107   0.0072  -0.0041  -0.0066   0.0012   0.00    4.5
2173 303362.000    728280.5411  -5271278.4878   3504619.9276   1   7   0.0049   0.0108   0.0073  -0.0039  -0.0065   0.0012   0.00    4.5
2173 303363.000    728280.5408  -5271278.4889   3504619.9246   1   7   0.0050   0.0107   0.0072  -0.0042  -0.0065   0.0007   0.00    4.5
2173 303364.000    728280.5427  -5271278.4925   3504619.9265   1   7   0.0051   0.0107   0.0073  -0.0042  -0.0065   0.0015   0.00    4.5
2173 303365.000    728280.5422  -5271278.4927   3504619.9292   1   7   0.0048   0.0107   0.0071  -0.0043  -0.0065   0.0018   0.00    4.5
2173 303366.000    728280.5461  -5271278.4939   3504619.9266   1   7   0.0048   0.0106   0.0071  -0.0042  -0.0066   0.0015   0.00    4.5
2173 303367.000    728280.5431  -5271278.4924   3504619.9294   1   7   0.0047   0.0107   0.0071  -0.0040  -0.0066   0.0017   0.00    4.5
2173 303368.000    728280.5438  -5271278.4940   3504619.9286   1   7   0.0047   0.0107   0.0070  -0.0039  -0.0066   0.0019   0.00    4.5
2173 303369.000    728280.5410  -5271278.4829   3504619.9238   1   7   0.0047   0.0106   0.0072  -0.0042  -0.0066   0.0016   0.00    4.5
2173 303370.000    728280.5396  -5271278.4833   3504619.9242   1   7   0.0046   0.0107   0.0071  -0.0040  -0.0066   0.0021   0.00    4.5
2173 303371.000    728280.5393  -5271278.4806   3504619.9223   1   7   0.0044   0.0106   0.0071  -0.0042  -0.0066   0.0015   0.00    4.5
2173 303372.000    728280.5400  -5271278.4813   3504619.9243   1   7   0.0049   0.0107   0.0072  -0.0043  -0.0065   0.0006   0.00    4.5
2173 303373.000    728280.5400  -5271278.4841   3504619.9281   1   7   0.0047   0.0106   0.0072  -0.0044  -0.0065   0.0007   0.00    4.5
2173 303374.000    728280.5432  -5271278.4858   3504619.9241   1   7   0.0049   0.0107   0.0073  -0.0041  -0.0064   0.0011   0.00    4.5
2173 303375.000    728280.5408  -5271278.4792   3504619.9218   1   7   0.0046   0.0106   0.0071  -0.0044  -0.0067   0.0016   0.00    4.5
2173 303376.000    728280.5418  -5271278.4852   3504619.9237   1   7   0.0050   0.0107   0.0073  -0.0041  -0.0064  -0.0011   0.00    4.5
2173 303377.000    728280.5409  -5271278.4843   3504619.9253   1   7   0.0048   0.0106   0.0071  -0.0042  -0.0066   0.0012   0.00    4.5
2173 303378.000    728280.5427  -5271278.4827   3504619.9217   1   7   0.0048   0.0107   0.0073  -0.0042  -0.0066   0.0010   0.00    4.5
2173 303379.000    728280.5398  -5271278.4805   3504619.9240   1   7   0.0044   0.0107   0.0071  -0.0042  -0.0066   0.0015   0.00    4.5
2173 303380.000    728280.5411  -5271278.4857   3504619.9237   1   7   0.0047   0.0107   0.0071  -0.0041  -0.0066   0.0016   0.00    4.5
2173 303381.000    728280.5396  -5271278.4836   3504619.9240   1   7   0.0044   0.0106   0.0071  -0.0042  -0.0066   0.0017   0.00    4.5
2173 303382.000    728280.5392  -5271278.4790   3504619.9244   1   7   0.0051   0.0107   0.0072  -0.0042  -0.0065   0.0011   0.00    4.5
2173 303383.000    728280.5415  -5271278.4867   3504619.9264   1   7   0.0051   0.0107   0.0073  -0.0040  -0.0065   0.0007   0.00    4.6
2173 303384.000    728280.5397  -5271278.4853   3504619.9267   1   7   0.0046   0.0107   0.0070  -0.0039  -0.0065   0.0018   0.00    4.6
2173 303385.000    728280.5409  -5271278.4872   3504619.9266   1   7   0.0049   0.0107   0.0072  -0.0041  -0.0065   0.0009   0.00    4.6
2173 303386.000    728280.5397  -5271278.4838   3504619.9225   1   7   0.0050   0.0106   0.0071  -0.0045  -0.0066   0.0022   0.00    4.6
2173 303387.000    728280.5394  -5271278.4856   3504619.9241   1   7   0.0045   0.0107   0.0072  -0.0042  -0.0066   0.0011   0.00    4.6
2173 303388.000    728280.5401  -5271278.4827   3504619.9215   1   7   0.0050   0.0107   0.0073  -0.0043  -0.0064  -0.0012   0.00    4.6
2173 303389.000    728280.5408  -5271278.4810   3504619.9246   1   7   0.0048   0.0107   0.0072  -0.0040  -0.0066  -0.0007   0.00    4.6
2173 303390.000    728280.5409  -5271278.4840   3504619.9272   1   7   0.0049   0.0107   0.0073  -0.0041  -0.0064  -0.0007   0.00    4.6
2173 303391.000    728280.5421  -5271278.4810   3504619.9259   1   7   0.0050   0.0108   0.0074  -0.0042  -0.0064   0.0008   0.00    4.6
2173 303392.000    728280.5420  -5271278.4755   3504619.9222   1   7   0.0048   0.0107   0.0072  -0.0042  -0.0065   0.0010   0.00    4.6
2173 303393.000    728280.5409  -5271278.4812   3504619.9262   1   7   0.0048   0.0107   0.0072  -0.0040  -0.0066   0.0018   0.00    4.6
2173 303394.000    728280.5415  -5271278.4781   3504619.9201   1   7   0.0050   0.0107   0.0072  -0.0042  -0.0065   0.0015   0.00    4.6
2173 303395.000    728280.5383  -5271278.4782   3504619.9217   1   7   0.0048   0.0107   0.0073  -0.0044  -0.0064  -0.0008   0.00    4.6
2173 303396.000    728280.5405  -5271278.4734   3504619.9182   1   7   0.0048   0.0107   0.0072  -0.0043  -0.0066   0.0012   0.00    4.6
2173 303397.000    728280.5403  -5271278.4775   3504619.9219   1   7   0.0048   0.0107   0.0072  -0.0041  -0.0066   0.0018   0.00    4.6
2173 303398.000    728280.5391  -5271278.4754   3504619.9204   1   7   0.0050   0.0107   0.0071  -0.0042  -0.0066   0.0020   0.00    4.6
2173 303399.000    728280.5398  -5271278.4786   3504619.9221   1   7   0.0048   0.0108   0.0071  -0.0039  -0.0065   0.0013   0.00    4.6
2173 303400.000    728280.5408  -5271278.4786   3504619.9242   1   7   0.0049   0.0108   0.0073  -0.0041  -0.0064  -0.0014   0.00    4.6
2173 303401.000    728280.5424  -5271278.4792   3504619.9233   1   7   0.0046   0.0107   0.0071  -0.0043  -0.0066   0.0018   0.00    4.6
2173 303402.000    728280.5403  -5271278.4777   3504619.9227   1   7   0.0049   0.0106   0.0072  -0.0043  -0.0066   0.0020   0.00    4.6
2173 303403.000    728280.5413  -5271278.4811   3504619.9226   1   7   0.0047   0.0107   0.0071  -0.0041  -0.0066   0.0014   0.00    4.6
2173 303404.000    728280.5418  -5271278.4755   3504619.9205   1   7   0.0048   0.0107   0.0072  -0.0044  -0.0065   0.0012   0.00    4.6
2173 303405.000    728280.5396  -5271278.4740   3504619.9220   1   7   0.0049   0.0107   0.0071  -0.0043  -0.0065   0.0013   0.00    4.6
2173 303406.000    728280.5403  -5271278.4725   3504619.9206   1   7   0.0047   0.0108   0.0071  -0.0042  -0.0065   0.0018   0.00    4.6
2173 303407.000    728280.5417  -5271278.4778   3504619.9226   1   7   0.0048   0.0107   0.0072  -0.0041  -0.0066   0.0016   0.00    4.6
2173 303408.000    728280.5412  -5271278.4795   3504619.9231   1   7   0.0049   0.0107   0.0071  -0.0042  -0.0065   0.0015   0.00    4.6
2173 303409.000    728280.5432  -5271278.4811   3504619.9227   1   7   0.0047   0.0106   0.0070  -0.0045  -0.0066   0.0016   0.00    4.6
2173 303410.000    728280.5430  -5271278.4810   3504619.9240   1   7   0.0050   0.0107   0.0072  -0.0041  -0.0066   0.0021   0.00    4.6
2173 303411.000    728280.5409  -5271278.4746   3504619.9215   1   7   0.0050   0.0108   0.0071  -0.0041  -0.0065  -0.0006   0.00    4.6
2173 303412.000    728280.5426  -5271278.4781   3504619.9228   1   7   0.0048   0.0107   0.0071  -0.0043  -0.0066   0.0018   0.00    4.6
2173 303413.000    728280.5424  -5271278.4827   3504619.9224   1   7   0.0048   0.0107   0.0072  -0.0043  -0.0065   0.0004   0.00    4.6
2173 303414.000    728280.5420  -5271278.4773   3504619.9215   1   7   0.0045   0.0106   0.0071  -0.0043  -0.0066   0.0010   0.00    4.6
2173 303415.000    728280.5413  -5271278.4768   3504619.9213   1   7   0.0047   0.0107   0.0072  -0.0042  -0.0065   0.0014   0.00    4.6
2173 303416.000    728280.5421  -5271278.4743   3504619.9190   1   7   0.0047   0.0107   0.0072  -0.0042  -0.0065   0.0011   0.00    4.6
2173 303417.000    728280.5405  -5271278.4773   3504619.9239   1   7   0.0047   0.0107   0.0071  -0.0043  -0.0065   0.0018   0.00    4.6
2173 303418.000    728280.5407  -5271278.4786   3504619.9228   1   7   0.0049   0.0107   0.0071  -0.0042  -0.0066   0.0011   0.00    4.6
2173 303419.000    728280.5417  -5271278.4775   3504619.9191   1   7   0.0047   0.0106   0.0071  -0.0045  -0.0066   0.0017   0.00    4.6
2173 303420.000    728280.5379  -5271278.4761   3504619.9201   1   7   0.0049   0.0107   0.0071  -0.0042  -0.0066   0.0008   0.00    4.6
2173 303421.000    728280.5410  -5271278.4808   3504619.9208   1   7   0.0047   0.0107   0.0070  -0.0042  -0.0066   0.0023   0.00    4.6
2173 303422.000    728280.5424  -5271278.4799   3504619.9206   1   7   0.0047   0.0107   0.0072  -0.0044  -0.0065   0.0007   0.00    4.6
2173 303423.000    728280.5399  -5271278.4766   3504619.9202   1   7   0.0049   0.0107   0.0070  -0.0041  -0.0066   0.0018   0.00    4.6
2173 303424.000    728280.5417  -5271278.4788   3504619.9190   1   7   0.0048   0.0107   0.0070  -0.0042  -0.0066   0.0012   0.00    4.6
2173 303425.000    728280.5414  -5271278.4791   3504619.9199   1   7   0.0047   0.0108   0.0070  -0.0039  -0.0066   0.0020   0.00    4.5
2173 303426.000    728280.5416  -5271278.4803   3504619.9200   1   7   0.0043   0.0107   0.0071  -0.0040  -0.0066   0.0017   0.00    4.5
2173 303427.000    728280.5417  -5271278.4777   3504619.9176   1   7   0.0052   0.0108   0.0072  -0.0042  -0.0064   0.0016   0.00    4.5
2173 303428.000    728280.5416  -5271278.4792   3504619.9195   1   7   0.0046   0.0107   0.0069  -0.0044  -0.0066   0.0022   0.00    4.5
2173 303429.000    728280.5413  -5271278.4772   3504619.9210   1   7   0.0049   0.0108   0.0072  -0.0040  -0.0065   0.0015   0.00    4.5
2173 303430.000    728280.5397  -5271278.4750   3504619.9208   1   7   0.0051   0.0108   0.0071  -0.0041  -0.0065   0.0009   0.00    4.5
2173 303431.000    728280.5413  -5271278.4765   3504619.9192   1   7   0.0046   0.0108   0.0071  -0.0042  -0.0065   0.0020   0.00    4.5
2173 303432.000    728280.5401  -5271278.4795   3504619.9211   1   7   0.0046   0.0107   0.0071  -0.0041  -0.0065   0.0017   0.00    4.5
2173 303433.000    728280.5407  -5271278.4811   3504619.9242   1   7   0.0048   0.0107   0.0072  -0.0044  -0.0066   0.0010   0.00    4.5
2173 303434.000    728280.5404  -5271278.4766   3504619.9223   1   7   0.0049   0.0107   0.0073  -0.0043  -0.0065   0.0008   0.00    4.5
2173 303435.000    728280.5379  -5271278.4752   3504619.9205   1   7   0.0050   0.0107   0.0072  -0.0045  -0.0065   0.0010   0.00    4.5
2173 303436.000    728280.5407  -5271278.4773   3504619.9225   1   7   0.0049   0.0107   0.0071  -0.0044  -0.0065   0.0010   0.00    4.5
2173 303437.000    728280.5397  -5271278.4744   3504619.9208   1   7   0.0047   0.0108   0.0071  -0.0040  -0.0065  -0.0012   0.00    4.5
2173 303438.000    728280.5374  -5271278.4753   3504619.9221   1   7   0.0049   0.0107   0.0072  -0.0043  -0.0065   0.0012   0.00    4.5
2173 303439.000    728280.5395  -5271278.4755   3504619.9189   1   7   0.0048   0.0107   0.0072  -0.0042  -0.0065   0.0018   0.00    4.5
2173 303440.000    728280.5413  -5271278.4756   3504619.9163   1   7   0.0046   0.0107   0.0071  -0.0046  -0.0065  -0.0007   0.00    4.5
2173 303441.000    728280.5398  -5271278.4790   3504619.9199   1   7   0.0050   0.0108   0.0072  -0.0041  -0.0065   0.0009   0.00    4.5
2173 303442.000    728280.5403  -5271278.4794   3504619.9191   1   7   0.0048   0.0107   0.0070  -0.0042  -0.0066   0.0014   0.00    4.5
2173 303443.000    728280.5403  -5271278.4752   3504619.9185   1   7   0.0049   0.0108   0.0071  -0.0043  -0.0064   0.0013   0.00    4.5
2173 303444.000    728280.5383  -5271278.4775   3504619.9210   1   7   0.0049   0.0108   0.0071  -0.0043  -0.0065   0.0013   0.00    4.4
2173 303445.000    728280.5406  -5271278.4777   3504619.9196   1   7   0.0050   0.0107   0.0073  -0.0046  -0.0065   0.0015   0.00    4.4
2173 303446.000    728280.5401  -5271278.4760   3504619.9209   1   7   0.0049   0.0107   0.0071  -0.0042  -0.0065   0.0015   0.00    4.4
2173 303447.000    728280.5414  -5271278.4790   3504619.9198   1   7   0.0048   0.0108   0.0072  -0.0043  -0.0065   0.0012   0.00    4.4
2173 303448.000    728280.5405  -5271278.4749   3504619.9202   1   7   0.0048   0.0108   0.0071  -0.0042  -0.0066   0.0010   0.00    4.4
2173 303449.000    728280.5380  -5271278.4693   3504619.9164   1   7   0.0046   0.0107   0.0071  -0.0044  -0.0065   0.0011   0.00    4.4
2173 303450.000    728280.5386  -5271278.4705   3504619.9173   1   7   0.0048   0.0107   0.0072  -0.0043  -0.0064   0.0012   0.00    4.4
2173 303451.000    728280.5399  -5271278.4752   3504619.9185   1   7   0.0050   0.0108   0.0070  -0.0040  -0.0064   0.0016   0.00    4.4
2173 303452.000    728280.5391  -5271278.4728   3504619.9187   1   7   0.0049   0.0108   0.0071  -0.0043  -0.0064   0.0011   0.00    4.4
2173 303453.000    728280.5386  -5271278.4779   3504619.9224   1   7   0.0051   0.0108   0.0074  -0.0045  -0.0064  -0.0013   0.00    4.4
2173 303454.000    728280.5433  -5271278.4803   3504619.9194   1   7   0.0044   0.0107   0.0071  -0.0042  -0.0066   0.0021   0.00    4.4
2173 303455.000    728280.5414  -5271278.4791   3504619.9203   1   7   0.0048   0.0108   0.0071  -0.0043  -0.0065   0.0008   0.00    4.4
2173 303456.000    728280.5388  -5271278.4747   3504619.9184   1   7   0.0046   0.0107   0.0070  -0.0044  -0.0065   0.0013   0.00    4.4
2173 303457.000    728280.5401  -5271278.4791   3504619.9226   1   7   0.0045   0.0108   0.0071  -0.0041  -0.0065   0.0009   0.00    4.4
2173 303458.000    728280.5421  -5271278.4757   3504619.9169   1   7   0.0051   0.0107   0.0071  -0.0046  -0.0065   0.0005   0.00    4.4
2173 303459.000    728280.5405  -5271278.4779   3504619.9223   1   7   0.0050   0.0108   0.0071  -0.0042  -0.0065   0.0015   0.00    4.4
2173 303460.000    728280.5391  -5271278.4756   3504619.9218   1   7   0.0047   0.0108   0.0071  -0.0045  -0.0065   0.0013   0.00    4.4
2173 303461.000    728280.5402  -5271278.4731   3504619.9206   1   7   0.0049   0.0108   0.0071  -0.0043  -0.0065   0.0010   0.00    4.4
2173 303462.000    728280.5418  -5271278.4789   3504619.9227   1   7   0.0048   0.0108   0.0071  -0.0041  -0.0065   0.0013   0.00    4.4
2173 303463.000    728280.5411  -5271278.4796   3504619.9222   1   7   0.0048   0.0108   0.0072  -0.0043  -0.0065   0.0020   0.00    4.4
2173 303464.000    728280.5413  -5271278.4710   3504619.9179   1   7   0.0047   0.0108   0.0072  -0.0042  -0.0065   0.0008   0.00    4.4
2173 303465.000    728280.5418  -5271278.4779   3504619.9212   1   7   0.0047   0.0108   0.0070  -0.0041  -0.0065   0.0018   0.00    4.4
2173 303466.000    728280.5411  -5271278.4781   3504619.9222   1   7   0.0044   0.0108   0.0070  -0.0042  -0.0066   0.0015   0.00    4.4
2173 303467.000    728280.5426  -5271278.4798   3504619.9225   1   7   0.0048   0.0108   0.0071  -0.0043  -0.0065   0.0010   0.00    4.4
2173 303468.000    728280.5413  -5271278.4786   3504619.9209   1   7   0.0046   0.0108   0.0070  -0.0042  -0.0066   0.0011   0.00    4.4
2173 303469.000    728280.5428  -5271278.4766   3504619.9218   1   7   0.0050   0.0108   0.0073  -0.0043  -0.0064   0.0005   0.00    4.4
2173 303470.000    728280.5403  -5271278.4792   3504619.9239   1   7   0.0048   0.0108   0.0071  -0.0043  -0.0065   0.0020   0.00    4.4
2173 303471.000    728280.5394  -5271278.4736   3504619.9202   1   7   0.0047   0.0108   0.0070  -0.0043  -0.0065   0.0015   0.00    4.4
2173 303472.000    728280.5417  -5271278.4718   3504619.9189   1   7   0.0048   0.0108   0.0071  -0.0042  -0.0064   0.0013   0.00    4.4
2173 303473.000    728280.5418  -5271278.4729   3504619.9218   1   7   0.0047   0.0109   0.0071  -0.0041  -0.0065   0.0013   0.00    4.4
2173 303474.000    728280.5405  -5271278.4790   3504619.9218   1   7   0.0049   0.0109   0.0072  -0.0041  -0.0065   0.0011   0.00    4.3
2173 303475.000    728280.5394  -5271278.4730   3504619.9206   1   7   0.0048   0.0108   0.0073  -0.0043  -0.0065  -0.0008   0.00    4.3
2173 303476.000    728280.5409  -5271278.4779   3504619.9200   1   7   0.0044   0.0108   0.0070  -0.0042  -0.0066   0.0016   0.00    4.3
2173 303477.000    728280.5421  -5271278.4747   3504619.9196   1   7   0.0051   0.0108   0.0070  -0.0042  -0.0065   0.0018   0.00    4.3
2173 303478.000    728280.5407  -5271278.4766   3504619.9223   1   7   0.0049   0.0108   0.0072  -0.0043  -0.0065   0.0013   0.00    4.3
2173 303479.000    728280.5406  -5271278.4783   3504619.9221   1   7   0.0049   0.0108   0.0072  -0.0042  -0.0066   0.0017   0.00    4.3
2173 303480.000    728280.5425  -5271278.4872   3504619.9235   1   7   0.0046   0.0109   0.0071  -0.0042  -0.0065   0.0018   0.00    4.3
2173 303481.000    728280.5426  -5271278.4832   3504619.9237   1   7   0.0048   0.0108   0.0072  -0.0044  -0.0065  -0.0008   0.00    4.3
2173 303482.000    728280.5411  -5271278.4850   3504619.9255   1   7   0.0048   0.0107   0.0072  -0.0045  -0.0066   0.0005   0.00    4.3
2173 303483.000    728280.5433  -5271278.4888   3504619.9238   1   7   0.0048   0.0108   0.0071  -0.0041  -0.0065   0.0015   0.00    4.3
2173 303484.000    728280.5397  -5271278.4771   3504619.9235   1   7   0.0049   0.0108   0.0070  -0.0043  -0.0065   0.0012   0.00    4.3
2173 303485.000    728280.5375  -5271278.4747   3504619.9209   1   7   0.0048   0.0108   0.0072  -0.0043  -0.0064  -0.0007   0.00    4.3
2173 303486.000    728280.5403  -5271278.4798   3504619.9227   1   7   0.0046   0.0107   0.0069  -0.0044  -0.0066   0.0022   0.00    4.3
2173 303487.000    728280.5398  -5271278.4756   3504619.9248   1   7   0.0049   0.0108   0.0071  -0.0042  -0.0065   0.0019   0.00    4.3
2173 303488.000    728280.5405  -5271278.4744   3504619.9223   1   7   0.0048   0.0107   0.0070  -0.0044  -0.0066   0.0016   0.00    4.3
2173 303489.000    728280.5416  -5271278.4788   3504619.9240   1   7   0.0048   0.0109   0.0072  -0.0042  -0.0065   0.0007   0.00    4.3
2173 303490.000    728280.5407  -5271278.4776   3504619.9235   1   7   0.0048   0.0109   0.0070  -0.0041  -0.0065   0.0017   0.00    4.3
2173 303491.000    728280.5395  -5271278.4761   3504619.9227   1   7   0.0049   0.0108   0.0072  -0.0045  -0.0065  -0.0008   0.00    4.2
2173 303492.000    728280.5406  -5271278.4779   3504619.9271   1   7   0.0047   0.0108   0.0070  -0.0043  -0.0065   0.0016   0.00    4.2
2173 303493.000    728280.5406  -5271278.4806   3504619.9278   1   7   0.0050   0.0108   0.0071  -0.0043  -0.0065   0.0022   0.00    4.2
2173 303494.000    728280.5414  -5271278.4774   3504619.9213   1   7   0.0051   0.0109   0.0072  -0.0042  -0.0064   0.0016   0.00    4.2
2173 303495.000    728280.5393  -5271278.4786   3504619.9236   1   7   0.0046   0.0109   0.0072  -0.0041  -0.0065   0.0011   0.00    4.2
2173 303496.000    728280.5389  -5271278.4804   3504619.9229   1   7   0.0044   0.0108   0.0070  -0.0043  -0.0065   0.0015   0.00    4.2
2173 303497.000    728280.5404  -5271278.4830   3504619.9265   1   7   0.0049   0.0109   0.0072  -0.0041  -0.0065   0.0017   0.00    4.2
2173 303498.000    728280.5408  -5271278.4807   3504619.9230   1   7   0.0048   0.0108   0.0070  -0.0044  -0.0065   0.0009   0.00    4.2
2173 303499.000    728280.5418  -5271278.4875   3504619.9232   1   7   0.0050   0.0109   0.0071  -0.0042  -0.0065   0.0015   0.00    4.2
2173 303500.000    728280.5417  -5271278.4791   3504619.9215   1   7   0.0048   0.0108   0.0071  -0.0043  -0.0065   0.0018   0.00    4.2
2173 303501.000    728280.5413  -5271278.4839   3504619.9268   1   7   0.0049   0.0108   0.0071  -0.0042  -0.0065   0.0011   0.00    4.2
2173 303502.000    728280.5387  -5271278.4798   3504619.9213   1   7   0.0046   0.0108   0.0071  -0.0044  -0.0065   0.0018   0.00    4.2
2173 303503.000    728280.5391  -5271278.4840   3504619.9241   1   7   0.0048   0.0108   0.0070  -0.0044  -0.0066   0.0018   0.00    4.1
2173 303504.000    728280.5387  -5271278.4749   3504619.9211   1   7   0.0048   0.0108   0.0072  -0.0046  -0.0065   0.0005   0.00    4.1
2173 303505.000    728280.5408  -5271278.4799   3504619.9209   1   7   0.0049   0.0109   0.0072  -0.0042  -0.0065   0.0017   0.00    4.1
2173 303506.000    728280.5420  -5271278.4787   3504619.9225   1   7   0.0050   0.0108   0.0072  -0.0044  -0.0065   0.0011   0.00    4.1
2173 303507.000    728280.5393  -5271278.4770   3504619.9196   1   7   0.0044   0.0108   0.0070  -0.0043  -0.0066   0.0016   0.00    4.1
2173 303508.000    728280.5395  -5271278.4793   3504619.9220   1   7   0.0047   0.0108   0.0071  -0.0043  -0.0065   0.0016   0.00    4.1
2173 303509.000    728280.5431  -5271278.4900   3504619.9274   1   7   0.0050   0.0108   0.0072  -0.0044  -0.0064  -0.0014   0.00    4.1
2173 303510.000    728280.5420  -5271278.4807   3504619.9229   1   7   0.0047   0.0108   0.0073  -0.0043  -0.0064   0.0021   0.00    4.1
2173 303511.000    728280.5401  -5271278.4821   3504619.9205   1   7   0.0051   0.0109   0.0073  -0.0043  -0.0064  -0.0001   0.00    4.1
2173 303512.000    728280.5421  -5271278.4830   3504619.9228   1   7   0.0050   0.0109   0.0072  -0.0043  -0.0065   0.0016   0.00    4.1
2173 303513.000    728280.5437  -5271278.4892   3504619.9236   1   7   0.0046   0.0109   0.0071  -0.0041  -0.0065   0.0017   0.00    4.1
2173 303514.000    728280.5408  -5271278.4852   3504619.9254   1   7   0.0049   0.0107   0.0072  -0.0044  -0.0065   0.0012   0.00    4.1
2173 303515.000    728280.5410  -5271278.4845   3504619.9241   1   7   0.0045   0.0109   0.0070  -0.0042  -0.0066   0.0016   0.00    4.1
2173 303516.000    728280.5406  -5271278.4879   3504619.9257   1   7   0.0046   0.0109   0.0073  -0.0040  -0.0064   0.0010   0.00    4.1
2173 303517.000    728280.5409  -5271278.4838   3504619.9224   1   7   0.0048   0.0109   0.0070  -0.0044  -0.0065   0.0009   0.00    4.1
2173 303518.000    728280.5419  -5271278.4898   3504619.9271   1   7   0.0048   0.0108   0.0071  -0.0045  -0.0064  -0.0012   0.00    4.1
2173 303519.000    728280.5405  -5271278.4846   3504619.9272   1   7   0.0047   0.0108   0.0071  -0.0042  -0.0065   0.0015   0.00    4.1
2173 303520.000    728280.5445  -5271278.4858   3504619.9250   1   7   0.0045   0.0108   0.0071  -0.0044  -0.0065   0.0012   0.00    4.1
2173 303521.000    728280.5437  -5271278.4833   3504619.9223   1   7   0.0049   0.0108   0.0070  -0.0043  -0.0065   0.0008   0.00    4.1
2173 303522.000    728280.5423  -5271278.4843   3504619.9279   1   7   0.0049   0.0109   0.0072  -0.0045  -0.0064   0.0015   0.00    4.0
2173 303523.000    728280.5426  -5271278.4826   3504619.9257   1   7   0.0049   0.0109   0.0073  -0.0043  -0.0064   0.0011   0.00    4.0
2173 303524.000    728280.5446  -5271278.4931   3504619.9310   1   7   0.0049   0.0109   0.0070  -0.0041  -0.0064   0.0012   0.00    4.0
2173 303525.000    728280.5435  -5271278.4855   3504619.9263   1   7   0.0047   0.0108   0.0071  -0.0044  -0.0066   0.0020   0.00    4.0
2173 303526.000    728280.5416  -5271278.4864   3504619.9281   1   7   0.0050   0.0109   0.0072  -0.0045  -0.0063   0.0008   0.00    4.0
2173 303527.000    728280.5436  -5271278.4891   3504619.9284   1   7   0.0046   0.0108   0.0071  -0.0044  -0.0065   0.0016   0.00    4.0
2173 303528.000    728280.5426  -5271278.4872   3504619.9289   1   7   0.0049   0.0109   0.0070  -0.0041  -0.0065   0.0008   0.00    4.0
2173 303529.000    728280.5431  -5271278.4845   3504619.9255   1   7   0.0050   0.0109   0.0070  -0.0044  -0.0064   0.0016   0.00    4.0
2173 303530.000    728280.5444  -5271278.4895   3504619.9294   1   7   0.0048   0.0108   0.0071  -0.0046  -0.0065   0.0014   0.00    4.0
2173 303531.000    728280.5436  -5271278.4856   3504619.9253   1   7   0.0050   0.0109   0.0073  -0.0043  -0.0064   0.0008   0.00    4.0
2173 303532.000    728280.5426  -5271278.4831   3504619.9255   1   7   0.0046   0.0108   0.0071  -0.0045  -0.0064   0.0013   0.00    4.0
2173 303533.000    728280.5441  -5271278.4866   3504619.9270   1   7   0.0049   0.0108   0.0071  -0.0045  -0.0064   0.0002   0.00    4.0
2173 303534.000    728280.5459  -5271278.4886   3504619.9273   1   7   0.0048   0.0108   0.0070  -0.0043  -0.0066   0.0015   0.00    4.0
2173 303535.000    728280.5440  -5271278.4911   3504619.9304   1   7   0.0049   0.0109   0.0070  -0.0043  -0.0065   0.0020   0.00    4.0
2173 303536.000    728280.5436  -5271278.4893   3504619.9292   1   7   0.0052   0.0109   0.0072  -0.0041  -0.0064   0.0015   0.00    4.0
2173 303537.000    728280.5419  -5271278.4841   3504619.9243   1   7   0.0047   0.0108   0.0070  -0.0046  -0.0065   0.0013   0.00    4.0
2173 303538.000    728280.5418  -5271278.4836   3504619.9262   1   7   0.0051   0.0109   0.0072  -0.0044  -0.0065   0.0017   0.00    4.0
2173 303539.000    728280.5463  -5271278.4865   3504619.9254   1   7   0.0047   0.0109   0.0073  -0.0044  -0.0065   0.0010   0.00    4.0
2173 303540.000    728280.5430  -5271278.4885   3504619.9286   1   7   0.0046   0.0109   0.0070  -0.0041  -0.0066  -0.0003   0.00    4.0
2173 303541.000    728280.5421  -5271278.4865   3504619.9276   1   7   0.0052   0.0109   0.0072  -0.0043  -0.0064   0.0011   0.00    4.0
2173 303542.000    728280.5438  -5271278.4888   3504619.9277   1   7   0.0047   0.0109   0.0070  -0.0042  -0.0065   0.0021   0.00    4.0
2173 303543.000    728280.5433  -5271278.4842   3504619.9261   1   7   0.0049   0.0109   0.0071  -0.0042  -0.0065   0.0007   0.00    4.0
2173 303544.000    728280.5440  -5271278.4858   3504619.9270   1   7   0.0049   0.0109   0.0071  -0.0044  -0.0065   0.0017   0.00    4.0
2173 303545.000    728280.5426  -5271278.4830   3504619.9210   1   7   0.0046   0.0109   0.0071  -0.0042  -0.0066   0.0023   0.00    4.0
2173 303546.000    728280.5441  -5271278.4823   3504619.9226   1   7   0.0047   0.0109   0.0069  -0.0042  -0.0066   0.0019   0.00    4.0
2173 303547.000    728280.5427  -5271278.4872   3504619.9248   1   7   0.0048   0.0109   0.0070  -0.0043  -0.0066   0.0020   0.00    4.0
2173 303548.000    728280.5420  -5271278.4836   3504619.9226   1   7   0.0047   0.0109   0.0070  -0.0042  -0.0065   0.0020   0.00    4.0
2173 303549.000    728280.5471  -5271278.4929   3504619.9264   1   7   0.0048   0.0109   0.0072  -0.0045  -0.0064   0.0015   0.00    4.0
2173 303550.000    728280.5482  -5271278.4980   3504619.9288   1   7   0.0047   0.0109   0.0070  -0.0043  -0.0066   0.0019   0.00    4.0
2173 303551.000    728280.5465  -5271278.4893   3504619.9242   1   7   0.0049   0.0109   0.0073  -0.0044  -0.0064   0.0015   0.00    3.9
2173 303552.000    728280.5434  -5271278.4859   3504619.9236   1   7   0.0048   0.0110   0.0072  -0.0042  -0.0064   0.0005   0.00    3.9
2173 303553.000    728280.5478  -5271278.4887   3504619.9241   1   7   0.0049   0.0109   0.0072  -0.0045  -0.0064   0.0010   0.00    3.9
2173 303554.000    728280.5445  -5271278.4847   3504619.9257   1   7   0.0048   0.0109   0.0072  -0.0045  -0.0064   0.0005   0.00    3.9
2173 303555.000    728280.5428  -5271278.4896   3504619.9266   1   7   0.0049   0.0109   0.0072  -0.0043  -0.0064   0.0012   0.00    3.9
2173 303556.000    728280.5433  -5271278.4929   3504619.9285   1   7   0.0048   0.0109   0.0071  -0.0042  -0.0065   0.0023   0.00    3.9
2173 303557.000    728280.5442  -5271278.4902   3504619.9270   1   7   0.0048   0.0109   0.0071  -0.0043  -0.0065   0.0013   0.00    3.9
2173 303558.000    728280.5443  -5271278.4853   3504619.9239   1   7   0.0047   0.0109   0.0070  -0.0042  -0.0065   0.0016   0.00    3.9
2173 303559.000    728280.5437  -5271278.4879   3504619.9221   1   7   0.0051   0.0109   0.0071  -0.0046  -0.0065   0.0020   0.00    3.9
2173 303560.000    728280.5421  -5271278.4834   3504619.9248   1   7   0.0051   0.0110   0.0071  -0.0041  -0.0065   0.0019   0.00    3.9
2173 303561.000    728280.5431  -5271278.4932   3504619.9276   1   7   0.0048   0.0109   0.0070  -0.0044  -0.0065   0.0014   0.00    3.9
2173 303562.000    728280.5444  -5271278.4892   3504619.9247   1   7   0.0048   0.0109   0.0072  -0.0044  -0.0066  -0.0005   0.00    3.9
2173 303563.000    728280.5439  -5271278.4857   3504619.9221   1   7   0.0048   0.0109   0.0071  -0.0044  -0.0065   0.0018   0.00    3.9
2173 303564.000    728280.5451  -5271278.4950   3504619.9268   1   7   0.0048   0.0109   0.0069  -0.0040  -0.0065   0.0019   0.00    3.9
2173 303565.000    728280.5443  -5271278.4907   3504619.9261   1   7   0.0050   0.0108   0.0071  -0.0045  -0.0065   0.0007   0.00    3.9
2173 303566.000    728280.5462  -5271278.4914   3504619.9261   1   7   0.0048   0.0109   0.0071  -0.0045  -0.0065   0.0013   0.00    3.9
2173 303567.000    728280.5476  -5271278.4910   3504619.9241   1   7   0.0049   0.0109   0.0071  -0.0045  -0.0064   0.0018   0.00    3.9
2173 303568.000    728280.5460  -5271278.4897   3504619.9258   1   7   0.0051   0.0109   0.0071  -0.0046  -0.0064   0.0004   0.00    3.9
2173 303569.000    728280.5445  -5271278.4900   3504619.9253   1   7   0.0046   0.0109   0.0071  -0.0044  -0.0065   0.0013   0.00    3.9
2173 303570.000    728280.5449  -5271278.4898   3504619.9255   1   7   0.0047   0.0110   0.0072  -0.0043  -0.0064   0.0011   0.00    3.9
2173 303571.000    728280.5459  -5271278.4895   3504619.9253   1   7   0.0050   0.0110   0.0071  -0.0044  -0.0065   0.0007   0.00    3.9
2173 303572.000    728280.5432  -5271278.4825   3504619.9247   1   7   0.0047   0.0109   0.0070  -0.0044  -0.0065   0.0015   0.00    3.9
2173 303573.000    728280.5464  -5271278.4907   3504619.9246   1   7   0.0046   0.0109   0.0070  -0.0042  -0.0066   0.0020   0.00    3.9
2173 303574.000    728280.5456  -5271278.4934   3504619.9301   1   7   0.0048   0.0109   0.0070  -0.0044  -0.0065   0.0021   0.00    3.8
2173 303575.000    728280.5426  -5271278.4873   3504619.9263   1   7   0.0048   0.0109   0.0070  -0.0044  -0.0065   0.0019   0.00    3.8
2173 303576.000    728280.5420  -5271278.4889   3504619.9245   1   7   0.0045   0.0109   0.0068  -0.0043  -0.0066   0.0022   0.00    3.8
2173 303577.000    728280.5473  -5271278.4912   3504619.9256   1   7   0.0048   0.0110   0.0070  -0.0041  -0.0065   0.0020   0.00    3.8
2173 303578.000    728280.5429  -5271278.4902   3504619.9269   1   7   0.0047   0.0110   0.0070  -0.0042  -0.0065   0.0015   0.00    3.8
2173 303579.000    728280.5491  -5271278.4957   3504619.9275   1   7   0.0051   0.0110   0.0070  -0.0042  -0.0065   0.0013   0.00    3.8
2173 303580.000    728280.5458  -5271278.4931   3504619.9238   1   7   0.0048   0.0109   0.0071  -0.0043  -0.0065   0.0014   0.00    3.8
2173 303581.000    728280.5465  -5271278.4909   3504619.9250   1   7   0.0051   0.0110   0.0072  -0.0043  -0.0064   0.0014   0.00    3.8
2173 303582.000    728280.5444  -5271278.4898   3504619.9226   1   7   0.0047   0.0109   0.0071  -0.0044  -0.0065   0.0015   0.00    3.8
2173 303583.000    728280.5489  -5271278.4933   3504619.9248   1   7   0.0050   0.0109   0.0071  -0.0045  -0.0064   0.0010   0.00    3.8
2173 303584.000    728280.5439  -5271278.4892   3504619.9220   1   7   0.0050   0.0109   0.0071  -0.0044  -0.0064   0.0019   0.00    3.8
2173 303585.000    728280.5447  -5271278.4911   3504619.9241   1   7   0.0045   0.0109   0.0071  -0.0045  -0.0064   0.0009   0.00    3.8
2173 303586.000    728280.5446  -5271278.4885   3504619.9224   1   7   0.0050   0.0109   0.0071  -0.0046  -0.0064   0.0014   0.00    3.8
2173 303587.000    728280.5469  -5271278.4912   3504619.9236   1   7   0.0045   0.0109   0.0070  -0.0045  -0.0066   0.0014   0.00    3.8
2173 303588.000    728280.5431  -5271278.4809   3504619.9198   1   7   0.0048   0.0109   0.0072  -0.0044  -0.0063   0.0018   0.00    3.8
2173 303589.000    728280.5463  -5271278.4870   3504619.9230   1   7   0.0047   0.0110   0.0072  -0.0045  -0.0063   0.0017   0.00    3.8
2173 303590.000    728280.5464  -5271278.4954   3504619.9256   1   7   0.0046   0.0109   0.0071  -0.0044  -0.0065   0.0017   0.00    3.8
2173 303591.000    728280.5479  -5271278.4922   3504619.9243   1   7   0.0047   0.0110   0.0069  -0.0042  -0.0066   0.0021   0.00    3.8
2173 303592.000    728280.5448  -5271278.4872   3504619.9221   1   7   0.0048   0.0110   0.0071  -0.0044  -0.0064  -0.0003   0.00    3.8
2173 303593.000    728280.5487  -5271278.4931   3504619.9265   1   7   0.0049   0.0109   0.0071  -0.0044  -0.0064   0.0017   0.00    3.8
2173 303594.000    728280.5448  -5271278.4837   3504619.9228   1   7   0.0050   0.0110   0.0072  -0.0044  -0.0064  -0.0006   0.00    3.8
