     2.11           OBSERVATION DATA    M (MIXED)           RINEX VERSION / TYPE
CONVBIN 2.4.3                           20210828 170335 UTC PGM / RUN BY / DATE 
log: logs/21_08_28_06_06_41_txda_SNTX.rtcm                  COMMENT             
format: RTCM 3, station ID: 3042                            COMMENT             
3042                                                        MARKER NAME         
                                                            MARKER NUMBER       
                                                            OBSERVER / AGENCY   
1707112             LEICA GR30          4.50                REC # / TYPE / VERS 
                    GPPNULLANTENNA                          ANT # / TYPE        
  -623595.6246 -5330169.5275  3435333.5519                  APPROX POSITION XYZ 
        0.0000        0.0000        0.0000                  ANTENNA: DELTA H/E/N
     1     1                                                WAVELENGTH FACT L1/2
     7    C1    L1    C2    L2    P2    C5    L5            # / TYPES OF OBSERV 
  2021     8    28     6     6   47.0000000     GPS         TIME OF FIRST OBS   
  2021     8    28     6    12   41.0000000     GPS         TIME OF LAST OBS    
                                                            END OF HEADER       
 21  8 28  6  6 47.0000000  0 18G 4G 7G 8G 9G16G27G30R 5R 7R 9R15R16
                                R17R18E 1E 4E19E21
  21354125.925   112216689.142    21354125.246    87441572.027    21354125.067  
  21354128.856    83798188.098  
  21730157.392   114192747.592    21730155.158    88981351.464    21730154.854  
                                
  20695035.126   108753143.775    20695036.126    84742710.249    20695035.447  
  20695034.589    81211760.132  
  20484556.994   107647073.025    20484556.690    83880833.939    20484556.422  
  20484556.690    80385800.268  
  23626585.238   124158542.941                    96746904.824    23626582.343  
                                
  21534686.684   113165542.144    21534686.613    88180940.005    21534686.130  
  21534686.059    84506733.081  
  24165999.846   126993186.178    24166000.650    98955730.146    24166000.025  
  24166000.632    94832576.279  
  22231018.672   118837535.419    22231019.440    92429197.265    22231019.512  
                                
  22385078.866   119829079.923    22385078.883    93200394.989    22385078.758  
                                
  22304847.506   119106641.358    22304848.310    92638501.793    22304848.310  
                                
  22261617.372   118959333.291    22261618.284    92523929.820    22261618.391  
                                
  20289981.507   108385439.560    20289981.024    84299783.538    20289982.186  
                                
  22134467.534   118446006.857    22134467.641    92124671.781    22134467.677  
                                
  21749337.858   116099441.958    21749340.234    90299576.319    21749340.252  
                                
  25144567.423   132135593.922                                                  
  25144569.603    98672691.574  
  26168318.629   137515442.853                                                  
  26168319.844   102690107.566  
  23588245.516   123957066.878                                                  
  23588246.409    92565344.704  
  23967382.618   125949446.364                                                  
  23967385.156    94053166.733  
 21  8 28  6  6 48.0000000  0 18G 4G 7G 8G 9G16G27G30R 5R 7R 9R15R16
                                R17R18E 1E 4E19E21
  21354607.585   112219220.304    21354606.906    87443544.360    21354606.709  
  21354610.515    83800078.259  
  21729806.623   114190904.269    21729804.389    88979915.110    21729804.085  
                                
  20694900.482   108752436.271    20694901.501    84742158.947    20694900.804  
  20694899.964    81211231.808  
  20484627.863   107647445.386    20484627.559    83881124.091    20484627.273  
  20484627.559    80386078.327  
  23627211.493   124161833.913                    96749469.218    23627208.598  
                                
  21534943.533   113166892.017    21534943.498    88181991.854    21534942.997  
  21534942.926    84507741.107  
  24165501.229   126990565.848    24165502.033    98953688.335    24165501.408  
  24165502.015    94830619.530  
  22231813.575   118841784.639    22231814.361    92432502.215    22231814.433  
                                
  22384561.271   119826309.306    22384561.307    93198240.067    22384561.200  
                                
  22304493.700   119104752.092    22304494.522    92637032.366    22304494.522  
                                
  22262023.982   118961506.068    22262024.893    92525619.758    22262024.983  
                                
  20289994.801   108385510.604    20289994.319    84299838.794    20289995.480  
                                
  22134545.800   118446425.607    22134545.890    92124997.469    22134545.925  
                                
  21748826.768   116096713.753    21748829.162    90297454.384    21748829.162  
                                
  25144366.843   132134539.935                                                  
  25144369.041    98671904.508  
  26167954.387   137513528.882                                                  
  26167955.620   102688678.313  
  23588427.654   123958024.031                                                  
  23588428.548    92566059.468  
  23967532.646   125950234.838                                                  
  23967535.184    94053755.534  
 21  8 28  6  6 49.0000000  0 18G 4G 7G 8G 9G16G27G30R 5R 7R 9R15R16
                                R17R18E 1E 4E19E21
  21355089.369   112221752.055    21355088.690    87445517.156    21355088.494  
  21355092.300    83801968.844  
  21729455.872   114189061.086    21729453.656    88978478.864    21729453.334  
                                
  20694766.000   108751729.541    20694767.019    84741608.256    20694766.322  
  20694765.482    81210704.059  
  20484698.856   107647818.468    20484698.535    83881414.802    20484698.284  
  20484698.535    80386356.933  
  23627837.749   124165124.991                    96752033.710    23627834.872  
                                
  21535200.561   113168242.676    21535200.508    88183044.323    21535200.025  
  21535199.936    84508749.714  
  24165002.594   126987945.565    24165003.398    98951646.546    24165002.773  
  24165003.380    94828662.836  
  22232608.550   118846034.176    22232609.336    92435807.415    22232609.390  
                                
  22384043.856   119823539.436    22384043.874    93196085.728    22384043.749  
                                
  22304139.947   119102863.061    22304140.733    92635563.118    22304140.769  
                                
  22262430.591   118963678.903    22262431.503    92527309.740    22262431.610  
                                
  20290008.149   108385581.922    20290007.667    84299894.262    20290008.828  
                                
  22134624.209   118446845.274    22134624.299    92125323.889    22134624.352  
                                
  21748315.803   116093986.144    21748318.180    90295332.920    21748318.198  
                                
  25144166.335   132133486.207                                                  
  25144168.533    98671117.631  
  26167590.270   137511615.323                                                  
  26167591.485   102687249.359  
  23588609.883   123958981.717                                                  
  23588610.794    92566774.623  
  23967682.728   125951023.509                                                  
  23967685.284    94054344.483  
 21  8 28  6  6 50.0000000  0 18G 4G 7G 8G 9G16G27G30R 5R 7R 9R15R16
                                R17R18E 1E 4E19E21
  21355571.207   112224284.229    21355570.528    87447490.278    21355570.350  
  21355574.156    83803859.757  
  21729105.138   114187217.994    21729102.923    88977042.691    21729102.601  
                                
  20694631.625   108751023.495    20694632.644    84741058.092    20694631.947  
  20694631.107    81210176.819  
  20484769.975   107648192.206    20484769.689    83881706.028    20484769.403  
  20484769.653    80386636.016  
  23628464.022   124168416.063                    96754598.180    23628461.128  
                                
  21535457.715   113169593.966    21535457.643    88184097.276    21535457.161  
  21535457.089    84509758.796  
  24164503.959   126985325.243    24164504.781    98949604.739    24164504.155  
  24164504.745    94826706.096  
  22233403.543   118850283.949    22233404.329    92439112.791    22233404.383  
                                
  22383526.530   119820770.215    22383526.548    93193931.894    22383526.441  
                                
  22303786.211   119100974.129    22303787.016    92634093.951    22303787.016  
                                
  22262837.201   118965851.719    22262838.130    92528999.708    22262838.220  
                                
  20290021.515   108385653.363    20290021.033    84299949.829    20290022.195  
                                
  22134702.780   118447265.752    22134702.887    92125650.933    22134702.923  
                                
  21747804.928   116091259.042    21747807.305    90293211.838    21747807.322  
                                
  25143965.844   132132432.646                                                  
  25143968.042    98670330.888  
  26167226.188   137509702.071                                                  
  26167227.403   102685820.630  
  23588792.236   123959939.832                                                  
  23588793.130    92567490.101  
  23967832.828   125951812.292                                                  
  23967835.383    94054933.511  
 21  8 28  6  6 51.0000000  0 18G 4G 7G 8G 9G16G27G30R 5R 7R 9R15R16
                                R17R18E 1E 4E19E21
  21356053.153   112226816.760    21356052.474    87449463.677    21356052.277  
  21356056.101    83805750.927  
  21728754.405   114185374.844    21728752.172    88975606.467    21728751.868  
                                
  20694497.393   108750318.031    20694498.412    84740508.379    20694497.733  
  20694496.875    81209650.005  
  20484841.183   107648566.451    20484840.879    83881997.646    20484840.611  
  20484840.879    80386915.486  
  23629090.260   124171707.011                    96757162.555    23629087.383  
                                
  21535714.957   113170945.793    21535714.886    88185150.652    21535714.403  
  21535714.332    84510768.279  
  24164005.288   126982704.754    24164006.110    98947562.795    24164005.467  
  24164006.092    94824749.241  
  22234198.572   118854533.770    22234199.358    92442418.205    22234199.411  
                                
  22383009.311   119818001.520    22383009.329    93191778.467    22383009.240  
                                
  22303432.476   119099085.194    22303433.280    92632624.779    22303433.280  
                                
  22263243.811   118968024.416    22263244.722    92530689.582    22263244.829  
                                
  20290034.899   108385724.824    20290034.417    84300005.413    20290035.578  
                                
  22134781.493   118447686.913    22134781.582    92125978.506    22134781.618  
                                
  21747294.124   116088532.386    21747296.536    90291091.106    21747296.536  
                                
  25143765.372   132131379.133                                                  
  25143767.570    98669544.171  
  26166862.143   137507789.022                                                  
  26166863.358   102684392.052  
  23588974.607   123960898.261                                                  
  23588975.501    92568205.802  
  23967982.928   125952601.078                                                  
  23967985.483    94055522.535  
 21  8 28  6  6 52.0000000  0 18G 4G 7G 8G 9G16G27G30R 5R 7R 9R15R16
                                R17R18E 1E 4E19E21
  21356535.152   112229349.817    21356534.473    87451437.488    21356534.294  
  21356538.100    83807642.504  
  21728403.690   114183531.863    21728401.474    88974170.378    21728401.152  
                                
  20694363.286   108749613.323    20694364.305    84739959.252    20694363.608  
  20694362.768    81209123.771  
  20484912.552   107648941.432    20484912.248    83882289.837    20484911.962  
  20484912.230    80387195.507  
  23629716.552   124174998.092                    96759727.031    23629713.639  
                                
  21535972.342   113172298.392    21535972.289    88186204.623    21535971.788  
  21535971.717    84511778.337  
  24163506.653   126980084.324    24163507.457    98945520.909    24163506.832  
  24163507.439    94822792.427  
  22234993.636   118858783.847    22234994.404    92445723.818    22234994.476  
                                
  22382492.235   119815233.530    22382492.253    93189625.586    22382492.128  
                                
  22303078.759   119097196.471    22303079.563    92631155.775    22303079.581  
                                
  22263650.402   118970197.209    22263651.332    92532379.527    22263651.421  
                                
  20290048.337   108385796.536    20290047.854    84300061.193    20290049.016  
                                
  22134860.366   118448109.022    22134860.456    92126306.817    22134860.492  
                                
  21746783.445   116085806.348    21746785.840    90288970.859    21746785.858  
                                
  25143564.953   132130325.883                                                  
  25143567.133    98668757.651  
  26166498.186   137505876.363                                                  
  26166499.384   102682963.774  
  23589157.086   123961857.210                                                  
  23589157.979    92568921.913  
  23968133.064   125953390.051                                                  
  23968135.619    94056111.703  
 21  8 28  6  6 53.0000000  0 18G 4G 7G 8G 9G16G27G30R 5R 7R 9R15R16
                                R17R18E 1E 4E19E21
  21357017.222   112231883.088    21357016.543    87453411.468    21357016.365  
  21357020.171    83809534.235  
  21728052.957   114181688.695    21728050.741    88972734.144    21728050.419  
                                
  20694229.268   108748909.055    20694230.287    84739410.474    20694229.572  
  20694228.732    81208597.861  
  20484983.992   107649316.804    20484983.671    83882582.334    20484983.385  
  20484983.671    80387475.817  
  23630342.771   124178288.891                    96762291.283    23630339.877  
                                
  21536229.799   113173651.396    21536229.764    88187258.914    21536229.263  
  21536229.174    84512788.690  
  24163007.928   126977463.603    24163008.733    98943478.786    24163008.125  
  24163008.715    94820835.395  
  22235788.700   118863033.847    22235789.469    92449029.374    22235789.540  
                                
  22381975.213   119812465.911    22381975.231    93187472.996    22381975.106  
                                
  22302725.060   119095307.604    22302725.846    92629686.652    22302725.846  
                                
  22264056.976   118972369.733    22264057.888    92534069.268    22264057.995  
                                
  20290061.739   108385868.201    20290061.256    84300116.930    20290062.418  
                                
  22134939.365   118448531.729    22134939.437    92126635.591    22134939.491  
                                
  21746272.838   116083080.623    21746275.215    90286850.855    21746275.232  
                                
  25143364.498   132129272.545                                                  
  25143366.696    98667971.072  
  26166134.230   137503963.778                                                  
  26166135.427   102681535.547  
  23589339.600   123962816.340                                                  
  23589340.494    92569638.136  
  23968283.181   125954178.895                                                  
  23968285.719    94056700.775  
 21  8 28  6  6 54.0000000  0 18G 4G 7G 8G 9G16G27G30R 5R 7R 9R15R16
                                R17R18E 1E 4E19E21
  21357499.382   112234416.791    21357498.703    87455385.777    21357498.507  
  21357502.331    83811426.272  
  21727702.224   114179845.583    21727700.008    88971297.952    21727699.686  
                                
  20694095.376   108748205.421    20694096.376    84738862.190    20694095.697  
  20694094.858    81208072.414  
  20485055.540   107649692.800    20485055.236    83882875.319    20485054.950  
  20485055.236    80387756.585  
  23630968.991   124181579.684                    96764855.542    23630966.079  
                                
  21536487.381   113175004.998    21536487.345    88188313.658    21536486.845  
  21536486.756    84513799.493  
  24162509.240   126974842.833    24162510.044    98941436.625    24162509.418  
  24162510.026    94818878.311  
  22236583.747   118867284.026    22236584.551    92452335.075    22236584.604  
                                
  22381458.316   119809698.893    22381458.316    93185320.863    22381458.208  
                                
  22302371.342   119093418.780    22302372.146    92628217.570    22302372.146  
                                
  22264463.514   118974542.179    22264464.444    92535758.953    22264464.533  
                                
  20290075.176   108385940.023    20290074.712    84300172.792    20290075.855  
                                
  22135018.507   118448955.278    22135018.597    92126965.005    22135018.615  
                                
  21745762.302   116080355.396    21745764.697    90284731.241    21745764.697  
                                
  25143164.079   132128219.336                                                  
  25143166.259    98667184.580  
  26165770.328   137502051.474                                                  
  26165771.525   102680107.517  
  23589522.204   123963775.875                                                  
  23589523.097    92570354.676  
  23968433.299   125954967.807                                                  
  23968435.854    94057289.889  
 21  8 28  6  6 55.0000000  0 18G 4G 7G 8G 9G16G27G30R 5R 7R 9R15R16
                                R17R18E 1E 4E19E21
  21357981.649   112236951.136    21357980.970    87457360.591    21357980.792  
  21357984.616    83813318.803  
  21727351.544   114178002.726    21727349.310    88969861.955    21727349.007  
                                
  20693961.626   108747502.639    20693962.645    84738314.565    20693961.948  
  20693961.108    81207547.613  
  20485127.230   107650069.607    20485126.909    83883168.932    20485126.658  
  20485126.909    80388037.975  
  23631595.229   124184870.665                    96767419.943    23631592.352  
                                
  21536745.124   113176359.478    21536745.088    88189369.099    21536744.588  
  21536744.516    84514810.953  
  24162010.533   126972222.177    24162011.337    98939394.546    24162010.694  
  24162011.319    94816921.336  
  22237378.918   118871534.596    22237379.704    92455641.079    22237379.776  
                                
  22380941.543   119806932.699    22380941.561    93183169.382    22380941.454  
                                
  22302017.696   119091530.301    22302018.483    92626748.751    22302018.483  
                                
  22264870.088   118976714.807    22264871.018    92537448.775    22264871.107  
                                
  20290088.721   108386012.213    20290088.221    84300228.939    20290089.364  
                                
  22135097.828   118449379.786    22135097.917    92127295.178    22135097.953  
                                
  21745251.909   116077630.887    21745254.304    90282612.183    21745254.321  
                                
  25142963.732   132127166.482                                                  
  25142965.930    98666398.358  
  26165406.514   137500139.660                                                  
  26165407.729   102678679.866  
  23589704.914   123964736.021                                                  
  23589705.826    92571071.670  
  23968583.470   125955757.018                                                  
  23968586.043    94057879.235  
 21  8 28  6  6 56.0000000  0 18G 4G 7G 8G 9G16G27G30R 5R 7R 9R15R16
                                R17R18E 1E 4E19E21
  21358463.970   112239485.719    21358463.291    87459335.591    21358463.094  
  21358466.918    83815211.509  
  21727000.829   114176159.707    21726998.595    88968425.837    21726998.291  
                                
  20693827.984   108746800.296    20693829.002    84737767.290    20693828.305  
  20693827.465    81207023.134  
  20485199.010   107650446.842    20485198.724    83883462.881    20485198.438  
  20485198.724    80388319.666  
  23632221.449   124188161.438                    96769984.186    23632218.554  
                                
  21537002.974   113177714.401    21537002.920    88190424.885    21537002.438  
  21537002.349    84515822.744  
  24161511.809   126969601.280    24161512.595    98937352.287    24161511.987  
  24161512.577    94814964.168  
  22238174.072   118875785.178    22238174.858    92458947.089    22238174.912  
                                
  22380424.896   119804166.946    22380424.896    93181018.243    22380424.789  
                                
  22301664.015   119089641.735    22301664.819    92625279.869    22301664.819  
                                
  22265276.644   118978887.203    22265277.556    92539138.411    22265277.663  
                                
  20290102.194   108386084.345    20290101.712    84300285.040    20290102.873  
                                
  22135177.274   118449804.865    22135177.345    92127625.797    22135177.399  
                                
  21744741.570   116074906.700    21744743.964    90280493.371    21744743.982  
                                
  25142763.366   132126113.573                                                  
  25142765.546    98665612.093  
  26165042.737   137498227.946                                                  
  26165043.934   102677252.286  
  23589887.661   123965696.378                                                  
  23589888.554    92571788.811  
  23968733.659   125956546.112                                                  
  23968736.197    94058468.496  
 21  8 28  6  6 57.0000000  0 18G 4G 7G 8G 9G16G27G30R 5R 7R 9R15R16
                                R17R18E 1E 4E19E21
  21358946.326   112242020.601    21358945.647    87461310.821    21358945.469  
  21358949.293    83817104.438  
  21726650.095   114174316.609    21726647.862    88966989.657    21726647.558  
                                
  20693694.431   108746098.449    20693695.449    84737220.396    20693694.734  
  20693693.895    81206499.030  
  20485270.897   107650824.556    20485270.593    83883757.203    20485270.325  
  20485270.576    80388601.729  
  23632847.615   124191452.043                    96772548.303    23632844.721  
                                
  21537260.896   113179069.814    21537260.842    88191481.046    21537260.359  
  21537260.288    84516834.903  
  24161013.031   126966980.187    24161013.817    98935309.879    24161013.209  
  24161013.799    94813006.859  
  22238969.225   118880035.768    22238970.012    92462253.104    22238970.065  
                                
  22379908.303   119801401.697    22379908.303    93178867.496    22379908.214  
                                
  22301310.351   119087753.128    22301311.137    92623810.955    22301311.137  
                                
  22265683.147   118981059.447    22265684.058    92540827.929    22265684.165  
                                
  20290115.703   108386156.454    20290115.221    84300341.125    20290116.364  
                                
  22135256.844   118450230.643    22135256.934    92127956.958    22135256.969  
                                
  21744231.302   116072182.882    21744233.697    90278374.848    21744233.714  
                                
  25142563.019   132125060.681                                                  
  25142565.199    98664825.838  
  26164678.977   137496316.379                                                  
  26164680.174   102675824.812  
  23590070.443   123966657.008                                                  
  23590071.372    92572506.169  
  23968883.795   125957335.165                                                  
  23968886.350    94059057.723  
 21  8 28  6  6 58.0000000  0 18G 4G 7G 8G 9G16G27G30R 5R 7R 9R15R16
                                R17R18E 1E 4E19E21
  21359428.790   112244555.882    21359428.111    87463286.365    21359427.914  
  21359431.738    83818997.672  
  21726299.362   114172473.532    21726297.147    88965553.490    21726296.825  
                                
  20693560.985   108745397.245    20693562.003    84736674.004    20693561.324  
  20693560.484    81205975.399  
  20485342.874   107651202.862    20485342.588    83884051.987    20485342.302  
  20485342.588    80388884.228  
  23633473.782   124194742.607                    96775112.375    23633470.905  
                                
  21537518.942   113180425.825    21537518.888    88192537.681    21537518.406  
  21537518.317    84517847.511  
  24160514.199   126964358.988    24160515.021    98933267.379    24160514.396  
  24160515.003    94811049.474  
  22239764.415   118884286.496    22239765.201    92465559.229    22239765.273  
                                
  22379391.852   119798637.061    22379391.852    93176717.224    22379391.745  
                                
  22300956.670   119085864.599    22300957.474    92622342.099    22300957.492  
                                
  22266089.649   118983231.633    22266090.560    92542517.410    22266090.668  
                                
  20290129.212   108386228.641    20290128.747    84300397.272    20290129.891  
                                
  22135336.558   118450657.226    22135336.647    92128288.742    22135336.683  
                                
  21743721.106   116069459.509    21743723.518    90276256.674    21743723.536  
                                
  25142362.671   132124007.886                                                  
  25142364.869    98664039.666  
  26164315.253   137494405.073                                                  
  26164316.468   102674397.540  
  23590253.333   123967618.013                                                  
  23590254.226    92573223.805  
  23969033.948   125958124.270                                                  
  23969036.503    94059646.992  
 21  8 28  6  6 59.0000000  0 18G 4G 7G 8G 9G16G27G30R 5R 7R 9R15R16
                                R17R18E 1E 4E19E21
  21359911.325   112247091.536    21359910.646    87465262.197    21359910.432  
  21359914.256    83820891.177  
  21725948.629   114170630.435    21725946.413    88964117.315    21725946.092  
                                
  20693427.646   108744696.631    20693428.682    84736128.068    20693427.986  
  20693427.146    81205452.211  
  20485414.975   107651581.705    20485414.671    83884347.190    20485414.385  
  20485414.671    80389167.135  
  23634099.966   124198033.128                    96777676.392    23634097.071  
                                
  21537777.096   113181782.432    21537777.024    88193594.775    21537776.542  
  21537776.470    84518860.560  
  24160015.385   126961737.654    24160016.207    98931224.802    24160015.564  
  24160016.189    94809092.002  
  22240559.622   118888537.359    22240560.408    92468865.425    22240560.462  
                                
  22378875.491   119795872.948    22378875.491    93174567.342    22378875.402  
                                
  22300603.024   119083976.117    22300603.828    92620873.284    22300603.846  
                                
  22266496.098   118985403.704    22266497.045    92544206.796    22266497.152  
                                
  20290142.757   108386300.908    20290142.274    84300453.477    20290143.436  
                                
  22135416.415   118451084.516    22135416.504    92128621.076    22135416.540  
                                
  21743211.017   116066736.607    21743213.411    90274138.844    21743213.429  
                                
  25142162.342   132122955.176                                                  
  25142164.522    98663253.565  
  26163951.583   137492493.978                                                  
  26163952.780   102672970.439  
  23590436.276   123968579.359                                                  
  23590437.187    92573941.696  
  23969184.119   125958913.393                                                  
  23969186.675    94060236.284  
 21  8 28  6  7  0.0000000  0 18G 4G 7G 8G 9G16G27G30R 5R 7R 9R15R16
                                R17R18E 1E 4E19E21
  21360393.932   112249627.757    21360393.253    87467238.473    21360393.056  
  21360396.898    83822785.106  
  21725597.950   114168787.525    21725595.734    88962681.279    21725595.412  
                                
  20693294.486   108743996.800    20693295.505    84735582.743    20693294.826  
  20693293.986    81204929.608  
  20485487.202   107651961.308    20485486.898    83884642.985    20485486.630  
  20485486.898    80389450.603  
  23634726.150   124201323.721                    96780240.488    23634723.255  
                                
  21538035.375   113183139.785    21538035.339    88194652.457    21538034.856  
  21538034.749    84519874.174  
  24159516.589   126959116.414    24159517.393    98929182.282    24159516.768  
  24159517.393    94807134.582  
  22241354.901   118892788.541    22241355.687    92472171.897    22241355.741  
                                
  22378359.273   119793109.562    22378359.273    93172418.041    22378359.184  
                                
  22300249.414   119082087.850    22300250.236    92619404.632    22300250.236  
                                
  22266902.583   118987575.855    22266903.530    92545896.245    22266903.637  
                                
  20290156.337   108386373.470    20290155.837    84300509.915    20290156.998  
                                
  22135496.432   118451512.747    22135496.522    92128954.150    22135496.557  
                                
  21742701.053   116064014.366    21742703.429    90272021.548    21742703.447  
                                
  25141962.066   132121902.739                                                  
  25141964.246    98662467.652  
  26163588.002   137490583.324                                                  
  26163589.217   102671543.639  
  23590619.326   123969541.263                                                  
  23590620.237    92574659.994  
  23969334.326   125959702.733                                                  
  23969336.882    94060825.722  
 21  8 28  6  7  1.0000000  0 18G 4G 7G 8G 9G16G27G30R 5R 7R 9R15R16
                                R17R18E 1E 4E19E21
  21360876.645   112252164.423    21360875.966    87469215.096    21360875.788  
  21360879.594    83824679.370  
  21725247.252   114166944.679    21725245.036    88961245.296    21725244.715  
                                
  20693161.451   108743297.618    20693162.470    84735037.924    20693161.773  
  20693160.933    81204407.495  
  20485559.571   107652341.545    20485559.268    83884939.273    20485558.982  
  20485559.250    80389734.546  
  23635352.334   124204614.353                    96782804.617    23635349.457  
                                
  21538293.797   113184497.801    21538293.761    88195710.649    21538293.260  
  21538293.189    84520888.274  
  24159017.758   126956495.080    24159018.562    98927139.684    24159017.919  
  24159018.544    94805177.117  
  22242150.197   118897039.875    22242150.984    92475478.486    22242151.055  
                                
  22377843.162   119790346.777    22377843.162    93170269.211    22377843.055  
                                
  22299895.821   119080199.657    22299896.626    92617936.038    22299896.643  
                                
  22267309.067   118989747.973    22267310.014    92547585.674    22267310.121  
                                
  20290169.953   108386446.214    20290169.471    84300566.496    20290170.632  
                                
  22135576.628   118451941.819    22135576.700    92129287.872    22135576.736  
                                
  21742191.196   116061292.683    21742193.572    90269904.679    21742193.590  
                                
  25141761.825   132120850.461                                                  
  25141764.023    98661681.864  
  26163224.474   137488672.963                                                  
  26163225.671   102670117.079  
  23590802.448   123970503.562                                                  
  23590803.341    92575378.589  
  23969484.551   125960492.179                                                  
  23969487.124    94061415.243  
 21  8 28  6  7  2.0000000  0 18G 4G 7G 8G 9G16G27G30R 5R 7R 9R15R16
                                R17R18E 1E 4E19E21
  21361359.502   112254701.782    21361358.823    87471192.261    21361358.627  
  21361362.468    83826574.151  
  21724896.626   114165102.130    21724894.410    88959809.548    21724894.107  
                                
  20693028.559   108742599.351    20693029.578    84734493.820    20693028.899  
  20693028.059    81203886.058  
  20485632.084   107652722.651    20485631.798    83885236.239    20485631.512  
  20485631.780    80390019.140  
  23635978.554   124207905.190                    96785368.908    23635975.677  
                                
  21538552.397   113185856.700    21538552.343    88196769.536    21538551.843  
  21538551.772    84521903.041  
  24158518.998   126953874.013    24158519.802    98925097.296    24158519.176  
  24158519.784    94803219.800  
  22242945.601   118901291.651    22242946.370    92478785.420    22242946.441  
                                
  22377327.212   119787584.876    22377327.212    93168121.061    22377327.105  
                                
  22299542.301   119078311.843    22299543.105    92616467.731    22299543.105  
                                
  22267715.623   118991920.345    22267716.534    92549275.297    22267716.642  
                                
  20290183.641   108386519.352    20290183.159    84300623.381    20290184.320  
                                
  22135657.003   118452371.957    22135657.075    92129622.426    22135657.110  
                                
  21741681.482   116058571.784    21741683.858    90267788.426    21741683.876  
                                
  25141561.675   132119798.584                                                  
  25141563.855    98660896.367  
  26162861.036   137486763.147                                                  
  26162862.251   102668690.916  
  23590985.677   123971466.542                                                  
  23590986.606    92576097.700  
  23969634.830   125961281.957                                                  
  23969637.403    94062005.014  
 21  8 28  6  7  3.0000000  0 18G 4G 7G 8G 9G16G27G30R 5R 7R 9R15R16
                                R17R18E 1E 4E19E21
  21361842.395   112257239.443    21361841.716    87473169.659    21361841.519  
  21361845.361    83828469.160  
  21724546.000   114163259.514    21724543.766    88958373.745    21724543.463  
                                
  20692895.792   108741901.607    20692896.811    84733950.123    20692896.114  
  20692895.292    81203365.015  
  20485704.721   107653104.249    20485704.400    83885533.584    20485704.114  
  20485704.400    80390304.098  
  23636604.756   124211195.889                    96787933.087    23636601.879  
                                
  21538811.069   113187216.121    21538811.033    88197828.823    21538810.533  
  21538810.461    84522918.189  
  24158020.184   126951252.734    24158021.006    98923054.742    24158020.362  
  24158020.988    94801262.350  
  22243740.969   118905543.456    22243741.773    92482092.378    22243741.827  
                                
  22376811.369   119784823.489    22376811.369    93165973.316    22376811.262  
                                
  22299188.780   119076424.006    22299189.566    92614999.413    22299189.602  
                                
  22268122.108   118994092.576    22268123.055    92550964.810    22268123.144  
                                
  20290197.329   108386592.484    20290196.846    84300680.261    20290197.990  
                                
  22135737.503   118452802.752    22135737.593    92129957.492    22135737.610  
                                
  21741171.822   116055851.251    21741174.216    90265672.452    21741174.216  
                                
  25141361.506   132118746.722                                                  
  25141363.686    98660110.882  
  26162497.652   137484853.496                                                  
  26162498.849   102667264.880  
  23591168.977   123972429.787                                                  
  23591169.888    92576817.008  
  23969785.126   125962071.699                                                  
  23969787.681    94062594.754  
 21  8 28  6  7  4.0000000  0 18G 4G 7G 8G 9G16G27G30R 5R 7R 9R15R16
                                R17R18E 1E 4E19E21
  21362325.376   112259777.585    21362324.697    87475147.430    21362324.519  
  21362328.343    83830364.521  
  21724195.392   114161416.997    21724193.141    88956938.008    21724192.837  
                                
  20692763.133   108741204.564    20692764.151    84733406.975    20692763.472  
  20692762.650    81202844.505  
  20485777.448   107653486.502    20485777.162    83885831.445    20485776.876  
  20485777.145    80390589.542  
  23637230.958   124214486.636                    96790497.307    23637228.081  
                                
  21539069.902   113188576.209    21539069.848    88198888.629    21539069.366  
  21539069.276    84523933.828  
  24157521.370   126948631.397    24157522.174    98921012.139    24157521.549  
  24157522.138    94799304.860  
  22244536.409   118909795.450    22244537.195    92485399.475    22244537.267  
                                
  22376295.651   119782062.805    22376295.651    93163826.112    22376295.544  
                                
  22298835.259   119074536.296    22298836.063    92613531.206    22298836.081  
                                
  22268528.610   118996264.799    22268529.557    92552654.317    22268529.646  
                                
  20290211.052   108386665.780    20290210.570    84300737.267    20290211.731  
                                
  22135818.164   118453234.387    22135818.235    92130293.201    22135818.289  
                                
  21740662.286   116053131.231    21740664.663    90263556.886    21740664.681  
                                
  25141161.373   132117695.034                                                  
  25141163.553    98659325.541  
  26162134.339   137482944.174                                                  
  26162135.536   102665839.085  
  23591352.367   123973393.492                                                  
  23591353.296    92577536.658  
  23969935.423   125962861.573                                                  
  23969937.996    94063184.593  
 21  8 28  6  7  5.0000000  0 18G 4G 7G 8G 9G16G27G30R 5R 7R 9R15R16
                                R17R18E 1E 4E19E21
  21362808.430   112262315.977    21362807.751    87477125.405    21362807.572  
  21362811.378    83832260.076  
  21723844.730   114159574.334    21723842.497    88955502.165    21723842.193  
                                
  20692630.580   108740507.996    20692631.599    84732864.197    20692630.920  
  20692630.080    81202324.336  
  20485850.282   107653869.204    20485849.961    83886129.655    20485849.693  
  20485849.961    80390875.326  
  23637857.124   124217777.127                    96793061.321    23637854.248  
                                
  21539328.806   113189936.757    21539328.752    88199948.797    21539328.270  
  21539328.181    84524949.824  
  24157022.485   126946009.838    24157023.289    98918969.370    24157022.663  
  24157023.289    94797347.209  
  22245331.848   118914047.459    22245332.617    92488706.590    22245332.706  
                                
  22375780.005   119779302.551    22375780.005    93161679.251    22375779.915  
                                
  22298481.738   119072648.491    22298482.525    92612062.918    22298482.543  
                                
  22268935.077   118998436.783    22268936.006    92554343.638    22268936.095  
                                
  20290224.758   108386739.026    20290224.275    84300794.236    20290225.437  
                                
  22135898.968   118453666.662    22135899.021    92130629.419    22135899.057  
                                
  21740152.787   116050411.548    21740155.181    90261441.572    21740155.181  
                                
  25140961.222   132116643.316                                                  
  25140963.420    98658540.171  
  26161770.990   137481034.957                                                  
  26161772.205   102664413.376  
  23591535.792   123974357.423                                                  
  23591536.686    92578256.471  
  23970085.737   125963651.345                                                  
  23970088.292    94063774.360  
 21  8 28  6  7  6.0000000  0 18G 4G 7G 8G 9G16G27G30R 5R 7R 9R15R16
                                R17R18E 1E 4E19E21
  21363291.608   112264855.097    21363290.929    87479103.937    21363290.733  
  21363294.556    83834156.176  
  21723494.140   114157732.025    21723491.924    88954066.602    21723491.603  
                                
  20692498.207   108739812.347    20692499.225    84732322.135    20692498.546  
  20692497.724    81201804.865  
  20485923.277   107654252.810    20485922.956    83886428.568    20485922.688  
  20485922.956    80391161.789  
  23638483.362   124221067.952                    96795625.605    23638480.467  
                                
  21539587.871   113191298.244    21539587.835    88201009.691    21539587.353  
  21539587.264    84525966.519  
  24156523.671   126943388.512    24156524.475    98916926.781    24156523.850  
  24156524.457    94795389.728  
  22246127.360   118918299.951    22246128.128    92492014.082    22246128.217  
                                
  22375264.555   119776543.215    22375264.555    93159533.098    22375264.430  
                                
  22298128.271   119070761.095    22298129.075    92610594.950    22298129.093  
                                
  22269341.561   119000609.020    22269342.508    92556033.158    22269342.598  
                                
  20290238.571   108386812.727    20290238.070    84300851.562    20290239.232  
                                
  22135979.932   118454100.066    22135980.022    92130966.511    22135980.057  
                                
  21739643.448   116047692.667    21739645.843    90259326.887    21739645.861  
                                
  25140761.196   132115592.047                                                  
  25140763.376    98657755.128  
  26161407.802   137479126.336                                                  
  26161408.999   102662988.107  
  23591719.361   123975322.064                                                  
  23591720.272    92578976.826  
  23970236.087   125964441.515                                                  
  23970238.642    94064364.418  
 21  8 28  6  7  7.0000000  0 18G 4G 7G 8G 9G16G27G30R 5R 7R 9R15R16
                                R17R18E 1E 4E19E21
  21363774.912   112267394.832    21363774.233    87481082.952    21363774.018  
  21363777.860    83836052.725  
  21723143.621   114155889.931    21723141.370    88952631.202    21723141.084  
                                
  20692365.994   108739117.531    20692367.012    84731780.718    20692366.315  
  20692365.494    81201286.004  
  20485996.433   107654637.208    20485996.112    83886728.097    20485995.826  
  20485996.112    80391448.840  
  23639109.600   124224358.910                    96798189.988    23639106.723  
                                
  21539847.115   113192660.527    21539847.061    88202071.210    21539846.579  
  21539846.507    84526983.810  
  24156024.875   126940767.305    24156025.679    98914884.289    24156025.054  
  24156025.661    94793432.328  
  22246922.924   118922552.810    22246923.728    92495321.859    22246923.782  
                                
  22374749.212   119773784.636    22374749.212    93157387.536    22374749.123  
                                
  22297774.893   119068873.955    22297775.680    92609127.177    22297775.680  
                                
  22269748.117   119002781.428    22269749.029    92557722.806    22269749.136  
                                
  20290252.419   108386886.748    20290251.919    84300909.131    20290253.080  
                                
  22136061.111   118454534.447    22136061.183    92131304.365    22136061.218  
                                
  21739134.253   116044974.483    21739136.647    90257212.744    21739136.647  
                                
  25140561.188   132114541.083                                                  
  25140563.368    98656970.318  
  26161044.686   137477218.170                                                  
  26161045.883   102661563.173  
  23591903.036   123976287.278                                                  
  23591903.948    92579697.602  
  23970386.508   125965231.927                                                  
  23970389.063    94064954.663  
 21  8 28  6  7  8.0000000  0 18G 4G 7G 8G 9G16G27G30R 5R 7R 9R15R16
                                R17R18E 1E 4E19E21
  21364258.322   112269935.208    21364257.643    87483062.465    21364257.447  
  21364261.289    83837949.763  
  21722793.120   114154048.110    21722790.887    88951196.021    21722790.583  
                                
  20692233.924   108738423.587    20692234.978    84731239.982    20692234.263  
  20692233.459    81200767.797  
  20486069.750   107655022.460    20486069.428    83887028.296    20486069.142  
  20486069.428    80391736.521  
  23639735.891   124227650.090                    96800754.549    23639732.997  
                                
  21540106.502   113194023.675    21540106.466    88203133.406    21540105.983  
  21540105.894    84528001.745  
  24155526.097   126938146.244    24155526.901    98912841.901    24155526.276  
  24155526.883    94791475.044  
  22247718.596   118926806.055    22247719.382    92498629.940    22247719.472  
                                
  22374234.066   119771026.905    22374234.048    93155242.634    22374233.941  
                                
  22297421.534   119066987.137    22297422.338    92607659.656    22297422.356  
                                
  22270154.691   119004954.077    22270155.620    92559412.644    22270155.710  
                                
  20290266.357   108386961.157    20290265.856    84300967.005    20290267.018  
                                
  22136142.469   118454969.838    22136142.558    92131643.003    22136142.594  
                                
  21738625.182   116042257.071    21738627.559    90255099.201    21738627.576  
                                
  25140361.269   132113490.483                                                  
  25140363.467    98656185.779  
  26160681.676   137475310.520                                                  
  26160682.874   102660138.632  
  23592086.837   123977253.116                                                  
  23592087.749    92580418.845  
  23970536.965   125966022.646                                                  
  23970539.521    94065545.137  
 21  8 28  6  7  9.0000000  0 18G 4G 7G 8G 9G16G27G30R 5R 7R 9R15R16
                                R17R18E 1E 4E19E21
  21364741.804   112272475.927    21364741.125    87485042.241    21364740.947  
  21364744.771    83839847.045  
  21722442.620   114152206.216    21722440.404    88949760.781    21722440.082  
                                
  20692101.979   108737730.180    20692102.998    84730699.667    20692102.301  
  20692101.479    81200250.006  
  20486143.138   107655408.196    20486142.834    83887328.869    20486142.548  
  20486142.834    80392024.576  
  23640362.147   124230941.092                    96803318.954    23640359.270  
                                
  21540366.013   113195387.322    21540365.960    88204195.995    21540365.477  
  21540365.406    84529020.068  
  24155027.283   126935525.021    24155028.087    98910799.390    24155027.462  
  24155028.070    94789517.642  
  22248514.250   118931059.329    22248515.054    92501938.045    22248515.126  
                                
  22373718.974   119768269.632    22373718.974    93153098.088    22373718.867  
                                
  22297068.209   119065100.328    22297069.013    92606192.131    22297069.031  
                                
  22270561.247   119007126.557    22270562.158    92561102.344    22270562.266  
                                
  20290280.277   108387035.583    20290279.794    84301024.892    20290280.956  
                                
  22136223.970   118455405.910    22136224.023    92131982.173    22136224.077  
                                
  21738116.183   116039540.044    21738118.577    90252985.960    21738118.577  
                                
  25140161.351   132112439.915                                                  
  25140163.549    98655401.259  
  26160318.703   137473403.044                                                  
  26160319.900   102658714.209  
  23592270.674   123978219.260                                                  
  23592271.603    92581140.314  
  23970687.422   125966813.345                                                  
  23970689.978    94066135.590  
 21  8 28  6  7 10.0000000  0 18G 4G 7G 8G 9G16G27G30R 5R 7R 9R15R16
                                R17R18E 1E 4E19E21
  21365225.394   112275017.276    21365224.715    87487022.509    21365224.536  
  21365228.378    83841744.806  
  21722092.172   114150364.585    21722089.957    88948325.744    21722089.635  
                                
  20691970.195   108737037.662    20691971.214    84730160.045    20691970.517  
  20691969.713    81199732.868  
  20486216.687   107655794.778    20486216.401    83887630.099    20486216.115  
  20486216.401    80392313.261  
  23640988.456   124234232.313                    96805883.547    23640985.579  
                                
  21540625.668   113196751.855    21540625.633    88205259.267    21540625.150  
  21540625.043    84530039.029  
  24154528.487   126932903.916    24154529.291    98908756.973    24154528.666  
  24154529.274    94787560.345  
  22249310.011   118935313.036    22249310.797    92505246.481    22249310.869  
                                
  22373204.060   119765513.219    22373204.042    93150954.212    22373203.935  
                                
  22296714.921   119063213.811    22296715.707    92604724.838    22296715.743  
                                
  22270967.839   119009299.209    22270968.750    92562792.187    22270968.857  
                                
  20290294.286   108387110.386    20290293.804    84301083.074    20290294.947  
                                
  22136305.649   118455843.005    22136305.702    92132322.133    22136305.774  
                                
  21737607.327   116036823.747    21737609.721    90250873.287    21737609.721  
                                
  25139961.486   132111389.702                                                  
  25139963.701    98654617.012  
  26159955.837   137471496.078                                                  
  26159957.016   102657290.176  
  23592454.653   123979186.014                                                  
  23592455.547    92581862.239  
  23970837.951   125967604.340                                                  
  23970840.506    94066726.266  
 21  8 28  6  7 11.0000000  0 18G 4G 7G 8G 9G16G27G30R 5R 7R 9R15R16
                                R17R18E 1E 4E19E21
  21365709.108   112277559.084    21365708.429    87489003.139    21365708.215  
  21365712.057    83843642.907  
  21721741.743   114148523.031    21721739.509    88946890.762    21721739.205  
                                
  20691838.554   108736345.825    20691839.572    84729620.951    20691838.876  
  20691838.054    81199216.234  
  20486290.396   107656181.990    20486290.075    83887931.823    20486289.789  
  20486290.075    80392602.408  
  23641614.748   124237523.538                    96808448.140    23641611.853  
                                
  21540885.448   113198117.028    21540885.412    88206323.041    21540884.930  
  21540884.841    84531058.478  
  24154029.709   126930282.799    24154030.513    98906714.549    24154029.888  
  24154030.496    94785603.011  
  22250105.790   118939566.911    22250106.577    92508555.046    22250106.648  
                                
  22372689.236   119762757.458    22372689.236    93148810.845    22372689.146  
                                
  22296361.668   119061327.435    22296362.472    92603257.656    22296362.490  
                                
  22271374.395   119011471.813    22271375.324    92564481.985    22271375.431  
                                
  20290308.313   108387185.361    20290307.831    84301141.388    20290308.974  
                                
  22136387.489   118456280.939    22136387.560    92132662.748    22136387.614  
                                
  21737098.560   116034107.966    21737100.972    90248761.020    21737100.972  
                                
  25139761.674   132110339.654                                                  
  25139763.872    98653832.878  
  26159592.988   137469589.408                                                  
  26159594.203   102655866.360  
  23592638.704   123980153.208                                                  
  23592639.615    92582584.492  
  23970988.480   125968395.438                                                  
  23970991.035    94067317.016  
 21  8 28  6  7 12.0000000  0 18G 4G 7G 8G 9G16G27G30R 5R 7R 9R15R16
                                R17R18E 1E 4E19E21
  21366192.841   112280101.200    21366192.162    87490984.010    21366191.983  
  21366195.825    83845541.240  
  21721391.278   114146681.406    21721389.062    88945455.734    21721388.758  
                                
  20691706.984   108735654.513    20691708.003    84729082.266    20691707.324  
  20691706.502    81198699.995  
  20486364.160   107656569.704    20486363.856    83888233.940    20486363.588  
  20486363.856    80392891.933  
  23642241.021   124240814.645                    96811012.641    23642238.144  
                                
  21541145.335   113199482.717    21541145.282    88207387.214    21541144.799  
  21541144.728    84532078.318  
  24153530.913   126927661.521    24153531.718    98904671.999    24153531.110  
  24153531.700    94783645.548  
  22250901.569   118943820.868    22250902.373    92511863.677    22250902.427  
                                
  22372174.554   119760002.205    22372174.536    93146667.873    22372174.429  
                                
  22296008.398   119059441.007    22296009.202    92601790.437    22296009.220  
                                
  22271780.933   119013644.242    22271781.880    92566171.652    22271781.969  
                                
  20290322.358   108387260.337    20290321.858    84301199.705    20290323.020  
                                
  22136469.472   118456719.581    22136469.526    92133003.912    22136469.561  
                                
  21736589.882   116031392.582    21736592.259    90246649.054    21736592.295  
                                
  25139561.863   132109289.626                                                  
  25139564.061    98653048.771  
  26159230.194   137467682.915                                                  
  26159231.391   102654442.688  
  23592822.809   123981120.687                                                  
  23592823.720    92583306.962  
  23971139.026   125969186.504                                                  
  23971141.582    94067907.751  
 21  8 28  6  7 13.0000000  0 18G 4G 7G 8G 9G16G27G30R 5R 7R 9R15R16
                                R17R18E 1E 4E19E21
  21366676.680   112282643.723    21366676.001    87492965.195    21366675.804  
  21366679.646    83847439.877  
  21721040.830   114144839.808    21721038.615    88944020.720    21721038.311  
                                
  20691575.558   108734963.817    20691576.576    84728544.064    20691575.879  
  20691575.093    81198184.213  
  20486438.066   107656958.002    20486437.744    83888536.507    20486437.459  
  20486437.744    80393181.896  
  23642867.295   124244105.682                    96813577.078    23642864.418  
                                
  21541405.329   113200849.026    21541405.294    88208451.875    21541404.811  
  21541404.704    84533098.602  
  24153032.064   126925040.111    24153032.868    98902629.341    24153032.243  
  24153032.850    94781688.012  
  22251697.384   118948074.937    22251698.188    92515172.395    22251698.260  
                                
  22371659.962   119757247.562    22371659.944    93144525.373    22371659.837  
                                
  22295655.127   119057554.619    22295655.949    92600323.246    22295655.949  
                                
  22272187.453   119015816.614    22272188.400    92567861.272    22272188.508  
                                
  20290336.421   108387335.411    20290335.921    84301258.095    20290337.082  
                                
  22136551.580   118457158.988    22136551.652    92133345.678    22136551.687  
                                
  21736081.294   116028677.680    21736083.671    90244537.466    21736083.689  
                                
  25139362.069   132108239.707                                                  
  25139364.267    98652264.742  
  26158867.452   137465776.679                                                  
  26158868.650   102653019.192  
  23593006.985   123982088.536                                                  
  23593007.896    92584029.702  
  23971289.555   125969977.622                                                  
  23971292.146    94068498.517  
