% program   : rnx2rtkp ver.2.4.3 b31
% inp file  : ngs/21_08_31_22_24_10_kybo.obs
% inp file  : ngs/21_08_31_22_24_10_kybo_VZ.obs
% inp file  : ngs/21_08_31_22_24_10_brdc.nav
% obs start : 2021/08/31 22:00:00.0 GPST (week2173 252000.0s)
% obs end   : 2021/08/31 22:59:59.0 GPST (week2173 255599.0s)
% ref pos   :   467411.5157  -4939072.8261   3995378.3006
%
% (x/y/z-ecef=WGS84,Q=1:fix,2:float,3:sbas,4:dgps,5:single,6:ppp,ns=# of satellites)
%  GPST              x-ecef(m)      y-ecef(m)      z-ecef(m)   Q  ns   sdx(m)   sdy(m)   sdz(m)  sdxy(m)  sdyz(m)  sdzx(m) age(s)  ratio
2173 253439.000    456195.3162  -4939807.5533   3995771.8909   2   6   0.5232   0.8845   0.8356  -0.1529  -0.5470   0.2961 -30.00    1.4
2173 253440.000    456195.3359  -4939807.6874   3995771.8595   2   6   0.3727   0.6299   0.5960  -0.1099  -0.3887   0.2129 -29.00    1.9
2173 253441.000    456195.3274  -4939807.6416   3995771.9435   2   6   0.3052   0.5159   0.4882  -0.0901  -0.3181   0.1748 -28.00    1.7
2173 253442.000    456195.3659  -4939807.5894   3995771.9032   2   6   0.2648   0.4475   0.4236  -0.0781  -0.2759   0.1518 -27.00    1.7
2173 253443.000    456195.3580  -4939807.6108   3995771.8936   2   6   0.2372   0.4008   0.3794  -0.0699  -0.2471   0.1359 -26.00    1.8
2173 253444.000    456195.4063  -4939807.5882   3995771.9314   2   6   0.2168   0.3662   0.3467  -0.0638  -0.2258   0.1242 -25.00    1.9
2173 253445.000    456195.4308  -4939807.6220   3995771.9111   2   6   0.2008   0.3393   0.3212  -0.0590  -0.2092   0.1151 -24.00    2.0
2173 253446.000    456195.4109  -4939807.6476   3995771.9580   2   6   0.1880   0.3175   0.3006  -0.0552  -0.1958   0.1077 -23.00    2.1
2173 253447.000    456195.3937  -4939807.6202   3995771.9517   2   6   0.1773   0.2995   0.2835  -0.0521  -0.1847   0.1016 -22.00    2.0
2173 253448.000    456195.4024  -4939807.6162   3995771.9319   2   6   0.1683   0.2842   0.2690  -0.0494  -0.1752   0.0965 -21.00    2.1
2173 253449.000    456195.4017  -4939807.6151   3995771.9240   2   6   0.1605   0.2710   0.2565  -0.0471  -0.1671   0.0920 -20.00    2.1
2173 253450.000    456195.4179  -4939807.6178   3995771.9298   2   6   0.1537   0.2595   0.2456  -0.0451  -0.1600   0.0881 -19.00    2.2
2173 253451.000    456195.4193  -4939807.6394   3995771.9164   2   6   0.1476   0.2493   0.2360  -0.0434  -0.1537   0.0847 -18.00    2.4
2173 253452.000    456195.4058  -4939807.6664   3995771.9152   2   6   0.1423   0.2402   0.2274  -0.0418  -0.1481   0.0817 -17.00    2.6
2173 253453.000    456195.3929  -4939807.6569   3995771.9318   2   6   0.1374   0.2320   0.2197  -0.0404  -0.1431   0.0789 -16.00    2.6
2173 253454.000    456195.3915  -4939807.6497   3995771.9169   2   6   0.1331   0.2246   0.2126  -0.0392  -0.1385   0.0765 -15.00    2.6
2173 253455.000    456195.3855  -4939807.6466   3995771.9199   2   6   0.1291   0.2178   0.2062  -0.0381  -0.1343   0.0742 -14.00    2.7
2173 253456.000    456195.3897  -4939807.6707   3995771.9130   2   6   0.1254   0.2116   0.2004  -0.0370  -0.1305   0.0722 -13.00    3.0
2173 253457.000    456195.6035  -4939808.1584   3995772.0677   1   6   0.0116   0.0189   0.0172   0.0040  -0.0133  -0.0038 -12.00    3.1
2173 253458.000    456195.6044  -4939808.1588   3995772.0669   1   6   0.0109   0.0177   0.0161   0.0035  -0.0124  -0.0033 -11.00    3.3
2173 253459.000    456195.6018  -4939808.1562   3995772.0649   1   6   0.0102   0.0165   0.0151   0.0031  -0.0115  -0.0028 -10.00    3.5
2173 253460.000    456195.6036  -4939808.1617   3995772.0706   1   6   0.0095   0.0154   0.0141   0.0027  -0.0107  -0.0022  -9.00    3.7
2173 253461.000    456195.6041  -4939808.1565   3995772.0689   1   6   0.0088   0.0143   0.0132   0.0022  -0.0098  -0.0013  -8.00    3.8
2173 253462.000    456195.6018  -4939808.1621   3995772.0707   1   6   0.0082   0.0132   0.0123   0.0017  -0.0090   0.0007  -7.00    3.9
2173 253463.000    456195.6065  -4939808.1614   3995772.0743   1   6   0.0075   0.0123   0.0114   0.0010  -0.0082   0.0016  -6.00    4.1
2173 253464.000    456195.6036  -4939808.1569   3995772.0726   1   6   0.0069   0.0114   0.0107  -0.0003  -0.0075   0.0022  -5.00    4.3
2173 253465.000    456195.6059  -4939808.1586   3995772.0740   1   6   0.0065   0.0106   0.0099  -0.0008  -0.0068   0.0026  -4.00    4.8
2173 253466.000    456195.6094  -4939808.1628   3995772.0799   1   6   0.0060   0.0099   0.0093  -0.0018  -0.0063   0.0028  -3.00    5.0
2173 253467.000    456195.6069  -4939808.1609   3995772.0768   1   6   0.0056   0.0094   0.0089  -0.0017  -0.0058   0.0030  -2.00    5.1
2173 253468.000    456195.6087  -4939808.1608   3995772.0765   1   6   0.0053   0.0090   0.0086  -0.0014  -0.0056   0.0029  -1.00    5.3
2173 253469.000    456195.6075  -4939808.1591   3995772.0783   1   6   0.0051   0.0089   0.0084  -0.0008  -0.0054   0.0030   0.00    5.7
2173 253470.000    456195.6037  -4939808.1589   3995772.0763   1   6   0.0054   0.0089   0.0084  -0.0018  -0.0055   0.0031   0.00    5.6
2173 253471.000    456195.6102  -4939808.1608   3995772.0747   1   6   0.0051   0.0090   0.0085  -0.0014  -0.0055   0.0032   0.00    5.7
2173 253472.000    456195.6021  -4939808.1581   3995772.0715   1   6   0.0053   0.0090   0.0084  -0.0015  -0.0055   0.0032   0.00    5.7
2173 253473.000    456195.6042  -4939808.1575   3995772.0761   1   6   0.0053   0.0090   0.0084  -0.0016  -0.0054   0.0031   0.00    5.9
2173 253474.000    456195.6046  -4939808.1623   3995772.0761   1   6   0.0055   0.0090   0.0084  -0.0020  -0.0054   0.0030   0.00    5.8
2173 253475.000    456195.6053  -4939808.1582   3995772.0688   1   6   0.0051   0.0089   0.0084  -0.0017  -0.0055   0.0029   0.00    5.9
2173 253476.000    456195.6039  -4939808.1517   3995772.0694   1   6   0.0052   0.0088   0.0084  -0.0004  -0.0055   0.0029   0.00    5.7
2173 253477.000    456195.6053  -4939808.1584   3995772.0743   1   6   0.0052   0.0090   0.0084  -0.0010  -0.0056   0.0030   0.00    5.7
2173 253478.000    456195.6050  -4939808.1533   3995772.0773   1   6   0.0053   0.0090   0.0085  -0.0017  -0.0055   0.0031   0.00    5.6
2173 253479.000    456195.6097  -4939808.1541   3995772.0854   1   6   0.0051   0.0089   0.0085  -0.0009  -0.0055   0.0030   0.00    5.7
2173 253480.000    456195.6098  -4939808.1493   3995772.0802   1   6   0.0053   0.0089   0.0084  -0.0018  -0.0055   0.0030   0.00    5.7
2173 253481.000    456195.6053  -4939808.1405   3995772.0745   1   6   0.0054   0.0089   0.0084  -0.0016  -0.0055   0.0032   0.00    5.5
2173 253482.000    456195.6098  -4939808.1470   3995772.0782   1   6   0.0051   0.0089   0.0084  -0.0009  -0.0056   0.0030   0.00    5.4
2173 253483.000    456195.6099  -4939808.1525   3995772.0793   1   6   0.0051   0.0089   0.0084  -0.0007  -0.0056   0.0029   0.00    5.3
2173 253484.000    456195.6088  -4939808.1532   3995772.0869   1   6   0.0053   0.0089   0.0084  -0.0019  -0.0055   0.0032   0.00    5.2
2173 253485.000    456195.6068  -4939808.1558   3995772.0845   1   6   0.0053   0.0090   0.0084  -0.0017  -0.0055   0.0030   0.00    5.0
2173 253486.000    456195.6049  -4939808.1468   3995772.0779   1   6   0.0051   0.0089   0.0084   0.0005  -0.0055   0.0030   0.00    4.9
2173 253487.000    456195.6059  -4939808.1464   3995772.0835   1   6   0.0053   0.0089   0.0084  -0.0013  -0.0054   0.0032   0.00    4.9
2173 253488.000    456195.6109  -4939808.1464   3995772.0857   1   6   0.0052   0.0090   0.0084  -0.0012  -0.0054   0.0031   0.00    4.9
2173 253489.000    456195.6070  -4939808.1485   3995772.0763   1   6   0.0053   0.0089   0.0084  -0.0018  -0.0054   0.0030   0.00    4.8
2173 253490.000    456195.6086  -4939808.1501   3995772.0724   1   6   0.0054   0.0090   0.0085  -0.0016  -0.0055   0.0031   0.00    4.6
2173 253491.000    456195.6045  -4939808.1498   3995772.0673   1   6   0.0053   0.0090   0.0084  -0.0006  -0.0055   0.0031   0.00    4.5
2173 253492.000    456195.6078  -4939808.1510   3995772.0741   1   6   0.0054   0.0089   0.0085  -0.0018  -0.0054   0.0030   0.00    4.4
2173 253493.000    456195.6127  -4939808.1473   3995772.0717   1   6   0.0053   0.0089   0.0084  -0.0012  -0.0057   0.0032   0.00    4.3
2173 253494.000    456195.6089  -4939808.1502   3995772.0732   1   6   0.0053   0.0090   0.0083  -0.0010  -0.0054   0.0030   0.00    4.2
2173 253495.000    456195.6109  -4939808.1475   3995772.0804   1   6   0.0053   0.0090   0.0083  -0.0015  -0.0056   0.0029   0.00    4.2
2173 253496.000    456195.6051  -4939808.1510   3995772.0800   1   6   0.0054   0.0090   0.0083  -0.0016  -0.0055   0.0031   0.00    4.2
2173 253497.000    456195.6136  -4939808.1524   3995772.0821   1   6   0.0053   0.0089   0.0085  -0.0010  -0.0056   0.0029   0.00    4.2
2173 253498.000    456195.6154  -4939808.1511   3995772.0947   1   5   0.0070   0.0091   0.0171  -0.0035  -0.0079   0.0090   0.00    4.3
2173 253499.000    456195.6203  -4939808.1538   3995772.1070   1   5   0.0074   0.0092   0.0171  -0.0040  -0.0079   0.0090   0.00    4.2
2173 253500.000    456195.6184  -4939808.1474   3995772.0959   1   5   0.0071   0.0092   0.0171  -0.0032  -0.0080   0.0089   0.00    4.2
2173 253501.000    456195.6151  -4939808.1526   3995772.0960   1   5   0.0072   0.0092   0.0171  -0.0037  -0.0079   0.0090   0.00    4.1
2173 253502.000    456195.6154  -4939808.1495   3995772.0962   1   5   0.0071   0.0091   0.0171  -0.0036  -0.0079   0.0090   0.00    4.1
2173 253503.000    456195.6124  -4939808.1522   3995772.0933   1   5   0.0071   0.0092   0.0171  -0.0036  -0.0079   0.0090   0.00    4.1
2173 253504.000    456195.3980  -4939807.7398   3995771.9451   2   6   0.0661   0.1093   0.1075  -0.0216  -0.0699   0.0412   0.00    1.5
2173 253505.000    456195.4002  -4939807.7357   3995771.9472   2   6   0.0655   0.1084   0.1061  -0.0213  -0.0693   0.0404   0.00    1.9
2173 253506.000    456195.4054  -4939807.7396   3995771.9546   2   6   0.0650   0.1076   0.1050  -0.0212  -0.0688   0.0399   0.00    2.3
2173 253507.000    456195.4027  -4939807.7359   3995771.9494   2   6   0.0645   0.1067   0.1041  -0.0210  -0.0684   0.0395   0.00    2.6
2173 253508.000    456195.4013  -4939807.7372   3995771.9631   2   6   0.0640   0.1059   0.1033  -0.0209  -0.0679   0.0391   0.00    2.9
2173 253509.000    456195.6086  -4939808.1445   3995772.0733   1   6   0.0050   0.0089   0.0084   0.0000  -0.0054   0.0031   0.00    3.3
2173 253510.000    456195.6084  -4939808.1477   3995772.0762   1   6   0.0054   0.0090   0.0083  -0.0018  -0.0055   0.0030   0.00    3.7
2173 253511.000    456195.6064  -4939808.1482   3995772.0772   1   6   0.0054   0.0090   0.0084  -0.0016  -0.0055   0.0031   0.00    4.0
2173 253512.000    456195.6087  -4939808.1466   3995772.0763   1   6   0.0054   0.0090   0.0084  -0.0018  -0.0055   0.0030   0.00    4.3
2173 253513.000    456195.6057  -4939808.1445   3995772.0772   1   6   0.0053   0.0089   0.0083  -0.0013  -0.0054   0.0031   0.00    4.6
2173 253514.000    456195.6132  -4939808.1484   3995772.0777   1   6   0.0053   0.0089   0.0085  -0.0019  -0.0055   0.0030   0.00    4.7
2173 253515.000    456195.6084  -4939808.1547   3995772.0818   1   6   0.0053   0.0089   0.0083  -0.0014  -0.0055   0.0031   0.00    4.7
2173 253516.000    456195.6097  -4939808.1487   3995772.0798   1   6   0.0052   0.0088   0.0084  -0.0012  -0.0053   0.0030   0.00    4.7
2173 253517.000    456195.6133  -4939808.1543   3995772.0836   1   6   0.0053   0.0089   0.0084  -0.0018  -0.0054   0.0030   0.00    4.8
2173 253518.000    456195.6115  -4939808.1477   3995772.0763   1   6   0.0056   0.0089   0.0083  -0.0022  -0.0052   0.0030   0.00    4.8
2173 253519.000    456195.6124  -4939808.1475   3995772.0774   1   6   0.0053   0.0089   0.0084  -0.0016  -0.0055   0.0029   0.00    4.8
2173 253520.000    456195.6077  -4939808.1512   3995772.0783   1   6   0.0054   0.0090   0.0083  -0.0019  -0.0054   0.0031   0.00    5.0
2173 253521.000    456195.6095  -4939808.1505   3995772.0758   1   6   0.0053   0.0090   0.0083  -0.0015  -0.0055   0.0030   0.00    5.0
2173 253522.000    456195.6077  -4939808.1502   3995772.0740   1   6   0.0055   0.0089   0.0083  -0.0013  -0.0053   0.0031   0.00    5.1
2173 253523.000    456195.6056  -4939808.1484   3995772.0771   1   6   0.0053   0.0089   0.0083  -0.0016  -0.0054   0.0032   0.00    5.1
2173 253524.000    456195.6094  -4939808.1445   3995772.0740   1   6   0.0051   0.0089   0.0084   0.0006  -0.0055   0.0031   0.00    5.1
2173 253525.000    456195.6103  -4939808.1434   3995772.0782   1   6   0.0053   0.0089   0.0084  -0.0010  -0.0055   0.0030   0.00    5.2
2173 253526.000    456195.6092  -4939808.1462   3995772.0817   1   6   0.0048   0.0088   0.0084   0.0015  -0.0056   0.0028   0.00    5.3
2173 253527.000    456195.6066  -4939808.1454   3995772.0742   1   6   0.0053   0.0089   0.0084  -0.0014  -0.0056   0.0030   0.00    5.4
2173 253528.000    456195.6078  -4939808.1484   3995772.0725   1   6   0.0055   0.0089   0.0083  -0.0020  -0.0054   0.0033   0.00    5.4
2173 253529.000    456195.6026  -4939808.1481   3995772.0789   1   6   0.0052   0.0090   0.0084  -0.0008  -0.0055   0.0029   0.00    5.4
2173 253530.000    456195.6053  -4939808.1494   3995772.0771   1   6   0.0054   0.0089   0.0085  -0.0015  -0.0055   0.0030   0.00    5.5
2173 253531.000    456195.6046  -4939808.1527   3995772.0830   1   6   0.0053   0.0089   0.0083  -0.0017  -0.0055   0.0031   0.00    5.5
2173 253532.000    456195.6006  -4939808.1408   3995772.0724   1   6   0.0052   0.0090   0.0084  -0.0017  -0.0054   0.0029   0.00    5.4
2173 253533.000    456195.6050  -4939808.1478   3995772.0792   1   6   0.0053   0.0090   0.0083  -0.0012  -0.0055   0.0030   0.00    5.4
2173 253534.000    456195.6079  -4939808.1517   3995772.0785   1   6   0.0052   0.0089   0.0083  -0.0013  -0.0055   0.0030   0.00    5.3
2173 253535.000    456195.6074  -4939808.1434   3995772.0741   1   6   0.0051   0.0089   0.0084   0.0008  -0.0056   0.0030   0.00    5.3
2173 253536.000    456195.6055  -4939808.1474   3995772.0784   1   6   0.0053   0.0090   0.0083  -0.0013  -0.0054   0.0031   0.00    5.3
2173 253537.000    456195.6108  -4939808.1469   3995772.0971   1   5   0.0073   0.0093   0.0170  -0.0037  -0.0078   0.0090   0.00    3.9
2173 253538.000    456195.4212  -4939807.8726   3995772.1576   2   5   0.0537   0.0871   0.0861  -0.0193  -0.0586   0.0327   0.00    1.2
2173 253539.000    456195.6128  -4939808.1472   3995772.0866   1   5   0.0072   0.0092   0.0170  -0.0033  -0.0078   0.0090   0.00    3.8
2173 253540.000    456195.6104  -4939808.1464   3995772.0873   1   5   0.0071   0.0091   0.0170  -0.0033  -0.0079   0.0090   0.00    3.8
2173 253541.000    456195.6066  -4939808.1487   3995772.0880   1   5   0.0071   0.0091   0.0170  -0.0033  -0.0079   0.0090   0.00    3.8
2173 253542.000    456195.6111  -4939808.1464   3995772.0859   1   5   0.0074   0.0092   0.0170  -0.0037  -0.0078   0.0091   0.00    3.9
2173 253543.000    456195.6120  -4939808.1490   3995772.0920   1   5   0.0072   0.0091   0.0170  -0.0036  -0.0078   0.0090   0.00    3.8
2173 253544.000    456195.6101  -4939808.1540   3995772.0917   1   5   0.0072   0.0092   0.0170  -0.0033  -0.0078   0.0090   0.00    3.8
2173 253545.000    456195.6127  -4939808.1525   3995772.1016   1   5   0.0073   0.0092   0.0170  -0.0036  -0.0078   0.0090   0.00    3.8
2173 253546.000    456195.6106  -4939808.1543   3995772.0817   1   5   0.0072   0.0092   0.0170  -0.0035  -0.0078   0.0090   0.00    3.8
2173 253547.000    456195.6125  -4939808.1572   3995772.0933   1   5   0.0073   0.0091   0.0170  -0.0035  -0.0078   0.0090   0.00    3.8
2173 253548.000    456195.6144  -4939808.1545   3995772.0942   1   5   0.0071   0.0091   0.0170  -0.0034  -0.0079   0.0090   0.00    3.8
2173 253549.000    456195.4120  -4939807.9096   3995772.1784   2   6   0.0513   0.0822   0.0837  -0.0197  -0.0571   0.0328   0.00    1.2
2173 253550.000    456195.4167  -4939807.9072   3995772.1886   2   6   0.0510   0.0818   0.0826  -0.0196  -0.0567   0.0321   0.00    1.4
2173 253551.000    456195.4204  -4939807.9181   3995772.2045   2   6   0.0507   0.0813   0.0819  -0.0195  -0.0565   0.0317   0.00    1.6
2173 253552.000    456195.4147  -4939807.9271   3995772.2015   2   6   0.0504   0.0809   0.0814  -0.0194  -0.0563   0.0314   0.00    1.8
2173 253553.000    456195.4172  -4939807.9315   3995772.2086   2   6   0.0502   0.0805   0.0809  -0.0194  -0.0561   0.0311   0.00    2.0
2173 253554.000    456195.4218  -4939807.9335   3995772.2241   2   6   0.0500   0.0801   0.0804  -0.0193  -0.0559   0.0309   0.00    2.2
2173 253555.000    456195.4210  -4939807.9408   3995772.2255   2   6   0.0497   0.0797   0.0800  -0.0193  -0.0557   0.0307   0.00    2.4
2173 253556.000    456195.4190  -4939807.9387   3995772.2225   2   6   0.0495   0.0793   0.0795  -0.0193  -0.0555   0.0305   0.00    2.5
2173 253557.000    456195.4192  -4939807.9530   3995772.2389   2   6   0.0493   0.0789   0.0791  -0.0193  -0.0553   0.0303   0.00    2.7
2173 253558.000    456195.4181  -4939807.9512   3995772.2379   2   6   0.0491   0.0785   0.0787  -0.0192  -0.0551   0.0301   0.00    2.9
2173 253559.000    456195.6070  -4939808.1475   3995772.0747   1   6   0.0052   0.0089   0.0083  -0.0001  -0.0055   0.0029   0.00    3.0
2173 253560.000    456195.6110  -4939808.1440   3995772.0699   1   6   0.0053   0.0089   0.0083  -0.0012  -0.0055   0.0031   0.00    3.2
2173 253561.000    456195.6108  -4939808.1541   3995772.0787   1   6   0.0054   0.0089   0.0083  -0.0018  -0.0055   0.0032   0.00    3.4
2173 253562.000    456195.6104  -4939808.1476   3995772.0714   1   6   0.0054   0.0090   0.0082  -0.0012  -0.0054   0.0029   0.00    3.5
2173 253563.000    456195.6112  -4939808.1538   3995772.0787   1   6   0.0054   0.0089   0.0083  -0.0017  -0.0055   0.0030   0.00    3.6
2173 253564.000    456195.6101  -4939808.1528   3995772.0745   1   6   0.0054   0.0089   0.0084  -0.0012  -0.0056   0.0029   0.00    3.8
2173 253565.000    456195.6064  -4939808.1501   3995772.0856   1   6   0.0052   0.0089   0.0083  -0.0013  -0.0055   0.0030   0.00    3.9
2173 253566.000    456195.6067  -4939808.1433   3995772.0706   1   6   0.0053   0.0089   0.0083  -0.0016  -0.0054   0.0032   0.00    4.0
2173 253567.000    456195.6059  -4939808.1486   3995772.0691   1   6   0.0054   0.0089   0.0084  -0.0013  -0.0055   0.0028   0.00    4.1
2173 253568.000    456195.6059  -4939808.1537   3995772.0702   1   6   0.0053   0.0090   0.0082  -0.0017  -0.0051   0.0031   0.00    4.2
2173 253569.000    456195.6061  -4939808.1537   3995772.0693   1   6   0.0053   0.0090   0.0083  -0.0001  -0.0056   0.0031   0.00    4.2
2173 253570.000    456195.6108  -4939808.1533   3995772.0725   1   6   0.0054   0.0089   0.0083  -0.0013  -0.0054   0.0029   0.00    4.3
2173 253571.000    456195.6070  -4939808.1434   3995772.0691   1   6   0.0052   0.0089   0.0084  -0.0008  -0.0056   0.0031   0.00    4.4
2173 253572.000    456195.6065  -4939808.1526   3995772.0757   1   6   0.0056   0.0089   0.0083  -0.0019  -0.0055   0.0030   0.00    4.4
2173 253573.000    456195.5987  -4939808.1510   3995772.0678   1   6   0.0052   0.0089   0.0083  -0.0014  -0.0054   0.0030   0.00    4.4
2173 253574.000    456195.6081  -4939808.1526   3995772.0749   1   6   0.0053   0.0090   0.0082  -0.0017  -0.0055   0.0031   0.00    4.4
2173 253575.000    456195.6058  -4939808.1462   3995772.0665   1   6   0.0052   0.0089   0.0083  -0.0011  -0.0054   0.0031   0.00    4.4
2173 253576.000    456195.6096  -4939808.1564   3995772.0774   1   6   0.0053   0.0089   0.0083  -0.0012  -0.0056   0.0028   0.00    4.4
2173 253577.000    456195.6108  -4939808.1520   3995772.0876   1   6   0.0053   0.0088   0.0084  -0.0007  -0.0055   0.0030   0.00    4.5
2173 253578.000    456195.6104  -4939808.1435   3995772.0765   1   6   0.0052   0.0089   0.0083  -0.0008  -0.0054   0.0030   0.00    4.5
2173 253579.000    456195.6044  -4939808.1506   3995772.0686   1   6   0.0053   0.0089   0.0082  -0.0016  -0.0054   0.0031   0.00    4.5
2173 253580.000    456195.6030  -4939808.1412   3995772.0654   1   6   0.0052   0.0089   0.0083   0.0008  -0.0056   0.0030   0.00    4.5
2173 253581.000    456195.6057  -4939808.1497   3995772.0730   1   6   0.0054   0.0089   0.0083  -0.0016  -0.0054   0.0032   0.00    4.5
2173 253582.000    456195.6097  -4939808.1554   3995772.0852   1   6   0.0053   0.0089   0.0082  -0.0013  -0.0056   0.0029   0.00    4.5
2173 253583.000    456195.6049  -4939808.1510   3995772.0649   1   6   0.0052   0.0088   0.0082  -0.0010  -0.0055   0.0030   0.00    4.5
2173 253584.000    456195.6094  -4939808.1557   3995772.0843   1   6   0.0054   0.0089   0.0082  -0.0017  -0.0055   0.0030   0.00    4.5
2173 253585.000    456195.6074  -4939808.1498   3995772.0781   1   6   0.0053   0.0089   0.0082  -0.0006  -0.0054   0.0031   0.00    4.5
2173 253586.000    456195.6051  -4939808.1424   3995772.0779   1   6   0.0053   0.0089   0.0082  -0.0005  -0.0055   0.0030   0.00    4.5
2173 253587.000    456195.6039  -4939808.1524   3995772.0843   1   6   0.0052   0.0089   0.0083  -0.0013  -0.0055   0.0030   0.00    4.4
2173 253588.000    456195.5995  -4939808.1520   3995772.0705   1   6   0.0054   0.0090   0.0083  -0.0013  -0.0054   0.0030   0.00    4.5
2173 253589.000    456195.6052  -4939808.1545   3995772.0747   1   6   0.0053   0.0089   0.0082  -0.0012  -0.0054   0.0030   0.00    4.4
2173 253590.000    456195.6191  -4939808.1523   3995772.1101   1   5   0.0072   0.0091   0.0170  -0.0033  -0.0077   0.0091   0.00    3.3
2173 253591.000    456195.4318  -4939807.9577   3995772.3293   2   5   0.0435   0.0678   0.0694  -0.0188  -0.0506   0.0266   0.00    1.1
2173 253592.000    456195.4289  -4939807.9701   3995772.3223   2   6   0.0434   0.0676   0.0691  -0.0187  -0.0505   0.0265   0.00    1.1
2173 253593.000    456195.4340  -4939807.9642   3995772.3315   2   6   0.0431   0.0673   0.0681  -0.0186  -0.0502   0.0257   0.00    1.3
2173 253594.000    456195.4288  -4939807.9698   3995772.3381   2   6   0.0429   0.0670   0.0675  -0.0186  -0.0500   0.0253   0.00    1.4
2173 253595.000    456195.4306  -4939807.9719   3995772.3387   2   6   0.0428   0.0667   0.0671  -0.0185  -0.0499   0.0251   0.00    1.5
2173 253596.000    456195.4320  -4939807.9746   3995772.3406   2   6   0.0426   0.0665   0.0668  -0.0185  -0.0498   0.0249   0.00    1.6
2173 253597.000    456195.4307  -4939807.9654   3995772.3360   2   6   0.0425   0.0662   0.0665  -0.0185  -0.0496   0.0248   0.00    1.7
2173 253598.000    456195.4309  -4939807.9683   3995772.3442   2   6   0.0423   0.0660   0.0662  -0.0184  -0.0495   0.0246   0.00    1.8
2173 253599.000    456195.4270  -4939807.9796   3995772.3430   2   6   0.0422   0.0657   0.0659  -0.0183  -0.0494   0.0245   0.00    1.9
2173 253600.000    456195.4271  -4939807.9743   3995772.3378   2   6   0.0420   0.0654   0.0657  -0.0183  -0.0493   0.0243   0.00    2.0
2173 253601.000    456195.4215  -4939807.9753   3995772.3346   2   6   0.0419   0.0652   0.0654  -0.0183  -0.0492   0.0242   0.00    2.1
2173 253602.000    456195.4283  -4939807.9638   3995772.3427   2   6   0.0418   0.0650   0.0651  -0.0183  -0.0491   0.0241   0.00    2.2
2173 253603.000    456195.4253  -4939807.9707   3995772.3436   2   6   0.0416   0.0647   0.0649  -0.0183  -0.0489   0.0240   0.00    2.3
2173 253604.000    456195.4237  -4939807.9816   3995772.3403   2   6   0.0415   0.0645   0.0647  -0.0182  -0.0489   0.0239   0.00    2.4
2173 253605.000    456195.4230  -4939807.9842   3995772.3456   2   6   0.0414   0.0642   0.0644  -0.0183  -0.0487   0.0238   0.00    2.5
2173 253606.000    456195.4329  -4939807.9751   3995772.3460   2   6   0.0412   0.0640   0.0642  -0.0182  -0.0486   0.0237   0.00    2.5
2173 253607.000    456195.4332  -4939807.9818   3995772.3539   2   6   0.0411   0.0637   0.0639  -0.0182  -0.0485   0.0236   0.00    2.6
2173 253608.000    456195.4320  -4939807.9750   3995772.3482   2   6   0.0410   0.0635   0.0637  -0.0182  -0.0484   0.0234   0.00    2.7
2173 253609.000    456195.4306  -4939807.9877   3995772.3551   2   6   0.0408   0.0633   0.0635  -0.0182  -0.0483   0.0233   0.00    2.8
2173 253610.000    456195.4313  -4939807.9922   3995772.3543   2   6   0.0407   0.0630   0.0633  -0.0182  -0.0482   0.0232   0.00    2.9
2173 253611.000    456195.4293  -4939807.9906   3995772.3552   2   6   0.0406   0.0628   0.0630  -0.0182  -0.0481   0.0231   0.00    2.9
2173 253612.000    456195.5988  -4939808.1815   3995772.0726   1   5   0.0068   0.0151   0.0083   0.0069  -0.0057   0.0027   0.00    4.3
2173 253613.000    456195.5945  -4939808.1777   3995772.0648   1   5   0.0067   0.0151   0.0082   0.0069  -0.0059   0.0029   0.00    4.3
2173 253614.000    456195.6014  -4939808.1714   3995772.0714   1   5   0.0068   0.0151   0.0081   0.0069  -0.0057   0.0027   0.00    4.3
2173 253615.000    456195.5968  -4939808.1827   3995772.0695   1   5   0.0068   0.0151   0.0081   0.0069  -0.0057   0.0026   0.00    4.3
2173 253616.000    456195.5937  -4939808.1872   3995772.0755   1   5   0.0067   0.0150   0.0082   0.0069  -0.0057   0.0028   0.00    4.3
2173 253617.000    456195.5954  -4939808.1882   3995772.0756   1   5   0.0069   0.0151   0.0082   0.0068  -0.0057   0.0028   0.00    4.3
2173 253618.000    456195.5990  -4939808.1842   3995772.0787   1   5   0.0066   0.0151   0.0081   0.0069  -0.0058   0.0028   0.00    4.3
2173 253619.000    456195.5962  -4939808.1898   3995772.0713   1   5   0.0068   0.0151   0.0082   0.0069  -0.0057   0.0029   0.00    4.3
2173 253620.000    456195.5962  -4939808.1825   3995772.0729   1   5   0.0067   0.0151   0.0083   0.0071  -0.0058   0.0028   0.00    4.3
2173 253621.000    456195.5962  -4939808.1879   3995772.0714   1   5   0.0068   0.0151   0.0082   0.0070  -0.0058   0.0027   0.00    4.3
2173 253622.000    456195.5903  -4939808.2015   3995772.0614   1   5   0.0067   0.0151   0.0082   0.0069  -0.0058   0.0027   0.00    4.3
2173 253623.000    456195.5921  -4939808.1980   3995772.0693   1   5   0.0066   0.0150   0.0082   0.0070  -0.0058   0.0027   0.00    4.3
2173 253624.000    456195.6016  -4939808.1854   3995772.0763   1   5   0.0067   0.0151   0.0082   0.0069  -0.0057   0.0026   0.00    4.3
2173 253625.000    456195.6089  -4939808.1754   3995772.0926   1   5   0.0067   0.0151   0.0082   0.0069  -0.0058   0.0029   0.00    4.2
2173 253626.000    456195.5912  -4939808.1907   3995772.0643   1   5   0.0066   0.0150   0.0082   0.0070  -0.0057   0.0030   0.00    4.2
2173 253627.000    456195.5965  -4939808.1790   3995772.0725   1   5   0.0066   0.0151   0.0082   0.0070  -0.0057   0.0027   0.00    4.2
2173 253628.000    456195.5926  -4939808.1873   3995772.0666   1   5   0.0067   0.0150   0.0082   0.0069  -0.0057   0.0027   0.00    4.3
2173 253629.000    456195.6004  -4939808.1855   3995772.0744   1   5   0.0066   0.0150   0.0082   0.0070  -0.0060   0.0028   0.00    4.2
2173 253630.000    456195.6018  -4939808.1853   3995772.0775   1   5   0.0067   0.0150   0.0081   0.0070  -0.0057   0.0027   0.00    4.2
2173 253631.000    456195.5995  -4939808.1947   3995772.0799   1   5   0.0066   0.0150   0.0082   0.0069  -0.0057   0.0029   0.00    4.2
2173 253632.000    456195.6028  -4939808.2016   3995772.0834   1   5   0.0067   0.0151   0.0081   0.0069  -0.0058   0.0026   0.00    4.2
2173 253633.000    456195.6036  -4939808.1987   3995772.0838   1   5   0.0068   0.0151   0.0083   0.0069  -0.0057   0.0029   0.00    4.2
2173 253634.000    456195.5968  -4939808.1819   3995772.0756   1   5   0.0066   0.0150   0.0081   0.0070  -0.0058   0.0028   0.00    4.2
2173 253635.000    456195.5869  -4939808.1940   3995772.0700   1   5   0.0068   0.0151   0.0083   0.0069  -0.0057   0.0028   0.00    4.2
2173 253636.000    456195.5911  -4939808.1929   3995772.0700   1   5   0.0067   0.0151   0.0081   0.0070  -0.0057   0.0028   0.00    4.2
2173 253637.000    456195.5860  -4939808.2013   3995772.0672   1   5   0.0066   0.0150   0.0082   0.0070  -0.0058   0.0027   0.00    4.2
2173 253638.000    456195.5895  -4939808.1888   3995772.0741   1   5   0.0067   0.0150   0.0082   0.0070  -0.0057   0.0028   0.00    4.2
2173 253639.000    456195.5968  -4939808.1956   3995772.0730   1   5   0.0068   0.0150   0.0082   0.0069  -0.0058   0.0027   0.00    4.2
2173 253640.000    456195.5970  -4939808.1982   3995772.0749   1   5   0.0067   0.0151   0.0082   0.0068  -0.0057   0.0028   0.00    4.2
2173 253641.000    456195.5929  -4939808.2032   3995772.0722   1   5   0.0066   0.0150   0.0081   0.0069  -0.0058   0.0029   0.00    4.2
2173 253642.000    456195.5958  -4939808.1990   3995772.0785   1   5   0.0068   0.0151   0.0082   0.0069  -0.0058   0.0029   0.00    4.2
2173 253643.000    456195.5926  -4939808.2070   3995772.0708   1   5   0.0068   0.0151   0.0082   0.0069  -0.0059   0.0027   0.00    4.2
2173 253644.000    456195.5999  -4939808.1903   3995772.0784   1   5   0.0067   0.0150   0.0081   0.0069  -0.0058   0.0028   0.00    4.2
2173 253645.000    456195.6001  -4939808.1941   3995772.0776   1   5   0.0069   0.0151   0.0082   0.0068  -0.0058   0.0027   0.00    4.2
2173 253646.000    456195.5971  -4939808.1947   3995772.0686   1   5   0.0067   0.0150   0.0082   0.0071  -0.0058   0.0026   0.00    4.3
2173 253647.000    456195.5988  -4939808.1900   3995772.0768   1   5   0.0068   0.0151   0.0081   0.0069  -0.0058   0.0026   0.00    4.3
2173 253648.000    456195.5985  -4939808.1947   3995772.0785   1   5   0.0067   0.0151   0.0082   0.0070  -0.0058   0.0027   0.00    4.3
2173 253649.000    456195.5937  -4939808.2008   3995772.0749   1   5   0.0067   0.0150   0.0082   0.0070  -0.0058   0.0027   0.00    4.3
2173 253650.000    456195.5917  -4939808.1950   3995772.0714   1   5   0.0066   0.0150   0.0082   0.0070  -0.0058   0.0028   0.00    4.3
2173 253651.000    456195.5932  -4939808.1988   3995772.0738   1   5   0.0067   0.0150   0.0081   0.0070  -0.0058   0.0025   0.00    4.3
2173 253652.000    456195.5927  -4939808.1866   3995772.0690   1   5   0.0067   0.0150   0.0081   0.0069  -0.0057   0.0026   0.00    4.4
2173 253653.000    456195.5928  -4939808.2031   3995772.0805   1   5   0.0067   0.0150   0.0081   0.0070  -0.0058   0.0027   0.00    4.4
2173 253654.000    456195.5963  -4939808.2000   3995772.0763   1   5   0.0069   0.0151   0.0081   0.0068  -0.0058   0.0026   0.00    4.4
2173 253655.000    456195.5939  -4939808.1980   3995772.0701   1   5   0.0068   0.0151   0.0082   0.0068  -0.0057   0.0027   0.00    4.4
2173 253656.000    456195.5910  -4939808.1960   3995772.0696   1   4   0.0159   0.0203   0.0260   0.0157   0.0174   0.0190   0.00    3.5
2173 253657.000    456195.5870  -4939808.2006   3995772.0645   1   4   0.0159   0.0203   0.0260   0.0156   0.0174   0.0190   0.00    3.5
2173 253658.000    456195.4763  -4939808.0482   3995772.4394   2   4   0.0399   0.0609   0.0615   0.0116  -0.0379   0.0283   0.00    1.1
2173 253659.000    456195.5924  -4939808.1958   3995772.0817   1   4   0.0159   0.0203   0.0260   0.0157   0.0174   0.0191   0.00    3.5
2173 253660.000    456195.5948  -4939808.1987   3995772.0809   1   4   0.0160   0.0203   0.0260   0.0156   0.0175   0.0191   0.00    3.5
2173 253661.000    456195.5883  -4939808.1845   3995772.0618   1   4   0.0160   0.0203   0.0260   0.0157   0.0174   0.0191   0.00    3.5
2173 253662.000    456195.5909  -4939808.2015   3995772.0690   1   4   0.0160   0.0204   0.0260   0.0157   0.0175   0.0191   0.00    3.5
2173 253663.000    456195.5958  -4939808.1955   3995772.0854   1   4   0.0159   0.0204   0.0261   0.0158   0.0174   0.0191   0.00    3.6
2173 253664.000    456195.5887  -4939808.2028   3995772.0705   1   4   0.0160   0.0204   0.0261   0.0157   0.0175   0.0192   0.00    3.6
2173 253665.000    456195.5889  -4939808.2087   3995772.0600   1   4   0.0160   0.0204   0.0261   0.0158   0.0175   0.0192   0.00    3.6
2173 253666.000    456195.5850  -4939808.2088   3995772.0573   1   4   0.0160   0.0204   0.0261   0.0158   0.0175   0.0192   0.00    3.6
2173 253667.000    456195.5845  -4939808.2201   3995772.0440   1   4   0.0161   0.0204   0.0261   0.0158   0.0176   0.0192   0.00    3.6
2173 253668.000    456195.5912  -4939808.1907   3995772.0631   1   4   0.0161   0.0204   0.0261   0.0158   0.0176   0.0192   0.00    3.6
2173 253669.000    456195.4877  -4939808.0514   3995772.4448   2   5   0.0394   0.0604   0.0611   0.0130  -0.0368   0.0286   0.00    1.1
2173 253670.000    456195.4860  -4939808.0638   3995772.4401   2   5   0.0380   0.0595   0.0584   0.0085  -0.0390   0.0252   0.00    1.2
2173 253671.000    456195.4867  -4939808.0561   3995772.4393   2   5   0.0374   0.0592   0.0574   0.0065  -0.0396   0.0239   0.00    1.4
2173 253672.000    456195.4775  -4939808.0748   3995772.4288   2   5   0.0371   0.0590   0.0568   0.0053  -0.0398   0.0232   0.00    1.5
2173 253673.000    456195.4797  -4939808.0653   3995772.4265   2   5   0.0369   0.0589   0.0564   0.0045  -0.0400   0.0228   0.00    1.6
2173 253674.000    456195.4795  -4939808.0639   3995772.4254   2   5   0.0368   0.0588   0.0561   0.0040  -0.0400   0.0225   0.00    1.7
2173 253675.000    456195.4795  -4939808.0608   3995772.4226   2   5   0.0367   0.0587   0.0559   0.0040  -0.0400   0.0223   0.00    1.8
2173 253676.000    456195.4830  -4939808.0541   3995772.4191   2   5   0.0366   0.0586   0.0556   0.0037  -0.0399   0.0221   0.00    1.9
2173 253677.000    456195.4855  -4939808.0557   3995772.4174   2   5   0.0364   0.0585   0.0555   0.0039  -0.0399   0.0219   0.00    2.1
2173 253678.000    456195.4818  -4939808.0549   3995772.4102   2   5   0.0363   0.0584   0.0553   0.0038  -0.0398   0.0218   0.00    2.2
2173 253679.000    456195.4827  -4939808.0572   3995772.4215   2   5   0.0362   0.0584   0.0551   0.0041  -0.0398   0.0217   0.00    2.3
2173 253680.000    456195.4851  -4939808.0582   3995772.4214   2   5   0.0362   0.0583   0.0550   0.0042  -0.0397   0.0216   0.00    2.5
2173 253681.000    456195.4809  -4939808.0742   3995772.4254   2   5   0.0361   0.0582   0.0548   0.0043  -0.0396   0.0215   0.00    2.6
2173 253682.000    456195.4909  -4939808.0708   3995772.4280   2   5   0.0360   0.0582   0.0547   0.0046  -0.0396   0.0214   0.00    2.7
2173 253683.000    456195.4819  -4939808.0706   3995772.4216   2   5   0.0360   0.0581   0.0545   0.0048  -0.0395   0.0213   0.00    2.9
2173 253684.000    456195.4827  -4939808.0757   3995772.4097   2   5   0.0359   0.0580   0.0544   0.0049  -0.0394   0.0213   0.00    3.0
2173 253685.000    456195.5896  -4939808.2185   3995772.0795   1   5   0.0068   0.0150   0.0082   0.0070  -0.0059   0.0027   0.00    3.1
2173 253686.000    456195.5948  -4939808.2028   3995772.0792   1   5   0.0068   0.0150   0.0081   0.0069  -0.0059   0.0026   0.00    3.2
2173 253687.000    456195.5901  -4939808.2256   3995772.0811   1   5   0.0068   0.0150   0.0082   0.0069  -0.0058   0.0028   0.00    3.3
2173 253688.000    456195.5906  -4939808.2168   3995772.0807   1   5   0.0067   0.0150   0.0081   0.0069  -0.0058   0.0028   0.00    3.4
2173 253689.000    456195.5904  -4939808.2042   3995772.0737   1   5   0.0068   0.0150   0.0081   0.0069  -0.0059   0.0028   0.00    3.5
2173 253690.000    456195.5939  -4939808.2033   3995772.0767   1   5   0.0067   0.0150   0.0081   0.0070  -0.0058   0.0027   0.00    3.7
2173 253691.000    456195.5916  -4939808.2098   3995772.0814   1   5   0.0068   0.0150   0.0081   0.0070  -0.0059   0.0027   0.00    3.8
2173 253692.000    456195.5905  -4939808.2139   3995772.0782   1   5   0.0066   0.0150   0.0081   0.0071  -0.0059   0.0026   0.00    3.9
2173 253693.000    456195.5885  -4939808.2131   3995772.0768   1   5   0.0067   0.0150   0.0081   0.0070  -0.0058   0.0026   0.00    4.1
2173 253694.000    456195.5918  -4939808.2175   3995772.0844   1   5   0.0067   0.0150   0.0081   0.0070  -0.0058   0.0027   0.00    4.2
2173 253695.000    456195.5963  -4939808.2015   3995772.0847   1   5   0.0067   0.0150   0.0082   0.0071  -0.0059   0.0028   0.00    4.3
2173 253696.000    456195.5924  -4939808.2001   3995772.0801   1   5   0.0068   0.0150   0.0082   0.0070  -0.0059   0.0027   0.00    4.4
2173 253697.000    456195.5968  -4939808.1939   3995772.0922   1   5   0.0067   0.0150   0.0081   0.0070  -0.0058   0.0027   0.00    4.5
2173 253698.000    456195.5920  -4939808.1992   3995772.0793   1   5   0.0067   0.0150   0.0081   0.0069  -0.0058   0.0027   0.00    4.6
2173 253699.000    456195.5936  -4939808.2074   3995772.0813   1   5   0.0068   0.0150   0.0081   0.0069  -0.0059   0.0027   0.00    4.7
2173 253700.000    456195.5900  -4939808.2143   3995772.0765   1   5   0.0068   0.0150   0.0081   0.0069  -0.0058   0.0028   0.00    4.9
2173 253701.000    456195.5938  -4939808.2003   3995772.0815   1   5   0.0067   0.0150   0.0081   0.0070  -0.0058   0.0030   0.00    5.0
2173 253702.000    456195.5925  -4939808.2133   3995772.0757   1   5   0.0068   0.0150   0.0081   0.0069  -0.0058   0.0026   0.00    5.1
2173 253703.000    456195.5884  -4939808.2132   3995772.0687   1   5   0.0067   0.0150   0.0081   0.0071  -0.0058   0.0026   0.00    5.1
2173 253704.000    456195.5934  -4939808.1909   3995772.0788   1   5   0.0069   0.0150   0.0081   0.0069  -0.0058   0.0027   0.00    5.1
2173 253705.000    456195.5837  -4939808.2064   3995772.0664   1   5   0.0068   0.0150   0.0082   0.0070  -0.0058   0.0026   0.00    5.2
2173 253706.000    456195.5978  -4939808.2016   3995772.0893   1   5   0.0069   0.0150   0.0081   0.0069  -0.0058   0.0029   0.00    5.2
2173 253707.000    456195.5967  -4939808.2034   3995772.0866   1   5   0.0066   0.0150   0.0081   0.0071  -0.0058   0.0026   0.00    5.2
2173 253708.000    456195.5940  -4939808.2020   3995772.0843   1   5   0.0066   0.0150   0.0081   0.0070  -0.0058   0.0027   0.00    5.3
2173 253709.000    456195.5910  -4939808.2177   3995772.0838   1   5   0.0067   0.0150   0.0081   0.0071  -0.0059   0.0026   0.00    5.3
2173 253710.000    456195.5938  -4939808.2049   3995772.0787   1   5   0.0068   0.0150   0.0081   0.0068  -0.0058   0.0028   0.00    5.3
2173 253711.000    456195.5911  -4939808.2175   3995772.0828   1   5   0.0066   0.0150   0.0081   0.0070  -0.0058   0.0026   0.00    5.4
2173 253712.000    456195.5888  -4939808.2251   3995772.0852   1   5   0.0067   0.0150   0.0081   0.0070  -0.0059   0.0027   0.00    5.4
2173 253713.000    456195.5855  -4939808.2224   3995772.0769   1   5   0.0067   0.0150   0.0081   0.0071  -0.0057   0.0027   0.00    5.4
2173 253714.000    456195.5915  -4939808.2036   3995772.0805   1   5   0.0068   0.0150   0.0080   0.0069  -0.0059   0.0027   0.00    5.4
2173 253715.000    456195.5936  -4939808.2121   3995772.0831   1   5   0.0069   0.0150   0.0082   0.0069  -0.0059   0.0027   0.00    5.4
2173 253716.000    456195.5958  -4939808.2186   3995772.0899   1   5   0.0067   0.0150   0.0081   0.0071  -0.0059   0.0027   0.00    5.5
2173 253717.000    456195.5877  -4939808.2032   3995772.0780   1   5   0.0066   0.0150   0.0082   0.0071  -0.0059   0.0028   0.00    5.5
2173 253718.000    456195.5912  -4939808.2045   3995772.0819   1   5   0.0069   0.0150   0.0081   0.0070  -0.0059   0.0025   0.00    5.5
2173 253719.000    456195.5931  -4939808.1969   3995772.0811   1   5   0.0067   0.0150   0.0081   0.0070  -0.0060   0.0025   0.00    5.5
2173 253720.000    456195.5882  -4939808.2011   3995772.0833   1   5   0.0066   0.0150   0.0081   0.0071  -0.0059   0.0027   0.00    5.6
2173 253721.000    456195.5900  -4939808.2115   3995772.0870   1   5   0.0068   0.0150   0.0081   0.0069  -0.0061   0.0027   0.00    5.6
2173 253722.000    456195.5831  -4939808.2014   3995772.0776   1   5   0.0067   0.0150   0.0081   0.0070  -0.0060   0.0028   0.00    5.6
2173 253723.000    456195.5915  -4939808.2013   3995772.0819   1   5   0.0067   0.0150   0.0082   0.0071  -0.0060   0.0026   0.00    5.6
2173 253724.000    456195.5906  -4939808.2076   3995772.0782   1   5   0.0067   0.0150   0.0081   0.0070  -0.0060   0.0026   0.00    5.6
2173 253725.000    456195.5889  -4939808.1993   3995772.0759   1   5   0.0069   0.0150   0.0081   0.0068  -0.0057   0.0030   0.00    5.6
2173 253726.000    456195.5883  -4939808.2069   3995772.0796   1   5   0.0066   0.0150   0.0081   0.0071  -0.0059   0.0025   0.00    5.6
2173 253727.000    456195.5882  -4939808.2002   3995772.0783   1   5   0.0066   0.0150   0.0080   0.0071  -0.0060   0.0022   0.00    5.6
2173 253728.000    456195.5897  -4939808.2073   3995772.0797   1   5   0.0067   0.0150   0.0081   0.0070  -0.0058   0.0027   0.00    5.6
2173 253729.000    456195.5897  -4939808.1934   3995772.0776   1   5   0.0067   0.0150   0.0081   0.0071  -0.0060   0.0026   0.00    5.6
2173 253730.000    456195.5828  -4939808.1895   3995772.0728   1   5   0.0067   0.0150   0.0081   0.0070  -0.0060   0.0027   0.00    5.7
2173 253731.000    456195.5886  -4939808.1962   3995772.0788   1   5   0.0067   0.0150   0.0081   0.0070  -0.0058   0.0027   0.00    5.7
2173 253732.000    456195.5859  -4939808.2062   3995772.0742   1   5   0.0069   0.0150   0.0081   0.0069  -0.0058   0.0028   0.00    5.7
2173 253733.000    456195.5872  -4939808.2061   3995772.0815   1   5   0.0068   0.0150   0.0081   0.0070  -0.0059   0.0027   0.00    5.7
2173 253734.000    456195.5868  -4939808.1889   3995772.0722   1   5   0.0068   0.0150   0.0081   0.0070  -0.0059   0.0025   0.00    5.8
2173 253735.000    456195.5859  -4939808.1996   3995772.0723   1   5   0.0068   0.0150   0.0081   0.0070  -0.0059   0.0026   0.00    5.8
2173 253736.000    456195.5888  -4939808.1950   3995772.0804   1   5   0.0066   0.0150   0.0081   0.0071  -0.0060   0.0025   0.00    5.8
2173 253737.000    456195.5880  -4939808.2001   3995772.0832   1   5   0.0068   0.0150   0.0080   0.0069  -0.0058   0.0027   0.00    5.8
2173 253738.000    456195.5866  -4939808.1953   3995772.0774   1   5   0.0067   0.0150   0.0082   0.0070  -0.0058   0.0027   0.00    5.8
2173 253739.000    456195.5880  -4939808.2001   3995772.0777   1   5   0.0067   0.0150   0.0081   0.0071  -0.0060   0.0026   0.00    5.9
2173 253740.000    456195.5910  -4939808.1847   3995772.0801   1   5   0.0066   0.0150   0.0081   0.0070  -0.0060   0.0027   0.00    5.9
2173 253741.000    456195.5931  -4939808.1798   3995772.0768   1   5   0.0065   0.0150   0.0080   0.0071  -0.0059   0.0026   0.00    5.9
2173 253742.000    456195.5948  -4939808.1929   3995772.0875   1   5   0.0067   0.0150   0.0080   0.0070  -0.0059   0.0025   0.00    5.9
2173 253743.000    456195.5849  -4939808.2083   3995772.0818   1   5   0.0066   0.0150   0.0081   0.0070  -0.0059   0.0026   0.00    5.9
2173 253744.000    456195.5871  -4939808.1934   3995772.0762   1   5   0.0068   0.0150   0.0081   0.0070  -0.0060   0.0025   0.00    5.9
2173 253745.000    456195.5902  -4939808.1981   3995772.0793   1   5   0.0068   0.0150   0.0081   0.0068  -0.0060   0.0026   0.00    5.9
2173 253746.000    456195.5929  -4939808.1874   3995772.0774   1   5   0.0067   0.0150   0.0080   0.0070  -0.0059   0.0028   0.00    5.9
2173 253747.000    456195.5920  -4939808.1874   3995772.0812   1   5   0.0067   0.0150   0.0080   0.0070  -0.0061   0.0026   0.00    6.0
2173 253748.000    456195.5899  -4939808.1928   3995772.0809   1   5   0.0069   0.0150   0.0081   0.0069  -0.0058   0.0025   0.00    6.0
2173 253749.000    456195.5864  -4939808.2153   3995772.0795   1   5   0.0068   0.0150   0.0080   0.0069  -0.0059   0.0026   0.00    6.0
2173 253750.000    456195.5899  -4939808.2046   3995772.0837   1   5   0.0067   0.0150   0.0081   0.0070  -0.0059   0.0025   0.00    6.0
2173 253751.000    456195.5904  -4939808.2107   3995772.0848   1   5   0.0067   0.0150   0.0081   0.0071  -0.0059   0.0026   0.00    6.0
2173 253752.000    456195.5873  -4939808.2138   3995772.0804   1   5   0.0069   0.0150   0.0081   0.0069  -0.0059   0.0027   0.00    6.0
2173 253753.000    456195.5918  -4939808.1986   3995772.0856   1   5   0.0068   0.0150   0.0081   0.0070  -0.0058   0.0026   0.00    6.0
2173 253754.000    456195.5892  -4939808.1888   3995772.0716   1   5   0.0067   0.0150   0.0081   0.0070  -0.0059   0.0027   0.00    6.0
2173 253755.000    456195.5893  -4939808.1832   3995772.0746   1   5   0.0068   0.0150   0.0081   0.0070  -0.0060   0.0026   0.00    6.0
2173 253756.000    456195.5858  -4939808.2024   3995772.0790   1   5   0.0068   0.0150   0.0081   0.0071  -0.0059   0.0026   0.00    6.0
2173 253757.000    456195.5917  -4939808.1804   3995772.0780   1   5   0.0068   0.0150   0.0080   0.0069  -0.0059   0.0026   0.00    6.0
2173 253758.000    456195.5874  -4939808.2033   3995772.0756   1   5   0.0067   0.0150   0.0081   0.0070  -0.0058   0.0024   0.00    6.0
2173 253759.000    456195.5915  -4939808.1971   3995772.0824   1   5   0.0066   0.0150   0.0081   0.0070  -0.0059   0.0026   0.00    6.1
2173 253760.000    456195.5911  -4939808.2021   3995772.0838   1   5   0.0068   0.0150   0.0081   0.0070  -0.0059   0.0025   0.00    6.1
2173 253761.000    456195.5883  -4939808.1959   3995772.0715   1   5   0.0067   0.0150   0.0081   0.0072  -0.0058   0.0027   0.00    6.1
2173 253762.000    456195.5936  -4939808.1766   3995772.0798   1   5   0.0068   0.0150   0.0081   0.0070  -0.0058   0.0027   0.00    6.1
2173 253763.000    456195.5862  -4939808.2075   3995772.0725   1   5   0.0066   0.0150   0.0080   0.0072  -0.0060   0.0025   0.00    6.1
2173 253764.000    456195.5927  -4939808.2019   3995772.0826   1   5   0.0066   0.0150   0.0081   0.0071  -0.0061   0.0025   0.00    6.2
2173 253765.000    456195.5921  -4939808.1941   3995772.0864   1   5   0.0069   0.0150   0.0080   0.0069  -0.0059   0.0025   0.00    6.2
2173 253766.000    456195.5958  -4939808.1798   3995772.0896   1   5   0.0068   0.0150   0.0081   0.0070  -0.0060   0.0026   0.00    6.2
2173 253767.000    456195.5932  -4939808.1743   3995772.0834   1   5   0.0068   0.0150   0.0081   0.0070  -0.0060   0.0025   0.00    6.2
2173 253768.000    456195.5917  -4939808.1787   3995772.0812   1   5   0.0068   0.0150   0.0081   0.0070  -0.0058   0.0024   0.00    6.2
2173 253769.000    456195.5924  -4939808.1973   3995772.0861   1   5   0.0067   0.0150   0.0080   0.0070  -0.0059   0.0027   0.00    6.2
2173 253770.000    456195.5923  -4939808.1823   3995772.0795   1   5   0.0068   0.0150   0.0082   0.0071  -0.0059   0.0026   0.00    6.2
2173 253771.000    456195.5891  -4939808.1937   3995772.0841   1   5   0.0067   0.0150   0.0081   0.0070  -0.0060   0.0027   0.00    6.1
2173 253772.000    456195.5924  -4939808.1880   3995772.0810   1   5   0.0067   0.0150   0.0081   0.0071  -0.0060   0.0028   0.00    6.1
2173 253773.000    456195.5904  -4939808.1864   3995772.0787   1   5   0.0067   0.0150   0.0080   0.0071  -0.0059   0.0026   0.00    6.1
2173 253774.000    456195.5937  -4939808.1977   3995772.0819   1   5   0.0066   0.0150   0.0079   0.0070  -0.0059   0.0027   0.00    6.1
2173 253775.000    456195.5941  -4939808.1973   3995772.0886   1   5   0.0068   0.0150   0.0081   0.0070  -0.0060   0.0025   0.00    6.1
2173 253776.000    456195.5952  -4939808.1857   3995772.0845   1   5   0.0067   0.0150   0.0079   0.0070  -0.0059   0.0025   0.00    6.1
2173 253777.000    456195.5901  -4939808.1910   3995772.0826   1   5   0.0067   0.0150   0.0081   0.0070  -0.0060   0.0026   0.00    6.1
2173 253778.000    456195.5895  -4939808.2013   3995772.0788   1   5   0.0066   0.0150   0.0080   0.0070  -0.0059   0.0027   0.00    6.1
2173 253779.000    456195.5912  -4939808.1948   3995772.0855   1   5   0.0069   0.0150   0.0080   0.0069  -0.0059   0.0026   0.00    6.1
2173 253780.000    456195.5893  -4939808.1937   3995772.0876   1   5   0.0068   0.0150   0.0080   0.0070  -0.0060   0.0027   0.00    6.1
2173 253781.000    456195.5881  -4939808.2052   3995772.0831   1   5   0.0067   0.0150   0.0081   0.0071  -0.0060   0.0025   0.00    6.1
2173 253782.000    456195.5935  -4939808.1916   3995772.0907   1   5   0.0068   0.0150   0.0081   0.0070  -0.0060   0.0025   0.00    6.1
2173 253783.000    456195.5944  -4939808.2063   3995772.0936   1   5   0.0066   0.0150   0.0080   0.0071  -0.0061   0.0026   0.00    6.0
2173 253784.000    456195.5911  -4939808.2019   3995772.0841   1   5   0.0067   0.0150   0.0080   0.0070  -0.0060   0.0025   0.00    6.0
2173 253785.000    456195.5892  -4939808.1830   3995772.0761   1   5   0.0068   0.0150   0.0081   0.0070  -0.0061   0.0025   0.00    6.0
2173 253786.000    456195.5903  -4939808.1733   3995772.0818   1   5   0.0067   0.0150   0.0081   0.0070  -0.0060   0.0025   0.00    6.0
2173 253787.000    456195.5833  -4939808.1830   3995772.0716   1   5   0.0067   0.0150   0.0080   0.0071  -0.0060   0.0026   0.00    6.0
2173 253788.000    456195.5875  -4939808.1939   3995772.0852   1   5   0.0068   0.0150   0.0080   0.0070  -0.0060   0.0025   0.00    6.0
2173 253789.000    456195.5856  -4939808.1926   3995772.0784   1   5   0.0067   0.0150   0.0081   0.0070  -0.0060   0.0026   0.00    6.0
2173 253790.000    456195.5868  -4939808.2012   3995772.0817   1   5   0.0066   0.0150   0.0081   0.0071  -0.0061   0.0026   0.00    5.9
2173 253791.000    456195.5880  -4939808.2047   3995772.0910   1   5   0.0067   0.0150   0.0080   0.0071  -0.0059   0.0027   0.00    5.9
2173 253792.000    456195.5903  -4939808.1977   3995772.0848   1   5   0.0067   0.0150   0.0081   0.0070  -0.0059   0.0026   0.00    5.9
2173 253793.000    456195.5876  -4939808.1966   3995772.0815   1   5   0.0067   0.0150   0.0080   0.0070  -0.0061   0.0025   0.00    5.9
2173 253794.000    456195.5932  -4939808.1972   3995772.0900   1   5   0.0067   0.0150   0.0080   0.0071  -0.0061   0.0025   0.00    5.9
2173 253795.000    456195.5898  -4939808.1971   3995772.0857   1   5   0.0068   0.0150   0.0081   0.0070  -0.0060   0.0027   0.00    5.9
2173 253796.000    456195.5887  -4939808.1927   3995772.0808   1   5   0.0068   0.0150   0.0080   0.0070  -0.0058   0.0027   0.00    5.9
2173 253797.000    456195.5888  -4939808.1918   3995772.0804   1   5   0.0068   0.0150   0.0080   0.0070  -0.0059   0.0026   0.00    5.9
2173 253798.000    456195.5887  -4939808.1933   3995772.0794   1   5   0.0067   0.0150   0.0080   0.0070  -0.0060   0.0027   0.00    5.9
2173 253799.000    456195.5864  -4939808.2047   3995772.0823   1   5   0.0066   0.0150   0.0081   0.0072  -0.0060   0.0023   0.00    5.9
2173 253800.000    456195.5873  -4939808.1959   3995772.0806   1   5   0.0067   0.0150   0.0080   0.0071  -0.0060   0.0024   0.00    5.9
2173 253801.000    456195.5849  -4939808.1819   3995772.0794   1   5   0.0067   0.0150   0.0080   0.0070  -0.0059   0.0026   0.00    5.8
2173 253802.000    456195.5915  -4939808.1893   3995772.0835   1   5   0.0068   0.0150   0.0081   0.0069  -0.0059   0.0026   0.00    5.8
2173 253803.000    456195.5898  -4939808.1952   3995772.0837   1   5   0.0068   0.0150   0.0080   0.0069  -0.0061   0.0024   0.00    5.8
2173 253804.000    456195.5884  -4939808.2063   3995772.0814   1   5   0.0067   0.0150   0.0080   0.0070  -0.0061   0.0024   0.00    5.9
2173 253805.000    456195.5888  -4939808.1929   3995772.0825   1   5   0.0068   0.0150   0.0081   0.0070  -0.0060   0.0027   0.00    5.9
2173 253806.000    456195.5894  -4939808.2053   3995772.0841   1   5   0.0067   0.0150   0.0080   0.0070  -0.0060   0.0023   0.00    5.9
2173 253807.000    456195.5919  -4939808.1980   3995772.0834   1   5   0.0067   0.0150   0.0080   0.0071  -0.0061   0.0024   0.00    5.8
2173 253808.000    456195.5881  -4939808.2098   3995772.0859   1   5   0.0067   0.0150   0.0080   0.0071  -0.0060   0.0025   0.00    5.8
2173 253809.000    456195.5948  -4939808.2057   3995772.0877   1   5   0.0067   0.0150   0.0079   0.0070  -0.0060   0.0025   0.00    5.8
2173 253810.000    456195.5902  -4939808.2012   3995772.0836   1   5   0.0069   0.0150   0.0080   0.0070  -0.0058   0.0027   0.00    5.8
2173 253811.000    456195.5929  -4939808.1714   3995772.0843   1   5   0.0068   0.0150   0.0080   0.0070  -0.0060   0.0024   0.00    5.8
2173 253812.000    456195.5910  -4939808.1984   3995772.0888   1   5   0.0068   0.0150   0.0080   0.0070  -0.0060   0.0024   0.00    5.7
2173 253813.000    456195.5870  -4939808.2113   3995772.0840   1   5   0.0067   0.0150   0.0080   0.0071  -0.0060   0.0026   0.00    5.7
2173 253814.000    456195.5882  -4939808.2145   3995772.0869   1   5   0.0069   0.0150   0.0080   0.0070  -0.0061   0.0025   0.00    5.7
2173 253815.000    456195.5858  -4939808.2083   3995772.0779   1   5   0.0067   0.0150   0.0080   0.0071  -0.0060   0.0026   0.00    5.8
2173 253816.000    456195.5857  -4939808.2052   3995772.0864   1   5   0.0066   0.0150   0.0080   0.0072  -0.0060   0.0025   0.00    5.8
2173 253817.000    456195.5865  -4939808.2073   3995772.0832   1   5   0.0066   0.0150   0.0080   0.0072  -0.0060   0.0025   0.00    5.8
2173 253818.000    456195.5900  -4939808.1876   3995772.0837   1   5   0.0068   0.0150   0.0080   0.0070  -0.0061   0.0024   0.00    5.8
2173 253819.000    456195.5825  -4939808.1997   3995772.0798   1   5   0.0068   0.0150   0.0080   0.0070  -0.0060   0.0025   0.00    5.8
2173 253820.000    456195.5891  -4939808.2060   3995772.0912   1   5   0.0067   0.0150   0.0080   0.0070  -0.0061   0.0027   0.00    5.8
2173 253821.000    456195.5863  -4939808.2056   3995772.0851   1   5   0.0066   0.0150   0.0080   0.0072  -0.0061   0.0026   0.00    5.8
2173 253822.000    456195.5893  -4939808.2036   3995772.0869   1   5   0.0069   0.0150   0.0080   0.0069  -0.0059   0.0024   0.00    5.8
2173 253823.000    456195.5906  -4939808.2012   3995772.0873   1   5   0.0068   0.0150   0.0081   0.0071  -0.0060   0.0025   0.00    5.8
2173 253824.000    456195.5895  -4939808.1989   3995772.0831   1   5   0.0069   0.0150   0.0080   0.0070  -0.0060   0.0026   0.00    5.8
2173 253825.000    456195.5891  -4939808.2009   3995772.0864   1   5   0.0068   0.0150   0.0080   0.0071  -0.0059   0.0026   0.00    5.8
2173 253826.000    456195.5843  -4939808.2037   3995772.0739   1   5   0.0069   0.0150   0.0079   0.0070  -0.0059   0.0025   0.00    5.8
2173 253827.000    456195.5827  -4939808.2057   3995772.0727   1   5   0.0067   0.0149   0.0080   0.0071  -0.0060   0.0025   0.00    5.8
2173 253828.000    456195.5899  -4939808.1991   3995772.0790   1   5   0.0067   0.0150   0.0080   0.0071  -0.0060   0.0025   0.00    5.8
2173 253829.000    456195.5868  -4939808.2112   3995772.0812   1   5   0.0067   0.0150   0.0080   0.0071  -0.0060   0.0026   0.00    5.8
2173 253830.000    456195.5880  -4939808.2024   3995772.0857   1   5   0.0067   0.0150   0.0080   0.0070  -0.0060   0.0025   0.00    5.8
2173 253831.000    456195.5843  -4939808.2090   3995772.0814   1   5   0.0066   0.0149   0.0080   0.0072  -0.0060   0.0024   0.00    5.8
2173 253832.000    456195.5941  -4939808.2014   3995772.0890   1   5   0.0068   0.0150   0.0080   0.0070  -0.0061   0.0027   0.00    5.8
2173 253833.000    456195.5890  -4939808.2018   3995772.0837   1   5   0.0069   0.0150   0.0080   0.0070  -0.0061   0.0024   0.00    5.8
2173 253834.000    456195.5852  -4939808.2067   3995772.0813   1   5   0.0067   0.0150   0.0080   0.0072  -0.0060   0.0024   0.00    5.7
2173 253835.000    456195.5880  -4939808.2053   3995772.0803   1   5   0.0066   0.0150   0.0080   0.0070  -0.0061   0.0028   0.00    5.7
2173 253836.000    456195.5873  -4939808.2046   3995772.0838   1   5   0.0068   0.0150   0.0080   0.0070  -0.0060   0.0024   0.00    5.7
2173 253837.000    456195.5918  -4939808.1962   3995772.0868   1   5   0.0068   0.0150   0.0080   0.0070  -0.0061   0.0026   0.00    5.7
2173 253838.000    456195.5907  -4939808.2009   3995772.0861   1   5   0.0066   0.0150   0.0080   0.0071  -0.0061   0.0024   0.00    5.7
2173 253839.000    456195.5900  -4939808.2081   3995772.0842   1   5   0.0068   0.0150   0.0081   0.0071  -0.0061   0.0026   0.00    5.7
2173 253840.000    456195.5915  -4939808.2143   3995772.0895   1   5   0.0067   0.0150   0.0079   0.0070  -0.0060   0.0026   0.00    5.7
2173 253841.000    456195.5945  -4939808.2013   3995772.0898   1   5   0.0068   0.0150   0.0080   0.0071  -0.0060   0.0025   0.00    5.7
2173 253842.000    456195.5902  -4939808.1973   3995772.0850   1   5   0.0068   0.0150   0.0080   0.0070  -0.0061   0.0025   0.00    5.7
2173 253843.000    456195.5959  -4939808.2001   3995772.0938   1   5   0.0067   0.0149   0.0080   0.0072  -0.0062   0.0022   0.00    5.7
2173 253844.000    456195.5908  -4939808.2027   3995772.0817   1   5   0.0068   0.0150   0.0079   0.0070  -0.0059   0.0025   0.00    5.7
2173 253845.000    456195.5956  -4939808.1946   3995772.0834   1   5   0.0068   0.0150   0.0080   0.0071  -0.0059   0.0025   0.00    5.7
2173 253846.000    456195.5868  -4939808.2020   3995772.0792   1   5   0.0068   0.0150   0.0080   0.0070  -0.0061   0.0027   0.00    5.7
2173 253847.000    456195.5949  -4939808.1930   3995772.0817   1   5   0.0068   0.0150   0.0080   0.0070  -0.0060   0.0025   0.00    5.7
2173 253848.000    456195.5923  -4939808.2086   3995772.0828   1   5   0.0067   0.0150   0.0080   0.0070  -0.0060   0.0024   0.00    5.7
2173 253849.000    456195.5935  -4939808.1974   3995772.0877   1   5   0.0068   0.0150   0.0080   0.0070  -0.0061   0.0024   0.00    5.7
2173 253850.000    456195.5923  -4939808.2045   3995772.0826   1   5   0.0067   0.0150   0.0080   0.0071  -0.0060   0.0025   0.00    5.7
2173 253851.000    456195.5966  -4939808.1951   3995772.0846   1   5   0.0067   0.0150   0.0080   0.0071  -0.0060   0.0025   0.00    5.7
2173 253852.000    456195.5939  -4939808.1987   3995772.0843   1   5   0.0068   0.0150   0.0080   0.0070  -0.0060   0.0025   0.00    5.7
2173 253853.000    456195.5965  -4939808.1985   3995772.0841   1   5   0.0069   0.0150   0.0080   0.0069  -0.0060   0.0026   0.00    5.7
2173 253854.000    456195.5890  -4939808.2071   3995772.0825   1   5   0.0067   0.0150   0.0080   0.0071  -0.0060   0.0025   0.00    5.8
2173 253855.000    456195.5918  -4939808.2103   3995772.0834   1   5   0.0066   0.0150   0.0080   0.0071  -0.0060   0.0026   0.00    5.8
2173 253856.000    456195.5890  -4939808.2160   3995772.0803   1   5   0.0068   0.0150   0.0080   0.0070  -0.0059   0.0025   0.00    5.8
2173 253857.000    456195.5895  -4939808.1997   3995772.0797   1   5   0.0067   0.0150   0.0079   0.0071  -0.0060   0.0022   0.00    5.8
2173 253858.000    456195.5918  -4939808.2096   3995772.0863   1   5   0.0068   0.0150   0.0080   0.0071  -0.0060   0.0026   0.00    5.8
2173 253859.000    456195.5943  -4939808.1980   3995772.0838   1   5   0.0068   0.0149   0.0079   0.0070  -0.0060   0.0027   0.00    5.8
2173 253860.000    456195.5878  -4939808.1861   3995772.0744   1   5   0.0067   0.0150   0.0080   0.0071  -0.0059   0.0025   0.00    5.8
2173 253861.000    456195.5885  -4939808.1904   3995772.0775   1   5   0.0068   0.0150   0.0081   0.0071  -0.0062   0.0024   0.00    5.8
2173 253862.000    456195.5885  -4939808.2134   3995772.0759   1   5   0.0068   0.0150   0.0079   0.0070  -0.0061   0.0024   0.00    5.8
2173 253863.000    456195.5884  -4939808.2056   3995772.0821   1   5   0.0068   0.0150   0.0079   0.0069  -0.0060   0.0023   0.00    5.8
2173 253864.000    456195.5956  -4939808.1993   3995772.0877   1   5   0.0067   0.0150   0.0079   0.0071  -0.0060   0.0025   0.00    5.8
2173 253865.000    456195.5945  -4939808.1921   3995772.0832   1   5   0.0068   0.0150   0.0079   0.0070  -0.0060   0.0025   0.00    5.7
2173 253866.000    456195.5901  -4939808.2168   3995772.0803   1   5   0.0067   0.0150   0.0079   0.0071  -0.0061   0.0024   0.00    5.7
2173 253867.000    456195.5948  -4939808.2059   3995772.0843   1   5   0.0068   0.0150   0.0079   0.0070  -0.0060   0.0025   0.00    5.7
2173 253868.000    456195.5905  -4939808.2009   3995772.0825   1   5   0.0068   0.0150   0.0080   0.0071  -0.0060   0.0022   0.00    5.7
2173 253869.000    456195.5962  -4939808.2028   3995772.0905   1   5   0.0066   0.0150   0.0081   0.0071  -0.0060   0.0025   0.00    5.7
2173 253870.000    456195.5971  -4939808.2034   3995772.0892   1   5   0.0067   0.0150   0.0079   0.0071  -0.0061   0.0024   0.00    5.7
2173 253871.000    456195.5969  -4939808.2166   3995772.0865   1   5   0.0067   0.0150   0.0080   0.0070  -0.0061   0.0025   0.00    5.6
