     2.11           OBSERVATION DATA    M (MIXED)           RINEX VERSION / TYPE
CONVBIN 2.4.3                           20210831 054516 UTC PGM / RUN BY / DATE 
log: logs/21_08_31_02_34_39_ncrd_SNNC.rtcm                  COMMENT             
format: RTCM 3, station ID: 577                             COMMENT             
0577                                                        MARKER NAME         
                                                            MARKER NUMBER       
                                                            OBSERVER / AGENCY   
1704048             LEICA GR10          4.30                REC # / TYPE / VERS 
                    GPPNULLANTENNA                          ANT # / TYPE        
  1025996.0589 -5078764.8687  3706952.9656                  APPROX POSITION XYZ 
        0.0000        0.0000        0.0000                  ANTENNA: DELTA H/E/N
     1     1                                                WAVELENGTH FACT L1/2
     7    C1    L1    C2    L2    P2    C5    L5            # / TYPES OF OBSERV 
  2021     8    31     2    34   46.0000000     GPS         TIME OF FIRST OBS   
  2021     8    31     3     4   43.0000000     GPS         TIME OF LAST OBS    
                                                            END OF HEADER       
 21  8 31  2 34 46.0000000  0 16G 3G 4G16G22G26G29G31G32R 7R 8R 9R16
                                E 7E19E21E27
  21850505.654   114825182.208    21850505.065    89474161.909    21850504.332  
  21850507.388    85746083.627  
  23228385.854   122065990.917    23228383.388    95116343.587    23228382.799  
  23228388.981    91153186.963  
  21221106.470   111517667.194                    86896866.020    21221102.199  
                                
  22305185.106   117214539.075                    91335980.079    22305179.191  
                                
  20037960.952   105300195.954    20037960.399    82052096.863    20037960.005  
  20037961.399    78633264.571  
  24185535.191   127095845.262    24185532.582    99035709.770    24185531.832  
                                
  21392015.187   112415798.898    21392011.077    87596705.853    21392010.184  
                                
  23327243.651   122585492.698    23327243.401    95521157.917    23327242.489  
  23327244.830    91541119.235  
  19244449.999   103017047.001    19244447.444    80124359.176    19244446.443  
                                
  21936118.716   117466919.647    21936116.626    91363150.569    21936116.090  
                                
  19590210.947   104610633.850    19590208.463    81363815.875    19590207.570  
                                
  22186210.363   118514752.985    22186208.183    92178131.942    22186208.398  
                                
  26890256.891   141309254.348                                                  
  26890264.163   105523171.692  
  24005296.432   126148684.698                                                  
  24005300.310    94201954.531  
  23862600.204   125398810.601                                                  
  23862605.297    93641988.785  
  24122405.720   126764098.230                                                  
  24122410.813    94661520.503  
 21  8 31  2 34 47.0000000  0 16G 3G 4G16G22G26G29G31G32R 7R 8R 9R16
                                E 7E19E21E27
  21850564.551   114825491.716    21850563.979    89474403.081    21850563.246  
  21850566.302    85746314.749  
  23227802.788   122062926.848    23227800.322    95113956.006    23227799.715  
  23227805.915    91150898.857  
  21220583.551   111514919.318                    86894724.820    21220579.298  
                                
  22305473.280   117216053.453                    91337160.116    22305467.365  
                                
  20037947.265   105300123.908    20037946.675    82052040.721    20037946.300  
  20037947.676    78633210.775  
  24185587.047   127096117.682    24185584.438    99035922.047    24185583.652  
                                
  21392349.248   112417554.420    21392345.156    87598073.790    21392344.245  
                                
  23327806.346   122588449.645    23327806.078    95523462.031    23327805.167  
  23327807.508    91543327.343  
  19244355.632   103016541.877    19244353.095    80123966.298    19244352.094  
                                
  21935432.421   117463244.628    21935430.348    91360292.219    21935429.812  
                                
  19590404.808   104611669.069    19590402.342    81364621.040    19590401.413  
                                
  22186840.604   118518119.661    22186838.424    92180750.470    22186838.638  
                                
  26890744.054   141311814.460                                                  
  26890751.327   105525083.471  
  24005001.951   126147137.114                                                  
  24005005.810    94200798.879  
  23862392.602   125397719.641                                                  
  23862397.695    93641174.117  
  24122700.005   126765644.714                                                  
  24122705.098    94662675.349  
 21  8 31  2 34 48.0000000  0 16G 3G 4G16G22G26G29G31G32R 7R 8R 9R16
                                E 7E19E21E27
  21850623.626   114825802.078    21850623.018    89474644.924    21850622.303  
  21850625.341    85746546.510  
  23227219.758   122059863.067    23227217.292    95111568.653    23227216.702  
  23227222.885    91148610.980  
  21220060.793   111512172.152                    86892584.175    21220056.522  
                                
  22305761.578   117217568.533                    91338340.697    22305755.664  
                                
  20037933.702   105300052.703    20037933.130    82051985.239    20037932.737  
  20037934.131    78633157.598  
  24185639.028   127096390.932    24185636.437    99036134.969    24185635.669  
                                
  21392683.381   112419310.315    21392679.289    87599442.020    21392678.396  
                                
  23328369.113   122591407.047    23328368.881    95525766.505    23328367.934  
  23328370.275    91545535.790  
  19244261.481   103016037.842    19244258.925    80123574.273    19244257.943  
                                
  21934746.250   117459570.127    21934744.160    91357434.273    21934743.624  
                                
  19590598.812   104612704.938    19590596.328    81365426.719    19590595.399  
                                
  22187470.916   118521486.588    22187468.718    92183369.189    22187468.932  
                                
  26891231.306   141314374.984                                                  
  26891238.579   105526995.541  
  24004707.541   126145590.011                                                  
  24004711.418    94199643.566  
  23862185.089   125396629.255                                                  
  23862190.200    93640359.860  
  24122994.361   126767191.676                                                  
  24122999.472    94663830.539  
 21  8 31  2 34 49.0000000  0 16G 3G 4G16G22G26G29G31G32R 7R 8R 9R16
                                E 7E19E21E27
  21850682.772   114826112.924    21850682.182    89474887.137    21850681.468  
  21850684.505    85746778.638  
  23226636.709   122056799.242    23226634.243    95109181.247    23226633.654  
  23226639.854    91146323.054  
  21219538.070   111509425.344                    86890443.810    21219533.835  
                                
  22306049.967   117219083.937                    91339521.525    22306044.034  
                                
  20037920.229   105299981.948    20037919.675    82051930.107    20037919.300  
  20037920.676    78633104.759  
  24185691.116   127096664.619    24185688.507    99036348.228    24185687.739  
                                
  21393017.514   112421066.200    21393013.422    87600810.240    21393012.529  
                                
  23328931.916   122594364.601    23328931.702    95528071.081    23328930.755  
  23328933.095    91547744.331  
  19244167.454   103015534.515    19244164.916    80123182.796    19244163.916  
                                
  21934060.080   117455895.754    21934058.007    91354576.434    21934057.471  
                                
  19590792.852   104613741.102    19590790.350    81366232.620    19590789.457  
                                
  22188101.192   118524853.431    22188099.012    92185987.852    22188099.226  
                                
  26891718.559   141316935.481                                                  
  26891725.814   105528907.616  
  24004413.148   126144042.978                                                  
  24004417.008    94198488.330  
  23861977.665   125395539.067                                                  
  23861982.740    93639545.758  
  24123288.771   126768738.720                                                  
  24123293.882    94664985.799  
 21  8 31  2 34 50.0000000  0 16G 3G 4G16G22G26G29G31G32R 7R 8R 9R16
                                E 7E19E21E27
  21850742.026   114826424.334    21850741.436    89475129.789    21850740.703  
  21850743.759    85747011.195  
  23226053.679   122053735.381    23226051.213    95106793.828    23226050.605  
  23226056.806    91144035.119  
  21219015.455   111506678.920                    86888303.740    21219011.184  
                                
  22306338.390   117220599.700                    91340702.641    22306332.476  
                                
  20037906.881   105299911.706    20037906.291    82051875.371    20037905.916  
  20037907.292    78633052.319  
  24185743.294   127096938.799    24185740.703    99036561.870    24185739.917  
                                
  21393351.665   112422822.133    21393347.555    87602178.502    21393346.679  
                                
  23329494.737   122597322.285    23329494.487    95530375.765    23329493.575  
  23329495.916    91549953.006  
  19244073.552   103015031.909    19244071.015    80122791.880    19244070.014  
                                
  21933373.963   117452221.596    21933371.890    91351718.756    21933371.336  
                                
  19590986.945   104614777.612    19590984.461    81367038.794    19590983.532  
                                
  22188731.450   118528220.191    22188729.270    92188606.445    22188729.485  
                                
  26892205.829   141319496.080                                                  
  26892213.084   105530819.759  
  24004118.774   126142496.116                                                  
  24004122.634    94197333.208  
  23861770.224   125394449.116                                                  
  23861775.317    93638731.849  
  24123583.164   126770285.928                                                  
  24123588.292    94666141.200  
 21  8 31  2 34 51.0000000  0 16G 3G 4G16G22G26G29G31G32R 7R 8R 9R16
                                E 7E19E21E27
  21850801.476   114826736.776    21850800.886    89475373.249    21850800.172  
  21850803.209    85747244.501  
  23225470.738   122050671.981    23225468.272    95104406.761    23225467.682  
  23225473.847    91141747.507  
  21218492.983   111503933.371                    86886164.355    21218488.748  
                                
  22306626.993   117222116.317                    91341884.418    22306621.096  
                                
  20037893.676   105299842.435    20037893.122    82051821.396    20037892.746  
  20037894.104    78633000.584  
  24185795.650   127097213.960    24185793.041    99036776.283    24185792.291  
                                
  21393685.887   112424578.591    21393681.813    87603547.170    21393680.919  
                                
  23330057.682   122600280.608    23330057.468    95532680.945    23330056.557  
  23330058.880    91552162.124  
  19243979.883   103014530.477    19243977.345    80122401.878    19243976.345  
                                
  21932687.989   117448548.165    21932685.898    91348861.643    21932685.345  
                                
  19591181.199   104615814.942    19591178.734    81367845.609    19591177.804  
                                
  22189361.780   118531587.368    22189359.600    92191225.360    22189359.832  
                                
  26892693.207   141322057.205                                                  
  26892700.462   105532732.272  
  24003824.543   126140949.861                                                  
  24003828.403    94196178.528  
  23861562.961   125393359.893                                                  
  23861568.072    93637918.455  
  24123877.734   126771833.759                                                  
  24123882.827    94667297.030  
 21  8 31  2 34 52.0000000  0 16G 3G 4G16G22G26G29G31G32R 7R 8R 9R16
                                E 7E19E21E27
  21850861.051   114827049.802    21850860.462    89475617.170    21850859.729  
  21850862.785    85747478.259  
  23224887.779   122047608.626    23224885.331    95102019.733    23224884.723  
  23224890.906    91139459.953  
  21217970.617   111501188.280                    86884025.325    21217966.347  
                                
  22306915.667   117223633.362                    91343066.532    22306909.770  
                                
  20037880.613   105299773.731    20037880.042    82051767.863    20037879.648  
  20037881.024    78632949.281  
  24185848.114   127097489.663    24185845.523    99036991.116    24185844.736  
                                
  21394020.145   112426335.158    21394016.071    87604915.924    21394015.159  
                                
  23330620.682   122603239.145    23330620.449    95534986.294    23330619.538  
  23330621.861    91554371.423  
  19243886.356   103014029.790    19243883.801    80122012.457    19243882.818  
                                
  21932002.051   117444875.069    21931999.960    91346004.791    21931999.424  
                                
  19591375.543   104616852.702    19591373.059    81368652.755    19591372.148  
                                
  22189992.146   118534954.509    22189989.948    92193844.246    22189990.162  
                                
  26893180.567   141324618.451                                                  
  26893187.821   105534644.903  
  24003530.329   126139403.827                                                  
  24003534.225    94195024.020  
  23861355.752   125392270.975                                                  
  23861360.827    93637105.312  
  24124172.287   126773381.798                                                  
  24124177.416    94668453.046  
 21  8 31  2 34 53.0000000  0 16G 3G 4G16G22G26G29G31G32R 7R 8R 9R16
                                E 7E19E21E27
  21850920.609   114827362.755    21850920.001    89475861.032    21850919.286  
  21850922.324    85747711.960  
  23224304.730   122044544.642    23224302.264    95099632.215    23224301.657  
  23224307.857    91137171.913  
  21217448.181   111498442.968                    86881886.124    21217443.946  
                                
  22307204.305   117225150.161                    91344248.453    22307198.409  
                                
  20037867.515   105299704.918    20037866.926    82051714.245    20037866.550  
  20037867.926    78632897.900  
  24185900.577   127097765.263    24185897.950    99037205.868    24185897.200  
                                
  21394354.296   112428091.144    21394350.222    87606284.220    21394349.328  
                                
  23331183.592   122606197.213    23331183.341    95537291.279    23331182.430  
  23331184.753    91556580.379  
  19243792.830   103013529.165    19243790.292    80121623.084    19243789.292  
                                
  21931316.041   117441201.602    21931313.986    91343147.650    21931313.432  
                                
  19591569.833   104617890.157    19591567.331    81369459.665    19591566.420  
                                
  22190622.332   118538320.935    22190620.134    92196462.577    22190620.349  
                                
  26893667.873   141327179.135                                                  
  26893675.128   105536557.105  
  24003236.044   126137857.302                                                  
  24003239.904    94193869.152  
  23861148.453   125391181.684                                                  
  23861153.546    93636291.877  
  24124466.805   126774929.361                                                  
  24124471.897    94669608.699  
 21  8 31  2 34 54.0000000  0 16G 3G 4G16G22G26G29G31G32R 7R 8R 9R16
                                E 7E19E21E27
  21850980.327   114827676.583    21850979.720    89476105.580    21850979.005  
  21850982.060    85747946.314  
  23223721.753   122041480.981    23223719.288    95097244.961    23223718.698  
  23223724.881    91134884.106  
  21216925.905   111495698.355                    86879747.464    21216921.652  
                                
  22307493.087   117226667.658                    91345430.923    22307487.190  
                                
  20037854.578   105299636.942    20037853.988    82051661.281    20037853.613  
  20037854.989    78632847.136  
  24185953.166   127098041.647    24185950.575    99037421.241    24185949.788  
                                
  21394688.536   112429847.520    21394684.462    87607652.833    21394683.550  
                                
  23331746.591   122609155.777    23331746.341    95539596.663    23331745.429  
  23331747.752    91558789.705  
  19243699.518   103013029.656    19243696.962    80121234.574    19243695.980  
                                
  21930630.175   117437528.683    21930628.084    91340290.949    21930627.548  
                                
  19591764.248   104618928.284    19591761.746    81370267.094    19591760.835  
                                
  22191252.573   118541687.563    22191250.375    92199081.056    22191250.607  
                                
  26894155.233   141329740.249                                                  
  26894162.469   105538469.607  
  24002941.831   126136311.258                                                  
  24002945.726    94192714.634  
  23860941.280   125390092.968                                                  
  23860946.390    93635478.873  
  24124761.375   126776477.427                                                  
  24124766.504    94670764.710  
 21  8 31  2 34 55.0000000  0 16G 3G 4G16G22G26G29G31G32R 7R 8R 9R16
                                E 7E19E21E27
  21851040.206   114827991.297    21851039.616    89476350.811    21851038.884  
  21851041.939    85748181.332  
  23223138.794   122038417.628    23223136.364    95094857.928    23223135.757  
  23223141.939    91132596.537  
  21216403.772   111492954.496                    86877609.388    21216399.519  
                                
  22307781.975   117228185.863                    91346613.939    22307776.078  
                                
  20037841.802   105299569.805    20037841.212    82051608.966    20037840.837  
  20037842.213    78632797.005  
  24186005.915   127098318.885    24186003.324    99037637.271    24186002.538  
                                
  21395022.829   112431604.254    21395018.755    87609021.717    21395017.844  
                                
  23332309.662   122612114.842    23332309.447    95541902.433    23332308.500  
  23332310.841    91560999.403  
  19243606.420   103012531.225    19243603.847    80120846.908    19243602.864  
                                
  21929944.362   117433856.331    21929942.307    91337434.678    21929941.753  
                                
  19591958.788   104619967.096    19591956.286    81371075.057    19591955.375  
                                
  22191882.867   118545054.430    22191880.669    92201699.733    22191880.883  
                                
  26894642.664   141332301.735                                                  
  26894649.901   105540382.401  
  24002647.725   126134765.690                                                  
  24002651.584    94191560.483  
  23860734.214   125389004.828                                                  
  23860739.324    93634666.307  
  24125056.054   126778025.961                                                  
  24125061.164    94671921.082  
 21  8 31  2 34 56.0000000  0 16G 3G 4G16G22G26G29G31G32R 7R 8R 9R16
                                E 7E19E21E27
  21851100.210   114828306.600    21851099.603    89476596.505    21851098.888  
  21851101.944    85748416.784  
  23222555.871   122035354.284    23222553.405    95092470.909    23222552.816  
  23222558.998    91130308.990  
  21215881.711   111490211.060                    86875471.647    21215877.458  
                                
  22308070.989   117229704.496                    91347797.289    22308065.074  
                                
  20037829.115   105299503.219    20037828.561    82051557.083    20037828.168  
  20037829.544    78632747.280  
  24186058.772   127098596.672    24186056.181    99037853.728    24186055.394  
                                
  21395357.141   112433361.093    21395353.067    87610390.683    21395352.156  
                                
  23332872.804   122615074.101    23332872.590    95544208.356    23332871.643  
  23332873.965    91563209.235  
  19243513.448   103012033.590    19243510.910    80120459.863    19243509.909  
                                
  21929258.620   117430184.222    21929256.547    91334578.595    21929256.011  
                                
  19592153.381   104621006.293    19592150.898    81371883.323    19592149.986  
                                
  22192513.143   118548421.285    22192510.945    92204318.402    22192511.160  
                                
  26895130.113   141334863.335                                                  
  26895137.368   105542295.286  
  24002353.654   126133220.322                                                  
  24002357.514    94190406.470  
  23860527.201   125387916.972                                                  
  23860532.294    93633853.945  
  24125350.767   126779574.687                                                  
  24125355.878    94673077.595  
 21  8 31  2 34 57.0000000  0 16G 3G 4G16G22G26G29G31G32R 7R 8R 9R16
                                E 7E19E21E27
  21851160.268   114828622.265    21851159.696    89476842.479    21851158.982  
  21851162.019    85748652.503  
  23221972.876   122032290.752    23221970.428    95090083.748    23221969.821  
  23221976.021    91128021.297  
  21215359.685   111487467.852                    86873334.083    21215355.450  
                                
  22308360.002   117231223.328                    91348980.791    22308354.106  
                                
  20037816.517   105299436.956    20037815.945    82051505.448    20037815.570  
  20037816.928    78632697.791  
  24186111.700   127098874.734    24186109.091    99038070.400    24186108.304  
                                
  21395691.417   112435117.786    21395687.361    87611759.534    21395686.449  
                                
  23333435.928   122618033.337    23333435.714    95546514.258    23333434.785  
  23333437.090    91565419.058  
  19243420.582   103011536.498    19243418.027    80120073.239    19243417.026  
                                
  21928572.878   117426512.151    21928570.823    91331722.540    21928570.269  
                                
  19592348.011   104622045.633    19592345.527    81372691.701    19592344.616  
                                
  22193143.383   118551787.919    22193141.186    92206936.898    22193141.418  
                                
  26895617.544   141337424.803                                                  
  26895624.799   105544208.073  
  24002059.566   126131674.900                                                  
  24002063.425    94189252.425  
  23860320.206   125386829.190                                                  
  23860325.299    93633041.638  
  24125645.463   126781123.372                                                  
  24125650.592    94674234.083  
 21  8 31  2 34 58.0000000  0 16G 3G 4G16G22G26G29G31G32R 7R 8R 9R16
                                E 7E19E21E27
  21851220.576   114828939.018    21851219.969    89477089.297    21851219.254  
  21851222.291    85748889.044  
  23221390.025   122029227.781    23221387.577    95087697.021    23221386.987  
  23221393.170    91125733.995  
  21214837.856   111484725.584                    86871197.253    21214833.621  
                                
  22308649.195   117232743.079                    91350165.010    22308643.298  
                                
  20037804.116   105299371.747    20037803.526    82051454.633    20037803.151  
  20037804.527    78632649.103  
  24186164.824   127099153.873    24186162.197    99038287.906    24186161.429  
                                
  21396025.836   112436875.078    21396021.744    87613128.850    21396020.850  
                                
  23333999.196   122620993.286    23333998.946    95548820.717    23333998.034  
  23334000.357    91567629.412  
  19243327.967   103011040.689    19243325.412    80119687.610    19243324.429  
                                
  21927887.315   117422840.894    21927885.225    91328867.123    21927884.689  
                                
  19592542.819   104623085.879    19592540.317    81373500.784    19592539.424  
                                
  22193773.713   118555155.067    22193771.515    92209555.793    22193771.748  
                                
  26896105.100   141339986.897                                                  
  26896112.337   105546121.318  
  24001765.620   126130130.195                                                  
  24001769.480    94188098.907  
  23860113.372   125385742.199                                                  
  23860118.465    93632229.924  
  24125940.302   126782672.760                                                  
  24125945.431    94675391.096  
 21  8 31  2 34 59.0000000  0 16G 3G 4G16G22G26G29G31G32R 7R 8R 9R16
                                E 7E19E21E27
  21851280.938   114829256.352    21851280.348    89477336.569    21851279.615  
  21851282.671    85749126.016  
  23220807.155   122026164.789    23220804.707    95085310.275    23220804.099  
  23220810.282    91123446.709  
  21214316.116   111481983.750                    86869060.752    21214311.846  
                                
  22308938.476   117234263.217                    91351349.535    22308932.579  
                                
  20037791.804   105299307.075    20037791.232    82051404.241    20037790.857  
  20037792.215    78632600.811  
  24186218.038   127099433.538    24186215.429    99038505.820    24186214.643  
                                
  21396360.236   112438632.443    21396356.162    87614498.225    21396355.269  
                                
  23334562.463   122623953.443    23334562.249    95551127.321    23334561.337  
  23334563.642    91569839.906  
  19243235.477   103010545.636    19243232.940    80119302.566    19243231.939  
                                
  21927201.770   117419169.936    21927199.715    91326011.947    21927199.161  
                                
  19592737.699   104624126.510    19592735.197    81374310.175    19592734.303  
                                
  22194404.043   118558522.196    22194401.845    92212174.662    22194402.095  
                                
  26896592.674   141342549.069                                                  
  26896599.911   105548034.651  
  24001471.693   126128585.639                                                  
  24001475.553    94186945.529  
  23859906.556   125384655.485                                                  
  23859911.667    93631418.425  
  24126235.159   126784222.322                                                  
  24126240.305    94676548.245  
 21  8 31  2 35  0.0000000  0 16G 3G 4G16G22G26G29G31G32R 7R 8R 9R16
                                E 7E19E21E27
  21851341.442   114829574.338    21851340.852    89477584.354    21851340.138  
  21851343.193    85749363.473  
  23220224.285   122023101.888    23220221.837    95082923.601    23220221.248  
  23220227.430    91121159.485  
  21213794.430   111479242.403                    86866924.640    21213790.195  
                                
  22309227.829   117235783.825                    91352534.427    22309221.950  
                                
  20037779.618   105299243.007    20037779.028    82051354.316    20037778.653  
  20037780.029    78632552.963  
  24186271.359   127099713.787    24186268.768    99038724.193    24186267.982  
                                
  21396694.673   112440389.957    21396690.599    87615867.722    21396689.705  
                                
  23335125.838   122626913.852    23335125.605    95553434.134    23335124.694  
  23335126.999    91572050.592  
  19243143.148   103010051.433    19243140.610    80118918.188    19243139.628  
                                
  21926516.315   117415499.301    21926514.242    91323157.011    21926513.688  
                                
  19592932.667   104625167.588    19592930.166    81375119.903    19592929.237  
                                
  22195034.409   118561889.335    22195032.211    92214793.545    22195032.425  
                                
  26897080.266   141345111.409                                                  
  26897087.486   105549948.086  
  24001177.837   126127041.345                                                  
  24001181.696    94185792.314  
  23859699.830   125383569.111                                                  
  23859704.922    93630607.170  
  24126530.087   126785772.151                                                  
  24126535.233    94677705.583  
 21  8 31  2 35  1.0000000  0 16G 3G 4G16G22G26G29G31G32R 7R 8R 9R16
                                E 7E19E21E27
  21851402.107   114829893.051    21851401.500    89477832.702    21851400.785  
  21851403.841    85749601.471  
  23219641.487   122020039.166    23219639.021    95080537.062    23219638.414  
  23219644.614    91118872.385  
  21213272.887   111476501.622                    86864788.971    21213268.634  
                                
  22309517.307   117237304.987                    91353719.748    22309511.411  
                                
  20037767.556   105299179.632    20037766.984    82051304.937    20037766.591  
  20037767.949    78632505.644  
  24186324.823   127099994.690    24186322.215    99038943.081    24186321.428  
                                
  21397029.145   112442147.703    21397025.089    87617237.394    21397024.196  
                                
  23335689.212   122629874.573    23335688.998    95555741.189    23335688.069  
  23335690.392    91574261.538  
  19243051.015   103009558.155    19243048.460    80118534.526    19243047.477  
                                
  21925830.930   117411829.109    21925828.840    91320302.419    21925828.304  
                                
  19593127.726   104626209.195    19593125.224    81375930.041    19593124.295  
                                
  22195664.756   118565256.551    22195662.540    92217412.484    22195662.773  
                                
  26897567.912   141347674.007                                                  
  26897575.149   105551861.713  
  24000884.034   126125497.376                                                  
  24000887.876    94184639.352  
  23859493.174   125382483.169                                                  
  23859498.285    93629796.241  
  24126825.069   126787322.288                                                  
  24126830.215    94678863.155  
 21  8 31  2 35  2.0000000  0 16G 3G 4G16G22G26G29G31G32R 7R 8R 9R16
                                E 7E19E21E27
  21851462.844   114830212.299    21851462.255    89478081.467    21851461.540  
  21851464.578    85749839.877  
  23219058.671   122016976.447    23219056.205    95078150.530    23219055.633  
  23219061.816    91116585.283  
  21212751.397   111473761.258                    86862653.625    21212747.162  
                                
  22309806.839   117238826.525                    91354905.360    22309800.942  
                                
  20037755.602   105299116.755    20037755.012    82051255.945    20037754.619  
  20037755.995    78632458.691  
  24186378.395   127100276.118    24186375.768    99039162.373    24186374.982  
                                
  21397363.654   112443905.500    21397359.579    87618607.108    21397358.686  
                                
  23336252.658   122632835.478    23336252.444    95558048.390    23336251.515  
  23336253.838    91576472.597  
  19242958.990   103009065.599    19242956.452    80118151.426    19242955.469  
                                
  21925145.564   117408159.152    21925143.509    91317448.009    21925142.955  
                                
  19593322.838   104627251.156    19593320.336    81376740.453    19593319.425  
                                
  22196295.086   118568623.671    22196292.888    92220031.353    22196293.103  
                                
  26898055.558   141350236.655                                                  
  26898062.795   105553775.392  
  24000590.250   126123953.560                                                  
  24000594.109    94183486.505  
  23859286.573   125381397.482                                                  
  23859291.683    93628985.505  
  24127120.086   126788872.592                                                  
  24127125.215    94680020.847  
 21  8 31  2 35  3.0000000  0 16G 3G 4G16G22G26G29G31G32R 7R 8R 9R16
                                E 7E19E21E27
  21851523.742   114830532.277    21851523.152    89478330.800    21851522.420  
  21851525.457    85750078.821  
  23218475.873   122013913.848    23218473.425    95075764.094    23218472.817  
  23218479.018    91114298.282  
  21212230.033   111471021.425                    86860518.692    21212225.798  
                                
  22310096.478   117240348.591                    91356091.387    22310090.599  
                                
  20037743.754   105299054.557    20037743.183    82051207.476    20037742.772  
  20037744.165    78632412.246  
  24186432.055   127100558.192    24186429.447    99039382.174    24186428.660  
                                
  21397698.180   112445663.516    21397694.123    87619976.993    21397693.230  
                                
  23336816.158   122635796.698    23336815.943    95560355.841    23336815.014  
  23336817.319    91578683.912  
  19242867.143   103008573.912    19242864.605    80117769.003    19242863.605  
                                
  21924460.305   117404489.591    21924458.250    91314593.912    21924457.696  
                                
  19593518.057   104628293.606    19593515.555    81377551.250    19593514.644  
                                
  22196925.452   118571990.884    22196923.218    92222650.292    22196923.468  
                                
  26898543.275   141352799.549                                                  
  26898550.494   105555689.237  
  24000296.519   126122410.054                                                  
  24000300.378    94182333.891  
  23859080.042   125380312.196                                                  
  23859085.171    93628175.069  
  24127415.140   126790423.202                                                  
  24127420.286    94681178.777  
 21  8 31  2 35  4.0000000  0 16G 3G 4G16G22G26G29G31G32R 7R 8R 9R16
                                E 7E19E21E27
  21851584.729   114830852.757    21851584.121    89478580.525    21851583.407  
  21851586.462    85750318.141  
  23217893.075   122010851.217    23217890.609    95073377.630    23217890.019  
  23217896.202    91112011.263  
  21211708.722   111468281.962                    86858384.048    21211704.487  
                                
  22310386.171   117241871.000                    91357277.683    22310380.292  
                                
  20037731.997   105298992.836    20037731.425    82051159.385    20037731.050  
  20037732.426    78632366.159  
  24186485.823   127100840.732    24186483.197    99039602.342    24186482.410  
                                
  21398032.723   112447421.532    21398028.649    87621346.871    21398027.756  
                                
  23337379.693   122638758.070    23337379.479    95562663.401    23337378.567  
  23337380.855    91580895.309  
  19242775.421   103008082.918    19242772.884    80117387.117    19242771.883  
                                
  21923775.063   117400820.223    21923773.009    91311739.950    21923772.455  
                                
  19593713.347   104629336.366    19593710.828    81378362.278    19593709.916  
                                
  22197555.763   118575357.954    22197553.566    92225269.114    22197553.780  
                                
  26899030.974   141355362.479                                                  
  26899038.193   105557603.098  
  24000002.823   126120866.661                                                  
  24000006.683    94181181.348  
  23858873.566   125379227.131                                                  
  23858878.694    93627364.789  
  24127710.247   126791973.946                                                  
  24127715.393    94682336.793  
 21  8 31  2 35  5.0000000  0 16G 3G 4G16G22G26G29G31G32R 7R 8R 9R16
                                E 7E19E21E27
  21851645.841   114831173.961    21851645.251    89478830.814    21851644.519  
  21851647.592    85750557.999  
  23217310.294   122007788.745    23217307.828    95070991.288    23217307.257  
  23217313.457    91109724.350  
  21211187.536   111465543.083                    86856249.859    21211183.301  
                                
  22310675.989   117243393.953                    91358464.399    22310670.110  
                                
  20037720.400   105298931.800    20037719.810    82051111.824    20037719.417  
  20037720.811    78632320.571  
  24186539.716   127101123.942    24186537.090    99039823.025    24186536.303  
                                
  21398367.303   112449179.786    21398363.247    87622716.937    21398362.353  
                                
  23337943.282   122641719.761    23337943.068    95564971.215    23337942.156  
  23337944.444    91583106.960  
  19242683.878   103007592.843    19242681.323    80117005.949    19242680.340  
                                
  21923089.912   117397151.251    21923087.857    91308886.310    21923087.285  
                                
  19593908.727   104630379.651    19593906.208    81379173.720    19593905.278  
                                
  22198186.111   118578725.143    22198183.895    92227888.037    22198184.128  
                                
  26899518.727   141357925.632                                                  
  26899525.946   105559517.151  
  23999709.200   126119323.590                                                  
  23999713.059    94180029.051  
  23858667.161   125378142.497                                                  
  23858672.289    93626554.831  
  24128005.407   126793525.008                                                  
  24128010.554    94683495.049  
 21  8 31  2 35  6.0000000  0 16G 3G 4G16G22G26G29G31G32R 7R 8R 9R16
                                E 7E19E21E27
  21851707.114   114831495.900    21851706.524    89479081.675    21851705.792  
  21851708.865    85750798.408  
  23216727.568   122004726.457    23216725.102    95068605.088    23216724.530  
  23216730.731    91107437.576  
  21210666.458   111462804.785                    86854116.115    21210662.205  
                                
  22310965.913   117244917.469                    91359651.556    22310959.999  
                                
  20037708.910   105298871.453    20037708.320    82051064.803    20037707.945  
  20037709.303    78632275.513  
  24186593.734   127101407.844    24186591.125    99040044.249    24186590.339  
                                
  21398701.936   112450938.281    21398697.880    87624087.190    21398696.986  
                                
  23338506.943   122644681.808    23338506.728    95567279.299    23338505.799  
  23338508.104    91585318.873  
  19242592.478   103007103.709    19242589.941    80116625.516    19242588.958  
                                
  21922404.831   117393482.679    21922402.776    91306032.976    21922402.204  
                                
  19594104.178   104631423.472    19594101.677    81379985.584    19594100.765  
                                
  22198816.494   118582092.475    22198814.261    92230507.073    22198814.511  
                                
  26900006.533   141360489.060                                                  
  26900013.753   105561431.391  
  23999415.629   126117780.865                                                  
  23999419.489    94178877.012  
  23858460.845   125377058.286                                                  
  23858465.973    93625745.192  
  24128300.621   126795076.407                                                  
  24128305.768    94684653.559  
 21  8 31  2 35  7.0000000  0 16G 3G 4G16G22G26G29G31G32R 7R 8R 9R16
                                E 7E19E21E27
  21851768.440   114831818.252    21851767.851    89479332.859    21851767.136  
  21851770.191    85751039.132  
  23216144.805   122001664.031    23216142.357    95066218.789    23216141.768  
  23216147.950    91105150.700  
  21210145.433   111460066.757                    86851982.582    21210141.198  
                                
  22311255.856   117246441.213                    91360838.890    22311249.977  
                                
  20037697.509   105298811.484    20037696.920    82051018.074    20037696.527  
  20037697.903    78632230.736  
  24186647.842   127101692.127    24186645.215    99040265.767    24186644.429  
                                
  21399036.551   112452696.696    21399032.495    87625457.382    21399031.602  
                                
  23339070.603   122647643.888    23339070.389    95569587.410    23339069.495  
  23339071.765    91587530.816  
  19242501.221   103006615.166    19242498.684    80116245.536    19242497.701  
                                
  21921719.768   117389814.194    21921717.714    91303179.712    21921717.142  
                                
  19594299.701   104632467.485    19594297.182    81380797.591    19594296.270  
                                
  22199446.824   118585459.652    22199444.626    92233125.991    22199444.841  
                                
  26900494.322   141363052.427                                                  
  26900501.541   105563345.591  
  23999122.059   126116238.152                                                  
  23999125.901    94177724.990  
  23858254.547   125375974.195                                                  
  23858259.676    93624935.651  
  24128595.871   126796627.832                                                  
  24128601.000    94685812.095  
 21  8 31  2 35  8.0000000  0 16G 3G 4G16G22G26G29G31G32R 7R 8R 9R16
                                E 7E19E21E27
  21851829.945   114832141.285    21851829.320    89479584.577    21851828.623  
  21851831.661    85751280.353  
  23215562.061   121998601.697    23215559.595    95063832.554    23215559.023  
  23215565.224    91102863.892  
  21209624.497   111457329.251                    86849849.461    21209620.262  
                                
  22311545.924   117247965.460                    91362026.614    22311540.045  
                                
  20037686.198   105298752.156    20037685.627    82050971.841    20037685.251  
  20037686.609    78632186.428  
  24186702.056   127101977.004    24186699.430    99040487.750    24186698.643  
                                
  21399371.220   112454455.282    21399367.146    87626827.706    21399366.253  
                                
  23339634.335   122650606.248    23339634.121    95571895.741    23339633.191  
  23339635.497    91589742.966  
  19242410.125   103006127.479    19242407.587    80115866.226    19242406.587  
                                
  21921034.759   117386146.089    21921032.705    91300326.744    21921032.151  
                                
  19594495.296   104633511.975    19594492.776    81381609.970    19594491.883  
                                
  22200077.190   118588826.880    22200074.974    92235744.946    22200075.206  
                                
  26900982.146   141365615.973                                                  
  26900989.383   105565259.925  
  23998828.525   126114695.706                                                  
  23998832.385    94176573.166  
  23858048.321   125374890.471                                                  
  23858053.449    93624126.378  
  24128891.139   126798179.533                                                  
  24128896.285    94686970.822  
 21  8 31  2 35  9.0000000  0 16G 3G 4G16G22G26G29G31G32R 7R 8R 9R16
                                E 7E19E21E27
  21851891.486   114832464.816    21851890.879    89479836.673    21851890.164  
  21851893.220    85751521.945  
  23214979.316   121995539.289    23214976.850    95061446.267    23214976.278  
  23214982.443    91100577.044  
  21209103.633   111454592.071                    86847716.598    21209099.398  
                                
  22311836.028   117249490.023                    91363214.581    22311830.131  
                                
  20037675.012   105298693.276    20037674.423    82050925.959    20037674.030  
  20037675.405    78632142.461  
  24186756.342   127102262.341    24186753.716    99040710.091    24186752.947  
                                
  21399705.854   112456213.844    21399701.779    87628198.019    21399700.904  
                                
  23340198.085   122653568.715    23340197.853    95574204.145    23340196.959  
  23340199.246    91591955.189  
  19242319.136   103005640.455    19242316.598    80115487.430    19242315.598  
                                
  21920349.804   117382478.208    21920347.749    91297473.952    21920347.195  
                                
  19594690.944   104634556.765    19594688.424    81382422.589    19594687.531  
                                
  22200707.502   118592193.920    22200705.304    92238363.753    22200705.518  
                                
  26901469.971   141368179.492                                                  
  26901477.190   105567174.255  
  23998535.044   126113153.357                                                  
  23998538.886    94175421.425  
  23857842.130   125373806.953                                                  
  23857847.241    93623317.262  
  24129186.425   126799731.305                                                  
  24129191.553    94688129.628  
 21  8 31  2 35 10.0000000  0 16G 3G 4G16G22G26G29G31G32R 7R 8R 9R16
                                E 7E19E21E27
  21851953.170   114832788.947    21851952.581    89480089.244    21851951.866  
  21851954.921    85751763.988  
  23214396.554   121992476.957    23214394.123    95059060.032    23214393.534  
  23214399.716    91098290.225  
  21208582.858   111451855.366                    86845584.101    21208578.623  
                                
  22312126.221   117251015.009                    91364402.882    22312120.342  
                                
  20037663.898   105298634.960    20037663.326    82050880.520    20037662.933  
  20037664.309    78632098.911  
  24186810.754   127102548.220    24186808.109    99040932.852    24186807.341  
                                
  21400040.523   112457972.541    21400036.466    87629568.432    21400035.555  
                                
  23340761.853   122656531.396    23340761.638    95576512.728    23340760.727  
  23340763.032    91594167.587  
  19242228.325   103005154.226    19242225.770    80115109.250    19242224.769  
                                
  21919664.902   117378810.632    21919662.847    91294621.393    21919662.311  
                                
  19594886.681   104635601.947    19594884.161    81383235.506    19594883.250  
                                
  22201337.814   118595560.904    22201335.616    92240982.510    22201335.848  
                                
  26901957.849   141370743.191                                                  
  26901965.050   105569088.688  
  23998241.563   126111611.205                                                  
  23998245.405    94174269.818  
  23857636.011   125372723.736                                                  
  23857641.122    93622508.358  
  24129481.782   126801283.311                                                  
  24129486.910    94689288.583  
 21  8 31  2 35 11.0000000  0 16G 3G 4G16G22G26G29G31G32R 7R 8R 9R16
                                E 7E19E21E27
  21852014.979   114833113.764    21852014.372    89480342.349    21852013.657  
  21852016.713    85752006.560  
  23213813.827   121989414.734    23213811.361    95056673.884    23213810.789  
  23213816.990    91096003.524  
  21208062.173   111449119.216                    86843452.040    21208057.938  
                                
  22312416.503   117252540.517                    91365591.592    22312410.624  
                                
  20037652.926   105298577.307    20037652.354    82050835.598    20037651.961  
  20037653.319    78632055.867  
  24186865.290   127102834.749    24186862.645    99041156.119    24186861.877  
                                
  21400375.209   112459731.432    21400371.171    87630938.994    21400370.277  
                                
  23341325.692   122659494.402    23341325.477    95578821.559    23341324.566  
  23341326.853    91596380.224  
  19242137.658   103004668.880    19242135.103    80114731.758    19242134.120  
                                
  21918980.090   117375143.417    21918978.035    91291769.120    21918977.463  
                                
  19595082.507   104636647.632    19595079.988    81384048.817    19595079.077  
                                
  22201968.161   118598927.955    22201965.928    92243601.322    22201966.178  
                                
  26902445.727   141373307.077                                                  
  26902452.910   105571003.298  
  23997948.154   126110069.381                                                  
  23997952.013    94173118.454  
  23857429.945   125371640.928                                                  
  23857435.092    93621699.771  
  24129777.157   126802835.611                                                  
  24129782.303    94690447.783  
 21  8 31  2 35 12.0000000  0 16G 3G 4G16G22G26G29G31G32R 7R 8R 9R16
                                E 7E19E21E27
  21852076.967   114833439.455    21852076.359    89480596.139    21852075.645  
  21852078.700    85752249.771  
  23213231.172   121986352.837    23213228.706    95054287.992    23213228.134  
  23213234.335    91093717.035  
  21207541.648   111446383.761                    86841320.519    21207537.413  
                                
  22312706.946   117254066.712                    91366780.837    22312701.067  
                                
  20037642.133   105298520.472    20037641.526    82050791.316    20037641.151  
  20037642.509    78632013.428  
  24186919.969   127103122.084    24186917.324    99041380.021    24186916.538  
                                
  21400709.985   112461490.675    21400705.947    87632309.835    21400705.054  
                                
  23341889.620   122662457.866    23341889.406    95581130.759    23341888.494  
  23341890.782    91598593.211  
  19242047.187   103004184.594    19242044.650    80114355.094    19242043.649  
                                
  21918295.349   117371476.762    21918293.312    91288917.279    21918292.740  
                                
  19595278.459   104637693.956    19595275.940    81384862.626    19595275.010  
                                
  22202598.509   118602295.237    22202596.311    92246220.321    22202596.525  
                                
  26902933.694   141375871.357                                                  
  26902940.913   105572918.173  
  23997654.852   126108527.986                                                  
  23997658.693    94171967.418  
  23857224.005   125370558.659                                                  
  23857229.115    93620891.588  
  24130072.639   126804388.374                                                  
  24130077.767    94691607.314  
 21  8 31  2 35 13.0000000  0 16G 3G 4G16G22G26G29G31G32R 7R 8R 9R16
                                E 7E19E21E27
  21852139.062   114833765.854    21852138.472    89480850.478    21852137.739  
  21852140.813    85752493.506  
  23212648.534   121983291.077    23212646.086    95051902.213    23212645.497  
  23212651.697    91091430.654  
  21207021.195   111443648.870                    86839189.437    21207016.960  
                                
  22312997.461   117255593.438                    91367970.496    22312991.582  
                                
  20037631.430   105298464.298    20037630.840    82050747.548    20037630.465  
  20037631.823    78631971.480  
  24186974.755   127103410.068    24186972.111    99041604.428    24186971.343  
                                
  21401044.797   112463250.129    21401040.759    87633680.841    21401039.866  
                                
  23342453.602   122665421.674    23342453.406    95583440.219    23342452.477  
  23342454.782    91600806.435  
  19241956.877   103003701.196    19241954.340    80113979.118    19241953.339  
                                
  21917610.715   117367810.499    21917608.642    91286065.748    21917608.088  
                                
  19595474.500   104638740.795    19595471.981    81385676.839    19595471.052  
                                
  22203228.892   118605662.692    22203226.694    92248839.452    22203226.909  
                                
  26903421.715   141378435.859                                                  
  26903428.916   105574833.228  
  23997361.585   126106986.916                                                  
  23997365.445    94170816.620  
  23857018.118   125369476.804                                                  
  23857023.246    93620083.714  
  24130368.175   126805941.446                                                  
  24130373.303    94692767.075  
 21  8 31  2 35 14.0000000  0 16G 3G 4G16G22G26G29G31G32R 7R 8R 9R16
                                E 7E19E21E27
  21852201.353   114834093.133    21852200.763    89481105.498    21852200.031  
  21852203.104    85752737.896  
  23212065.968   121980229.632    23212063.503    95049516.673    23212062.931  
  23212069.131    91089144.512  
  21206500.903   111440914.706                    86837058.923    21206496.668  
                                
  22313288.118   117257120.868                    91369160.703    22313282.239  
                                
  20037620.905   105298408.975    20037620.315    82050704.439    20037619.922  
  20037621.280    78631930.165  
  24187029.703   127103698.900    24187027.094    99041829.490    24187026.290  
                                
  21401379.681   112465009.959    21401375.642    87635052.139    21401374.731  
                                
  23343017.709   122668385.966    23343017.495    95585750.059    23343016.584  
  23343018.871    91603020.026  
  19241866.781   103003218.841    19241864.226    80113603.955    19241863.225  
                                
  21916926.153   117364144.801    21916924.116    91283214.652    21916923.544  
                                
  19595670.666   104639788.302    19595668.129    81386491.569    19595667.236  
                                
  22203859.347   118609030.412    22203857.131    92251458.792    22203857.364  
                                
  26903909.807   141381000.746                                                  
  26903916.990   105576748.561  
  23997068.426   126105446.328                                                  
  23997072.268    94169666.180  
  23856812.374   125368395.539                                                  
  23856817.503    93619276.265  
  24130663.800   126807495.001                                                  
  24130668.964    94693927.192  
 21  8 31  2 35 15.0000000  0 16G 3G 4G16G22G26G29G31G32R 7R 8R 9R16
                                E 7E19E21E27
  21852263.823   114834421.369    21852263.216    89481361.266    21852262.483  
  21852265.539    85752983.007  
  23211483.474   121977168.588    23211481.008    95047131.451    23211480.436  
  23211486.637    91086858.675  
  21205980.753   111438181.350                    86834929.041    21205976.518  
                                
  22313578.919   117258649.079                    91370351.510    22313573.040  
                                
  20037610.541   105298354.570    20037609.969    82050662.046    20037609.576  
  20037610.934    78631889.534  
  24187084.847   127103988.627    24187082.220    99042055.265    24187081.416  
                                
  21401714.653   112466770.267    21401710.615    87636423.810    21401709.704  
                                
  23343581.906   122671350.818    23343581.692    95588060.341    23343580.780  
  23343583.050    91605234.047  
  19241776.864   103002737.632    19241774.327    80113229.679    19241773.344  
                                
  21916241.734   117360479.796    21916239.679    91280364.074    21916239.125  
                                
  19595866.958   104640836.552    19595864.438    81387306.875    19595863.527  
                                
  22204489.856   118612398.522    22204487.640    92254078.439    22204487.890  
                                
  26904397.971   141383566.126                                                  
  26904405.154   105578664.267  
  23996775.374   126103906.306                                                  
  23996779.198    94168516.159  
  23856606.737   125367314.923                                                  
  23856611.866    93618469.313  
  24130959.550   126809049.135                                                  
  24130964.696    94695087.744  
 21  8 31  2 35 16.0000000  0 16G 3G 4G16G22G26G29G31G32R 7R 8R 9R16
                                E 7E19E21E27
  21852326.418   114834750.358    21852325.811    89481617.622    21852325.096  
  21852328.152    85753228.685  
  23210900.998   121974107.744    23210898.567    95044746.380    23210897.960  
  23210904.160    91084572.991  
  21205460.747   111435448.606                    86832799.631    21205456.512  
                                
  22313869.862   117260177.880                    91371542.781    22313863.983  
