% program   : rnx2rtkp ver.2.4.3 b31
% inp file  : ngs/21_08_31_19_48_48_scwt.obs
% inp file  : ngs/21_08_31_19_48_48_scwt_SW.obs
% inp file  : ngs/21_08_31_19_48_48_brdc.nav
% obs start : 2021/08/31 19:00:00.0 GPST (week2173 241200.0s)
% obs end   : 2021/08/31 19:59:59.0 GPST (week2173 244799.0s)
% ref pos   :   877834.0614  -5342142.3465   3360930.2191
%
% (x/y/z-ecef=WGS84,Q=1:fix,2:float,3:sbas,4:dgps,5:single,6:ppp,ns=# of satellites)
%  GPST              x-ecef(m)      y-ecef(m)      z-ecef(m)   Q  ns   sdx(m)   sdy(m)   sdz(m)  sdxy(m)  sdyz(m)  sdzx(m) age(s)  ratio
2173 244103.000    869160.3827  -5289360.8968   3444970.3150   2   6   0.5639   1.0368   0.7563  -0.3988  -0.4716   0.1883 -30.00    1.0
2173 244104.000    869160.2940  -5289360.8656   3444970.4180   2   6   0.4018   0.7372   0.5402  -0.2830  -0.3354   0.1335 -29.00    1.0
2173 244105.000    869160.2252  -5289360.7152   3444970.3592   2   6   0.3290   0.6035   0.4428  -0.2316  -0.2746   0.1093 -28.00    1.1
2173 244106.000    869160.1927  -5289360.7438   3444970.3638   2   6   0.2855   0.5235   0.3843  -0.2009  -0.2382   0.0948 -27.00    1.1
2173 244107.000    869160.1790  -5289360.7677   3444970.3892   2   6   0.2557   0.4688   0.3442  -0.1799  -0.2134   0.0850 -26.00    1.1
2173 244108.000    869160.1477  -5289360.7489   3444970.4163   2   6   0.2336   0.4283   0.3146  -0.1644  -0.1950   0.0777 -25.00    1.1
2173 244109.000    869160.1554  -5289360.7099   3444970.4351   2   6   0.2165   0.3968   0.2915  -0.1524  -0.1807   0.0721 -24.00    1.1
2173 244110.000    869160.1434  -5289360.6278   3444970.4400   2   6   0.2026   0.3714   0.2728  -0.1426  -0.1691   0.0675 -23.00    1.2
2173 244111.000    869160.1261  -5289360.5929   3444970.4274   2   6   0.1911   0.3503   0.2573  -0.1345  -0.1595   0.0637 -22.00    1.2
2173 244112.000    869160.1076  -5289360.5913   3444970.4345   2   6   0.1814   0.3323   0.2442  -0.1276  -0.1514   0.0605 -21.00    1.2
2173 244113.000    869160.1040  -5289360.5976   3444970.4474   2   6   0.1730   0.3169   0.2329  -0.1217  -0.1444   0.0577 -20.00    1.2
2173 244114.000    869160.1117  -5289360.6120   3444970.4691   2   6   0.1656   0.3034   0.2231  -0.1165  -0.1383   0.0553 -19.00    1.2
2173 244115.000    869160.1085  -5289360.6515   3444970.4751   2   6   0.1591   0.2914   0.2143  -0.1119  -0.1328   0.0532 -18.00    1.2
2173 244116.000    869160.0955  -5289360.6594   3444970.4694   2   6   0.1534   0.2807   0.2066  -0.1078  -0.1280   0.0513 -17.00    1.2
2173 244117.000    869160.0930  -5289360.6522   3444970.4647   2   6   0.1482   0.2711   0.1996  -0.1041  -0.1236   0.0495 -16.00    1.1
2173 244118.000    869160.0953  -5289360.6485   3444970.4616   2   6   0.1434   0.2624   0.1932  -0.1008  -0.1197   0.0480 -15.00    1.1
2173 244119.000    869160.1015  -5289360.6486   3444970.4629   2   6   0.1391   0.2545   0.1875  -0.0977  -0.1161   0.0466 -14.00    1.0
2173 244120.000    869160.1077  -5289360.6574   3444970.4555   2   6   0.1352   0.2472   0.1822  -0.0949  -0.1128   0.0452 -13.00    1.0
2173 244121.000    869160.1052  -5289360.6594   3444970.4453   2   6   0.1316   0.2404   0.1773  -0.0923  -0.1098   0.0440 -12.00    1.0
2173 244122.000    869160.1051  -5289360.6579   3444970.4402   2   6   0.1282   0.2342   0.1728  -0.0899  -0.1069   0.0429 -11.00    1.1
2173 244123.000    869160.1096  -5289360.6496   3444970.4319   2   6   0.1251   0.2284   0.1686  -0.0877  -0.1043   0.0419 -10.00    1.1
2173 244124.000    869160.0998  -5289360.6385   3444970.4344   2   6   0.1222   0.2230   0.1647  -0.0856  -0.1019   0.0409  -9.00    1.1
2173 244125.000    869160.0964  -5289360.6491   3444970.4398   2   6   0.1195   0.2179   0.1611  -0.0837  -0.0996   0.0400  -8.00    1.2
2173 244126.000    869160.0977  -5289360.6435   3444970.4378   2   6   0.1169   0.2132   0.1577  -0.0819  -0.0975   0.0392  -7.00    1.2
2173 244127.000    869160.0997  -5289360.6457   3444970.4311   2   6   0.1145   0.2087   0.1545  -0.0802  -0.0955   0.0384  -6.00    1.2
2173 244128.000    869160.0938  -5289360.6389   3444970.4282   2   6   0.1123   0.2045   0.1515  -0.0786  -0.0936   0.0377  -5.00    1.2
2173 244129.000    869160.0952  -5289360.6350   3444970.4306   2   6   0.1102   0.2006   0.1487  -0.0770  -0.0919   0.0370  -4.00    1.3
2173 244130.000    869160.0957  -5289360.6338   3444970.4262   2   6   0.1082   0.1968   0.1460  -0.0756  -0.0902   0.0363  -3.00    1.3
2173 244131.000    869160.0937  -5289360.6318   3444970.4194   2   6   0.1063   0.1933   0.1434  -0.0743  -0.0887   0.0357  -2.00    1.3
2173 244132.000    869160.0865  -5289360.6174   3444970.4120   2   6   0.1045   0.1900   0.1410  -0.0730  -0.0872   0.0351  -1.00    1.4
2173 244133.000    869160.0843  -5289360.6133   3444970.4044   2   6   0.1028   0.1868   0.1387  -0.0718  -0.0858   0.0346   0.00    1.4
2173 244134.000    869160.0818  -5289360.6251   3444970.4068   2   6   0.1012   0.1838   0.1366  -0.0706  -0.0844   0.0341   0.00    1.4
2173 244135.000    869160.0760  -5289360.6308   3444970.4079   2   6   0.0996   0.1809   0.1345  -0.0696  -0.0832   0.0336   0.00    1.4
2173 244136.000    869160.0693  -5289360.6240   3444970.4078   2   6   0.0982   0.1782   0.1325  -0.0685  -0.0819   0.0331   0.00    1.4
2173 244137.000    869160.0626  -5289360.6163   3444970.4063   2   6   0.0968   0.1756   0.1306  -0.0675  -0.0808   0.0326   0.00    1.4
2173 244138.000    869160.0591  -5289360.6143   3444970.4083   2   6   0.0954   0.1730   0.1288  -0.0666  -0.0797   0.0322   0.00    1.5
2173 244139.000    869160.0628  -5289360.6072   3444970.4079   2   6   0.0941   0.1706   0.1271  -0.0656  -0.0786   0.0318   0.00    1.5
2173 244140.000    869160.0660  -5289360.6068   3444970.3968   2   6   0.0929   0.1683   0.1254  -0.0648  -0.0776   0.0314   0.00    1.5
2173 244141.000    869160.0688  -5289360.6094   3444970.3874   2   6   0.0917   0.1661   0.1238  -0.0639  -0.0766   0.0310   0.00    1.5
2173 244142.000    869160.0683  -5289360.6090   3444970.3764   2   6   0.0906   0.1639   0.1223  -0.0631  -0.0756   0.0306   0.00    1.5
2173 244143.000    869160.0680  -5289360.5985   3444970.3710   2   6   0.0894   0.1618   0.1208  -0.0623  -0.0747   0.0303   0.00    1.6
2173 244144.000    869160.0644  -5289360.5995   3444970.3644   2   6   0.0884   0.1598   0.1193  -0.0615  -0.0738   0.0299   0.00    1.6
2173 244145.000    869160.0601  -5289360.6009   3444970.3665   2   6   0.0874   0.1579   0.1180  -0.0608  -0.0730   0.0296   0.00    1.6
2173 244146.000    869160.0572  -5289360.6038   3444970.3635   2   6   0.0864   0.1560   0.1166  -0.0601  -0.0722   0.0293   0.00    1.6
2173 244147.000    869160.0592  -5289360.6157   3444970.3533   2   6   0.0854   0.1542   0.1153  -0.0594  -0.0714   0.0290   0.00    1.7
2173 244148.000    869160.0579  -5289360.6148   3444970.3528   2   6   0.0845   0.1524   0.1141  -0.0587  -0.0706   0.0287   0.00    1.7
2173 244149.000    869160.0614  -5289360.6277   3444970.3540   2   6   0.0836   0.1507   0.1129  -0.0581  -0.0699   0.0284   0.00    1.7
2173 244150.000    869160.0571  -5289360.6317   3444970.3498   2   6   0.0827   0.1490   0.1117  -0.0574  -0.0692   0.0281   0.00    1.8
2173 244151.000    869160.0544  -5289360.6405   3444970.3451   2   6   0.0819   0.1474   0.1106  -0.0568  -0.0685   0.0279   0.00    1.8
2173 244152.000    869160.0570  -5289360.6496   3444970.3435   2   6   0.0810   0.1458   0.1095  -0.0562  -0.0678   0.0276   0.00    1.8
2173 244153.000    869160.0643  -5289360.6601   3444970.3339   2   8   0.0798   0.1434   0.1080  -0.0552  -0.0677   0.0286   0.00    1.0
2173 244154.000    869160.0662  -5289360.6727   3444970.3277   2   8   0.0787   0.1412   0.1066  -0.0542  -0.0675   0.0296   0.00    1.0
2173 244155.000    869160.0694  -5289360.6754   3444970.3245   2   8   0.0776   0.1390   0.1053  -0.0533  -0.0673   0.0303   0.00    1.0
2173 244156.000    869160.0724  -5289360.6438   3444970.3133   2   8   0.0766   0.1370   0.1040  -0.0524  -0.0670   0.0309   0.00    1.0
2173 244157.000    869160.0806  -5289360.6562   3444970.3003   2   8   0.0756   0.1350   0.1028  -0.0516  -0.0668   0.0314   0.00    1.1
2173 244158.000    869160.0850  -5289360.6611   3444970.2943   2   8   0.0747   0.1332   0.1017  -0.0508  -0.0665   0.0319   0.00    1.1
2173 244159.000    869160.0903  -5289360.6616   3444970.2855   2   8   0.0738   0.1314   0.1006  -0.0501  -0.0662   0.0322   0.00    1.1
2173 244160.000    869160.0917  -5289360.6609   3444970.2806   2   8   0.0729   0.1297   0.0995  -0.0494  -0.0658   0.0325   0.00    1.0
2173 244161.000    869160.0970  -5289360.6642   3444970.2755   2   8   0.0721   0.1280   0.0984  -0.0488  -0.0655   0.0328   0.00    1.1
2173 244162.000    869160.1012  -5289360.6712   3444970.2680   2   8   0.0712   0.1264   0.0974  -0.0482  -0.0652   0.0330   0.00    1.1
2173 244163.000    869160.1018  -5289360.6730   3444970.2605   2   8   0.0705   0.1249   0.0964  -0.0476  -0.0648   0.0332   0.00    1.1
2173 244164.000    869160.1064  -5289360.6727   3444970.2557   2   8   0.0697   0.1234   0.0955  -0.0470  -0.0644   0.0334   0.00    1.1
2173 244165.000    869160.1067  -5289360.6719   3444970.2521   2   8   0.0690   0.1219   0.0945  -0.0465  -0.0641   0.0335   0.00    1.1
2173 244166.000    869160.1099  -5289360.6746   3444970.2474   2   8   0.0683   0.1205   0.0936  -0.0459  -0.0637   0.0336   0.00    1.0
2173 244167.000    869160.1177  -5289360.6772   3444970.2428   2   8   0.0676   0.1192   0.0928  -0.0454  -0.0634   0.0337   0.00    1.0
2173 244168.000    869160.1214  -5289360.6787   3444970.2413   2   8   0.0670   0.1179   0.0919  -0.0450  -0.0630   0.0337   0.00    1.0
2173 244169.000    869160.1240  -5289360.6776   3444970.2363   2   8   0.0663   0.1166   0.0911  -0.0445  -0.0626   0.0338   0.00    1.0
2173 244170.000    869160.1278  -5289360.6858   3444970.2319   2   8   0.0657   0.1154   0.0902  -0.0440  -0.0622   0.0338   0.00    1.0
2173 244171.000    869160.1292  -5289360.6932   3444970.2269   2   8   0.0651   0.1142   0.0894  -0.0435  -0.0619   0.0338   0.00    1.0
2173 244172.000    869160.1326  -5289360.7025   3444970.2246   2   8   0.0646   0.1130   0.0887  -0.0431  -0.0615   0.0338   0.00    1.0
2173 244173.000    869160.1381  -5289360.7105   3444970.2229   2   8   0.0640   0.1119   0.0879  -0.0427  -0.0611   0.0338   0.00    1.0
2173 244174.000    869160.1404  -5289360.7074   3444970.2164   2   8   0.0634   0.1108   0.0872  -0.0423  -0.0608   0.0337   0.00    1.0
2173 244175.000    869160.1408  -5289360.7086   3444970.2107   2   8   0.0629   0.1097   0.0864  -0.0419  -0.0604   0.0337   0.00    1.0
2173 244176.000    869160.1424  -5289360.7120   3444970.2024   2   8   0.0624   0.1087   0.0857  -0.0415  -0.0600   0.0336   0.00    1.0
2173 244177.000    869160.1422  -5289360.7143   3444970.2011   2   8   0.0619   0.1076   0.0850  -0.0412  -0.0596   0.0336   0.00    1.1
2173 244178.000    869160.1442  -5289360.7219   3444970.1994   2   8   0.0614   0.1066   0.0843  -0.0408  -0.0593   0.0335   0.00    1.1
2173 244179.000    869160.1468  -5289360.7336   3444970.1952   2   8   0.0609   0.1056   0.0836  -0.0405  -0.0589   0.0335   0.00    1.1
2173 244180.000    869160.1487  -5289360.7377   3444970.1898   2   8   0.0604   0.1047   0.0829  -0.0401  -0.0586   0.0333   0.00    1.1
2173 244181.000    869160.1484  -5289360.7457   3444970.1793   2   8   0.0600   0.1038   0.0823  -0.0397  -0.0582   0.0333   0.00    1.1
2173 244182.000    869160.1488  -5289360.7512   3444970.1731   2   8   0.0595   0.1029   0.0816  -0.0394  -0.0578   0.0332   0.00    1.1
2173 244183.000    869160.1503  -5289360.7528   3444970.1634   2   8   0.0591   0.1020   0.0810  -0.0391  -0.0575   0.0331   0.00    1.1
2173 244184.000    869160.1505  -5289360.7576   3444970.1600   2   8   0.0586   0.1011   0.0803  -0.0388  -0.0571   0.0330   0.00    1.1
2173 244185.000    869160.1546  -5289360.7605   3444970.1529   2   8   0.0582   0.1002   0.0797  -0.0385  -0.0568   0.0329   0.00    1.1
2173 244186.000    869160.1559  -5289360.7573   3444970.1443   2   8   0.0578   0.0994   0.0791  -0.0382  -0.0564   0.0328   0.00    1.1
2173 244187.000    869160.1607  -5289360.7504   3444970.1386   2   8   0.0574   0.0986   0.0785  -0.0379  -0.0561   0.0326   0.00    1.1
2173 244188.000    869160.1588  -5289360.7470   3444970.1337   2   8   0.0570   0.0977   0.0779  -0.0376  -0.0557   0.0325   0.00    1.1
2173 244189.000    869160.1741  -5289360.7671   3444970.1666   2   8   0.0566   0.0970   0.0773  -0.0373  -0.0554   0.0324   0.00    1.1
2173 244190.000    869160.1724  -5289360.7710   3444970.1686   2   8   0.0563   0.0962   0.0767  -0.0370  -0.0550   0.0323   0.00    1.0
2173 244191.000    869160.1723  -5289360.7768   3444970.1710   2   8   0.0559   0.0954   0.0761  -0.0368  -0.0547   0.0322   0.00    1.0
2173 244192.000    869160.1732  -5289360.7867   3444970.1701   2   8   0.0555   0.0946   0.0756  -0.0365  -0.0544   0.0320   0.00    1.0
2173 244193.000    869160.1748  -5289360.7865   3444970.1690   2   8   0.0552   0.0939   0.0750  -0.0362  -0.0540   0.0319   0.00    1.0
2173 244194.000    869160.1732  -5289360.7926   3444970.1681   2   8   0.0548   0.0932   0.0745  -0.0359  -0.0537   0.0317   0.00    1.0
2173 244195.000    869160.1728  -5289360.7953   3444970.1663   2   8   0.0545   0.0925   0.0739  -0.0357  -0.0534   0.0316   0.00    1.0
2173 244196.000    869160.1720  -5289360.7987   3444970.1610   2   8   0.0541   0.0918   0.0733  -0.0354  -0.0530   0.0315   0.00    1.0
2173 244197.000    869160.1711  -5289360.8089   3444970.1601   2   8   0.0538   0.0911   0.0728  -0.0352  -0.0527   0.0313   0.00    1.0
2173 244198.000    869160.1713  -5289360.8227   3444970.1581   2   8   0.0535   0.0904   0.0723  -0.0349  -0.0524   0.0312   0.00    1.0
2173 244199.000    869160.1710  -5289360.8378   3444970.1562   2   8   0.0531   0.0897   0.0717  -0.0348  -0.0520   0.0310   0.00    1.0
2173 244200.000    869160.1714  -5289360.8454   3444970.1533   2   8   0.0528   0.0891   0.0712  -0.0345  -0.0517   0.0309   0.00    1.1
2173 244201.000    869160.1749  -5289360.8606   3444970.1511   2   8   0.0525   0.0884   0.0707  -0.0343  -0.0514   0.0308   0.00    1.1
2173 244202.000    869160.1783  -5289360.8736   3444970.1493   2   8   0.0522   0.0878   0.0702  -0.0340  -0.0510   0.0306   0.00    1.1
2173 244203.000    869160.1785  -5289360.8850   3444970.1513   2   8   0.0519   0.0872   0.0697  -0.0338  -0.0507   0.0304   0.00    1.1
2173 244204.000    869160.1781  -5289360.8880   3444970.1487   2   8   0.0516   0.0866   0.0692  -0.0336  -0.0504   0.0303   0.00    1.1
2173 244205.000    869160.1807  -5289360.8963   3444970.1492   2   8   0.0513   0.0860   0.0687  -0.0333  -0.0501   0.0302   0.00    1.1
2173 244206.000    869160.1771  -5289360.9049   3444970.1442   2   8   0.0510   0.0854   0.0682  -0.0331  -0.0498   0.0300   0.00    1.1
2173 244207.000    869160.1770  -5289360.9064   3444970.1380   2   8   0.0508   0.0848   0.0677  -0.0329  -0.0495   0.0298   0.00    1.2
2173 244208.000    869160.1763  -5289360.9140   3444970.1437   2   8   0.0505   0.0842   0.0672  -0.0326  -0.0492   0.0297   0.00    1.2
2173 244209.000    869160.1774  -5289360.9196   3444970.1392   2   8   0.0502   0.0836   0.0667  -0.0324  -0.0489   0.0295   0.00    1.2
2173 244210.000    869160.1775  -5289360.9286   3444970.1369   2   8   0.0499   0.0830   0.0662  -0.0322  -0.0486   0.0294   0.00    1.2
2173 244211.000    869160.1791  -5289360.9369   3444970.1369   2   8   0.0497   0.0825   0.0658  -0.0320  -0.0482   0.0292   0.00    1.2
2173 244212.000    869160.1829  -5289360.9448   3444970.1369   2   8   0.0494   0.0819   0.0653  -0.0318  -0.0479   0.0291   0.00    1.2
2173 244213.000    869160.1834  -5289360.9504   3444970.1346   2   8   0.0492   0.0814   0.0648  -0.0316  -0.0476   0.0289   0.00    1.2
2173 244214.000    869160.1823  -5289360.9572   3444970.1334   2   8   0.0489   0.0808   0.0644  -0.0315  -0.0473   0.0287   0.00    1.2
2173 244215.000    869160.1826  -5289360.9661   3444970.1405   2   8   0.0486   0.0803   0.0639  -0.0313  -0.0470   0.0286   0.00    1.2
2173 244216.000    869160.1829  -5289360.9758   3444970.1384   2   8   0.0484   0.0798   0.0634  -0.0310  -0.0467   0.0285   0.00    1.2
2173 244217.000    869160.1836  -5289360.9872   3444970.1380   2   8   0.0481   0.0792   0.0630  -0.0308  -0.0464   0.0283   0.00    1.2
2173 244218.000    869160.1853  -5289360.9983   3444970.1358   2   8   0.0479   0.0787   0.0625  -0.0306  -0.0461   0.0281   0.00    1.2
2173 244219.000    869160.1873  -5289361.0003   3444970.1319   2   8   0.0477   0.0782   0.0621  -0.0305  -0.0459   0.0280   0.00    1.2
2173 244220.000    869160.1876  -5289361.0074   3444970.1303   2   8   0.0475   0.0777   0.0617  -0.0302  -0.0456   0.0278   0.00    1.2
2173 244221.000    869160.1891  -5289361.0157   3444970.1271   2   8   0.0472   0.0772   0.0612  -0.0301  -0.0453   0.0277   0.00    1.2
2173 244222.000    869160.1913  -5289361.0194   3444970.1236   2   8   0.0470   0.0768   0.0608  -0.0299  -0.0450   0.0275   0.00    1.3
2173 244223.000    869160.1937  -5289361.0314   3444970.1170   2   8   0.0467   0.0763   0.0604  -0.0297  -0.0447   0.0273   0.00    1.3
2173 244224.000    869160.1999  -5289361.0393   3444970.1157   2   8   0.0465   0.0758   0.0599  -0.0296  -0.0444   0.0272   0.00    1.3
2173 244225.000    869160.2020  -5289361.0441   3444970.1122   2   8   0.0463   0.0753   0.0595  -0.0294  -0.0441   0.0270   0.00    1.3
2173 244226.000    869160.2045  -5289361.0499   3444970.1061   2   8   0.0461   0.0748   0.0591  -0.0291  -0.0439   0.0269   0.00    1.3
2173 244227.000    869160.2055  -5289361.0553   3444970.1056   2   8   0.0459   0.0744   0.0587  -0.0290  -0.0436   0.0268   0.00    1.3
2173 244228.000    869160.2063  -5289361.0592   3444970.1031   2   8   0.0457   0.0739   0.0583  -0.0288  -0.0433   0.0265   0.00    1.3
2173 244229.000    869160.2071  -5289361.0605   3444970.1016   2   8   0.0454   0.0735   0.0578  -0.0287  -0.0430   0.0265   0.00    1.3
2173 244230.000    869160.2059  -5289361.0600   3444970.0960   2   8   0.0452   0.0730   0.0574  -0.0285  -0.0428   0.0263   0.00    1.3
2173 244231.000    869160.2083  -5289361.0605   3444970.0928   2   8   0.0450   0.0726   0.0570  -0.0283  -0.0425   0.0261   0.00    1.3
2173 244232.000    869160.2086  -5289361.0574   3444970.0865   2   8   0.0448   0.0721   0.0566  -0.0282  -0.0422   0.0260   0.00    1.3
2173 244233.000    869160.2101  -5289361.0555   3444970.0799   2   8   0.0446   0.0717   0.0562  -0.0280  -0.0419   0.0258   0.00    1.3
2173 244234.000    869160.2084  -5289361.0545   3444970.0731   2   8   0.0445   0.0713   0.0558  -0.0278  -0.0417   0.0256   0.00    1.3
2173 244235.000    869160.2104  -5289361.0542   3444970.0654   2   8   0.0443   0.0709   0.0554  -0.0277  -0.0414   0.0255   0.00    1.2
2173 244236.000    869160.2098  -5289361.0495   3444970.0567   2   8   0.0441   0.0705   0.0551  -0.0275  -0.0412   0.0253   0.00    1.2
2173 244237.000    869160.2061  -5289361.0493   3444970.0482   2   8   0.0439   0.0700   0.0547  -0.0274  -0.0409   0.0252   0.00    1.2
2173 244238.000    869160.2080  -5289361.0466   3444970.0429   2   8   0.0437   0.0696   0.0543  -0.0272  -0.0406   0.0250   0.00    1.2
2173 244239.000    869160.2059  -5289361.0425   3444970.0381   2   8   0.0435   0.0692   0.0539  -0.0270  -0.0404   0.0249   0.00    1.2
2173 244240.000    869160.2067  -5289361.0409   3444970.0339   2   8   0.0433   0.0688   0.0535  -0.0269  -0.0401   0.0247   0.00    1.2
2173 244241.000    869160.2062  -5289361.0405   3444970.0286   2   8   0.0431   0.0684   0.0531  -0.0268  -0.0398   0.0246   0.00    1.2
2173 244242.000    869160.2066  -5289361.0361   3444970.0272   2   8   0.0430   0.0680   0.0528  -0.0265  -0.0396   0.0245   0.00    1.2
2173 244243.000    869160.2045  -5289361.0269   3444970.0169   2   8   0.0427   0.0676   0.0524  -0.0264  -0.0394   0.0243   0.00    1.2
2173 244244.000    869160.2064  -5289361.0263   3444970.0130   2   8   0.0426   0.0672   0.0521  -0.0263  -0.0391   0.0241   0.00    1.2
2173 244245.000    869160.2128  -5289361.0340   3444970.0387   2   8   0.0426   0.0673   0.0531  -0.0265  -0.0400   0.0246   0.00    1.0
2173 244246.000    869160.2160  -5289361.0340   3444970.0453   2   8   0.0423   0.0669   0.0526  -0.0263  -0.0397   0.0243   0.00    1.0
2173 244247.000    869160.2191  -5289361.0350   3444970.0527   2   8   0.0422   0.0667   0.0522  -0.0263  -0.0395   0.0242   0.00    1.1
2173 244248.000    869160.2189  -5289361.0374   3444970.0590   2   8   0.0420   0.0664   0.0520  -0.0262  -0.0393   0.0241   0.00    1.1
2173 244249.000    869160.2230  -5289361.0362   3444970.0692   2   8   0.0418   0.0662   0.0517  -0.0261  -0.0392   0.0239   0.00    1.1
2173 244250.000    869160.2252  -5289361.0370   3444970.0742   2   8   0.0417   0.0660   0.0515  -0.0260  -0.0391   0.0238   0.00    1.1
2173 244251.000    869160.2259  -5289361.0425   3444970.0820   2   8   0.0415   0.0657   0.0513  -0.0259  -0.0389   0.0237   0.00    1.1
2173 244252.000    869160.2281  -5289361.0391   3444970.0889   2   8   0.0413   0.0655   0.0510  -0.0258  -0.0388   0.0235   0.00    1.2
2173 244253.000    869160.2300  -5289361.0399   3444970.0900   2   8   0.0411   0.0653   0.0508  -0.0257  -0.0387   0.0235   0.00    1.2
2173 244254.000    869160.2351  -5289361.0452   3444970.0952   2   8   0.0410   0.0650   0.0506  -0.0256  -0.0386   0.0234   0.00    1.2
2173 244255.000    869160.2355  -5289361.0486   3444970.1038   2   8   0.0409   0.0648   0.0504  -0.0255  -0.0385   0.0232   0.00    1.2
2173 244256.000    869160.2380  -5289361.0510   3444970.1092   2   8   0.0407   0.0646   0.0502  -0.0255  -0.0384   0.0231   0.00    1.2
2173 244257.000    869160.2408  -5289361.0517   3444970.1118   2   8   0.0405   0.0644   0.0500  -0.0253  -0.0383   0.0230   0.00    1.2
2173 244258.000    869160.2449  -5289361.0542   3444970.1199   2   8   0.0404   0.0642   0.0498  -0.0252  -0.0382   0.0229   0.00    1.2
2173 244259.000    869160.2457  -5289361.0580   3444970.1237   2   8   0.0403   0.0639   0.0495  -0.0252  -0.0380   0.0229   0.00    1.3
2173 244260.000    869160.2498  -5289361.0596   3444970.1307   2   8   0.0401   0.0637   0.0494  -0.0250  -0.0380   0.0227   0.00    1.3
2173 244261.000    869160.2515  -5289361.0610   3444970.1328   2   8   0.0400   0.0635   0.0491  -0.0250  -0.0379   0.0226   0.00    1.3
2173 244262.000    869160.2555  -5289361.0676   3444970.1368   2   8   0.0398   0.0633   0.0489  -0.0248  -0.0377   0.0225   0.00    1.3
2173 244263.000    869160.2569  -5289361.0678   3444970.1375   2   8   0.0397   0.0631   0.0487  -0.0248  -0.0376   0.0224   0.00    1.3
2173 244264.000    869160.2587  -5289361.0667   3444970.1368   2   8   0.0396   0.0629   0.0485  -0.0247  -0.0375   0.0223   0.00    1.3
2173 244265.000    869160.2628  -5289361.0691   3444970.1409   2   8   0.0394   0.0627   0.0483  -0.0247  -0.0374   0.0222   0.00    1.3
2173 244266.000    869160.2631  -5289361.0702   3444970.1411   2   8   0.0393   0.0625   0.0481  -0.0245  -0.0373   0.0221   0.00    1.3
2173 244267.000    869160.2636  -5289361.0674   3444970.1419   2   8   0.0391   0.0623   0.0479  -0.0244  -0.0372   0.0220   0.00    1.3
2173 244268.000    869160.2704  -5289361.0827   3444970.1473   2   8   0.0390   0.0621   0.0477  -0.0243  -0.0371   0.0218   0.00    1.3
2173 244269.000    869160.2709  -5289361.0834   3444970.1504   2   8   0.0389   0.0619   0.0475  -0.0243  -0.0370   0.0217   0.00    1.4
2173 244270.000    869160.2742  -5289361.0822   3444970.1520   2   8   0.0388   0.0617   0.0473  -0.0242  -0.0369   0.0217   0.00    1.4
2173 244271.000    869160.2756  -5289361.0867   3444970.1554   2   8   0.0386   0.0615   0.0471  -0.0242  -0.0367   0.0215   0.00    1.4
2173 244272.000    869160.2809  -5289361.0890   3444970.1588   2   8   0.0385   0.0613   0.0469  -0.0241  -0.0366   0.0214   0.00    1.4
2173 244273.000    869160.2809  -5289361.0927   3444970.1605   2   8   0.0384   0.0611   0.0467  -0.0239  -0.0365   0.0213   0.00    1.4
2173 244274.000    869160.2831  -5289361.0934   3444970.1624   2   8   0.0382   0.0609   0.0465  -0.0239  -0.0364   0.0212   0.00    1.4
2173 244275.000    869160.2944  -5289361.1161   3444970.1648   2   8   0.0381   0.0607   0.0463  -0.0238  -0.0363   0.0211   0.00    1.4
2173 244276.000    869160.2974  -5289361.1209   3444970.1681   2   8   0.0380   0.0605   0.0461  -0.0237  -0.0362   0.0210   0.00    1.5
2173 244277.000    869160.2980  -5289361.1241   3444970.1712   2   8   0.0378   0.0603   0.0459  -0.0236  -0.0361   0.0208   0.00    1.5
2173 244278.000    869160.3010  -5289361.1297   3444970.1729   2   8   0.0377   0.0602   0.0457  -0.0236  -0.0360   0.0208   0.00    1.5
2173 244279.000    869160.3044  -5289361.1338   3444970.1772   2   8   0.0376   0.0600   0.0455  -0.0234  -0.0359   0.0206   0.00    1.5
2173 244280.000    869160.3052  -5289361.1369   3444970.1783   2   8   0.0374   0.0598   0.0453  -0.0233  -0.0358   0.0205   0.00    1.5
2173 244281.000    869160.3064  -5289361.1397   3444970.1812   2   8   0.0373   0.0596   0.0451  -0.0233  -0.0356   0.0204   0.00    1.6
2173 244282.000    869160.3096  -5289361.1418   3444970.1807   2   8   0.0372   0.0594   0.0449  -0.0231  -0.0355   0.0203   0.00    1.6
2173 244283.000    869160.3102  -5289361.1458   3444970.1831   2   8   0.0371   0.0592   0.0447  -0.0231  -0.0354   0.0202   0.00    1.6
2173 244284.000    869160.3135  -5289361.1487   3444970.1852   2   8   0.0370   0.0590   0.0445  -0.0231  -0.0353   0.0201   0.00    1.6
2173 244285.000    869160.3133  -5289361.1529   3444970.1877   2   8   0.0368   0.0588   0.0443  -0.0230  -0.0352   0.0200   0.00    1.6
2173 244286.000    869160.3126  -5289361.1611   3444970.1901   2   8   0.0367   0.0586   0.0441  -0.0229  -0.0351   0.0199   0.00    1.6
2173 244287.000    869160.3144  -5289361.1715   3444970.1926   2   8   0.0366   0.0585   0.0439  -0.0228  -0.0350   0.0198   0.00    1.6
2173 244288.000    869160.3172  -5289361.1810   3444970.1947   2   8   0.0365   0.0583   0.0437  -0.0228  -0.0348   0.0197   0.00    1.6
2173 244289.000    869160.3164  -5289361.1874   3444970.1946   2   8   0.0364   0.0581   0.0435  -0.0226  -0.0347   0.0196   0.00    1.6
2173 244290.000    869160.3213  -5289361.1957   3444970.1999   2   8   0.0363   0.0579   0.0433  -0.0226  -0.0346   0.0195   0.00    1.6
2173 244291.000    869160.3265  -5289361.2033   3444970.2048   2   8   0.0362   0.0577   0.0432  -0.0225  -0.0345   0.0194   0.00    1.7
2173 244292.000    869160.3276  -5289361.2106   3444970.2093   2   8   0.0361   0.0576   0.0430  -0.0225  -0.0344   0.0193   0.00    1.7
2173 244293.000    869160.3336  -5289361.2188   3444970.2174   2   8   0.0359   0.0574   0.0428  -0.0223  -0.0343   0.0192   0.00    1.7
2173 244294.000    869160.3341  -5289361.2225   3444970.2198   2   8   0.0359   0.0572   0.0426  -0.0223  -0.0342   0.0191   0.00    1.7
2173 244295.000    869160.3372  -5289361.2246   3444970.2235   2   8   0.0357   0.0571   0.0424  -0.0222  -0.0340   0.0190   0.00    1.7
2173 244296.000    869160.3399  -5289361.2275   3444970.2258   2   8   0.0356   0.0568   0.0422  -0.0221  -0.0340   0.0189   0.00    1.7
2173 244297.000    869160.3423  -5289361.2289   3444970.2282   2   8   0.0355   0.0567   0.0420  -0.0220  -0.0338   0.0187   0.00    1.7
2173 244298.000    869160.3441  -5289361.2299   3444970.2308   2   8   0.0354   0.0565   0.0418  -0.0219  -0.0337   0.0187   0.00    1.7
2173 244299.000    869160.3473  -5289361.2346   3444970.2343   2   8   0.0353   0.0563   0.0416  -0.0219  -0.0336   0.0186   0.00    1.7
2173 244300.000    869160.3511  -5289361.2384   3444970.2376   2   8   0.0352   0.0562   0.0414  -0.0218  -0.0335   0.0184   0.00    1.7
2173 244301.000    869160.3662  -5289361.2599   3444970.2754   2   8   0.0351   0.0560   0.0413  -0.0217  -0.0334   0.0183   0.00    1.7
2173 244302.000    869160.3684  -5289361.2659   3444970.2817   2   8   0.0350   0.0558   0.0410  -0.0216  -0.0333   0.0182   0.00    1.7
2173 244303.000    869160.3742  -5289361.2747   3444970.2844   2   8   0.0349   0.0556   0.0408  -0.0215  -0.0332   0.0182   0.00    1.7
2173 244304.000    869160.3751  -5289361.2765   3444970.2871   2   8   0.0348   0.0554   0.0406  -0.0215  -0.0330   0.0181   0.00    1.7
2173 244305.000    869160.3770  -5289361.2863   3444970.2931   2   8   0.0347   0.0553   0.0405  -0.0214  -0.0329   0.0179   0.00    1.7
2173 244306.000    869160.3815  -5289361.2889   3444970.2988   2   8   0.0346   0.0551   0.0403  -0.0214  -0.0328   0.0179   0.00    1.7
2173 244307.000    869160.3837  -5289361.2891   3444970.2977   2   8   0.0345   0.0549   0.0401  -0.0212  -0.0327   0.0178   0.00    1.8
2173 244308.000    869160.3846  -5289361.2981   3444970.3006   2   8   0.0344   0.0548   0.0399  -0.0211  -0.0326   0.0176   0.00    1.8
2173 244309.000    869160.3861  -5289361.3046   3444970.3049   2   8   0.0343   0.0546   0.0397  -0.0211  -0.0325   0.0176   0.00    1.8
2173 244310.000    869160.3874  -5289361.3075   3444970.3057   2   8   0.0342   0.0544   0.0396  -0.0210  -0.0324   0.0174   0.00    1.8
2173 244311.000    869160.3888  -5289361.3103   3444970.3039   2   8   0.0341   0.0543   0.0394  -0.0209  -0.0322   0.0174   0.00    1.8
2173 244312.000    869160.3904  -5289361.3141   3444970.2989   2   8   0.0340   0.0541   0.0392  -0.0208  -0.0322   0.0173   0.00    1.8
2173 244313.000    869160.3910  -5289361.3180   3444970.3021   2   8   0.0339   0.0539   0.0390  -0.0208  -0.0320   0.0172   0.00    1.8
2173 244314.000    869160.3914  -5289361.3200   3444970.2989   2   8   0.0338   0.0538   0.0388  -0.0207  -0.0319   0.0171   0.00    1.8
2173 244315.000    869160.3931  -5289361.3211   3444970.2985   2   8   0.0337   0.0536   0.0386  -0.0207  -0.0318   0.0170   0.00    1.8
2173 244316.000    869160.3952  -5289361.3206   3444970.2969   2   8   0.0336   0.0534   0.0385  -0.0206  -0.0317   0.0169   0.00    1.7
2173 244317.000    869160.3953  -5289361.3219   3444970.2946   2   8   0.0335   0.0533   0.0383  -0.0205  -0.0316   0.0168   0.00    1.7
2173 244318.000    869160.3978  -5289361.3266   3444970.2991   2   8   0.0334   0.0531   0.0381  -0.0204  -0.0315   0.0167   0.00    1.7
2173 244319.000    869160.3992  -5289361.3249   3444970.2966   2   8   0.0334   0.0529   0.0379  -0.0204  -0.0313   0.0166   0.00    1.7
2173 244320.000    869160.4015  -5289361.3274   3444970.2987   2   8   0.0333   0.0528   0.0377  -0.0204  -0.0312   0.0166   0.00    1.7
2173 244321.000    869160.4045  -5289361.3299   3444970.3005   2   8   0.0332   0.0526   0.0376  -0.0203  -0.0311   0.0164   0.00    1.7
2173 244322.000    869160.4052  -5289361.3340   3444970.3025   2   8   0.0331   0.0525   0.0374  -0.0202  -0.0310   0.0163   0.00    1.7
2173 244323.000    869160.4064  -5289361.3363   3444970.3035   2   8   0.0330   0.0523   0.0372  -0.0201  -0.0309   0.0162   0.00    1.7
2173 244324.000    869160.4087  -5289361.3366   3444970.3032   2   8   0.0329   0.0521   0.0370  -0.0200  -0.0308   0.0162   0.00    1.7
2173 244325.000    869160.4114  -5289361.3352   3444970.3028   2   8   0.0328   0.0520   0.0369  -0.0199  -0.0307   0.0160   0.00    1.7
2173 244326.000    869160.4115  -5289361.3334   3444970.2972   2   8   0.0327   0.0518   0.0367  -0.0199  -0.0305   0.0159   0.00    1.7
2173 244327.000    869160.4095  -5289361.3303   3444970.2904   2   8   0.0326   0.0517   0.0365  -0.0199  -0.0304   0.0159   0.00    1.7
2173 244328.000    869160.4123  -5289361.3295   3444970.2957   2   8   0.0326   0.0515   0.0363  -0.0197  -0.0303   0.0158   0.00    1.7
2173 244329.000    869160.4157  -5289361.3281   3444970.2966   2   8   0.0325   0.0513   0.0362  -0.0197  -0.0302   0.0157   0.00    1.7
2173 244330.000    869160.4166  -5289361.3309   3444970.2940   2   8   0.0324   0.0512   0.0360  -0.0196  -0.0301   0.0156   0.00    1.7
2173 244331.000    869160.4172  -5289361.3318   3444970.2954   2   8   0.0323   0.0510   0.0358  -0.0195  -0.0300   0.0155   0.00    1.7
2173 244332.000    869160.4189  -5289361.3308   3444970.2973   2   8   0.0322   0.0509   0.0357  -0.0195  -0.0299   0.0155   0.00    1.7
2173 244333.000    869160.4200  -5289361.3296   3444970.2932   2   8   0.0322   0.0507   0.0355  -0.0194  -0.0297   0.0153   0.00    1.7
2173 244334.000    869160.4207  -5289361.3309   3444970.2921   2   8   0.0321   0.0505   0.0353  -0.0194  -0.0297   0.0152   0.00    1.7
2173 244335.000    869160.4249  -5289361.3436   3444970.2833   2   8   0.0320   0.0504   0.0352  -0.0192  -0.0296   0.0152   0.00    1.7
2173 244336.000    869160.4278  -5289361.3449   3444970.2844   2   8   0.0319   0.0502   0.0350  -0.0192  -0.0294   0.0151   0.00    1.7
2173 244337.000    869160.4272  -5289361.3470   3444970.2836   2   8   0.0318   0.0501   0.0348  -0.0191  -0.0293   0.0149   0.00    1.7
2173 244338.000    869160.4285  -5289361.3540   3444970.2868   2   8   0.0318   0.0499   0.0347  -0.0190  -0.0292   0.0149   0.00    1.7
2173 244339.000    869160.4285  -5289361.3491   3444970.2840   2   8   0.0316   0.0497   0.0345  -0.0190  -0.0291   0.0148   0.00    1.6
2173 244340.000    869160.4316  -5289361.3541   3444970.2834   2   8   0.0316   0.0496   0.0344  -0.0189  -0.0290   0.0147   0.00    1.6
2173 244341.000    869160.4321  -5289361.3524   3444970.2815   2   8   0.0315   0.0494   0.0342  -0.0188  -0.0289   0.0147   0.00    1.6
2173 244342.000    869160.4331  -5289361.3542   3444970.2811   2   8   0.0315   0.0493   0.0341  -0.0187  -0.0288   0.0145   0.00    1.6
2173 244343.000    869160.4337  -5289361.3571   3444970.2786   2   8   0.0314   0.0491   0.0339  -0.0187  -0.0287   0.0145   0.00    1.6
2173 244344.000    869160.4344  -5289361.3584   3444970.2791   2   8   0.0312   0.0490   0.0337  -0.0187  -0.0285   0.0143   0.00    1.6
2173 244345.000    869160.4354  -5289361.3602   3444970.2816   2   8   0.0312   0.0489   0.0336  -0.0186  -0.0285   0.0143   0.00    1.6
2173 244346.000    869160.4345  -5289361.3670   3444970.2818   2   8   0.0311   0.0487   0.0334  -0.0185  -0.0283   0.0141   0.00    1.6
2173 244347.000    869160.4363  -5289361.3723   3444970.2857   2   8   0.0311   0.0485   0.0333  -0.0185  -0.0283   0.0141   0.00    1.6
2173 244348.000    869160.4368  -5289361.3755   3444970.2852   2   8   0.0309   0.0484   0.0331  -0.0183  -0.0281   0.0141   0.00    1.6
2173 244349.000    869160.4391  -5289361.3792   3444970.2863   2   8   0.0309   0.0482   0.0329  -0.0183  -0.0280   0.0140   0.00    1.6
2173 244350.000    869160.4367  -5289361.3789   3444970.2857   2   8   0.0309   0.0481   0.0328  -0.0182  -0.0279   0.0139   0.00    1.6
2173 244351.000    869160.4382  -5289361.3794   3444970.2876   2   8   0.0308   0.0479   0.0326  -0.0181  -0.0278   0.0138   0.00    1.6
2173 244352.000    869160.4402  -5289361.3803   3444970.2878   2   8   0.0307   0.0478   0.0325  -0.0182  -0.0277   0.0138   0.00    1.6
2173 244353.000    869160.4387  -5289361.3792   3444970.2872   2   8   0.0306   0.0476   0.0323  -0.0180  -0.0276   0.0136   0.00    1.6
2173 244354.000    869160.4392  -5289361.3758   3444970.2860   2   8   0.0305   0.0475   0.0322  -0.0180  -0.0275   0.0136   0.00    1.6
2173 244355.000    869160.4385  -5289361.3718   3444970.2863   2   8   0.0304   0.0473   0.0320  -0.0179  -0.0274   0.0134   0.00    1.6
2173 244356.000    869160.4424  -5289361.3730   3444970.2836   2   8   0.0304   0.0472   0.0319  -0.0179  -0.0273   0.0134   0.00    1.5
2173 244357.000    869160.4531  -5289361.3896   3444970.3205   2   8   0.0303   0.0470   0.0317  -0.0178  -0.0272   0.0134   0.00    1.5
2173 244358.000    869160.4543  -5289361.3962   3444970.3245   2   8   0.0302   0.0469   0.0316  -0.0178  -0.0271   0.0133   0.00    1.5
2173 244359.000    869160.4537  -5289361.3995   3444970.3246   2   8   0.0302   0.0468   0.0314  -0.0178  -0.0270   0.0132   0.00    1.5
2173 244360.000    869160.4536  -5289361.4033   3444970.3258   2   8   0.0301   0.0466   0.0313  -0.0176  -0.0269   0.0131   0.00    1.5
2173 244361.000    869160.4530  -5289361.4065   3444970.3264   2   8   0.0301   0.0464   0.0311  -0.0176  -0.0268   0.0130   0.00    1.5
2173 244362.000    869160.4525  -5289361.4122   3444970.3255   2   8   0.0300   0.0463   0.0310  -0.0176  -0.0267   0.0130   0.00    1.5
2173 244363.000    869160.4509  -5289361.4169   3444970.3274   2   8   0.0299   0.0462   0.0308  -0.0175  -0.0266   0.0129   0.00    1.5
2173 244364.000    869160.4487  -5289361.4196   3444970.3279   2   8   0.0298   0.0461   0.0307  -0.0174  -0.0265   0.0128   0.00    1.5
2173 244365.000    869160.4481  -5289361.4259   3444970.3288   2   8   0.0298   0.0459   0.0306  -0.0174  -0.0264   0.0127   0.00    1.5
2173 244366.000    869160.4459  -5289361.4296   3444970.3282   2   8   0.0297   0.0457   0.0304  -0.0173  -0.0263   0.0127   0.00    1.5
2173 244367.000    869160.4468  -5289361.4331   3444970.3324   2   8   0.0296   0.0456   0.0303  -0.0173  -0.0262   0.0126   0.00    1.5
2173 244368.000    869160.4476  -5289361.4363   3444970.3326   2   8   0.0296   0.0455   0.0301  -0.0172  -0.0261   0.0125   0.00    1.5
2173 244369.000    869160.4494  -5289361.4401   3444970.3323   2   8   0.0295   0.0453   0.0300  -0.0170  -0.0260   0.0123   0.00    1.5
2173 244370.000    869160.4462  -5289361.4453   3444970.3332   2   8   0.0295   0.0452   0.0298  -0.0170  -0.0259   0.0124   0.00    1.5
2173 244371.000    869160.4427  -5289361.4437   3444970.3223   2   7   0.0295   0.0453   0.0310  -0.0174  -0.0266   0.0133   0.00    1.5
2173 244372.000    869160.4427  -5289361.4495   3444970.3233   2   7   0.0295   0.0452   0.0310  -0.0174  -0.0265   0.0132   0.00    1.5
2173 244373.000    869160.4421  -5289361.4494   3444970.3224   2   7   0.0294   0.0451   0.0309  -0.0173  -0.0265   0.0132   0.00    1.5
2173 244374.000    869160.4375  -5289361.4471   3444970.3170   2   7   0.0294   0.0450   0.0308  -0.0173  -0.0265   0.0132   0.00    1.5
2173 244375.000    869160.4354  -5289361.4493   3444970.3113   2   7   0.0293   0.0449   0.0307  -0.0172  -0.0264   0.0131   0.00    1.5
2173 244376.000    869160.4332  -5289361.4531   3444970.3109   2   7   0.0292   0.0448   0.0306  -0.0171  -0.0264   0.0130   0.00    1.5
2173 244377.000    869160.4299  -5289361.4573   3444970.3103   2   7   0.0291   0.0447   0.0305  -0.0172  -0.0263   0.0130   0.00    1.5
2173 244378.000    869160.4324  -5289361.4669   3444970.3073   2   7   0.0291   0.0446   0.0305  -0.0171  -0.0263   0.0130   0.00    1.5
2173 244379.000    869160.4319  -5289361.4643   3444970.3068   2   7   0.0290   0.0445   0.0304  -0.0170  -0.0263   0.0129   0.00    1.5
2173 244380.000    869160.4320  -5289361.4720   3444970.3039   2   7   0.0290   0.0445   0.0303  -0.0171  -0.0263   0.0128   0.00    1.5
2173 244381.000    869160.4297  -5289361.4738   3444970.2953   2   7   0.0290   0.0443   0.0302  -0.0169  -0.0263   0.0127   0.00    1.5
2173 244382.000    869160.4314  -5289361.4756   3444970.2956   2   7   0.0289   0.0443   0.0301  -0.0169  -0.0262   0.0127   0.00    1.5
2173 244383.000    869160.4305  -5289361.4825   3444970.2938   2   7   0.0288   0.0442   0.0300  -0.0169  -0.0262   0.0127   0.00    1.5
2173 244384.000    869160.4295  -5289361.4792   3444970.2860   2   7   0.0287   0.0441   0.0300  -0.0168  -0.0261   0.0127   0.00    1.5
2173 244385.000    869160.4280  -5289361.4836   3444970.2867   2   7   0.0287   0.0440   0.0299  -0.0168  -0.0261   0.0127   0.00    1.5
2173 244386.000    869160.4281  -5289361.4877   3444970.2916   2   7   0.0287   0.0439   0.0298  -0.0167  -0.0261   0.0125   0.00    1.5
2173 244387.000    869160.4256  -5289361.4902   3444970.2873   2   7   0.0286   0.0438   0.0297  -0.0166  -0.0260   0.0125   0.00    1.5
2173 244388.000    869160.4276  -5289361.4971   3444970.2851   2   7   0.0285   0.0437   0.0296  -0.0168  -0.0259   0.0126   0.00    1.5
2173 244389.000    869160.4245  -5289361.5014   3444970.2814   2   7   0.0284   0.0436   0.0296  -0.0167  -0.0259   0.0125   0.00    1.5
2173 244390.000    869160.4235  -5289361.4989   3444970.2733   2   7   0.0284   0.0435   0.0295  -0.0166  -0.0259   0.0124   0.00    1.5
2173 244391.000    869160.4199  -5289361.5012   3444970.2680   2   7   0.0283   0.0434   0.0294  -0.0165  -0.0259   0.0124   0.00    1.5
2173 244392.000    869160.4211  -5289361.5069   3444970.2691   2   7   0.0283   0.0434   0.0293  -0.0165  -0.0258   0.0122   0.00    1.5
2173 244393.000    869160.4192  -5289361.5082   3444970.2609   2   7   0.0283   0.0433   0.0293  -0.0165  -0.0258   0.0123   0.00    1.5
2173 244394.000    869160.4182  -5289361.5070   3444970.2555   2   7   0.0282   0.0432   0.0291  -0.0164  -0.0257   0.0122   0.00    1.4
2173 244395.000    869160.4192  -5289361.5098   3444970.2521   2   7   0.0281   0.0431   0.0291  -0.0163  -0.0257   0.0122   0.00    1.4
2173 244396.000    869160.4213  -5289361.5133   3444970.2542   2   7   0.0281   0.0430   0.0290  -0.0163  -0.0257   0.0121   0.00    1.4
2173 244397.000    869160.4078  -5289361.5159   3444970.2636   2   7   0.0280   0.0429   0.0289  -0.0163  -0.0256   0.0121   0.00    1.4
2173 244398.000    869160.4048  -5289361.5237   3444970.2595   2   7   0.0280   0.0429   0.0289  -0.0162  -0.0256   0.0120   0.00    1.4
2173 244399.000    869160.4067  -5289361.5263   3444970.2568   2   7   0.0279   0.0428   0.0288  -0.0163  -0.0256   0.0120   0.00    1.4
2173 244400.000    869160.4077  -5289361.5278   3444970.2571   2   7   0.0279   0.0427   0.0287  -0.0161  -0.0256   0.0119   0.00    1.4
2173 244401.000    869160.4113  -5289361.5431   3444970.2602   2   7   0.0277   0.0426   0.0286  -0.0162  -0.0255   0.0120   0.00    1.4
2173 244402.000    869160.4104  -5289361.5473   3444970.2547   2   7   0.0277   0.0425   0.0285  -0.0161  -0.0255   0.0119   0.00    1.4
2173 244403.000    869160.4115  -5289361.5542   3444970.2531   2   7   0.0277   0.0424   0.0285  -0.0160  -0.0254   0.0118   0.00    1.4
2173 244404.000    869160.4112  -5289361.5644   3444970.2504   2   7   0.0276   0.0423   0.0284  -0.0160  -0.0254   0.0118   0.00    1.4
2173 244405.000    869160.4157  -5289361.5716   3444970.2516   2   7   0.0276   0.0423   0.0283  -0.0160  -0.0254   0.0118   0.00    1.4
2173 244406.000    869160.4163  -5289361.5780   3444970.2526   2   7   0.0276   0.0422   0.0282  -0.0159  -0.0253   0.0117   0.00    1.4
2173 244407.000    869160.4163  -5289361.5846   3444970.2503   2   7   0.0275   0.0421   0.0282  -0.0160  -0.0253   0.0117   0.00    1.3
2173 244408.000    869160.4208  -5289361.5947   3444970.2510   2   7   0.0274   0.0420   0.0281  -0.0159  -0.0252   0.0116   0.00    1.3
2173 244409.000    869160.4210  -5289361.6016   3444970.2516   2   7   0.0274   0.0419   0.0280  -0.0158  -0.0252   0.0116   0.00    1.3
2173 244410.000    869160.4236  -5289361.6074   3444970.2470   2   7   0.0273   0.0418   0.0279  -0.0157  -0.0252   0.0115   0.00    1.3
2173 244411.000    869160.4272  -5289361.6143   3444970.2462   2   7   0.0273   0.0418   0.0279  -0.0157  -0.0251   0.0114   0.00    1.3
2173 244412.000    869160.4315  -5289361.6209   3444970.2452   2   7   0.0272   0.0417   0.0278  -0.0156  -0.0251   0.0114   0.00    1.3
2173 244413.000    869160.4257  -5289361.6253   3444970.2843   2   7   0.0272   0.0416   0.0277  -0.0157  -0.0251   0.0114   0.00    1.3
2173 244414.000    869160.4279  -5289361.6224   3444970.2865   2   7   0.0271   0.0415   0.0277  -0.0156  -0.0250   0.0114   0.00    1.3
2173 244415.000    869160.4256  -5289361.6213   3444970.2863   2   7   0.0271   0.0414   0.0276  -0.0155  -0.0250   0.0114   0.00    1.3
2173 244416.000    869160.4261  -5289361.6224   3444970.2936   2   7   0.0270   0.0413   0.0275  -0.0156  -0.0250   0.0113   0.00    1.3
2173 244417.000    869160.4251  -5289361.6196   3444970.2919   2   7   0.0270   0.0413   0.0274  -0.0155  -0.0249   0.0113   0.00    1.3
2173 244418.000    869160.4256  -5289361.6139   3444970.2937   2   7   0.0270   0.0412   0.0274  -0.0154  -0.0249   0.0111   0.00    1.2
2173 244419.000    869160.4260  -5289361.6175   3444970.3006   2   7   0.0268   0.0411   0.0273  -0.0155  -0.0248   0.0112   0.00    1.2
2173 244420.000    869160.4270  -5289361.6202   3444970.3025   2   7   0.0268   0.0410   0.0272  -0.0153  -0.0248   0.0111   0.00    1.2
2173 244421.000    869160.4249  -5289361.6210   3444970.3062   2   7   0.0267   0.0410   0.0271  -0.0153  -0.0248   0.0111   0.00    1.2
2173 244422.000    869160.4218  -5289361.6177   3444970.3042   2   7   0.0267   0.0409   0.0271  -0.0153  -0.0247   0.0111   0.00    1.2
2173 244423.000    869160.4201  -5289361.6123   3444970.3046   2   7   0.0267   0.0408   0.0270  -0.0152  -0.0247   0.0110   0.00    1.2
2173 244424.000    869160.4195  -5289361.6162   3444970.3115   2   7   0.0267   0.0407   0.0270  -0.0152  -0.0247   0.0109   0.00    1.2
2173 244425.000    869160.4175  -5289361.6177   3444970.3073   2   7   0.0266   0.0406   0.0269  -0.0152  -0.0246   0.0109   0.00    1.2
2173 244426.000    869160.4171  -5289361.6078   3444970.3007   2   7   0.0266   0.0406   0.0268  -0.0151  -0.0246   0.0108   0.00    1.2
2173 244427.000    869160.4173  -5289361.6093   3444970.3051   2   7   0.0265   0.0405   0.0268  -0.0151  -0.0246   0.0108   0.00    1.2
2173 244428.000    869160.4160  -5289361.6031   3444970.3061   2   7   0.0264   0.0404   0.0267  -0.0150  -0.0246   0.0108   0.00    1.2
2173 244429.000    869160.4166  -5289361.6057   3444970.3072   2   7   0.0264   0.0404   0.0266  -0.0149  -0.0245   0.0108   0.00    1.2
2173 244430.000    869160.4168  -5289361.6075   3444970.3130   2   7   0.0263   0.0403   0.0265  -0.0149  -0.0245   0.0107   0.00    1.1
2173 244431.000    869160.4147  -5289361.5996   3444970.3108   2   7   0.0263   0.0402   0.0265  -0.0148  -0.0244   0.0107   0.00    1.1
2173 244432.000    869160.4156  -5289361.6019   3444970.3133   2   7   0.0263   0.0401   0.0264  -0.0148  -0.0244   0.0106   0.00    1.1
2173 244433.000    869160.4134  -5289361.6008   3444970.3136   2   7   0.0262   0.0400   0.0264  -0.0147  -0.0244   0.0105   0.00    1.1
2173 244434.000    869160.4131  -5289361.6019   3444970.3154   2   7   0.0261   0.0399   0.0263  -0.0148  -0.0243   0.0105   0.00    1.1
2173 244435.000    869160.4175  -5289361.6007   3444970.3240   2   7   0.0262   0.0399   0.0262  -0.0147  -0.0243   0.0105   0.00    1.1
2173 244436.000    869160.4168  -5289361.5950   3444970.3221   2   7   0.0261   0.0398   0.0261  -0.0147  -0.0242   0.0105   0.00    1.1
2173 244437.000    869160.4175  -5289361.5949   3444970.3214   2   7   0.0260   0.0398   0.0261  -0.0147  -0.0242   0.0105   0.00    1.1
2173 244438.000    869160.4184  -5289361.5913   3444970.3209   2   7   0.0260   0.0397   0.0260  -0.0146  -0.0242   0.0104   0.00    1.1
2173 244439.000    869160.4182  -5289361.5904   3444970.3260   2   7   0.0260   0.0396   0.0260  -0.0146  -0.0242   0.0104   0.00    1.1
2173 244440.000    869160.4193  -5289361.5926   3444970.3276   2   7   0.0259   0.0395   0.0259  -0.0146  -0.0241   0.0103   0.00    1.1
2173 244441.000    869160.4208  -5289361.5902   3444970.3244   2   7   0.0259   0.0395   0.0259  -0.0144  -0.0241   0.0103   0.00    1.1
2173 244442.000    869160.4197  -5289361.5882   3444970.3262   2   7   0.0258   0.0394   0.0258  -0.0146  -0.0240   0.0103   0.00    1.1
2173 244443.000    869160.4211  -5289361.5875   3444970.3262   2   7   0.0258   0.0393   0.0257  -0.0145  -0.0240   0.0103   0.00    1.0
2173 244444.000    869160.4235  -5289361.5890   3444970.3290   2   7   0.0257   0.0393   0.0257  -0.0144  -0.0240   0.0102   0.00    1.0
2173 244445.000    869160.4255  -5289361.5879   3444970.3313   2   7   0.0257   0.0392   0.0256  -0.0144  -0.0239   0.0102   0.00    1.0
2173 244446.000    869160.4294  -5289361.5900   3444970.3430   2   7   0.0256   0.0391   0.0256  -0.0143  -0.0239   0.0101   0.00    1.0
2173 244447.000    869160.4233  -5289361.5858   3444970.3359   2   7   0.0256   0.0390   0.0255  -0.0143  -0.0239   0.0101   0.00    1.0
2173 244448.000    869160.4284  -5289361.5919   3444970.3312   2   7   0.0255   0.0389   0.0254  -0.0142  -0.0238   0.0100   0.00    1.0
2173 244449.000    869160.4284  -5289361.5908   3444970.3351   2   7   0.0255   0.0389   0.0253  -0.0142  -0.0238   0.0100   0.00    1.0
2173 244450.000    869160.4282  -5289361.5916   3444970.3373   2   7   0.0254   0.0388   0.0253  -0.0141  -0.0238   0.0100   0.00    1.0
2173 244451.000    869160.4312  -5289361.5974   3444970.3444   2   7   0.0254   0.0387   0.0252  -0.0140  -0.0238   0.0099   0.00    1.0
2173 244452.000    869160.4340  -5289361.6005   3444970.3535   2   7   0.0254   0.0386   0.0252  -0.0141  -0.0237   0.0099   0.00    1.0
2173 244453.000    869160.4356  -5289361.5983   3444970.3568   2   7   0.0253   0.0386   0.0251  -0.0141  -0.0237   0.0099   0.00    1.0
2173 244454.000    869160.4374  -5289361.5971   3444970.3597   2   7   0.0253   0.0385   0.0251  -0.0140  -0.0237   0.0098   0.00    1.0
2173 244455.000    869160.4384  -5289361.5962   3444970.3612   2   7   0.0253   0.0384   0.0250  -0.0139  -0.0236   0.0098   0.00    1.0
2173 244456.000    869160.4406  -5289361.5961   3444970.3632   2   7   0.0252   0.0384   0.0249  -0.0140  -0.0236   0.0098   0.00    1.1
2173 244457.000    869160.4400  -5289361.5985   3444970.3672   2   7   0.0251   0.0383   0.0249  -0.0139  -0.0235   0.0098   0.00    1.1
2173 244458.000    869160.4352  -5289361.5853   3444970.3583   2   7   0.0251   0.0382   0.0248  -0.0138  -0.0235   0.0097   0.00    1.1
2173 244459.000    869160.4343  -5289361.5841   3444970.3509   2   7   0.0251   0.0381   0.0248  -0.0139  -0.0235   0.0097   0.00    1.1
2173 244460.000    869160.4333  -5289361.5821   3444970.3465   2   7   0.0250   0.0381   0.0247  -0.0138  -0.0234   0.0096   0.00    1.1
2173 244461.000    869160.4340  -5289361.5816   3444970.3447   2   7   0.0250   0.0380   0.0247  -0.0137  -0.0234   0.0096   0.00    1.1
2173 244462.000    869160.4335  -5289361.5819   3444970.3414   2   7   0.0249   0.0379   0.0246  -0.0138  -0.0234   0.0096   0.00    1.1
2173 244463.000    869160.4332  -5289361.5822   3444970.3341   2   7   0.0249   0.0379   0.0245  -0.0137  -0.0233   0.0096   0.00    1.1
2173 244464.000    869160.4328  -5289361.5817   3444970.3328   2   7   0.0249   0.0378   0.0245  -0.0136  -0.0234   0.0095   0.00    1.1
2173 244465.000    869160.4338  -5289361.5838   3444970.3363   2   7   0.0249   0.0377   0.0244  -0.0135  -0.0233   0.0095   0.00    1.0
2173 244466.000    869160.4312  -5289361.5813   3444970.3291   2   7   0.0248   0.0377   0.0244  -0.0134  -0.0233   0.0094   0.00    1.0
2173 244467.000    869160.4334  -5289361.5822   3444970.3322   2   7   0.0248   0.0376   0.0243  -0.0135  -0.0232   0.0095   0.00    1.0
2173 244468.000    869160.4329  -5289361.5823   3444970.3305   2   7   0.0247   0.0375   0.0243  -0.0135  -0.0231   0.0094   0.00    1.0
2173 244469.000    869160.4369  -5289361.5926   3444970.3475   2   7   0.0247   0.0375   0.0242  -0.0134  -0.0231   0.0092   0.00    1.0
2173 244470.000    869160.4379  -5289361.5934   3444970.3472   2   7   0.0246   0.0374   0.0242  -0.0134  -0.0231   0.0093   0.00    1.0
2173 244471.000    869160.4383  -5289361.5956   3444970.3438   2   7   0.0245   0.0373   0.0241  -0.0133  -0.0230   0.0092   0.00    1.0
2173 244472.000    869160.4387  -5289361.5899   3444970.3428   2   7   0.0246   0.0373   0.0241  -0.0133  -0.0230   0.0092   0.00    1.0
2173 244473.000    869160.4375  -5289361.5897   3444970.3407   2   7   0.0245   0.0372   0.0240  -0.0132  -0.0230   0.0092   0.00    1.0
2173 244474.000    869160.4363  -5289361.5872   3444970.3353   2   7   0.0245   0.0371   0.0240  -0.0133  -0.0230   0.0092   0.00    1.0
2173 244475.000    869160.4358  -5289361.5885   3444970.3358   2   7   0.0245   0.0371   0.0239  -0.0132  -0.0229   0.0091   0.00    1.0
2173 244476.000    869160.4363  -5289361.5864   3444970.3339   2   7   0.0244   0.0370   0.0238  -0.0132  -0.0229   0.0091   0.00    1.0
2173 244477.000    869160.4312  -5289361.5859   3444970.3307   2   7   0.0243   0.0370   0.0238  -0.0131  -0.0229   0.0091   0.00    1.0
2173 244478.000    869160.4323  -5289361.5874   3444970.3282   2   7   0.0243   0.0369   0.0238  -0.0131  -0.0229   0.0090   0.00    1.0
2173 244479.000    869160.4288  -5289361.5849   3444970.3206   2   7   0.0243   0.0368   0.0237  -0.0131  -0.0228   0.0090   0.00    1.0
2173 244480.000    869160.4273  -5289361.5845   3444970.3161   2   7   0.0242   0.0368   0.0236  -0.0130  -0.0228   0.0089   0.00    1.0
2173 244481.000    869160.4292  -5289361.5844   3444970.3147   2   7   0.0242   0.0367   0.0236  -0.0130  -0.0227   0.0090   0.00    1.0
2173 244482.000    869160.4293  -5289361.5848   3444970.3125   2   7   0.0242   0.0366   0.0236  -0.0130  -0.0227   0.0089   0.00    1.0
2173 244483.000    869160.4260  -5289361.5837   3444970.3066   2   7   0.0242   0.0366   0.0235  -0.0130  -0.0226   0.0089   0.00    1.0
2173 244484.000    869160.4258  -5289361.5851   3444970.3032   2   7   0.0241   0.0365   0.0234  -0.0129  -0.0226   0.0090   0.00    1.0
2173 244485.000    869160.4243  -5289361.5836   3444970.2990   2   7   0.0241   0.0364   0.0234  -0.0129  -0.0226   0.0089   0.00    1.0
2173 244486.000    869160.4238  -5289361.5847   3444970.2989   2   7   0.0241   0.0364   0.0234  -0.0127  -0.0226   0.0088   0.00    1.0
2173 244487.000    869160.4233  -5289361.5877   3444970.2985   2   7   0.0240   0.0363   0.0233  -0.0128  -0.0225   0.0088   0.00    1.0
2173 244488.000    869160.4227  -5289361.5856   3444970.2970   2   7   0.0239   0.0362   0.0233  -0.0127  -0.0225   0.0088   0.00    1.0
2173 244489.000    869160.4209  -5289361.5844   3444970.2953   2   7   0.0239   0.0361   0.0232  -0.0128  -0.0225   0.0087   0.00    1.0
2173 244490.000    869160.4223  -5289361.5817   3444970.2946   2   7   0.0239   0.0361   0.0231  -0.0128  -0.0224   0.0088   0.00    1.0
2173 244491.000    869160.4184  -5289361.5762   3444970.2870   2   7   0.0239   0.0360   0.0231  -0.0126  -0.0224   0.0086   0.00    1.0
2173 244492.000    869160.4178  -5289361.5805   3444970.2895   2   7   0.0238   0.0360   0.0231  -0.0127  -0.0224   0.0086   0.00    1.0
2173 244493.000    869160.4165  -5289361.5773   3444970.2844   2   7   0.0238   0.0359   0.0230  -0.0126  -0.0224   0.0087   0.00    1.0
2173 244494.000    869160.4147  -5289361.5781   3444970.2818   2   7   0.0238   0.0359   0.0230  -0.0126  -0.0223   0.0085   0.00    1.0
2173 244495.000    869160.4129  -5289361.5791   3444970.2773   2   7   0.0237   0.0358   0.0229  -0.0126  -0.0223   0.0087   0.00    1.0
2173 244496.000    869160.4126  -5289361.5782   3444970.2756   2   7   0.0237   0.0357   0.0229  -0.0125  -0.0223   0.0084   0.00    1.0
2173 244497.000    869160.4122  -5289361.5793   3444970.2686   2   7   0.0237   0.0357   0.0228  -0.0124  -0.0222   0.0085   0.00    1.0
2173 244498.000    869160.4112  -5289361.5751   3444970.2652   2   7   0.0236   0.0356   0.0228  -0.0125  -0.0222   0.0086   0.00    1.0
2173 244499.000    869160.4098  -5289361.5776   3444970.2647   2   7   0.0236   0.0355   0.0228  -0.0122  -0.0222   0.0083   0.00    1.0
2173 244500.000    869160.4082  -5289361.5751   3444970.2595   2   7   0.0235   0.0355   0.0227  -0.0125  -0.0221   0.0084   0.00    1.0
2173 244501.000    869160.4069  -5289361.5766   3444970.2571   2   7   0.0235   0.0354   0.0226  -0.0123  -0.0221   0.0083   0.00    1.0
2173 244502.000    869160.4075  -5289361.5774   3444970.2618   2   7   0.0235   0.0354   0.0226  -0.0123  -0.0221   0.0083   0.00    1.0
2173 244503.000    869160.4057  -5289361.5719   3444970.2546   2   7   0.0234   0.0353   0.0226  -0.0123  -0.0220   0.0084   0.00    1.0
2173 244504.000    869160.4077  -5289361.5705   3444970.2516   2   7   0.0234   0.0353   0.0225  -0.0122  -0.0220   0.0083   0.00    1.0
2173 244505.000    869160.4075  -5289361.5686   3444970.2498   2   7   0.0234   0.0352   0.0225  -0.0121  -0.0220   0.0082   0.00    1.0
2173 244506.000    869160.4083  -5289361.5685   3444970.2446   2   7   0.0234   0.0351   0.0224  -0.0121  -0.0219   0.0083   0.00    1.0
2173 244507.000    869160.4059  -5289361.5660   3444970.2350   2   7   0.0232   0.0350   0.0224  -0.0121  -0.0219   0.0083   0.00    1.0
2173 244508.000    869160.4060  -5289361.5704   3444970.2481   2   7   0.0233   0.0350   0.0223  -0.0121  -0.0219   0.0082   0.00    1.0
2173 244509.000    869160.4044  -5289361.5649   3444970.2383   2   7   0.0232   0.0349   0.0223  -0.0120  -0.0218   0.0082   0.00    1.0
2173 244510.000    869160.4063  -5289361.5695   3444970.2451   2   7   0.0232   0.0349   0.0222  -0.0119  -0.0218   0.0082   0.00    1.0
2173 244511.000    869160.4071  -5289361.5697   3444970.2403   2   7   0.0231   0.0348   0.0222  -0.0121  -0.0218   0.0082   0.00    1.0
2173 244512.000    869160.4055  -5289361.5708   3444970.2382   2   7   0.0231   0.0347   0.0222  -0.0119  -0.0218   0.0082   0.00    1.1
2173 244513.000    869160.4074  -5289361.5713   3444970.2326   2   7   0.0231   0.0347   0.0221  -0.0120  -0.0217   0.0081   0.00    1.1
2173 244514.000    869160.4066  -5289361.5720   3444970.2371   2   7   0.0231   0.0347   0.0221  -0.0119  -0.0217   0.0080   0.00    1.1
2173 244515.000    869160.4079  -5289361.5732   3444970.2372   2   7   0.0231   0.0346   0.0220  -0.0117  -0.0217   0.0081   0.00    1.1
2173 244516.000    869160.4052  -5289361.5512   3444970.1975   2   7   0.0230   0.0345   0.0220  -0.0118  -0.0217   0.0080   0.00    1.1
2173 244517.000    869160.4088  -5289361.5605   3444970.2072   2   7   0.0230   0.0345   0.0220  -0.0118  -0.0216   0.0080   0.00    1.1
2173 244518.000    869160.4074  -5289361.5607   3444970.2082   2   7   0.0230   0.0344   0.0219  -0.0117  -0.0215   0.0080   0.00    1.1
2173 244519.000    869160.4075  -5289361.5618   3444970.2058   2   7   0.0229   0.0344   0.0219  -0.0117  -0.0215   0.0078   0.00    1.1
2173 244520.000    869160.4072  -5289361.5677   3444970.2080   2   7   0.0229   0.0343   0.0218  -0.0116  -0.0215   0.0080   0.00    1.1
2173 244521.000    869160.4092  -5289361.5677   3444970.2105   2   7   0.0228   0.0342   0.0218  -0.0116  -0.0215   0.0079   0.00    1.1
2173 244522.000    869160.4072  -5289361.5708   3444970.2059   2   7   0.0228   0.0342   0.0218  -0.0116  -0.0214   0.0079   0.00    1.1
2173 244523.000    869160.4095  -5289361.5736   3444970.2058   2   7   0.0228   0.0341   0.0217  -0.0115  -0.0214   0.0078   0.00    1.1
2173 244524.000    869160.4115  -5289361.5798   3444970.2052   2   7   0.0228   0.0341   0.0217  -0.0116  -0.0214   0.0078   0.00    1.1
2173 244525.000    869160.4144  -5289361.5935   3444970.2194   2   7   0.0227   0.0341   0.0217  -0.0115  -0.0214   0.0077   0.00    1.1
2173 244526.000    869160.4159  -5289361.5962   3444970.2229   2   7   0.0227   0.0340   0.0216  -0.0115  -0.0213   0.0077   0.00    1.1
2173 244527.000    869160.4139  -5289361.5959   3444970.2194   2   7   0.0226   0.0339   0.0216  -0.0113  -0.0213   0.0077   0.00    1.1
2173 244528.000    869160.4161  -5289361.6064   3444970.2304   2   7   0.0226   0.0338   0.0215  -0.0115  -0.0213   0.0078   0.00    1.1
2173 244529.000    869160.4181  -5289361.6099   3444970.2323   2   7   0.0226   0.0338   0.0215  -0.0113  -0.0212   0.0076   0.00    1.1
2173 244530.000    869160.4179  -5289361.6153   3444970.2327   2   7   0.0226   0.0337   0.0215  -0.0114  -0.0212   0.0077   0.00    1.1
2173 244531.000    869160.4179  -5289361.6192   3444970.2340   2   7   0.0225   0.0337   0.0214  -0.0111  -0.0212   0.0076   0.00    1.1
2173 244532.000    869160.4193  -5289361.6231   3444970.2371   2   7   0.0225   0.0336   0.0214  -0.0113  -0.0212   0.0076   0.00    1.1
2173 244533.000    869160.4204  -5289361.6286   3444970.2388   2   7   0.0225   0.0336   0.0213  -0.0112  -0.0211   0.0077   0.00    1.1
2173 244534.000    869160.4213  -5289361.6314   3444970.2429   2   7   0.0224   0.0335   0.0213  -0.0113  -0.0211   0.0075   0.00    1.1
2173 244535.000    869160.4225  -5289361.6358   3444970.2446   2   7   0.0224   0.0335   0.0213  -0.0112  -0.0211   0.0076   0.00    1.1
