     2.11           OBSERVATION DATA    M (MIXED)           RINEX VERSION / TYPE
CONVBIN 2.4.3                           20210901 005027 UTC PGM / RUN BY / DATE 
log: logs/21_08_31_20_18_56_gast_SW.rtcm                    COMMENT             
format: RTCM 3, station ID: 1433                            COMMENT             
1433                                                        MARKER NAME         
                                                            MARKER NUMBER       
                                                            OBSERVER / AGENCY   
                    SWFT                                    REC # / TYPE / VERS 
                    NULL                                    ANT # / TYPE        
   806881.1263 -5205381.2503  3584328.6176                  APPROX POSITION XYZ 
        0.0000        0.0000        0.0000                  ANTENNA: DELTA H/E/N
     1     1                                                WAVELENGTH FACT L1/2
     5    C1    L1    P2    L2    C2                        # / TYPES OF OBSERV 
  2021     8    31    20    19    1.0000000     GPS         TIME OF FIRST OBS   
  2021     8    31    20    49    0.0000000     GPS         TIME OF LAST OBS    
                                                            END OF HEADER       
 21  8 31 20 19  1.0000000  0 17G10G15G18G23G24G27G32C19C21C22C34C35
                                E 3E 5E 9E15E36
  22624594.892   118892994.012    22624598.376    92643877.383                  
  22077216.685   116016553.146    22077217.686    90402507.817                  
  20178530.481   106038891.903    20178531.553    82627709.621                  
  20763224.997   109111483.225    20763226.033    85021936.625                  
  20796428.983   109285922.457    20796432.485    85157849.270                  
  24303880.301   127717689.169    24303884.196    99520262.220                  
  23716536.505   124631174.479    23716541.223    97115184.242                  
                 120814791.983                   120814791.983    23201212.663  
                 131396064.735                   131396064.735    25233236.159  
                 116816471.918                   116816471.918    22433371.580  
                 134858753.394                   134858753.394    25898211.907  
                 126031885.689                   126031885.689    24203104.944  
  25716479.423   135140969.009                                                  
  23506989.761   123530047.036                                                  
  23971421.947   125970644.878                                                  
  26392866.454   138695391.767                                                  
  24862118.442   130651241.063                                                  
 21  8 31 20 19  2.0000000  0 17G10G15G18G23G24G27G32C19C21C22C34C35
                                E 3E 5E 9E15E36
  22624184.101   118890835.247    22624187.585    92642195.226                  
  22077760.994   116019413.593    22077761.994    90404736.738                  
  20178697.020   106039767.062    20178698.092    82628391.567                  
  20763058.958   109110610.661    20763059.994    85021256.702                  
  20796275.363   109285115.137    20796278.848    85157220.188                  
  24303831.268   127717431.469    24303835.164    99520061.414                  
  23716013.032   124628423.619    23716017.768    97113040.712                  
                 120816423.464                   120816423.464    23201525.961  
                 131394128.092                   131394128.092    25232864.234  
                 116816148.911                   116816148.911    22433309.556  
                 134856765.691                   134856765.691    25897830.171  
                 126034851.214                   126034851.214    24203674.447  
  25716160.318   135139292.065                                                  
  23507051.248   123530370.101                                                  
  23971812.581   125972697.606                                                  
  26392393.782   138692907.812                                                  
  24862581.839   130653676.253                                                  
 21  8 31 20 19  3.0000000  0 17G10G15G18G23G24G27G32C19C21C22C34C35
                                E 3E 5E 9E15E36
  22623773.292   118888676.526    22623776.777    92640513.110                  
  22078305.356   116022274.199    22078306.356    90406965.777                  
  20178863.666   106040642.845    20178864.756    82629073.993                  
  20762892.955   109109738.308    20762893.973    85020576.949                  
  20796121.868   109284308.513    20796125.335    85156591.650                  
  24303782.343   127717174.358    24303786.220    99519861.066                  
  23715489.595   124625672.984    23715494.313    97110897.363                  
                 120818055.009                   120818055.009    23201839.276  
                 131392191.531                   131392191.531    25232492.343  
                 116815826.055                   116815826.055    22433247.569  
                 134854778.409                   134854778.409    25897448.560  
                 126037816.915                   126037816.915    24204243.951  
  25715841.249   135137615.327                                                  
  23507112.753   123530693.371                                                  
  23972203.198   125974750.347                                                  
  26391921.147   138690424.086                                                  
  24863045.308   130656111.749                                                  
 21  8 31 20 19  4.0000000  0 17G10G15G18G23G24G27G32C19C21C22C34C35
                                E 3E 5E 9E15E36
  22623362.519   118886517.855    22623366.004    92638831.028                  
  22078849.735   116025134.964    22078850.736    90409194.946                  
  20179030.438   106041519.250    20179031.546    82629756.906                  
  20762727.005   109108866.173    20762728.024    85019897.363                  
  20795968.498   109283502.570    20795971.983    85155963.644                  
  24303733.525   127716917.852    24303737.420    99519661.196                  
  23714966.211   124622922.587    23714970.947    97108754.198                  
                 120819686.618                   120819686.618    23202152.628  
                 131390255.048                   131390255.048    25232120.453  
                 116815503.348                   116815503.348    22433185.581  
                 134852791.543                   134852791.543    25897067.003  
                 126040782.787                   126040782.787    24204813.544  
  25715522.197   135135938.780                                                  
  23507174.312   123531016.850                                                  
  23972593.815   125976803.129                                                  
  26391448.565   138687940.583                                                  
  24863508.813   130658547.543                                                  
 21  8 31 20 19  5.0000000  0 17G10G15G18G23G24G27G32C19C21C22C34C35
                                E 3E 5E 9E15E36
  22622951.746   118884359.245    22622955.248    92637148.993                  
  22079394.169   116027995.895    22079395.152    90411424.243                  
  20179197.335   106042396.277    20179198.443    82630440.304                  
  20762561.073   109107994.251    20762562.092    85019217.941                  
  20795815.254   109282697.316    20795818.738    85155336.176                  
  24303684.814   127716661.930    24303688.727    99519461.774                  
  23714442.881   124620172.419    23714447.599    97106611.215                  
                 120821318.288                   120821318.288    23202465.961  
                 131388318.641                   131388318.641    25231748.599  
                 116815180.792                   116815180.792    22433123.647  
                 134850805.096                   134850805.096    25896685.517  
                 126043748.833                   126043748.833    24205383.137  
  25715203.199   135134262.433                                                  
  23507235.925   123531340.543                                                  
  23972984.468   125978855.931                                                  
  26390976.001   138685457.300                                                  
  24863972.407   130660983.634                                                  
 21  8 31 20 19  6.0000000  0 17G10G15G18G23G24G27G32C19C21C22C34C35
                                E 3E 5E 9E15E36
  22622540.973   118882200.689    22622544.475    92635467.000                  
  22079938.602   116030856.979    22079939.603    90413653.657                  
  20179364.339   106043273.927    20179365.446    82631124.187                  
  20762395.195   109107122.547    20762396.214    85018538.696                  
  20795662.152   109281892.737    20795665.636    85154709.227                  
  24303636.246   127716406.589    24303640.123    99519262.804                  
  23713919.587   124617422.515    23713924.304    97104468.433                  
                 120822950.025                   120822950.025    23202779.312  
                 131386382.312                   131386382.312    25231376.745  
                 116814858.387                   116814858.387    22433061.713  
                 134848819.065                   134848819.065    25896304.121  
                 126046715.051                   126046715.051    24205952.766  
  25714884.255   135132586.314                                                  
  23507297.537   123531664.433                                                  
  23973375.102   125980908.762                                                  
  26390503.472   138682974.223                                                  
  24864436.036   130663420.054                                                  
 21  8 31 20 19  7.0000000  0 17G10G15G18G23G24G27G32C19C21C22C34C35
                                E 3E 5E 9E15E36
  22622130.236   118880042.179    22622133.720    92633785.047                  
  22080483.071   116033718.225    22080484.072    90415883.199                  
  20179531.485   106044152.204    20179532.575    82631808.559                  
  20762229.353   109106251.063    20762230.371    85017859.613                  
  20795509.175   109281088.833    20795512.660    85154082.808                  
  24303587.767   127716151.852    24303591.663    99519064.308                  
  23713396.346   124614672.837    23713401.064    97102325.829                  
                 120824581.820                   120824581.820    23203092.699  
                 131384446.062                   131384446.062    25231004.908  
                 116814536.130                   116814536.130    22432999.833  
                 134846833.453                   134846833.453    25895922.796  
                 126049681.440                   126049681.440    24206522.448  
  25714565.347   135130910.406                                                  
  23507359.221   123531988.520                                                  
  23973765.755   125982961.615                                                  
  26390030.997   138680491.348                                                  
  24864899.720   130665856.773                                                  
 21  8 31 20 19  8.0000000  0 17G10G15G18G23G24G27G32C19C21C22C34C35
                                E 3E 5E 9E15E36
  22621719.498   118877883.719    22621722.983    92632103.132                  
  22081027.594   116036579.667    22081028.595    90418112.895                  
  20179698.722   106045031.101    20179699.812    82632493.413                  
  20762063.564   109105379.778    20762064.583    85017180.696                  
  20795356.341   109280285.660    20795359.826    85153456.961                  
  24303539.396   127715897.735    24303543.291    99518866.297                  
  23712873.123   124611923.344    23712877.841    97100183.367                  
                 120826213.678                   120826213.678    23203406.086  
                 131382509.890                   131382509.890    25230633.072  
                 116814214.025                   116814214.025    22432937.988  
                 134844848.262                   134844848.262    25895541.560  
                 126052648.004                   126052648.004    24207092.148  
  25714246.438   135129234.546                                                  
  23507420.941   123532312.888                                                  
  23974156.407   125985014.475                                                  
  26389558.594   138678008.784                                                  
  24865363.457   130668293.712                                                  
 21  8 31 20 19  9.0000000  0 17G10G15G18G23G24G27G32C19C21C22C34C35
                                E 3E 5E 9E15E36
  22621308.761   118875725.317    22621312.245    92630421.261                  
  22081572.135   116039441.254    22081573.135    90420342.700                  
  20179866.101   106045910.626    20179867.173    82633178.755                  
  20761897.793   109104508.728    20761898.847    85016501.949                  
  20795203.615   109279483.132    20795207.099    85152831.617                  
  24303491.167   127715644.196    24303495.063    99518668.729                  
  23712349.954   124609174.121    23712354.672    97098041.117                  
                 120827845.601                   120827845.601    23203719.455  
                 131380573.794                   131380573.794    25230261.253  
                 116813892.067                   116813892.067    22432876.161  
                 134842863.484                   134842863.484    25895160.396  
                 126055614.742                   126055614.742    24207661.866  
  25713927.583   135127558.999                                                  
  23507482.696   123532637.405                                                  
  23974547.060   125987067.383                                                  
  26389086.208   138675526.382                                                  
  24865827.265   130670731.015                                                  
 21  8 31 20 19 10.0000000  0 17G10G15G18G23G24G27G32C19C21C22C34C35
                                E 3E 5E 9E15E36
  22620898.041   118873566.966    22620901.526    92628739.427                  
  22082116.729   116042303.016    22082117.712    90422572.640                  
  20180033.587   106046790.769    20180034.677    82633864.581                  
  20761732.076   109103637.883    20761733.112    85015823.376                  
  20795051.031   109278681.306    20795054.516    85152206.813                  
  24303443.028   127715391.235    24303446.923    99518471.617                  
  23711826.856   124606425.133    23711831.556    97095899.055                  
                 120829477.591                   120829477.591    23204032.878  
                 131378637.776                   131378637.776    25229889.488  
                 116813570.261                   116813570.261    22432814.352  
                 134840879.124                   134840879.124    25894779.339  
                 126058581.649                   126058581.649    24208231.620  
  25713608.782   135125883.629                                                  
  23507544.505   123532962.152                                                  
  23974937.713   125989120.312                                                  
  26388613.859   138673044.196                                                  
  24866291.127   130673168.617                                                  
 21  8 31 20 19 11.0000000  0 17G10G15G18G23G24G27G32C19C21C22C34C35
                                E 3E 5E 9E15E36
  22620487.340   118871408.659    22620490.824    92627057.633                  
  22082661.323   116045164.930    22082662.324    90424802.703                  
  20180201.181   106047671.527    20180202.289    82634550.888                  
  20761566.412   109102767.250    20761567.448    85015144.956                  
  20794898.573   109277880.152    20794902.057    85151582.539                  
  24303394.996   127715138.878    24303398.891    99518274.978                  
  23711303.776   124603676.370    23711308.494    97093757.160                  
                 120831109.636                   120831109.636    23204346.300  
                 131376701.837                   131376701.837    25229517.705  
                 116813248.607                   116813248.607    22432752.579  
                 134838895.184                   134838895.184    25894398.336  
                 126061548.731                   126061548.731    24208801.428  
  25713289.999   135124208.452                                                  
  23507606.314   123533287.101                                                  
  23975328.383   125991173.266                                                  
  26388141.562   138670562.254                                                  
  24866755.042   130675606.519                                                  
 21  8 31 20 19 12.0000000  0 17G10G15G18G23G24G27G32C19C21C22C34C35
                                E 3E 5E 9E15E36
  22620076.620   118869250.413    22620080.123    92625375.883                  
  22083205.953   116048027.015    22083206.954    90427032.899                  
  20180368.899   106048552.906    20180370.007    82635237.677                  
  20761400.784   109101896.843    20761401.803    85014466.719                  
  20794746.257   109277079.687    20794749.742    85150958.800                  
  24303347.107   127714887.108    24303350.985    99518078.793                  
  23710780.732   124600927.843    23710785.468    97091615.453                  
                 120832741.751                   120832741.751    23204659.723  
                 131374765.977                   131374765.977    25229145.940  
                 116812927.097                   116812927.097    22432690.842  
                 134836911.659                   134836911.659    25894017.422  
                 126064515.984                   126064515.984    24209371.253  
  25712971.251   135122533.489                                                  
  23507668.194   123533612.261                                                  
  23975719.036   125993226.233                                                  
  26387669.302   138668080.515                                                  
  24867219.012   130678044.711                                                  
 21  8 31 20 19 13.0000000  0 17G10G15G18G23G24G27G32C19C21C22C34C35
                                E 3E 5E 9E15E36
  22619665.936   118867092.214    22619669.421    92623694.168                  
  22083750.619   116050889.259    22083751.637    90429263.214                  
  20180536.743   106049434.910    20180537.833    82635924.948                  
  20761235.174   109101026.653    20761236.228    85013788.649                  
  20794594.067   109276279.906    20794597.551    85150335.597                  
  24303299.307   127714635.946    24303303.185    99517883.082                  
  23710257.760   124598179.562    23710262.477    97089473.937                  
                 120834373.927                   120834373.927    23204973.164  
                 131372830.192                   131372830.192    25228774.175  
                 116812605.742                   116812605.742    22432629.122  
                 134834928.559                   134834928.559    25893636.580  
                 126067483.411                   126067483.411    24209941.114  
  25712652.557   135120858.711                                                  
  23507730.128   123533937.633                                                  
  23976109.724   125995279.238                                                  
  26387197.077   138665599.016                                                  
  24867683.052   130680483.208                                                  
 21  8 31 20 19 14.0000000  0 17G10G15G18G23G24G27G32C19C21C22C34C35
                                E 3E 5E 9E15E36
  22619255.253   118864934.065    22619258.737    92622012.496                  
  22084295.320   116053751.672    22084296.339    90431493.669                  
  20180704.694   106050317.530    20180705.802    82636612.702                  
  20761069.635   109100156.677    20761070.654    85013110.745                  
  20794442.001   109275480.823    20794445.504    85149712.937                  
  24303251.615   127714385.358    24303255.493    99517687.820                  
  23709734.823   124595431.489    23709739.540    97087332.582                  
                 120836006.163                   120836006.163    23205286.622  
                 131370894.485                   131370894.485    25228402.464  
                 116812284.535                   116812284.535    22432567.438  
                 134832945.871                   134832945.871    25893255.827  
                 126070451.007                   126070451.007    24210511.028  
  25712333.899   135119184.119                                                  
  23507792.080   123534263.207                                                  
  23976500.394   125997332.266                                                  
  26386724.924   138663117.720                                                  
  24868147.147   130682921.999                                                  
 21  8 31 20 19 15.0000000  0 17G10G15G18G23G24G27G32C19C21C22C34C35
                                E 3E 5E 9E15E36
  22618844.587   118862775.969    22618848.053    92620330.860                  
  22084840.057   116056614.241    22084841.058    90433724.242                  
  20180872.788   106051200.817    20180873.878    82637300.996                  
  20760904.115   109099286.915    20760905.169    85012433.009                  
  20794290.079   109274682.445    20794293.563    85149090.836                  
  24303204.048   127714135.341    24303207.943    99517492.980                  
  23709211.939   124592683.724    23709216.639    97085191.492                  
                 120837638.464                   120837638.464    23205600.080  
                 131368958.854                   131368958.854    25228030.734  
                 116811963.479                   116811963.479    22432505.772  
                 134830963.603                   134830963.603    25892875.163  
                 126073418.778                   126073418.778    24211080.943  
  25712015.276   135117509.743                                                  
  23507854.086   123534589.078                                                  
  23976891.083   125999385.276                                                  
  26386252.789   138660636.741                                                  
  24868611.277   130685361.074                                                  
 21  8 31 20 19 16.0000000  0 17G10G15G18G23G24G27G32C19C21C22C34C35
                                E 3E 5E 9E15E36
  22618433.921   118860617.926    22618437.405    92618649.270                  
  22085384.812   116059476.981    22085385.813    90435954.941                  
  20181040.971   106052084.688    20181042.079    82637989.726                  
  20760738.665   109098417.371    20760739.684    85011755.442                  
  20794138.282   109273884.730    20794141.766    85148469.237                  
  24303156.588   127713885.945    24303160.483    99517298.648                  
  23708689.074   124589936.141    23708693.791    97083050.520                  
                 120839270.832                   120839270.832    23205913.557  
                 131367023.305                   131367023.305    25227659.041  
                 116811642.575                   116811642.575    22432444.160  
                 134828981.753                   134828981.753    25892494.553  
                 126076386.723                   126076386.723    24211650.911  
  25711696.672   135115835.546                                                  
  23507916.091   123534915.083                                                  
  23977281.789   126001438.343                                                  
  26385780.707   138658155.891                                                  
  24869075.478   130687800.458                                                  
 21  8 31 20 19 17.0000000  0 17G10G15G18G23G24G27G32C19C21C22C34C35
                                E 3E 5E 9E15E36
  22618023.255   118858459.939    22618026.739    92616967.719                  
  22085929.621   116062339.878    22085930.622    90438185.773                  
  20181209.279   106052969.180    20181210.387    82638678.941                  
  20760573.216   109097548.043    20760574.252    85011078.044                  
  20793986.591   109273087.693    20793990.076    85147848.172                  
  24303109.235   127713637.153    24303113.148    99517104.782                  
  23708166.280   124587188.793    23708170.997    97080909.730                  
                 120840903.258                   120840903.258    23206227.069  
                 131365087.831                   131365087.831    25227287.347  
                 116811321.815                   116811321.815    22432382.565  
                 134827000.322                   134827000.322    25892114.032  
                 126079354.836                   126079354.836    24212220.897  
  25711378.138   135114161.552                                                  
  23507978.186   123535241.294                                                  
  23977672.459   126003491.450                                                  
  26385308.643   138655675.278                                                  
  24869539.733   130690240.153                                                  
 21  8 31 20 19 18.0000000  0 17G10G15G18G23G24G27G32C19C21C22C34C35
                                E 3E 5E 9E15E36
  22617612.625   118856302.007    22617616.091    92615286.214                  
  22086474.447   116065202.941    22086475.448    90440416.730                  
  20181377.713   106053854.292    20181378.821    82639368.641                  
  20760407.838   109096678.933    20760408.875    85010400.813                  
  20793835.062   109272291.357    20793838.547    85147227.648                  
  24303062.007   127713388.937    24303065.902    99516911.367                  
  23707643.522   124584441.671    23707648.221    97078769.117                  
                 120842535.751                   120842535.751    23206540.563  
                 131363152.439                   131363152.439    25226915.672  
                 116811001.210                   116811001.210    22432321.006  
                 134825019.309                   134825019.309    25891733.618  
                 126082323.122                   126082323.122    24212790.937  
  25711059.623   135112487.754                                                  
  23508040.299   123535567.710                                                  
  23978063.166   126005544.569                                                  
  26384836.633   138653194.874                                                  
  24870004.060   130692680.152                                                  
 21  8 31 20 19 19.0000000  0 17G10G15G18G23G24G27G32C19C21C22C34C35
                                E 3E 5E 9E15E36
  22617201.995   118854144.122    22617205.479    92613604.745                  
  22087019.274   116068066.152    22087020.292    90442647.800                  
  20181546.271   106054740.038    20181547.361    82640058.832                  
  20760242.496   109095810.040    20760243.515    85009723.753                  
  20793683.658   109271495.693    20793687.142    85146607.652                  
  24303014.886   127713141.328    24303018.782    99516718.425                  
  23707120.799   124581694.796    23707125.516    97076628.695                  
                 120844168.305                   120844168.305    23206854.075  
                 131361217.122                   131361217.122    25226544.014  
                 116810680.754                   116810680.754    22432259.465  
                 134823038.715                   134823038.715    25891353.258  
                 126085291.579                   126085291.579    24213360.995  
  25710741.143   135110814.153                                                  
  23508102.465   123535894.344                                                  
  23978453.854   126007597.735                                                  
  26384364.676   138650714.699                                                  
  24870468.440   130695120.445                                                  
 21  8 31 20 19 20.0000000  0 17G10G15G18G23G24G27G32C19C21C22C34C35
                                E 3E 5E 9E15E36
  22616791.382   118851986.290    22616794.867    92611923.320                  
  22087564.172   116070929.540    22087565.173    90444879.011                  
  20181714.937   106055626.400    20181716.045    82640749.499                  
  20760077.208   109094941.358    20760078.226    85009046.860                  
  20793532.379   109270700.715    20793535.863    85145988.192                  
  24302967.873   127712894.312    24302971.786    99516525.945                  
  23706598.112   124578948.140    23706602.848    97074488.448                  
                 120845800.917                   120845800.917    23207167.605  
                 131359281.878                   131359281.878    25226172.374  
                 116810360.448                   116810360.448    22432197.942  
                 134821058.535                   134821058.535    25890972.987  
                 126088260.207                   126088260.207    24213931.106  
  25710422.700   135109140.755                                                  
  23508164.667   123536221.194                                                  
  23978844.578   126009650.907                                                  
  26383892.756   138648234.747                                                  
  24870932.856   130697561.035                                                  
 21  8 31 20 19 21.0000000  0 17G10G15G18G23G24G27G32C19C21C22C34C35
                                E 3E 5E 9E15E36
  22616380.752   118849828.517    22616384.237    92610241.941                  
  22088109.088   116073793.083    22088110.106    90447110.339                  
  20181883.728   106056513.378    20181884.818    82641440.653                  
  20759911.937   109094072.902    20759912.956    85008370.142                  
  20793381.225   109269906.425    20793384.691    85145369.262                  
  24302920.984   127712647.886    24302924.880    99516333.927                  
  23706075.497   124576201.725    23706080.214    97072348.387                  
                 120847433.598                   120847433.598    23207481.135  
                 131357346.718                   131357346.718    25225800.734  
                 116810040.294                   116810040.294    22432136.455  
                 134819078.778                   134819078.778    25890592.806  
                 126091229.007                   126091229.007    24214501.217  
  25710104.292   135107467.538                                                  
  23508226.887   123536548.239                                                  
  23979235.284   126011704.117                                                  
  26383420.888   138645755.014                                                  
  24871397.361   130700001.939                                                  
 21  8 31 20 19 22.0000000  0 17G10G15G18G23G24G27G32C19C21C22C34C35
                                E 3E 5E 9E15E36
  22615970.158   118847670.785    22615973.642    92608560.591                  
  22088654.039   116076656.785    22088655.040    90449341.797                  
  20182052.644   106057400.978    20182053.716    82642132.285                  
  20759746.702   109093204.649    20759747.739    85007693.578                  
  20793230.196   109269112.833    20793233.698    85144750.878                  
  24302874.221   127712402.056    24302878.099    99516142.371                  
  23705552.917   124573455.537    23705557.617    97070208.500                  
                 120849066.344                   120849066.344    23207794.700  
                 131355411.634                   131355411.634    25225429.112  
                 116809720.285                   116809720.285    22432075.004  
                 134817099.441                   134817099.441    25890212.678  
                 126094197.981                   126094197.981    24215071.382  
  25709785.937   135105794.533                                                  
  23508289.161   123536875.500                                                  
  23979626.008   126013757.339                                                  
  26382949.039   138643275.505                                                  
  24871861.902   130702443.124                                                  
 21  8 31 20 19 23.0000000  0 17G10G15G18G23G24G27G32C19C21C22C34C35
                                E 3E 5E 9E15E36
  22615559.563   118845513.108    22615563.048    92606879.284                  
  22089199.009   116079520.657    22089200.027    90451573.383                  
  20182221.667   106058289.194    20182222.757    82642824.402                  
  20759581.521   109092336.621    20759582.557    85007017.195                  
  20793079.327   109268319.907    20793082.794    85144133.016                  
  24302827.547   127712156.821    24302831.443    99515951.276                  
  23705030.373   124570709.591    23705035.109    97068068.804                  
                 120850699.148                   120850699.148    23208108.266  
                 131353476.625                   131353476.625    25225057.525  
                 116809400.427                   116809400.427    22432013.588  
                 134815120.519                   134815120.519    25889832.640  
                 126097167.124                   126097167.124    24215641.582  
  25709467.600   135104121.712                                                  
  23508351.488   123537202.961                                                  
  23980016.714   126015810.593                                                  
  26382477.261   138640796.219                                                  
  24872326.497   130704884.617                                                  
 21  8 31 20 19 24.0000000  0 17G10G15G18G23G24G27G32C19C21C22C34C35
                                E 3E 5E 9E15E36
  22615148.987   118843355.487    22615152.454    92605198.024                  
  22089744.014   116082384.688    22089745.015    90453805.093                  
  20182390.797   106059178.048    20182391.905    82643517.015                  
  20759416.375   109091468.814    20759417.412    85006340.980                  
  20792928.567   109267527.676    20792932.033    85143515.691                  
  24302780.981   127711912.173    24302784.876    99515760.642                  
  23704507.901   124567963.890    23704512.601    97065929.296                  
                 120852332.016                   120852332.016    23208421.831  
                 131351541.695                   131351541.695    25224685.939  
                 116809080.720                   116809080.720    22431952.172  
                 134813142.019                   134813142.019    25889452.709  
                 126100136.439                   126100136.439    24216211.801  
  25709149.317   135102449.103                                                  
  23508413.833   123537530.636                                                  
  23980407.438   126017863.862                                                  
  26382005.501   138638317.156                                                  
  24872791.163   130707326.413                                                  
 21  8 31 20 19 25.0000000  0 17G10G15G18G23G24G27G32C19C21C22C34C35
                                E 3E 5E 9E15E36
  22614738.428   118841197.917    22614741.895    92603516.800                  
  22090289.055   116085248.883    22090290.056    90456036.938                  
  20182560.053   106060067.517    20182561.160    82644210.110                  
  20759251.301   109090601.218    20759252.320    85005664.933                  
  20792777.949   109266736.126    20792781.415    85142898.903                  
  24302734.539   127711668.118    24302738.435    99515570.469                  
  23703985.447   124565218.417    23703990.164    97063789.972                  
                 120853964.951                   120853964.951    23208735.415  
                 131349606.843                   131349606.843    25224314.389  
                 116808761.165                   116808761.165    22431890.827  
                 134811163.934                   134811163.934    25889072.813  
                 126103105.925                   126103105.925    24216782.055  
  25708831.052   135100776.664                                                  
  23508476.214   123537858.529                                                  
  23980798.180   126019917.175                                                  
  26381533.794   138635838.322                                                  
  24873255.882   130709768.505                                                  
 21  8 31 20 19 26.0000000  0 17G10G15G18G23G24G27G32C19C21C22C34C35
                                E 3E 5E 9E15E36
  22614327.834   118839040.396    22614331.318    92601835.612                  
  22090834.114   116088113.242    22090835.132    90458268.901                  
  20182729.433   106060957.609    20182730.541    82644903.688                  
  20759086.245   109089733.845    20759087.264    85004989.056                  
  20792627.438   109265945.269    20792630.922    85142282.653                  
  24302688.223   127711424.661    24302692.118    99515380.762                  
  23703463.046   124562473.176    23703467.745    97061650.825                  
                 120855597.941                   120855597.941    23209049.016  
                 131347672.070                   131347672.070    25223942.820  
                 116808441.755                   116808441.755    22431829.483  
                 134809186.269                   134809186.269    25888693.043  
                 126106075.583                   126106075.583    24217352.363  
  25708512.858   135099104.442                                                  
  23508538.666   123538186.618                                                  
  23981188.922   126021970.505                                                  
  26381062.124   138633359.699                                                  
  24873720.638   130712210.893                                                  
 21  8 31 20 19 27.0000000  0 17G10G15G18G23G24G27G32C19C21C22C34C35
                                E 3E 5E 9E15E36
  22613917.293   118836882.933    22613920.778    92600154.478                  
  22091379.226   116090977.759    22091380.245    90460500.993                  
  20182898.939   106061848.325    20182900.046    82645597.751                  
  20758921.225   109088866.680    20758922.243    85004313.343                  
  20792477.088   109265155.098    20792480.554    85141666.934                  
  24302641.995   127711181.798    24302645.909    99515191.520                  
  23702940.681   124559728.175    23702945.380    97059511.864                  
                 120857231.000                   120857231.000    23209362.635  
                 131345737.376                   131345737.376    25223571.287  
                 116808122.496                   116808122.496    22431768.157  
                 134807209.028                   134807209.028    25888313.326  
                 126109045.409                   126109045.409    24217922.688  
  25708194.683   135097432.423                                                  
  23508601.136   123538514.929                                                  
  23981579.664   126024023.856                                                  
  26380590.507   138630881.319                                                  
  24874185.483   130714653.587                                                  
 21  8 31 20 19 28.0000000  0 17G10G15G18G23G24G27G32C19C21C22C34C35
                                E 3E 5E 9E15E36
  22613506.752   118834725.524    22613510.237    92598473.379                  
  22091924.356   116093842.429    22091925.357    90462733.204                  
  20183068.551   106062739.655    20183069.641    82646292.296                  
  20758756.240   109087999.727    20758757.277    85003637.797                  
  20792326.845   109264365.617    20792330.312    85141051.754                  
  24302595.893   127710939.521    24302599.807    99515002.726                  
  23702418.351   124556983.395    23702423.086    97057373.078                  
                 120858864.121                   120858864.121    23209676.255  
                 131343802.754                   131343802.754    25223199.755  
                 116807803.391                   116807803.391    22431706.884  
                 134805232.200                   134805232.200    25887933.699  
                 126112015.410                   126112015.410    24218493.032  
  25707876.543   135095760.580                                                  
  23508663.660   123538843.441                                                  
  23981970.406   126026077.230                                                  
  26380118.925   138628403.140                                                  
  24874650.363   130717096.571                                                  
 21  8 31 20 19 29.0000000  0 17G10G15G18G23G24G27G32C19C21C22C34C35
                                E 3E 5E 9E15E36
  22613096.211   118832568.164    22613099.696    92596792.320                  
  22092469.522   116096707.279    22092470.523    90464965.551                  
  20183238.271   106063631.610    20183239.379    82646987.323                  
  20758591.327   109087133.008    20758592.345    85002962.429                  
  20792176.745   109263576.802    20792180.212    85140437.095                  
  24302549.916   127710697.840    24302553.794    99514814.405                  
  23701896.093   124554238.867    23701900.793    97055234.485                  
                 120860497.306                   120860497.306    23209989.892  
                 131341868.213                   131341868.213    25222828.240  
                 116807484.429                   116807484.429    22431645.647  
                 134803255.793                   134803255.793    25887554.143  
                 126114985.579                   126114985.579    24219063.447  
  25707558.438   135094088.942                                                  
  23508726.201   123539172.161                                                  
  23982361.166   126028130.640                                                  
  26379647.379   138625925.192                                                  
  24875115.297   130719539.863                                                  
 21  8 31 20 19 30.0000000  0 17G10G15G18G23G24G27G32C19C21C22C34C35
                                E 3E 5E 9E15E36
  22612685.706   118830410.864    22612689.173    92595111.304                  
  22093014.724   116099572.289    22093015.725    90467198.027                  
  20183408.134   106064524.190    20183409.242    82647682.840                  
  20758426.414   109086266.489    20758427.432    85002287.222                  
  20792026.753   109262788.694    20792030.237    85139822.985                  
  24302504.047   127710456.745    24302507.924    99514626.542                  
  23701373.871   124551494.547    23701378.588    97053096.054                  
                 120862130.552                   120862130.552    23210303.547  
                 131339933.749                   131339933.749    25222456.761  
                 116807165.621                   116807165.621    22431584.427  
                 134801279.805                   134801279.805    25887174.676  
                 126117955.918                   126117955.918    24219633.862  
  25707240.352   135092417.497                                                  
  23508788.796   123539501.098                                                  
  23982751.908   126030184.050                                                  
  26379175.887   138623447.461                                                  
  24875580.303   130721983.454                                                  
 21  8 31 20 19 31.0000000  0 17G10G15G18G23G24G27G32C19C21C22C34C35
                                E 3E 5E 9E15E36
  22612275.183   118828253.607    22612278.668    92593430.327                  
  22093559.944   116102437.458    22093560.945    90469430.622                  
  20183578.104   106065417.386    20183579.194    82648378.835                  
  20758261.554   109085400.196    20758262.608    85001612.188                  
  20791876.921   109262001.270    20791880.405    85139209.405                  
  24302458.266   127710216.264    24302462.162    99514439.152                  
  23700851.702   124548750.486    23700856.402    97050957.829                  
                 120863763.859                   120863763.859    23210617.202  
                 131337999.362                   131337999.362    25222085.282  
                 116806846.964                   116806846.964    22431523.226  
                 134799304.239                   134799304.239    25886795.281  
                 126120926.430                   126120926.430    24220204.312  
  25706922.337   135090746.253                                                  
  23508851.445   123539830.234                                                  
  23983142.668   126032237.509                                                  
  26378704.431   138620969.968                                                  
  24876045.362   130724427.336                                                  
 21  8 31 20 19 32.0000000  0 17G10G15G18G23G24G27G32C19C21C22C34C35
                                E 3E 5E 9E15E36
  22611864.678   118826096.400    22611868.163    92591749.387                  
  22094105.199   116105302.786    22094106.200    90471663.347                  
  20183748.200   106066311.205    20183749.307    82649075.317                  
  20758096.766   109084534.114    20758097.784    85000937.319                  
  20791727.196   109261214.524    20791730.699    85138596.359                  
  24302412.629   127709976.356    24302416.506    99514252.210                  
  23700329.552   124546006.647    23700334.251    97048819.778                  
                 120865397.230                   120865397.230    23210930.875  
                 131336065.054                   131336065.054    25221713.820  
                 116806528.456                   116806528.456    22431462.042  
                 134797329.089                   134797329.089    25886415.976  
                 126123897.114                   126123897.114    24220774.799  
  25706604.340   135089075.199                                                  
  23508914.094   123540159.594                                                  
  23983533.445   126034290.980                                                  
  26378233.028   138618492.694                                                  
  24876510.475   130726871.532                                                  
 21  8 31 20 19 33.0000000  0 17G10G15G18G23G24G27G32C19C21C22C34C35
                                E 3E 5E 9E15E36
  22611454.191   118823939.249    22611457.676    92590068.492                  
  22094650.472   116108168.286    22094651.473    90473896.200                  
  20183918.402   106067205.645    20183919.492    82649772.286                  
  20757931.996   109083668.249    20757933.014    85000262.622                  
  20791577.615   109260428.465    20791581.099    85137983.845                  
  24302367.081   127709737.045    24302370.976    99514065.735                  
  23699807.455   124543263.055    23699812.172    97046681.909                  
                 120867030.668                   120867030.668    23211244.565  
                 131334130.825                   131334130.825    25221342.359  
                 116806210.098                   116806210.098    22431400.912  
                 134795354.360                   134795354.360    25886036.759  
                 126126867.964                   126126867.964    24221345.321  
  25706286.396   135087404.347                                                  
  23508976.814   123540489.153                                                  
  23983924.205   126036344.475                                                  
  26377761.661   138616015.636                                                  
  24876975.641   130729316.016                                                  
 21  8 31 20 19 34.0000000  0 17G10G15G18G23G24G27G32C19C21C22C34C35
                                E 3E 5E 9E15E36
  22611043.704   118821782.153    22611047.188    92588387.636                  
  22095195.799   116111033.937    22095196.800    90476129.176                  
  20184088.712   106068100.708    20184089.820    82650469.735                  
  20757767.261   109082802.610    20757768.298    84999588.093                  
  20791428.176   109259643.095    20791431.661    85137371.866                  
  24302321.657   127709498.337    24302325.535    99513879.726                  
  23699285.411   124540519.695    23699290.129    97044544.231                  
                 120868664.164                   120868664.164    23211558.256  
                 131332196.668                   131332196.668    25220970.916  
                 116805891.886                   116805891.886    22431339.800  
                 134793380.047                   134793380.047    25885657.596  
                 126129838.989                   126129838.989    24221915.879  
  25705968.488   135085733.687                                                  
  23509039.588   123540818.918                                                  
  23984314.983   126038397.999                                                  
  26377290.348   138613538.800                                                  
  24877440.879   130731760.790                                                  
 21  8 31 20 19 35.0000000  0 17G10G15G18G23G24G27G32C19C21C22C34C35
                                E 3E 5E 9E15E36
  22610633.235   118819625.102    22610636.719    92586706.821                  
  22095741.144   116113899.763    22095742.163    90478362.285                  
  20184259.182   106068996.395    20184260.254    82651167.671                  
  20757602.580   109081937.180    20757603.599    84998913.734                  
  20791278.863   109258858.426    20791282.347    85136760.438                  
  24302276.342   127709260.218    24302280.237    99513694.179                  
  23698763.421   124537776.567    23698768.121    97042406.730                  
                 120870297.726                   120870297.726    23211871.964  
                 131330262.593                   131330262.593    25220599.508  
                 116805573.828                   116805573.828    22431278.724  
                 134791406.155                   134791406.155    25885278.541  
                 126132810.179                   126132810.179    24222486.455  
  25705650.598   135084063.223                                                  
  23509102.362   123541148.893                                                  
  23984705.760   126040451.547                                                  
  26376819.035   138611062.196                                                  
  24877906.153   130734205.875                                                  
 21  8 31 20 19 36.0000000  0 17G10G15G18G23G24G27G32C19C21C22C34C35
                                E 3E 5E 9E15E36
  22610222.783   118817468.118    22610226.268    92585026.055                  
  22096286.524   116116765.745    22096287.543    90480595.520                  
  20184429.742   106069892.708    20184430.832    82651866.098                  
  20757437.935   109081071.969    20757438.954    84998239.542                  
  20791129.656   109258074.430    20791133.159    85136149.532                  
  24302231.133   127709022.686    24302235.046    99513509.089                  
  23698241.467   124535033.677    23698246.167    97040269.413                  
                 120871931.350                   120871931.350    23212185.673  
                 131328328.594                   131328328.594    25220228.100  
                 116805255.919                   116805255.919    22431217.684  
                 134789432.689                   134789432.689    25884899.557  
                 126135781.543                   126135781.543    24223057.084  
  25705332.762   135082392.964                                                  
  23509165.207   123541479.077                                                  
  23985096.538   126042505.130                                                  
  26376347.793   138608585.809                                                  
  24878371.498   130736651.266                                                  
 21  8 31 20 19 37.0000000  0 17G10G15G18G23G24G27G32C19C21C22C34C35
                                E 3E 5E 9E15E36
  22609812.314   118815311.169    22609815.798    92583345.315                  
  22096831.941   116119631.879    22096832.941    90482828.867                  
  20184600.427   106070789.639    20184601.517    82652565.009                  
  20757273.344   109080206.973    20757274.362    84997565.524                  
  20790980.593   109257291.123    20790984.095    85135539.160                  
  24302186.067   127708785.753    24302189.945    99513324.468                  
  23697719.567   124532291.021    23697724.266    97038132.286                  
                 120873565.038                   120873565.038    23212499.417  
                 131326394.673                   131326394.673    25219856.728  
                 116804938.158                   116804938.158    22431156.643  
                 134787459.632                   134787459.632    25884520.662  
                 126138753.074                   126138753.074    24223627.731  
  25705014.961   135080722.887                                                  
  23509228.053   123541809.482                                                  
  23985487.316   126044558.724                                                  
  26375876.605   138606109.648                                                  
  24878836.896   130739096.940                                                  
 21  8 31 20 19 38.0000000  0 17G10G15G18G23G24G27G32C19C21C22C34C35
                                E 3E 5E 9E15E36
  22609401.880   118813154.276    22609405.365    92581664.622                  
  22097377.375   116122498.184    22097378.375    90485062.351                  
  20184771.219   106071687.190    20184772.327    82653264.394                  
  20757108.752   109079342.200    20757109.806    84996891.672                  
  20790831.672   109256508.508    20790835.157    85134929.331                  
  24302141.073   127708549.407    24302144.986    99513140.302                  
  23697197.684   124529548.594    23697202.383    97035995.327                  
                 120875198.790                   120875198.790    23212813.162  
                 131324460.827                   131324460.827    25219485.339  
                 116804620.547                   116804620.547    22431095.656  
                 134785487.000                   134785487.000    25884141.821  
                 126141724.778                   126141724.778    24224198.414  
  25704697.179   135079053.016                                                  
  23509290.987   123542140.082                                                  
  23985878.111   126046612.345                                                  
  26375405.452   138603633.707                                                  
  24879302.367   130741542.926                                                  
 21  8 31 20 19 39.0000000  0 17G10G15G18G23G24G27G32C19C21C22C34C35
                                E 3E 5E 9E15E36
  22608991.447   118810997.442    22608994.913    92579983.969                  
  22097922.845   116125364.647    22097923.863    90487295.957                  
  20184942.118   106072585.360    20184943.226    82653964.265                  
  20756944.232   109078477.632    20756945.286    84996217.985                  
  20790682.877   109255726.571    20790686.362    85134320.032                  
  24302096.222   127708313.656    24302100.117    99512956.602                  
  23696675.855   124526806.402    23696680.554    97033858.559                  
                 120876832.603                   120876832.603    23213126.924  
                 131322527.063                   131322527.063    25219113.985  
                 116804303.086                   116804303.086    22431034.687  
                 134783514.789                   134783514.789    25883763.087  
                 126144696.649                   126144696.649    24224769.133  
  25704379.468   135077383.335                                                  
  23509353.940   123542470.898                                                  
  23986268.925   126048665.995                                                  
  26374934.335   138601157.995                                                  
  24879767.855   130743989.203                                                  
 21  8 31 20 19 40.0000000  0 17G10G15G18G23G24G27G32C19C21C22C34C35
                                E 3E 5E 9E15E36
  22608581.013   118808840.661    22608584.498    92578303.363                  
  22098468.332   116128231.274    22098469.369    90489529.692                  
  20185113.161   106073484.156    20185114.269    82654664.629                  
