     2.11           OBSERVATION DATA    M (MIXED)           RINEX VERSION / TYPE
CONVBIN 2.4.3                           20210901 191257 UTC PGM / RUN BY / DATE 
log: logs/21_09_01_10_42_43_msme_SW.rtcm                    COMMENT             
format: RTCM 3, station ID: 4076                            COMMENT             
4076                                                        MARKER NAME         
                                                            MARKER NUMBER       
                                                            OBSERVER / AGENCY   
                    SWFT                                    REC # / TYPE / VERS 
                    NULL                                    ANT # / TYPE        
   120451.4560 -5443708.0665  3310388.7644                  APPROX POSITION XYZ 
        0.0000        0.0000        0.0000                  ANTENNA: DELTA H/E/N
     1     1                                                WAVELENGTH FACT L1/2
     5    C1    L1    P2    L2    C2                        # / TYPES OF OBSERV 
  2021     9     1    10    42   48.0000000     GPS         TIME OF FIRST OBS   
  2021     9     1    11    12   46.0000000     GPS         TIME OF LAST OBS    
                                                            END OF HEADER       
 21  9  1 10 42 48.0000000  0 10G 1G 6G14G17G19G22G24G30E21E27
  23172548.446   121772524.856    23172551.215    94887670.918                  
  21708984.994   114081445.989    21708987.996    88894622.573                  
  20504197.802   107750298.718    20504197.963    83961276.844                  
  21051577.742   110626802.426    21051577.063    86202706.313                  
  20904762.687   109855291.591    20904760.364    85601531.970                  
  24406807.767   128258664.979    24406805.248    99941823.750                  
  24270965.132   127544750.207    24270967.562    99385511.536                  
  22591566.880   118719441.589    22591569.239    92508644.858                  
  23547189.220   123741292.173                                                  
  25141494.541   132119428.738                                                  
 21  9  1 10 42 49.0000000  0 10G 1G 6G14G17G19G22G24G30E21E27
  23173206.901   121775985.102    23173209.689    94890367.216                  
  21708454.927   114078660.425    21708457.947    88892452.004                  
  20504260.576   107750628.577    20504260.719    83961533.876                  
  21051716.048   110627529.257    21051715.351    86203272.672                  
  20904619.556   109854539.550    20904617.268    85600945.964                  
  24406960.494   128259467.660    24406957.974    99942449.215                  
  24270513.081   127542374.586    24270515.493    99383660.402                  
  22592189.794   118722715.066    22592192.153    92511195.617                  
  23547085.258   123740745.867                                                  
  25141830.031   132121191.746                                                  
 21  9  1 10 42 50.0000000  0 10G 1G 6G14G17G19G22G24G30E21E27
  23173865.428   121779445.612    23173868.198    94893063.715                  
  21707924.914   114075875.282    21707927.934    88890281.763                  
  20504323.421   107750958.840    20504323.582    83961791.222                  
  21051854.372   110628256.214    21051853.693    86203839.132                  
  20904476.514   109853787.798    20904474.191    85600360.181                  
  24407113.363   128260270.868    24407110.826    99943075.089                  
  24270061.102   127539999.414    24270063.514    99381809.617                  
  22592812.762   118725988.775    22592815.138    92513746.559                  
  23546981.367   123740199.854                                                  
  25142165.576   132122955.012                                                  
 21  9  1 10 42 51.0000000  0 13G 1G 6G14G17G19G22G24G30C23C27C28E21
                                E27
  23174523.973   121782906.363    23174526.761    94895760.406                  
  21707395.008   114073090.569    21707398.028    88888111.859                  
  20504386.338   107751289.511    20504386.499    83962048.890                  
  21051992.732   110628983.308    21051992.053    86204405.699                  
  20904333.526   109853036.318    20904331.203    85599774.614                  
  24407266.304   128261074.605    24407263.785    99943701.380                  
  24269609.194   127537624.673    24269611.625    99379959.172                  
  22593435.783   118729262.733    22593438.160    92516297.700                  
                 119351609.788                   119351609.788    22920213.468  
                 123882419.651                   123882419.651    23790316.093  
                 113508882.204                   113508882.204    21798185.691  
  23546877.494   123739654.138                                                  
  25142501.156   132124718.548                                                  
 21  9  1 10 42 52.0000000  0 13G 1G 6G14G17G19G22G24G30C23C27C28E21
                                E27
  23175182.572   121786367.371    23175185.377    94898457.293                  
  21706865.174   114070306.288    21706868.194    88885942.290                  
  20504449.344   107751620.593    20504449.505    83962306.874                  
  21052131.128   110629710.535    21052130.449    86204972.372                  
  20904190.556   109852285.116    20904188.233    85599189.263                  
  24407419.335   128261878.887    24407416.815    99944328.093                  
  24269157.376   127535250.367    24269159.806    99378109.063                  
  22594058.840   118732536.952    22594061.217    92518849.035                  
                 119353838.327                   119353838.327    22920641.449  
                 123880483.508                   123880483.508    23789944.292  
                 113509253.727                   113509253.727    21798257.042  
  23546773.711   123739108.718                                                  
  25142836.826   132126482.369                                                  
 21  9  1 10 42 53.0000000  0 13G 1G 6G14G17G19G22G24G30C23C27C28E21
                                E27
  23175841.242   121789828.629    23175844.012    94901154.380                  
  21706335.429   114067522.418    21706338.449    88883773.040                  
  20504512.422   107751952.086    20504512.583    83962565.180                  
  21052269.541   110630437.906    21052268.862    86205539.151                  
  20904047.658   109851534.194    20904045.353    85598604.128                  
  24407572.508   128262683.701    24407569.988    99944955.219                  
  24268705.665   127532876.516    24268708.078    99376259.309                  
  22594681.969   118735811.421    22594684.328    92521400.570                  
                 119356067.253                   119356067.253    22921069.483  
                 123878547.622                   123878547.622    23789572.527  
                 113509625.543                   113509625.543    21798328.447  
  23546669.981   123738563.591                                                  
  25143172.495   132128246.456                                                  
 21  9  1 10 42 54.0000000  0 13G 1G 6G14G17G19G22G24G30C23C27C28E21
                                E27
  23176499.948   121793290.149    23176502.735    94903851.668                  
  21705805.755   114064738.988    21705808.757    88881604.134                  
  20504575.571   107752283.987    20504575.732    83962823.804                  
  21052407.973   110631165.411    21052407.294    86206106.039                  
  20903904.813   109850783.550    20903902.525    85598019.211                  
  24407725.753   128263489.054    24407723.233    99945582.769                  
  24268254.008   127530503.099    24268256.420    99374409.891                  
  22595305.097   118739086.125    22595307.474    92523952.284                  
                 119358296.569                   119358296.569    22921497.607  
                 123876611.988                   123876611.988    23789200.798  
                 113509997.645                   113509997.645    21798399.905  
  23546566.305   123738018.755                                                  
  25143508.254   132130010.817                                                  
 21  9  1 10 42 55.0000000  0 13G 1G 6G14G17G19G22G24G30C23C27C28E21
                                E27
  23177158.707   121796751.918    23177161.477    94906549.148                  
  21705276.153   114061955.990    21705279.173    88879435.563                  
  20504638.827   107752616.293    20504638.988    83963082.741                  
  21052546.440   110631893.057    21052545.761    86206673.036                  
  20903762.039   109850033.191    20903759.716    85597434.516                  
  24407879.105   128264294.942    24407876.585    99946210.731                  
  24267802.440   127528130.116    24267804.852    99372560.815                  
  22595928.315   118742361.078    22595930.674    92526504.196                  
                 119360526.275                   119360526.275    22921925.785  
                 123874676.613                   123874676.613    23788829.140  
                 113510370.038                   113510370.038    21798471.417  
  23546462.683   123737474.224                                                  
  25143844.067   132131775.456                                                  
 21  9  1 10 42 56.0000000  0 13G 1G 6G14G17G19G22G24G30C23C27C28E21
                                E27
  23177817.502   121800213.939    23177820.272    94909246.824                  
  21704746.658   114059173.408    21704749.678    88877267.315                  
  20504702.137   107752949.001    20504702.298    83963341.996                  
  21052684.942   110632620.836    21052684.263    86207240.136                  
  20903619.301   109849283.108    20903616.978    85596850.040                  
  24408032.564   128265101.366    24408030.044    99946839.116                  
  24267350.961   127525757.573    24267353.373    99370712.081                  
  22596551.551   118745636.280    22596553.946    92529056.302                  
                 119362756.364                   119362756.364    22922354.052  
                 123872741.491                   123872741.491    23788457.518  
                 113510742.724                   113510742.724    21798543.000  
  23546359.114   123736929.989                                                  
  25144179.897   132133540.363                                                  
 21  9  1 10 42 57.0000000  0 13G 1G 6G14G17G19G22G24G30C23C27C28E21
                                E27
  23178476.369   121803676.224    23178479.138    94911944.707                  
  21704217.235   114056391.254    21704220.237    88875099.406                  
  20504765.519   107753282.134    20504765.680    83963601.578                  
  21052823.463   110633348.746    21052822.784    86207807.339                  
  20903476.617   109848533.301    20903474.294    85596265.774                  
  24408186.112   128265908.331    24408183.593    99947467.917                  
  24266899.554   127523385.479    24266901.984    99368863.696                  
  22597174.858   118748911.729    22597177.235    92531608.602                  
                 119364986.843                   119364986.843    22922782.408  
                 123870806.628                   123870806.628    23788085.932  
                 113511115.695                   113511115.695    21798614.619  
  23546255.599   123736386.040                                                  
  25144515.799   132135305.548                                                  
 21  9  1 10 42 58.0000000  0 13G 1G 6G14G17G19G22G24G30C23C27C28E21
                                E27
  23179135.253   121807138.753    23179138.041    94914642.786                  
  21703687.883   114053609.532    21703690.903    88872931.833                  
  20504829.007   107753615.660    20504829.168    83963861.469                  
  21052962.002   110634076.792    21052961.323    86208374.650                  
  20903333.987   109847783.778    20903331.682    85595681.726                  
  24408339.786   128266715.829    24408337.266    99948097.137                  
  24266448.254   127521013.811    24266450.684    99367015.645                  
  22597798.201   118752187.445    22597800.578    92534161.105                  
                 119367217.711                   119367217.711    22923210.800  
                 123868872.020                   123868872.020    23787714.417  
                 113511488.957                   113511488.957    21798686.292  
  23546152.155   123735842.392                                                  
  25144851.755   132137071.003                                                  
 21  9  1 10 42 59.0000000  0 13G 1G 6G14G17G19G22G24G30C23C27C28E21
                                E27
  23179794.191   121810601.543    23179796.979    94917341.064                  
  21703158.620   114050828.224    21703161.640    88870764.579                  
  20504892.532   107753949.598    20504892.693    83964121.685                  
  21053100.558   110634804.987    21053099.897    86208942.074                  
  20903191.392   109847034.528    20903189.105    85595097.898                  
  24408493.567   128267523.862    24408491.011    99948726.777                  
  24265997.025   127518642.598    24265999.437    99365167.944                  
  22598421.598   118755463.387    22598423.975    92536713.790                  
                 119369448.969                   119369448.969    22923639.299  
                 123866937.669                   123866937.669    23787342.956  
                 113511862.512                   113511862.512    21798758.036  
  23546048.765   123735299.044                                                  
  25145187.782   132138836.731                                                  
 21  9  1 10 43  0.0000000  0 13G 1G 6G14G17G19G22G24G30C23C27C28E21
                                E27
  23180453.201   121814064.579    23180455.988    94920039.531                  
  21702629.447   114048047.364    21702632.467    88868597.671                  
  20504956.163   107754283.955    20504956.324    83964382.218                  
  21053239.168   110635533.311    21053238.471    86209509.597                  
  20903048.886   109846285.557    20903046.581    85594514.286                  
  24408647.419   128268332.435    24408644.899    99949356.832                  
  24265545.886   127516271.825    24265548.298    99363320.589                  
  22599045.048   118758739.593    22599047.425    92539266.675                  
                 119371680.614                   119371680.614    22924067.852  
                 123865003.570                   123865003.570    23786971.548  
                 113512236.350                   113512236.350    21798829.816  
  23545945.428   123734755.992                                                  
  25145523.827   132140602.723                                                  
 21  9  1 10 43  1.0000000  0 14G 1G 3G 6G14G17G19G22G24G30C23C27C28
                                E21E27
  23181112.246   121817527.874    23181115.016    94922738.202                  
  23652037.606   124292268.505    23652040.072    96851110.626                  
  21702100.345   114045266.913    21702103.365    88866431.090                  
  20505019.884   107754618.711    20505020.027    83964643.067                  
  21053377.778   110636261.773    21053377.099    86210077.230                  
  20902906.417   109845536.868    20902904.094    85593930.892                  
  24408801.378   128269141.538    24408798.859    99949987.300                  
  24265094.818   127513901.495    24265097.248    99361473.578                  
  22599668.516   118762016.031    22599670.893    92541819.741                  
                 119373912.643                   119373912.643    22924496.494  
                 123863069.731                   123863069.731    23786600.158  
                 113512610.484                   113512610.484    21798901.685  
  23545842.145   123734213.230                                                  
  25145859.943   132142369.009                                                  
 21  9  1 10 43  2.0000000  0 14G 1G 3G 6G14G17G19G22G24G30C23C27C28
                                E21E27
  23181771.327   121820991.415    23181774.115    94925437.066                  
  23651892.867   124291507.943    23651895.333    96850517.978                  
  21701571.315   114042486.902    21701574.335    88864264.848                  
  20505083.659   107754953.880    20505083.802    83964904.238                  
  21053516.442   110636990.367    21053515.763    86210644.966                  
  20902764.001   109844788.461    20902761.678    85593347.715                  
  24408955.463   128269951.176    24408952.943    99950618.186                  
  24264643.840   127511531.605    24264646.252    99359626.913                  
  22600292.056   118765292.727    22600294.432    92544373.011                  
                 119376145.062                   119376145.062    22924925.225  
                 123861136.144                   123861136.144    23786228.840  
                 113512984.907                   113512984.907    21798973.572  
  23545738.898   123733670.765                                                  
  25146196.095   132144135.567                                                  
 21  9  1 10 43  3.0000000  0 14G 1G 3G 6G14G17G19G22G24G30C23C27C28
                                E21E27
  23182430.462   121824455.215    23182433.267    94928136.128                  
  23651748.235   124290747.906    23651750.719    96849925.741                  
  21701042.374   114039707.316    21701045.394    88862098.937                  
  20505147.505   107755289.452    20505147.666    83965165.723                  
  21053655.105   110637719.103    21053654.426    86211212.811                  
  20902621.638   109844040.329    20902619.315    85592764.755                  
  24409109.619   128270761.369    24409107.100    99951249.503                  
  24264192.969   127509162.155    24264195.381    99357780.591                  
  22600915.631   118768569.655    22600918.026    92546926.466                  
                 119378377.873                   119378377.873    22925353.993  
                 123859202.813                   123859202.813    23785857.557  
                 113513359.616                   113513359.616    21799045.549  
  23545635.740   123733128.596                                                  
  25146532.318   132145902.384                                                  
 21  9  1 10 43  4.0000000  0 14G 1G 3G 6G14G17G19G22G24G30C23C27C28
                                E21E27
  23183089.668   121827919.258    23183092.438    94930835.387                  
  23651603.692   124289988.397    23651606.176    96849333.923                  
  21700513.522   114036928.152    21700516.542    88859933.355                  
  20505211.440   107755625.438    20505211.601    83965427.532                  
  21053793.805   110638447.973    21053793.126    86211780.762                  
  20902479.311   109843292.473    20902477.006    85592182.008                  
  24409263.900   128271572.083    24409261.381    99951881.231                  
  24263742.169   127506793.140    24263744.563    99355934.605                  
  22601539.260   118771846.841    22601541.637    92549480.113                  
                 119380611.067                   119380611.067    22925782.867  
                 123857269.738                   123857269.738    23785486.346  
                 113513734.614                   113513734.614    21799117.561  
  23545532.618   123732586.727                                                  
  25146868.578   132147669.474                                                  
 21  9  1 10 43  5.0000000  0 14G 1G 3G 6G14G17G19G22G24G30C23C27C28
                                E21E27
  23183748.874   121831383.550    23183751.662    94933534.833                  
  23651459.275   124289229.440    23651461.759    96848742.528                  
  21699984.760   114034149.426    21699987.762    88857768.114                  
  20505275.465   107755961.828    20505275.626    83965689.656                  
  21053932.522   110639176.978    21053931.861    86212348.820                  
  20902337.056   109842544.896    20902334.733    85591599.480                  
  24409418.289   128272383.347    24409415.751    99952513.387                  
  24263291.423   127504424.567    24263293.835    99354088.962                  
  22602162.943   118775124.285    22602165.319    92552033.966                  
                 119382844.652                   119382844.652    22926211.795  
                 123855336.922                   123855336.922    23785115.153  
                 113514109.903                   113514109.903    21799189.626  
  23545429.567   123732045.157                                                  
  25147204.909   132149436.860                                                  
 21  9  1 10 43  6.0000000  0 14G 1G 3G 6G14G17G19G22G24G30C23C27C28
                                E21E27
  23184408.152   121834848.101    23184410.957    94936234.485                  
  23651314.965   124288471.012    23651317.449    96848151.542                  
  21699456.051   114031371.126    21699459.071    88855603.206                  
  20505339.543   107756298.632    20505339.704    83965952.097                  
  21054071.275   110639906.109    21054070.596    86212916.977                  
  20902194.837   109841797.583    20902192.531    85591017.161                  
  24409572.766   128273195.136    24409570.247    99953145.949                  
  24262840.784   127502056.441    24262843.196    99352243.669                  
  22602786.661   118778401.962    22602789.037    92554587.999                  
                 119385078.620                   119385078.620    22926640.795  
                 123853404.359                   123853404.359    23784744.013  
                 113514485.479                   113514485.479    21799261.746  
  23545326.553   123731503.880                                                  
  25147541.275   132151204.504                                                  
 21  9  1 10 43  7.0000000  0 14G 1G 3G 6G14G17G19G22G24G30C23C27C28
                                E21E27
  23185067.501   121838312.910    23185070.288    94938934.332                  
  23651170.744   124287713.108    23651173.228    96847560.968                  
  21698927.432   114028593.245    21698930.452    88853438.624                  
  20505403.729   107756635.839    20505403.872    83966214.859                  
  21054210.064   110640635.396    21054209.385    86213485.250                  
  20902052.706   109841050.554    20902050.383    85590435.063                  
  24409727.333   128274007.470    24409724.814    99953778.933                  
  24262390.216   127499688.749    24262392.647    99350398.714                  
  22603410.433   118781679.870    22603412.791    92557142.215                  
                 119387312.981                   119387312.981    22927069.901  
                 123851472.051                   123851472.051    23784372.945  
                 113514861.353                   113514861.353    21799333.937  
  23545223.627   123730962.897                                                  
  25147877.695   132152972.415                                                  
 21  9  1 10 43  8.0000000  0 14G 1G 3G 6G14G17G19G22G24G30C23C27C28
                                E21E27
  23185726.886   121841777.968    23185729.655    94941634.380                  
  23651026.612   124286955.739    23651029.096    96846970.808                  
  21698398.920   114025815.787    21698401.922    88851274.371                  
  20505467.968   107756973.453    20505468.129    83966477.933                  
  21054348.852   110641364.805    21054348.173    86214053.617                  
  20901910.594   109840303.802    20901908.289    85589853.175                  
  24409882.025   128274820.336    24409879.506    99954412.337                  
  24261939.756   127497321.512    24261942.186    99348554.114                  
  22604034.258   118784958.059    22604036.617    92559696.644                  
                 119389547.731                   119389547.731    22927499.062  
                 123849540.000                   123849540.000    23784001.913  
                 113515237.508                   113515237.508    21799406.163  
  23545120.719   123730422.204                                                  
  25148214.187   132154740.614                                                  
 21  9  1 10 43  9.0000000  0 14G 1G 3G 6G14G17G19G22G24G30C23C27C28
                                E21E27
  23186386.306   121845243.282    23186389.094    94944334.622                  
  23650882.588   124286198.897    23650885.072    96846381.066                  
  21697870.461   114023038.768    21697873.481    88849110.460                  
  20505532.279   107757311.478    20505532.439    83966741.329                  
  21054487.677   110642094.356    21054487.016    86214622.102                  
  20901768.535   109839557.337    20901766.248    85589271.517                  
  24410036.825   128275633.736    24410034.287    99955046.157                  
  24261489.385   127494954.712    24261491.780    99346709.856                  
  22604658.119   118788236.469    22604660.478    92562251.249                  
                 119391782.862                   119391782.862    22927928.276  
                 123847608.205                   123847608.205    23783630.934  
                 113515613.954                   113515613.954    21799478.461  
  23545017.901   123729881.808                                                  
  25148550.696   132156509.065                                                  
 21  9  1 10 43 10.0000000  0 14G 1G 3G 6G14G17G19G22G24G30C23C27C28
                                E21E27
  23187045.780   121848708.845    23187048.568    94947035.058                  
  23650738.653   124285442.582    23650741.137    96845791.727                  
  21697342.092   114020262.176    21697345.094    88846946.882                  
  20505596.696   107757649.917    20505596.839    83967005.048                  
  21054626.537   110642824.042    21054625.858    86215190.691                  
  20901626.548   109838811.148    20901624.243    85588690.066                  
  24410191.696   128276447.669    24410189.176    99955680.391                  
  24261039.068   127492588.346    24261041.480    99344865.933                  
  22605282.016   118791515.137    22605284.393    92564806.056                  
                 119394018.386                   119394018.386    22928357.597  
                 123845676.665                   123845676.665    23783259.991  
                 113515990.687                   113515990.687    21799550.795  
  23544915.118   123729341.723                                                  
  25148887.277   132158277.804                                                  
 21  9  1 10 43 11.0000000  0 14G 1G 3G 6G14G17G19G22G24G30C23C27C28
                                E21E27
  23187705.308   121852174.669    23187708.078    94949735.700                  
  23650594.843   124284686.811    23650597.327    96845202.817                  
  21696813.795   114017486.011    21696816.815    88844783.637                  
  20505661.186   107757988.763    20505661.329    83967269.082                  
  21054765.415   110643553.872    21054764.736    86215759.387                  
  20901484.596   109838065.234    20901482.291    85588108.835                  
  24410346.674   128277262.149    24410344.154    99956315.051                  
  24260588.840   127490222.427    24260591.253    99343022.359                  
  22605905.985   118794794.055    22605908.361    92567361.054                  
                 119396254.294                   119396254.294    22928786.971  
                 123843745.378                   123843745.378    23782889.120  
                 113516367.712                   113516367.712    21799623.218  
  23544812.407   123728801.919                                                  
  25149223.912   132160046.810                                                  
 21  9  1 10 43 12.0000000  0 14G 1G 3G 6G14G17G19G22G24G30C23C27C28
                                E21E27
  23188364.872   121855640.728    23188367.659    94952436.523                  
  23650451.123   124283931.564    23650453.606    96844614.308                  
  21696285.604   114014710.273    21696288.624    88842620.726                  
  20505725.729   107758328.015    20505725.872    83967533.438                  
  21054904.347   110644283.833    21054903.668    86216328.188                  
  20901342.716   109837319.591    20901340.393    85587527.816                  
  24410501.777   128278077.151    24410499.257    99956950.117                  
  24260138.720   127487856.950    24260141.114    99341179.133                  
  22606529.989   118798073.219    22606532.365    92569916.251                  
                 119398490.589                   119398490.589    22929216.436  
                 123841814.347                   123841814.347    23782518.284  
                 113516745.024                   113516745.024    21799695.677  
  23544709.732   123728262.427                                                  
  25149560.600   132161816.097                                                  
 21  9  1 10 43 13.0000000  0 14G 1G 3G 6G14G17G19G22G24G30C23C27C28
                                E21E27
  23189024.507   121859107.048    23189027.276    94955137.554                  
  23650307.527   124283176.847    23650309.993    96844026.219                  
  21695757.485   114011934.968    21695760.505    88840458.149                  
  20505790.361   107758667.671    20505790.522    83967798.101                  
  21055043.260   110645013.933    21055042.581    86216897.097                  
  20901200.872   109836574.226    20901198.567    85586947.015                  
  24410656.951   128278892.696    24410654.432    99957585.604                  
  24259688.652   127485491.911    24259691.083    99339336.243                  
  22607154.047   118801352.617    22607156.405    92572471.624                  
                 119400727.273                   119400727.273    22929645.971  
                 123839883.578                   123839883.578    23782147.501  
                 113517122.625                   113517122.625    21799768.172  
  23544607.128   123727723.216                                                  
  25149897.341   132163585.658                                                  
 21  9  1 10 43 14.0000000  0 14G 1G 3G 6G14G17G19G22G24G30C23C27C28
                                E21E27
  23189684.160   121862573.609    23189686.947    94957838.773                  
  23650164.003   124282422.667    23650166.487    96843438.547                  
  21695229.438   114009160.086    21695232.440    88838295.903                  
  20505855.083   107759007.750    20505855.243    83968063.098                  
  21055182.228   110645744.170    21055181.549    86217466.113                  
  20901059.099   109835829.143    20901056.776    85586366.433                  
  24410812.269   128279708.769    24410809.731    99958221.508                  
  24259238.693   127483127.315    24259241.123    99337493.703                  
  22607778.122   118804632.265    22607780.499    92575027.194                  
                 119402964.346                   119402964.346    22930075.578  
                 123837953.059                   123837953.059    23781776.755  
                 113517500.516                   113517500.516    21799840.756  
  23544504.577   123727184.319                                                  
  25150234.119   132165355.479                                                  
 21  9  1 10 43 15.0000000  0 14G 1G 3G 6G14G17G19G22G24G30C23C27C28
                                E21E27
  23190343.884   121866040.434    23190346.654    94960540.192                  
  23650020.586   124281669.028    23650023.052    96842851.293                  
  21694701.480   114006385.630    21694704.482    88836133.991                  
  20505919.858   107759348.223    20505920.019    83968328.403                  
  21055321.195   110646474.543    21055320.534    86218035.235                  
  20900917.362   109835084.339    20900915.039    85585786.062                  
  24410967.658   128280525.379    24410965.138    99958857.827                  
  24258788.822   127480763.171    24258791.217    99335651.515                  
  22608402.287   118807912.172    22608404.646    92577582.966                  
                 119405201.804                   119405201.804    22930505.257  
                 123836022.796                   123836022.796    23781406.080  
                 113517878.695                   113517878.695    21799913.376  
  23544402.081   123726645.704                                                  
  25150570.968   132167125.583                                                  
 21  9  1 10 43 16.0000000  0 14G 1G 3G 6G14G17G19G22G24G30C23C27C28
                                E21E27
  23191003.644   121869507.505    23191006.414    94963241.804                  
  23649877.259   124280915.901    23649879.743    96842264.446                  
  21694173.593   114003611.605    21694176.595    88833972.413                  
  20505984.740   107759689.118    20505984.901    83968594.036                  
  21055460.216   110647205.053    21055459.537    86218604.464                  
  20900775.679   109834339.820    20900773.356    85585205.917                  
  24411123.154   128281342.523    24411120.635    99959494.563                  
  24258339.023   127478399.464    24258341.417    99333809.665                  
  22609026.452   118811192.316    22609028.847    92580138.922                  
                 119407439.651                   119407439.651    22930935.025  
                 123834092.792                   123834092.792    23781035.441  
                 113518257.165                   113518257.165    21799986.067  
  23544299.638   123726107.391                                                  
  25150907.853   132168895.953                                                  
 21  9  1 10 43 17.0000000  0 14G 1G 3G 6G14G17G19G22G24G30C23C27C28
                                E21E27
  23191663.440   121872974.823    23191666.245    94965943.612                  
  23649734.057   124280163.327    23649736.540    96841678.024                  
  21693645.796   114000838.005    21693648.798    88831811.169                  
  20506049.676   107760030.412    20506049.837    83968859.977                  
  21055599.255   110647935.699    21055598.576    86219173.798                  
  20900634.067   109833595.570    20900631.744    85584625.984                  
  24411278.758   128282160.198    24411276.238    99960131.710                  
  24257889.295   127476036.191    24257891.726    99331968.151                  
  22609650.706   118814472.695    22609653.083    92582695.059                  
                 119409677.882                   119409677.882    22931364.846  
                 123832163.043                   123832163.043    23780664.855  
                 113518635.922                   113518635.922    21800058.794  
  23544197.266   123725569.363                                                  
  25151244.809   132170666.605                                                  
 21  9  1 10 43 18.0000000  0 14G 1G 3G 6G14G17G19G22G24G30C23C27C28
                                E21E27
  23192323.307   121876442.352    23192326.077    94968645.558                  
  23649590.944   124279411.372    23649593.427    96841092.133                  
  21693118.088   113998064.852    21693121.107    88829650.277                  
  20506114.702   107760372.116    20506114.862    83969126.242                  
  21055738.312   110648666.450    21055737.633    86219743.203                  
  20900492.473   109832851.688    20900490.185    85584046.375                  
  24411434.468   128282978.384    24411431.949    99960769.242                  
  24257439.657   127473673.394    24257442.087    99330127.024                  
  22610274.979   118817753.308    22610277.355    92585251.372                  
                 119411916.503                   119411916.503    22931794.739  
                 123830233.548                   123830233.548    23780294.323  
                 113519014.968                   113519014.968    21800131.574  
  23544094.948   123725031.637                                                  
  25151581.801   132172437.503                                                  
 21  9  1 10 43 19.0000000  0 14G 1G 3G 6G14G17G19G22G24G30C23C27C28
                                E21E27
  23192983.192   121879910.160    23192985.998    94971347.746                  
  23649447.938   124278659.845    23649450.422    96840506.527                  
  21692590.433   113995292.115    21692593.453    88827489.698                  
  20506179.816   107760714.235    20506179.959    83969392.828                  
  21055877.404   110649397.359    21055876.743    86220312.743                  
  20900350.968   109832107.996    20900348.663    85583466.879                  
  24411590.268   128283797.125    24411587.749    99961407.223                  
  24256990.126   127471311.007    24256992.539    99328286.206                  
  22610899.322   118821034.180    22610901.681    92587807.896                  
                 119414155.510                   119414155.510    22932224.721  
                 123828304.308                   123828304.308    23779923.827  
                 113519394.304                   113519394.304    21800204.444  
  23543992.684   123724494.211                                                  
  25151918.846   132174208.684                                                  
 21  9  1 10 43 20.0000000  0 14G 1G 3G 6G14G17G19G22G24G30C23C27C28
                                E21E27
  23193643.167   121883378.238    23193645.936    94974050.140                  
  23649305.039   124277908.866    23649307.523    96839921.343                  
  21692062.904   113992519.803    21692065.906    88825329.453                  
  20506245.002   107761056.761    20506245.145    83969659.727                  
  21056016.515   110650128.427    21056015.853    86220882.401                  
  20900209.499   109831364.586    20900207.176    85582887.594                  
  24411746.158   128284616.417    24411743.638    99962045.628                  
  24256540.667   127468949.079    24256543.079    99326445.735                  
  22611523.702   118824315.301    22611526.060    92590364.609                  
                 119416394.907                   119416394.907    22932654.775  
                 123826375.325                   123826375.325    23779553.384  
                 113519773.925                   113519773.925    21800277.332  
  23543890.455   123723957.075                                                  
  25152255.945   132175980.160                                                  
 21  9  1 10 43 21.0000000  0 14G 1G 3G 6G14G17G19G22G24G30C23C27C28
                                E21E27
  23194303.159   121886846.574    23194305.947    94976752.735                  
  23649162.212   124277158.419    23649164.696    96839336.579                  
  21691535.428   113989747.920    21691538.448    88823169.542                  
  20506310.260   107761399.687    20506310.403    83969926.942                  
  21056155.679   110650859.633    21056155.000    86221452.168                  
  20900068.083   109830621.445    20900065.778    85582308.519                  
  24411902.172   128285436.237    24411899.635    99962684.449                  
  24256091.279   127466587.569    24256093.709    99324605.598                  
  22612148.117   118827596.672    22612150.493    92592921.519                  
                 119418634.688                   119418634.688    22933084.900  
                 123824446.597                   123824446.597    23779182.977  
                 113520153.840                   113520153.840    21800350.309  
  23543788.298   123723420.241                                                  
  25152593.098   132177751.889                                                  
 21  9  1 10 43 22.0000000  0 14G 1G 3G 6G14G17G19G22G24G30C23C27C28
                                E21E27
  23194963.205   121890315.142    23194965.993    94979455.515                  
  23649019.528   124276408.504    23649021.994    96838752.227                  
  21691008.042   113986976.469    21691011.044    88821009.972                  
  20506375.571   107761743.038    20506375.732    83970194.484                  
  21056294.843   110651590.953    21056294.163    86222022.032                  
  20899926.721   109829878.590    20899924.416    85581729.672                  
  24412058.276   128286256.597    24412055.756    99963323.691                  
  24255641.980   127464226.518    24255644.392    99322765.816                  
  22612772.586   118830878.280    22612774.962    92595478.616                  
                 119420874.856                   119420874.856    22933515.097  
                 123822518.125                   123822518.125    23778812.641  
                 113520534.040                   113520534.040    21800423.322  
  23543686.194   123722883.700                                                  
  25152930.304   132179523.906                                                  
 21  9  1 10 43 23.0000000  0 14G 1G 3G 6G14G17G19G22G24G30C23C27C28
                                E21E27
  23195623.305   121893783.986    23195626.092    94982158.512                  
  23648876.915   124275659.116    23648879.399    96838168.293                  
  21690480.727   113984205.440    21690483.747    88818850.731                  
  20506441.008   107762086.782    20506441.169    83970462.341                  
  21056434.042   110652322.426    21056433.363    86222592.009                  
  20899785.413   109829136.001    20899783.108    85581151.032                  
  24412214.505   128287077.500    24412211.985    99963963.356                  
  24255192.788   127461865.907    24255195.201    99320926.378                  
  22613397.108   118834160.144    22613399.485    92598035.910                  
                 119423115.410                   119423115.410    22933945.383  
                 123820589.909                   123820589.909    23778442.360  
                 113520914.528                   113520914.528    21800496.388  
  23543584.162   123722347.456                                                  
  25153267.564   132181296.192                                                  
 21  9  1 10 43 24.0000000  0 14G 1G 3G 6G14G17G19G22G24G30C23C27C28
                                E21E27
  23196283.458   121897253.067    23196286.245    94984861.690                  
  23648734.428   124274910.277    23648736.894    96837584.782                  
  21689953.502   113981434.851    21689956.504    88816691.828                  
  20506506.498   107762430.952    20506506.641    83970730.523                  
  21056573.260   110653054.034    21056572.581    86223162.093                  
  20899644.159   109828393.691    20899641.836    85580572.609                  
  24412370.805   128287898.935    24412368.286    99964603.430                  
  24254743.668   127459505.745    24254746.063    99319087.293                  
  22614021.666   118837442.254    22614024.043    92600593.399                  
                 119425356.351                   119425356.351    22934375.723  
                 123818661.949                   123818661.949    23778072.096  
                 113521295.303                   113521295.303    21800569.508  
  23543482.183   123721811.523                                                  
  25153604.860   132183068.737                                                  
 21  9  1 10 43 25.0000000  0 14G 1G 3G 6G14G17G19G22G24G30C23C27C28
                                E21E27
  23196943.647   121900722.404    23196946.434    94987565.067                  
  23648592.012   124274161.960    23648594.495    96837001.676                  
  21689426.365   113978664.691    21689429.367    88814533.262                  
  20506572.059   107762775.532    20506572.220    83970999.027                  
  21056712.495   110653785.765    21056711.816    86223732.273                  
  20899502.958   109827651.672    20899500.635    85579994.410                  
  24412527.213   128288720.903    24412524.693    99965243.925                  
  24254294.620   127457146.017    24254297.014    99317248.542                  
  22614646.278   118840724.611    22614648.654    92603151.079                  
                 119427597.679                   119427597.679    22934806.152  
                 123816734.247                   123816734.247    23777701.921  
                 113521676.373                   113521676.373    21800642.682  
  23543380.241   123721275.875                                                  
  25153942.227   132184841.575                                                  
 21  9  1 10 43 26.0000000  0 14G 1G 3G 6G14G17G19G22G24G30C23C27C28
                                E21E27
  23197603.871   121904191.963    23197606.659    94990268.620                  
  23648449.720   124273414.175    23648452.204    96836418.988                  
  21688899.283   113975894.956    21688902.303    88812375.027                  
  20506637.728   107763120.512    20506637.853    83971267.840                  
  21056851.766   110654517.640    21056851.087    86224302.567                  
  20899361.792   109826909.923    20899359.505    85579416.425                  
  24412683.745   128289543.403    24412681.226    99965884.836                  
  24253845.661   127454786.738    24253848.073    99315410.145                  
  22615270.943   118844007.208    22615273.320    92605708.945                  
                 119429839.399                   119429839.399    22935236.635  
                 123814806.796                   123814806.796    23777331.764  
                 113522057.727                   113522057.727    21800715.927  
  23543278.387   123720740.523                                                  
  25154279.612   132186614.675                                                  
 21  9  1 10 43 27.0000000  0 14G 1G 3G 6G14G17G19G22G24G30C23C27C28
                                E21E27
  23198264.185   121907661.808    23198266.955    94992972.398                  
  23648307.519   124272666.926    23648310.003    96835836.714                  
  21688372.307   113973125.655    21688375.327    88810217.128                  
  20506703.432   107763465.902    20506703.593    83971536.976                  
  21056991.055   110655249.656    21056990.376    86224872.969                  
  20899220.698   109826168.452    20899218.393    85578838.656                  
  24412840.367   128290366.433    24412837.848    99966526.161                  
  24253396.773   127452427.923    24253399.203    99313572.105                  
  22615895.644   118847290.043    22615898.021    92608267.000                  
                 119432081.501                   119432081.501    22935667.224  
                 123812879.601                   123812879.601    23776961.661  
                 113522439.366                   113522439.366    21800789.208  
  23543176.552   123720205.473                                                  
  25154617.104   132188388.047                                                  
 21  9  1 10 43 28.0000000  0 14G 1G 3G 6G14G17G19G22G24G30C23C27C28
                                E21E27
  23198924.499   121911131.890    23198927.305    94995676.360                  
  23648165.424   124271920.206    23648167.908    96835254.859                  
  21687845.404   113970356.777    21687848.423    88808059.567                  
  20506769.244   107763811.704    20506769.405    83971806.433                  
  21057130.380   110655981.798    21057129.701    86225443.469                  
  20899079.658   109825427.260    20899077.335    85578261.106                  
  24412997.079   128291190.001    24412994.559    99967167.899                  
  24252947.992   127450069.527    24252950.423    99311734.399                  
  22616520.399   118850573.130    22616522.757    92610825.246                  
                 119434323.989                   119434323.989    22936097.868  
                 123810952.664                   123810952.664    23776591.611  
                 113522821.296                   113522821.296    21800862.560  
  23543074.805   123719670.720                                                  
  25154954.597   132190161.698                                                  
 21  9  1 10 43 29.0000000  0 14G 1G 3G 6G14G17G19G22G24G30C23C27C28
                                E21E27
  23199584.885   121914602.221    23199587.672    94998380.512                  
  23648023.437   124271174.023    23648025.921    96834673.417                  
  21687318.607   113967588.333    21687321.609    88805902.336                  
  20506835.127   107764157.913    20506835.288    83972076.207                  
  21057269.741   110656714.092    21057269.062    86226014.091                  
  20898938.672   109824686.344    20898936.367    85577683.769                  
  24413153.897   128292014.102    24413151.378    99967810.054                  
  24252499.301   127447711.571    24252501.714    99309897.028                  
  22617145.171   118853856.449    22617147.566    92613383.681                  
                 119436566.863                   119436566.863    22936528.583  
                 123809025.983                   123809025.983    23776221.615  
                 113523203.520                   113523203.520    21800935.966  
  23542973.095   123719136.254                                                  
  25155292.178   132191935.625                                                  
 21  9  1 10 43 30.0000000  0 14G 1G 3G 6G14G17G19G22G24G30C23C27C28
                                E21E27
  23200245.324   121918072.820    23200248.111    95001084.875                  
  23647881.539   124270428.379    23647884.023    96834092.394                  
  21686791.864   113964820.315    21686794.866    88803745.437                  
  20506901.082   107764504.536    20506901.242    83972346.300                  
  21057409.119   110657446.531    21057408.440    86226584.817                  
  20898797.739   109823945.707    20898795.416    85577106.649                  
  24413310.823   128292838.738    24413308.303    99968452.630                  
  24252050.682   127445354.059    24252053.094    99308060.003                  
  22617770.033   118857140.021    22617772.392    92615942.306                  
                 119438810.125                   119438810.125    22936959.387  
                 123807099.558                   123807099.558    23775851.655  
                 113523586.022                   113523586.022    21801009.426  
  23542871.456   123718602.105                                                  
  25155629.795   132193709.828                                                  
 21  9  1 10 43 31.0000000  0 14G 1G 3G 6G14G17G19G22G24G30C23C27C28
                                E21E27
  23200905.799   121921543.647    23200908.586    95003789.413                  
  23647739.748   124269683.261    23647742.214    96833511.780                  
  21686265.192   113962052.725    21686268.212    88801588.875                  
  20506967.125   107764851.566    20506967.286    83972616.714                  
  21057548.515   110658179.083    21057547.836    86227155.638                  
  20898656.841   109823205.361    20898654.536    85576529.754                  
  24413467.838   128293663.914    24413465.318    99969095.622                  
  24251602.133   127442996.993    24251604.564    99306223.333                  
  22618394.913   118860423.836    22618397.307    92618501.125                  
                 119441053.773                   119441053.773    22937390.263  
                 123805173.386                   123805173.386    23775481.766  
                 113523968.819                   113523968.819    21801082.921  
  23542769.853   123718068.235                                                  
  25155967.466   132195484.286                                                  
 21  9  1 10 43 32.0000000  0 14G 1G 3G 6G14G17G19G22G24G30C23C27C28
                                E21E27
  23201566.327   121925014.733    23201569.115    95006494.155                  
  23647598.065   124268938.680    23647600.549    96832931.590                  
  21685738.628   113959285.570    21685741.648    88799432.648                  
  20507033.241   107765199.011    20507033.402    83972887.452                  
  21057687.947   110658911.774    21057687.268    86227726.566                  
  20898516.016   109822465.290    20898513.693    85575953.075                  
  24413624.978   128294489.630    24413622.459    99969739.039                  
  24251153.674   127440640.367    24251156.105    99304387.001                  
  22619019.864   118863707.903    22619022.241    92621060.134                  
                 119443297.805                   119443297.805    22937821.192  
                 123803247.473                   123803247.473    23775111.913  
                 113524351.903                   113524351.903    21801156.506  
  23542668.321   123717534.673                                                  
  25156305.173   132197259.028                                                  
 21  9  1 10 43 33.0000000  0 14G 1G 3G 6G14G17G19G22G24G30C23C27C28
                                E21E27
  23202226.891   121928486.071    23202229.679    95009199.094                  
  23647456.489   124268194.642    23647458.955    96832351.817                  
  21685212.135   113956518.843    21685215.137    88797276.761                  
  20507099.446   107765546.855    20507099.588    83973158.499                  
  21057827.397   110659644.594    21057826.718    86228297.594                  
  20898375.244   109821725.483    20898372.921    85575376.605                  
  24413782.208   128295315.876    24413779.688    99970382.863                  
  24250705.323   127438284.183    24250707.735    99302551.012                  
  22619644.833   118866992.197    22619647.228    92623619.323                  
                 119445542.227                   119445542.227    22938252.229  
                 123801321.813                   123801321.813    23774742.114  
                 113524735.273                   113524735.273    21801230.126  
  23542566.861   123717001.405                                                  
  25156642.951   132199034.050                                                  
 21  9  1 10 43 34.0000000  0 14G 1G 3G 6G14G17G19G22G24G30C23C27C28
                                E21E27
  23202887.527   121931957.662    23202890.297    95011904.227                  
  23647314.984   124267451.129    23647317.468    96831772.457                  
  21684685.714   113953752.556    21684688.733    88795121.206                  
  20507165.704   107765895.118    20507165.865    83973429.871                  
  21057966.883   110660377.566    21057966.204    86228868.741                  
  20898234.525   109820985.964    20898232.202    85574800.356                  
  24413939.544   128296142.660    24413937.025    99971027.114                  
  24250257.043   127435928.458    24250259.455    99300715.382                  
  22620269.856   118870276.742    22620272.232    92626178.712                  
                 119447787.035                   119447787.035    22938683.301  
                 123799396.409                   123799396.409    23774372.368  
                 113525118.933                   113525118.933    21801303.800  
  23542465.436   123716468.441                                                  
  25156980.801   132200809.344                                                  
 21  9  1 10 43 35.0000000  0 14G 1G 3G 6G14G17G19G22G24G30C23C27C28
                                E21E27
  23203548.180   121935429.484    23203550.986    95014609.543                  
  23647173.604   124266708.153    23647176.088    96831193.517                  
  21684159.399   113950986.677    21684162.419    88792965.980                  
  20507232.052   107766243.786    20507232.194    83973701.563                  
  21058106.386   110661110.656    21058105.707    86229439.980                  
  20898093.842   109820246.718    20898091.519    85574224.320                  
  24414096.953   128296969.972    24414094.433    99971671.773                  
  24249808.834   127433573.155    24249811.264    99298880.083                  
  22620894.932   118873561.540    22620897.327    92628738.293                  
                 119450032.227                   119450032.227    22939114.481  
                 123797471.261                   123797471.261    23774002.658  
                 113525502.878                   113525502.878    21801377.528  
  23542364.065   123715935.769                                                  
  25157318.686   132202584.914                                                  
 21  9  1 10 43 36.0000000  0 14G 1G 3G 6G14G17G19G22G24G30C23C27C28
                                E21E27
  23204208.905   121938901.567    23204211.693    95017315.063                  
  23647032.314   124265965.702    23647034.798    96830614.984                  
  21683633.157   113948221.235    21683636.159    88790811.091                  
  20507298.489   107766592.868    20507298.632    83973973.570                  
  21058245.908   110661843.878    21058245.229    86230011.324                  
  20897953.213   109819507.759    20897950.908    85573648.503                  
  24414254.504   128297797.824    24414251.984    99972316.855                  
  24249360.732   127431218.319    24249363.145    99297045.148                  
  22621520.062   118876846.573    22621522.439    92631298.063                  
                 119452277.809                   119452277.809    22939545.714  
                 123795546.371                   123795546.371    23773633.001  
