% program   : rnx2rtkp ver.2.4.3 b31
% inp file  : ngs/21_08_31_08_18_10_txlu.obs
% inp file  : ngs/21_08_31_08_18_10_txlu_SW.obs
% inp file  : ngs/21_08_31_08_18_10_brdc.nav
% obs start : 2021/08/31 08:00:00.0 GPST (week2173 201600.0s)
% obs end   : 2021/08/31 08:59:59.0 GPST (week2173 205199.0s)
% ref pos   : -1103367.0434  -5261870.5964   3420150.1499
%
% (x/y/z-ecef=WGS84,Q=1:fix,2:float,3:sbas,4:dgps,5:single,6:ppp,ns=# of satellites)
%  GPST              x-ecef(m)      y-ecef(m)      z-ecef(m)   Q  ns   sdx(m)   sdy(m)   sdz(m)  sdxy(m)  sdyz(m)  sdzx(m) age(s)  ratio
2173 202665.000  -1092365.5403  -5209399.7843   3504137.6839   2   9   0.3855   0.8130   0.6553   0.2727  -0.5448  -0.1374 -30.00    1.1
2173 202666.000  -1092365.4213  -5209399.7109   3504137.6005   2   9   0.2745   0.5785   0.4664   0.1942  -0.3875  -0.0968 -29.00    1.0
2173 202667.000  -1092365.4001  -5209399.6755   3504137.5282   2   9   0.2247   0.4736   0.3819   0.1590  -0.3173  -0.0790 -28.00    1.1
2173 202668.000  -1092365.4069  -5209399.7037   3504137.5139   2   9   0.1950   0.4109   0.3314   0.1379  -0.2753  -0.0685 -27.00    1.1
2173 202669.000  -1092365.4131  -5209399.6833   3504137.4963   2   9   0.1746   0.3680   0.2968   0.1235  -0.2465  -0.0614 -26.00    1.1
2173 202670.000  -1092365.4182  -5209399.6977   3504137.5058   2   9   0.1595   0.3362   0.2712   0.1128  -0.2253  -0.0561 -25.00    1.1
2173 202671.000  -1092365.4170  -5209399.6938   3504137.4890   2   9   0.1478   0.3115   0.2513   0.1045  -0.2087  -0.0520 -24.00    1.1
2173 202672.000  -1092365.4284  -5209399.6629   3504137.4802   2   9   0.1383   0.2915   0.2352   0.0978  -0.1954  -0.0487 -23.00    1.1
2173 202673.000  -1092365.4429  -5209399.6682   3504137.4596   2   9   0.1305   0.2750   0.2219   0.0922  -0.1843  -0.0459 -22.00    1.1
2173 202674.000  -1092365.4474  -5209399.6424   3504137.4528   2   9   0.1238   0.2609   0.2106   0.0875  -0.1749  -0.0436 -21.00    1.1
2173 202675.000  -1092365.4608  -5209399.6356   3504137.4469   2   9   0.1181   0.2488   0.2008   0.0834  -0.1668  -0.0416 -20.00    1.2
2173 202676.000  -1092365.4663  -5209399.6438   3504137.4553   2   9   0.1131   0.2382   0.1923   0.0799  -0.1597  -0.0398 -19.00    1.2
2173 202677.000  -1092365.4706  -5209399.6611   3504137.4550   2   9   0.1086   0.2289   0.1848   0.0767  -0.1534  -0.0382 -18.00    1.2
2173 202678.000  -1092365.4775  -5209399.6632   3504137.4525   2   9   0.1047   0.2205   0.1781   0.0739  -0.1478  -0.0368 -17.00    1.2
2173 202679.000  -1092365.4813  -5209399.6715   3504137.4508   2   9   0.1011   0.2130   0.1720   0.0714  -0.1428  -0.0355 -16.00    1.2
2173 202680.000  -1092365.4888  -5209399.6538   3504137.4457   2   9   0.0979   0.2062   0.1665   0.0691  -0.1383  -0.0344 -15.00    1.2
2173 202681.000  -1092365.4974  -5209399.6692   3504137.4501   2   9   0.0949   0.2000   0.1615   0.0670  -0.1341  -0.0333 -14.00    1.2
2173 202682.000  -1092365.5075  -5209399.6631   3504137.4494   2   9   0.0922   0.1943   0.1569   0.0651  -0.1303  -0.0323 -13.00    1.2
2173 202683.000  -1092365.5133  -5209399.6526   3504137.4497   2   9   0.0897   0.1891   0.1527   0.0633  -0.1268  -0.0314 -12.00    1.2
2173 202684.000  -1092365.5164  -5209399.6508   3504137.4492   2   9   0.0874   0.1842   0.1488   0.0617  -0.1235  -0.0306 -11.00    1.2
2173 202685.000  -1092365.5160  -5209399.6510   3504137.4502   2   9   0.0853   0.1797   0.1452   0.0602  -0.1205  -0.0298 -10.00    1.1
2173 202686.000  -1092365.5184  -5209399.6482   3504137.4566   2   9   0.0833   0.1755   0.1418   0.0588  -0.1177  -0.0291  -9.00    1.1
2173 202687.000  -1092365.5236  -5209399.6456   3504137.4557   2   9   0.0814   0.1716   0.1386   0.0575  -0.1150  -0.0284  -8.00    1.1
2173 202688.000  -1092365.5244  -5209399.6494   3504137.4548   2   9   0.0797   0.1679   0.1356   0.0562  -0.1126  -0.0278  -7.00    1.1
2173 202689.000  -1092365.5310  -5209399.6515   3504137.4552   2   9   0.0781   0.1644   0.1328   0.0551  -0.1102  -0.0272  -6.00    1.1
2173 202690.000  -1092365.5333  -5209399.6441   3504137.4475   2   9   0.0765   0.1612   0.1302   0.0540  -0.1081  -0.0266  -5.00    1.1
2173 202691.000  -1092365.5390  -5209399.6410   3504137.4373   2   9   0.0751   0.1581   0.1277   0.0529  -0.1060  -0.0261  -4.00    1.0
2173 202692.000  -1092365.5469  -5209399.6423   3504137.4351   2   9   0.0737   0.1552   0.1254   0.0520  -0.1041  -0.0256  -3.00    1.0
2173 202693.000  -1092365.5478  -5209399.6327   3504137.4277   2   9   0.0724   0.1525   0.1231   0.0510  -0.1022  -0.0251  -2.00    1.0
2173 202694.000  -1092365.5535  -5209399.6271   3504137.4265   2   9   0.0712   0.1499   0.1210   0.0502  -0.1005  -0.0248  -1.00    1.0
2173 202695.000  -1092365.5576  -5209399.6148   3504137.4119   2   9   0.0700   0.1474   0.1190   0.0493  -0.0988  -0.0243   0.00    1.0
2173 202696.000  -1092365.5654  -5209399.5999   3504137.4034   2   9   0.0689   0.1451   0.1171   0.0485  -0.0973  -0.0239   0.00    1.0
2173 202697.000  -1092365.5714  -5209399.5984   3504137.3945   2   9   0.0679   0.1429   0.1153   0.0478  -0.0958  -0.0236   0.00    1.0
2173 202698.000  -1092365.5716  -5209399.5999   3504137.3998   2   9   0.0668   0.1407   0.1136   0.0471  -0.0943  -0.0233   0.00    1.1
2173 202699.000  -1092365.5739  -5209399.5938   3504137.3998   2   9   0.0659   0.1387   0.1119   0.0464  -0.0929  -0.0229   0.00    1.1
2173 202700.000  -1092365.5793  -5209399.5853   3504137.3865   2   9   0.0650   0.1367   0.1104   0.0457  -0.0916  -0.0225   0.00    1.1
2173 202701.000  -1092365.5822  -5209399.5771   3504137.3787   2   9   0.0641   0.1349   0.1088   0.0451  -0.0904  -0.0223   0.00    1.2
2173 202702.000  -1092365.5836  -5209399.5771   3504137.3762   2   9   0.0632   0.1330   0.1073   0.0444  -0.0892  -0.0220   0.00    1.2
2173 202703.000  -1092365.5865  -5209399.5749   3504137.3743   2   9   0.0624   0.1313   0.1059   0.0439  -0.0880  -0.0216   0.00    1.2
2173 202704.000  -1092365.5892  -5209399.5740   3504137.3765   2   9   0.0616   0.1296   0.1045   0.0433  -0.0869  -0.0215   0.00    1.2
2173 202705.000  -1092365.5920  -5209399.5662   3504137.3676   2   9   0.0608   0.1280   0.1032   0.0428  -0.0858  -0.0211   0.00    1.1
2173 202706.000  -1092365.5939  -5209399.5657   3504137.3699   2   9   0.0601   0.1265   0.1019   0.0422  -0.0847  -0.0209   0.00    1.1
2173 202707.000  -1092365.5982  -5209399.5648   3504137.3777   2   9   0.0594   0.1250   0.1007   0.0417  -0.0837  -0.0208   0.00    1.1
2173 202708.000  -1092365.5932  -5209399.5570   3504137.3715   2   9   0.0588   0.1235   0.0995   0.0412  -0.0827  -0.0205   0.00    1.1
2173 202709.000  -1092365.5963  -5209399.5582   3504137.3693   2   9   0.0581   0.1221   0.0983   0.0407  -0.0818  -0.0202   0.00    1.1
2173 202710.000  -1092365.5974  -5209399.5535   3504137.3709   2   9   0.0574   0.1208   0.0972   0.0403  -0.0809  -0.0201   0.00    1.1
2173 202711.000  -1092365.5987  -5209399.5465   3504137.3693   2   9   0.0568   0.1194   0.0961   0.0398  -0.0800  -0.0199   0.00    1.1
2173 202712.000  -1092365.5968  -5209399.5452   3504137.3661   2   9   0.0562   0.1182   0.0950   0.0394  -0.0791  -0.0195   0.00    1.1
2173 202713.000  -1092365.5958  -5209399.5369   3504137.3655   2   9   0.0557   0.1169   0.0940   0.0390  -0.0782  -0.0194   0.00    1.1
2173 202714.000  -1092365.5940  -5209399.5278   3504137.3689   2   9   0.0551   0.1157   0.0930   0.0386  -0.0774  -0.0192   0.00    1.1
2173 202715.000  -1092365.5918  -5209399.5245   3504137.3618   2   9   0.0545   0.1145   0.0920   0.0382  -0.0766  -0.0191   0.00    1.1
2173 202716.000  -1092365.5920  -5209399.5209   3504137.3562   2   9   0.0540   0.1134   0.0910   0.0378  -0.0758  -0.0188   0.00    1.1
2173 202717.000  -1092365.5900  -5209399.5180   3504137.3579   2   9   0.0534   0.1123   0.0901   0.0374  -0.0751  -0.0187   0.00    1.0
2173 202718.000  -1092365.5907  -5209399.5151   3504137.3567   2   9   0.0530   0.1112   0.0892   0.0370  -0.0743  -0.0186   0.00    1.0
2173 202719.000  -1092365.5925  -5209399.5120   3504137.3579   2   9   0.0525   0.1102   0.0883   0.0367  -0.0736  -0.0184   0.00    1.0
2173 202720.000  -1092365.5952  -5209399.5154   3504137.3690   2   9   0.0520   0.1091   0.0874   0.0363  -0.0729  -0.0182   0.00    1.0
2173 202721.000  -1092365.5920  -5209399.5175   3504137.3701   2   9   0.0516   0.1081   0.0865   0.0359  -0.0722  -0.0182   0.00    1.0
2173 202722.000  -1092365.5908  -5209399.5212   3504137.3858   2   9   0.0511   0.1072   0.0857   0.0356  -0.0716  -0.0179   0.00    1.0
2173 202723.000  -1092365.5905  -5209399.5159   3504137.3868   2   9   0.0506   0.1062   0.0849   0.0353  -0.0709  -0.0177   0.00    1.0
2173 202724.000  -1092365.5940  -5209399.5212   3504137.3973   2   9   0.0502   0.1053   0.0841   0.0349  -0.0703  -0.0177   0.00    1.0
2173 202725.000  -1092365.5911  -5209399.5210   3504137.3977   2   9   0.0498   0.1044   0.0833   0.0347  -0.0696  -0.0175   0.00    1.0
2173 202726.000  -1092365.5917  -5209399.5210   3504137.4069   2   9   0.0493   0.1035   0.0825   0.0343  -0.0690  -0.0172   0.00    1.0
2173 202727.000  -1092365.5876  -5209399.5188   3504137.4118   2   9   0.0490   0.1026   0.0818   0.0340  -0.0684  -0.0171   0.00    1.1
2173 202728.000  -1092365.5896  -5209399.5155   3504137.4069   2   9   0.0486   0.1018   0.0810   0.0337  -0.0678  -0.0172   0.00    1.1
2173 202729.000  -1092365.5881  -5209399.5086   3504137.4129   2   9   0.0482   0.1009   0.0803   0.0334  -0.0672  -0.0170   0.00    1.1
2173 202730.000  -1092365.5893  -5209399.5032   3504137.4123   2   9   0.0478   0.1001   0.0795   0.0332  -0.0666  -0.0169   0.00    1.1
2173 202731.000  -1092365.5872  -5209399.4970   3504137.4105   2   9   0.0475   0.0993   0.0789   0.0329  -0.0661  -0.0168   0.00    1.1
2173 202732.000  -1092365.5874  -5209399.4902   3504137.4107   2   9   0.0471   0.0985   0.0782   0.0326  -0.0655  -0.0167   0.00    1.1
2173 202733.000  -1092365.5829  -5209399.4881   3504137.4140   2   9   0.0468   0.0978   0.0775   0.0323  -0.0650  -0.0165   0.00    1.1
2173 202734.000  -1092365.5824  -5209399.4866   3504137.4166   2   9   0.0464   0.0970   0.0768   0.0321  -0.0645  -0.0165   0.00    1.1
2173 202735.000  -1092365.5827  -5209399.4877   3504137.4178   2   9   0.0461   0.0963   0.0762   0.0318  -0.0640  -0.0163   0.00    1.1
2173 202736.000  -1092365.5824  -5209399.4884   3504137.4216   2   9   0.0458   0.0955   0.0755   0.0316  -0.0635  -0.0164   0.00    1.1
2173 202737.000  -1092365.5811  -5209399.4889   3504137.4268   2   9   0.0454   0.0948   0.0749   0.0314  -0.0629  -0.0162   0.00    1.1
2173 202738.000  -1092365.5812  -5209399.4864   3504137.4299   2   9   0.0451   0.0941   0.0742   0.0311  -0.0625  -0.0160   0.00    1.1
2173 202739.000  -1092365.5809  -5209399.4888   3504137.4332   2   9   0.0448   0.0934   0.0736   0.0308  -0.0620  -0.0160   0.00    1.1
2173 202740.000  -1092365.5791  -5209399.4945   3504137.4348   2   9   0.0445   0.0928   0.0730   0.0306  -0.0615  -0.0159   0.00    1.1
2173 202741.000  -1092365.5764  -5209399.4922   3504137.4385   2   9   0.0442   0.0921   0.0724   0.0303  -0.0610  -0.0158   0.00    1.1
2173 202742.000  -1092365.5759  -5209399.4994   3504137.4447   2   9   0.0439   0.0914   0.0718   0.0301  -0.0606  -0.0157   0.00    1.1
2173 202743.000  -1092365.5699  -5209399.4982   3504137.4440   2   9   0.0436   0.0908   0.0712   0.0299  -0.0601  -0.0156   0.00    1.1
2173 202744.000  -1092365.5701  -5209399.4952   3504137.4502   2   9   0.0433   0.0902   0.0706   0.0297  -0.0596  -0.0155   0.00    1.1
2173 202745.000  -1092365.5706  -5209399.4927   3504137.4532   2   9   0.0431   0.0896   0.0701   0.0294  -0.0592  -0.0155   0.00    1.1
2173 202746.000  -1092365.5725  -5209399.4922   3504137.4578   2   9   0.0428   0.0889   0.0695   0.0292  -0.0588  -0.0155   0.00    1.1
2173 202747.000  -1092365.5738  -5209399.5002   3504137.4643   2   9   0.0425   0.0883   0.0689   0.0290  -0.0584  -0.0153   0.00    1.1
2173 202748.000  -1092365.5741  -5209399.5020   3504137.4720   2   9   0.0422   0.0878   0.0684   0.0288  -0.0579  -0.0152   0.00    1.1
2173 202749.000  -1092365.5737  -5209399.4973   3504137.4734   2   9   0.0420   0.0872   0.0679   0.0286  -0.0575  -0.0152   0.00    1.1
2173 202750.000  -1092365.5742  -5209399.4970   3504137.4792   2   9   0.0417   0.0866   0.0673   0.0284  -0.0571  -0.0150   0.00    1.1
2173 202751.000  -1092365.5590  -5209399.4435   3504137.4288   2   9   0.0415   0.0860   0.0668   0.0282  -0.0567  -0.0150   0.00    1.1
2173 202752.000  -1092365.5545  -5209399.4268   3504137.4037   2   9   0.0413   0.0855   0.0663   0.0280  -0.0563  -0.0149   0.00    1.1
2173 202753.000  -1092365.5533  -5209399.4071   3504137.3721   2   9   0.0410   0.0849   0.0657   0.0278  -0.0559  -0.0149   0.00    1.1
2173 202754.000  -1092365.5509  -5209399.3858   3504137.3406   2   9   0.0408   0.0844   0.0652   0.0276  -0.0555  -0.0149   0.00    1.1
2173 202755.000  -1092365.5526  -5209399.3775   3504137.3164   2   9   0.0405   0.0839   0.0648   0.0274  -0.0551  -0.0147   0.00    1.1
2173 202756.000  -1092365.5482  -5209399.3756   3504137.2984   2   9   0.0403   0.0833   0.0642   0.0272  -0.0547  -0.0147   0.00    1.1
2173 202757.000  -1092365.5483  -5209399.3697   3504137.2757   2   9   0.0400   0.0828   0.0638   0.0271  -0.0543  -0.0146   0.00    1.1
2173 202758.000  -1092365.5482  -5209399.3595   3504137.2510   2   9   0.0398   0.0823   0.0633   0.0268  -0.0540  -0.0145   0.00    1.0
2173 202759.000  -1092365.5532  -5209399.3536   3504137.2290   2   9   0.0396   0.0818   0.0628   0.0267  -0.0536  -0.0145   0.00    1.0
2173 202760.000  -1092365.5543  -5209399.3459   3504137.2077   2   9   0.0394   0.0813   0.0623   0.0265  -0.0533  -0.0143   0.00    1.0
2173 202761.000  -1092365.5577  -5209399.3413   3504137.1892   2   9   0.0392   0.0808   0.0618   0.0263  -0.0529  -0.0143   0.00    1.0
2173 202762.000  -1092365.5608  -5209399.3337   3504137.1709   2   9   0.0390   0.0803   0.0614   0.0261  -0.0526  -0.0143   0.00    1.0
2173 202763.000  -1092365.5606  -5209399.3264   3504137.1530   2   9   0.0388   0.0798   0.0610   0.0260  -0.0522  -0.0143   0.00    1.0
2173 202764.000  -1092365.5603  -5209399.3174   3504137.1381   2   9   0.0385   0.0794   0.0605   0.0258  -0.0519  -0.0141   0.00    1.0
2173 202765.000  -1092365.5618  -5209399.3108   3504137.1213   2   9   0.0383   0.0789   0.0600   0.0257  -0.0515  -0.0141   0.00    1.1
2173 202766.000  -1092365.5646  -5209399.3075   3504137.1047   2   9   0.0381   0.0785   0.0596   0.0255  -0.0512  -0.0140   0.00    1.1
2173 202767.000  -1092365.5651  -5209399.3063   3504137.0955   2   9   0.0380   0.0780   0.0591   0.0253  -0.0509  -0.0140   0.00    1.1
2173 202768.000  -1092365.5693  -5209399.3028   3504137.0853   2   9   0.0377   0.0776   0.0587   0.0251  -0.0505  -0.0140   0.00    1.1
2173 202769.000  -1092365.5711  -5209399.2951   3504137.0713   2   9   0.0375   0.0771   0.0583   0.0249  -0.0502  -0.0139   0.00    1.1
2173 202770.000  -1092365.5742  -5209399.2906   3504137.0591   2   9   0.0374   0.0767   0.0579   0.0248  -0.0499  -0.0138   0.00    1.1
2173 202771.000  -1092365.5773  -5209399.2848   3504137.0497   2   9   0.0372   0.0762   0.0574   0.0246  -0.0496  -0.0137   0.00    1.1
2173 202772.000  -1092365.5810  -5209399.2858   3504137.0399   2   9   0.0369   0.0758   0.0570   0.0245  -0.0493  -0.0137   0.00    1.1
2173 202773.000  -1092365.5842  -5209399.2833   3504137.0278   2   9   0.0368   0.0754   0.0566   0.0243  -0.0489  -0.0137   0.00    1.1
2173 202774.000  -1092365.5865  -5209399.2764   3504137.0211   2   9   0.0367   0.0750   0.0562   0.0241  -0.0486  -0.0136   0.00    1.1
2173 202775.000  -1092365.5875  -5209399.2729   3504137.0132   2   9   0.0364   0.0745   0.0558   0.0240  -0.0483  -0.0135   0.00    1.1
2173 202776.000  -1092365.5858  -5209399.2768   3504137.0036   2   9   0.0362   0.0741   0.0554   0.0238  -0.0480  -0.0134   0.00    1.1
2173 202777.000  -1092365.5873  -5209399.2629   3504136.9961   2   9   0.0361   0.0737   0.0550   0.0237  -0.0477  -0.0133   0.00    1.1
2173 202778.000  -1092365.5887  -5209399.2563   3504136.9869   2   9   0.0359   0.0733   0.0546   0.0235  -0.0474  -0.0134   0.00    1.1
2173 202779.000  -1092365.5889  -5209399.2472   3504136.9780   2   9   0.0358   0.0729   0.0543   0.0234  -0.0471  -0.0134   0.00    1.1
2173 202780.000  -1092365.5906  -5209399.2454   3504136.9711   2   9   0.0355   0.0725   0.0539   0.0232  -0.0469  -0.0133   0.00    1.1
2173 202781.000  -1092365.5908  -5209399.2385   3504136.9609   2   9   0.0354   0.0721   0.0534   0.0231  -0.0466  -0.0132   0.00    1.1
2173 202782.000  -1092365.5913  -5209399.2371   3504136.9559   2   9   0.0353   0.0718   0.0531   0.0229  -0.0463  -0.0133   0.00    1.1
2173 202783.000  -1092365.5921  -5209399.2298   3504136.9456   2   9   0.0350   0.0714   0.0527   0.0228  -0.0460  -0.0132   0.00    1.1
2173 202784.000  -1092365.5923  -5209399.2233   3504136.9363   2   9   0.0349   0.0710   0.0523   0.0226  -0.0458  -0.0130   0.00    1.2
2173 202785.000  -1092365.5963  -5209399.2275   3504136.9322   2   9   0.0348   0.0706   0.0520   0.0226  -0.0455  -0.0131   0.00    1.2
2173 202786.000  -1092365.5978  -5209399.2271   3504136.9250   2   9   0.0346   0.0703   0.0517   0.0223  -0.0452  -0.0131   0.00    1.2
2173 202787.000  -1092365.5974  -5209399.2285   3504136.9224   2   9   0.0344   0.0699   0.0513   0.0222  -0.0450  -0.0129   0.00    1.2
2173 202788.000  -1092365.6013  -5209399.2283   3504136.9146   2   9   0.0343   0.0696   0.0509   0.0221  -0.0446  -0.0129   0.00    1.2
2173 202789.000  -1092365.6019  -5209399.2221   3504136.9047   2   9   0.0342   0.0692   0.0506   0.0220  -0.0444  -0.0129   0.00    1.2
2173 202790.000  -1092365.6020  -5209399.2183   3504136.8950   2   9   0.0340   0.0688   0.0502   0.0218  -0.0441  -0.0129   0.00    1.2
2173 202791.000  -1092365.6066  -5209399.2140   3504136.8872   2   9   0.0339   0.0685   0.0499   0.0217  -0.0439  -0.0128   0.00    1.2
2173 202792.000  -1092365.6086  -5209399.2127   3504136.8796   2   9   0.0336   0.0681   0.0496   0.0216  -0.0436  -0.0126   0.00    1.2
2173 202793.000  -1092365.6085  -5209399.2139   3504136.8739   2   9   0.0336   0.0678   0.0492   0.0214  -0.0434  -0.0127   0.00    1.2
2173 202794.000  -1092365.6088  -5209399.2161   3504136.8688   2   9   0.0334   0.0675   0.0489   0.0213  -0.0431  -0.0127   0.00    1.2
2173 202795.000  -1092365.6121  -5209399.2145   3504136.8619   2   9   0.0332   0.0671   0.0486   0.0212  -0.0429  -0.0126   0.00    1.2
2173 202796.000  -1092365.6151  -5209399.2141   3504136.8550   2   9   0.0331   0.0668   0.0482   0.0210  -0.0426  -0.0127   0.00    1.2
2173 202797.000  -1092365.6171  -5209399.2141   3504136.8503   2   9   0.0330   0.0664   0.0479   0.0209  -0.0424  -0.0125   0.00    1.2
2173 202798.000  -1092365.6197  -5209399.2166   3504136.8416   2   9   0.0329   0.0661   0.0476   0.0207  -0.0422  -0.0125   0.00    1.2
2173 202799.000  -1092365.6232  -5209399.2172   3504136.8389   2   9   0.0327   0.0658   0.0473   0.0206  -0.0419  -0.0124   0.00    1.2
2173 202800.000  -1092365.6241  -5209399.2191   3504136.8319   2   9   0.0326   0.0655   0.0470   0.0205  -0.0417  -0.0124   0.00    1.2
2173 202801.000  -1092365.6253  -5209399.2120   3504136.8225   2   9   0.0324   0.0652   0.0467   0.0204  -0.0414  -0.0123   0.00    1.2
2173 202802.000  -1092365.6241  -5209399.2075   3504136.8164   2   9   0.0323   0.0649   0.0463   0.0202  -0.0412  -0.0124   0.00    1.2
2173 202803.000  -1092365.6254  -5209399.2062   3504136.8119   2   9   0.0322   0.0645   0.0461   0.0201  -0.0410  -0.0122   0.00    1.2
2173 202804.000  -1092365.6266  -5209399.2005   3504136.8009   2   9   0.0321   0.0642   0.0457   0.0200  -0.0407  -0.0122   0.00    1.2
2173 202805.000  -1092365.6265  -5209399.1972   3504136.7964   2   9   0.0319   0.0639   0.0454   0.0199  -0.0405  -0.0120   0.00    1.2
2173 202806.000  -1092365.6283  -5209399.2022   3504136.7899   2   9   0.0318   0.0636   0.0452   0.0198  -0.0403  -0.0123   0.00    1.2
2173 202807.000  -1092365.6277  -5209399.2007   3504136.7851   2   9   0.0317   0.0633   0.0448   0.0196  -0.0401  -0.0121   0.00    1.2
2173 202808.000  -1092365.6244  -5209399.1933   3504136.7797   2   9   0.0316   0.0630   0.0446   0.0195  -0.0398  -0.0122   0.00    1.2
2173 202809.000  -1092365.6285  -5209399.2025   3504136.7844   2   9   0.0314   0.0627   0.0443   0.0194  -0.0396  -0.0120   0.00    1.2
2173 202810.000  -1092365.6329  -5209399.2084   3504136.7781   2   9   0.0314   0.0624   0.0440   0.0193  -0.0394  -0.0120   0.00    1.2
2173 202811.000  -1092365.6362  -5209399.2123   3504136.7763   2   9   0.0312   0.0621   0.0437   0.0192  -0.0392  -0.0120   0.00    1.2
2173 202812.000  -1092365.6366  -5209399.2129   3504136.7701   2   9   0.0311   0.0618   0.0435   0.0190  -0.0390  -0.0120   0.00    1.2
2173 202813.000  -1092365.6366  -5209399.2120   3504136.7644   2   9   0.0309   0.0615   0.0431   0.0189  -0.0388  -0.0119   0.00    1.2
2173 202814.000  -1092365.6397  -5209399.2156   3504136.7612   2   9   0.0309   0.0613   0.0429   0.0188  -0.0386  -0.0119   0.00    1.2
2173 202815.000  -1092365.6380  -5209399.2118   3504136.7531   2   9   0.0306   0.0610   0.0425   0.0186  -0.0384  -0.0117   0.00    1.2
2173 202816.000  -1092365.6273  -5209399.2129   3504136.7519   2   9   0.0306   0.0607   0.0423   0.0185  -0.0382  -0.0117   0.00    1.2
2173 202817.000  -1092365.6286  -5209399.2270   3504136.7562   2   9   0.0305   0.0604   0.0421   0.0184  -0.0380  -0.0117   0.00    1.2
2173 202818.000  -1092365.6281  -5209399.2415   3504136.7556   2   9   0.0303   0.0601   0.0418   0.0183  -0.0378  -0.0116   0.00    1.2
2173 202819.000  -1092365.6282  -5209399.2542   3504136.7610   2   9   0.0303   0.0599   0.0415   0.0182  -0.0376  -0.0117   0.00    1.2
2173 202820.000  -1092365.6294  -5209399.2694   3504136.7617   2   9   0.0302   0.0596   0.0413   0.0181  -0.0374  -0.0117   0.00    1.2
2173 202821.000  -1092365.6306  -5209399.2779   3504136.7641   2   9   0.0301   0.0593   0.0410   0.0179  -0.0372  -0.0115   0.00    1.2
2173 202822.000  -1092365.6295  -5209399.2867   3504136.7670   2   9   0.0299   0.0591   0.0408   0.0179  -0.0370  -0.0116   0.00    1.2
2173 202823.000  -1092365.6286  -5209399.2967   3504136.7646   2   9   0.0298   0.0588   0.0405   0.0177  -0.0368  -0.0114   0.00    1.2
2173 202824.000  -1092365.6280  -5209399.3057   3504136.7649   2   9   0.0297   0.0585   0.0403   0.0176  -0.0366  -0.0116   0.00    1.2
2173 202825.000  -1092365.6288  -5209399.3184   3504136.7623   2   9   0.0296   0.0583   0.0400   0.0175  -0.0364  -0.0113   0.00    1.2
2173 202826.000  -1092365.6298  -5209399.3221   3504136.7605   2   9   0.0295   0.0580   0.0397   0.0174  -0.0362  -0.0114   0.00    1.1
2173 202827.000  -1092365.6321  -5209399.3354   3504136.7579   2   9   0.0294   0.0578   0.0395   0.0173  -0.0360  -0.0113   0.00    1.1
2173 202828.000  -1092365.6324  -5209399.3444   3504136.7609   2   9   0.0293   0.0575   0.0393   0.0172  -0.0359  -0.0113   0.00    1.1
2173 202829.000  -1092365.6337  -5209399.3600   3504136.7608   2   9   0.0292   0.0572   0.0390   0.0171  -0.0357  -0.0112   0.00    1.1
2173 202830.000  -1092365.6339  -5209399.3690   3504136.7641   2   9   0.0291   0.0570   0.0388   0.0170  -0.0354  -0.0113   0.00    1.1
2173 202831.000  -1092365.6333  -5209399.3750   3504136.7657   2   9   0.0289   0.0567   0.0386   0.0169  -0.0353  -0.0112   0.00    1.1
2173 202832.000  -1092365.6339  -5209399.3864   3504136.7646   2   9   0.0289   0.0565   0.0383   0.0168  -0.0351  -0.0112   0.00    1.1
2173 202833.000  -1092365.6353  -5209399.4015   3504136.7689   2   9   0.0288   0.0562   0.0381   0.0166  -0.0350  -0.0111   0.00    1.1
2173 202834.000  -1092365.6363  -5209399.4063   3504136.7693   2   9   0.0287   0.0560   0.0379   0.0166  -0.0348  -0.0113   0.00    1.1
2173 202835.000  -1092365.6380  -5209399.4167   3504136.7666   2   9   0.0286   0.0558   0.0377   0.0165  -0.0346  -0.0110   0.00    1.1
2173 202836.000  -1092365.6395  -5209399.4336   3504136.7718   2   9   0.0284   0.0555   0.0375   0.0164  -0.0344  -0.0108   0.00    1.1
2173 202837.000  -1092365.6382  -5209399.4398   3504136.7731   2   9   0.0283   0.0553   0.0372   0.0162  -0.0343  -0.0110   0.00    1.1
2173 202838.000  -1092365.6395  -5209399.4505   3504136.7755   2   9   0.0283   0.0551   0.0370   0.0162  -0.0341  -0.0108   0.00    1.1
2173 202839.000  -1092365.6425  -5209399.4644   3504136.7803   2   9   0.0282   0.0548   0.0368   0.0160  -0.0339  -0.0110   0.00    1.1
2173 202840.000  -1092365.6444  -5209399.4741   3504136.7887   2   9   0.0282   0.0546   0.0366   0.0159  -0.0338  -0.0109   0.00    1.1
2173 202841.000  -1092365.6438  -5209399.4925   3504136.7949   2   9   0.0280   0.0543   0.0364   0.0158  -0.0336  -0.0109   0.00    1.1
2173 202842.000  -1092365.6445  -5209399.5001   3504136.8006   2   9   0.0279   0.0541   0.0361   0.0158  -0.0334  -0.0108   0.00    1.1
2173 202843.000  -1092365.6433  -5209399.5070   3504136.8007   2   9   0.0279   0.0539   0.0360   0.0157  -0.0333  -0.0109   0.00    1.1
2173 202844.000  -1092365.6411  -5209399.5097   3504136.8065   2   9   0.0277   0.0537   0.0357   0.0156  -0.0331  -0.0107   0.00    1.1
2173 202845.000  -1092365.6399  -5209399.5151   3504136.8090   2   9   0.0276   0.0535   0.0356   0.0155  -0.0329  -0.0107   0.00    1.1
2173 202846.000  -1092365.6371  -5209399.5172   3504136.8118   2   9   0.0276   0.0532   0.0354   0.0154  -0.0328  -0.0107   0.00    1.1
2173 202847.000  -1092365.6353  -5209399.5226   3504136.8158   2   9   0.0275   0.0530   0.0352   0.0153  -0.0326  -0.0107   0.00    1.1
2173 202848.000  -1092365.6372  -5209399.5297   3504136.8178   2   9   0.0274   0.0528   0.0349   0.0152  -0.0325  -0.0105   0.00    1.1
2173 202849.000  -1092365.6382  -5209399.5321   3504136.8204   2   9   0.0273   0.0526   0.0348   0.0151  -0.0323  -0.0106   0.00    1.1
2173 202850.000  -1092365.6359  -5209399.5299   3504136.8235   2   9   0.0273   0.0524   0.0345   0.0150  -0.0322  -0.0107   0.00    1.1
2173 202851.000  -1092365.6348  -5209399.5329   3504136.8228   2   9   0.0272   0.0521   0.0344   0.0149  -0.0320  -0.0105   0.00    1.1
2173 202852.000  -1092365.6350  -5209399.5325   3504136.8270   2   9   0.0271   0.0519   0.0342   0.0148  -0.0319  -0.0105   0.00    1.1
2173 202853.000  -1092365.6323  -5209399.5360   3504136.8325   2   9   0.0269   0.0517   0.0339   0.0147  -0.0317  -0.0104   0.00    1.1
2173 202854.000  -1092365.6317  -5209399.5352   3504136.8372   2   9   0.0269   0.0515   0.0337   0.0147  -0.0315  -0.0105   0.00    1.1
2173 202855.000  -1092365.6310  -5209399.5459   3504136.8466   2   9   0.0268   0.0513   0.0336   0.0145  -0.0314  -0.0103   0.00    1.1
2173 202856.000  -1092365.6300  -5209399.5523   3504136.8511   2   9   0.0267   0.0511   0.0334   0.0144  -0.0313  -0.0103   0.00    1.1
2173 202857.000  -1092365.6305  -5209399.5616   3504136.8588   2   9   0.0266   0.0509   0.0332   0.0144  -0.0311  -0.0103   0.00    1.1
2173 202858.000  -1092365.6318  -5209399.5708   3504136.8686   2   9   0.0265   0.0507   0.0330   0.0142  -0.0310  -0.0102   0.00    1.1
2173 202859.000  -1092365.6314  -5209399.5779   3504136.8741   2   9   0.0264   0.0505   0.0329   0.0141  -0.0308  -0.0102   0.00    1.1
2173 202860.000  -1092365.6294  -5209399.5856   3504136.8796   2   9   0.0264   0.0503   0.0327   0.0141  -0.0307  -0.0103   0.00    1.1
2173 202861.000  -1092365.6310  -5209399.5926   3504136.8869   2   9   0.0263   0.0501   0.0325   0.0140  -0.0306  -0.0103   0.00    1.1
2173 202862.000  -1092365.6291  -5209399.6011   3504136.8898   2   9   0.0262   0.0499   0.0323   0.0138  -0.0304  -0.0100   0.00    1.1
2173 202863.000  -1092365.6261  -5209399.6061   3504136.8983   2   9   0.0261   0.0497   0.0321   0.0138  -0.0302  -0.0102   0.00    1.1
2173 202864.000  -1092365.6296  -5209399.6131   3504136.9030   2   9   0.0261   0.0495   0.0320   0.0137  -0.0301  -0.0103   0.00    1.1
2173 202865.000  -1092365.6280  -5209399.6206   3504136.9066   2   9   0.0259   0.0493   0.0318   0.0136  -0.0300  -0.0100   0.00    1.1
2173 202866.000  -1092365.6271  -5209399.6304   3504136.9116   2   9   0.0259   0.0491   0.0316   0.0135  -0.0299  -0.0099   0.00    1.1
2173 202867.000  -1092365.6299  -5209399.6355   3504136.9171   2   9   0.0259   0.0489   0.0315   0.0133  -0.0297  -0.0101   0.00    1.1
2173 202868.000  -1092365.6277  -5209399.6441   3504136.9233   2   9   0.0257   0.0487   0.0313   0.0133  -0.0296  -0.0098   0.00    1.1
2173 202869.000  -1092365.6259  -5209399.6445   3504136.9304   2   9   0.0257   0.0485   0.0311   0.0133  -0.0295  -0.0100   0.00    1.1
2173 202870.000  -1092365.6259  -5209399.6501   3504136.9346   2   9   0.0256   0.0483   0.0310   0.0131  -0.0294  -0.0099   0.00    1.1
2173 202871.000  -1092365.6254  -5209399.6562   3504136.9379   2   9   0.0255   0.0481   0.0308   0.0130  -0.0292  -0.0099   0.00    1.1
2173 202872.000  -1092365.6265  -5209399.6619   3504136.9447   2   9   0.0255   0.0479   0.0307   0.0129  -0.0291  -0.0098   0.00    1.1
2173 202873.000  -1092365.6268  -5209399.6631   3504136.9436   2   9   0.0254   0.0478   0.0305   0.0128  -0.0290  -0.0098   0.00    1.1
2173 202874.000  -1092365.6282  -5209399.6692   3504136.9479   2   9   0.0252   0.0476   0.0302   0.0128  -0.0288  -0.0096   0.00    1.1
2173 202875.000  -1092365.6279  -5209399.6720   3504136.9512   2   9   0.0252   0.0474   0.0302   0.0127  -0.0287  -0.0096   0.00    1.1
2173 202876.000  -1092365.6373  -5209399.6895   3504136.9438   2   9   0.0251   0.0472   0.0300   0.0126  -0.0286  -0.0096   0.00    1.1
2173 202877.000  -1092365.6381  -5209399.6871   3504136.9436   2   9   0.0250   0.0470   0.0298   0.0125  -0.0285  -0.0096   0.00    1.0
2173 202878.000  -1092365.6365  -5209399.6917   3504136.9494   2   9   0.0250   0.0468   0.0297   0.0124  -0.0283  -0.0096   0.00    1.0
2173 202879.000  -1092365.6353  -5209399.6886   3504136.9478   2   9   0.0250   0.0467   0.0296   0.0123  -0.0282  -0.0097   0.00    1.0
2173 202880.000  -1092365.6338  -5209399.6910   3504136.9535   2   9   0.0249   0.0465   0.0293   0.0123  -0.0281  -0.0095   0.00    1.0
2173 202881.000  -1092365.6325  -5209399.6886   3504136.9542   2   9   0.0249   0.0463   0.0293   0.0121  -0.0280  -0.0096   0.00    1.0
2173 202882.000  -1092365.6305  -5209399.6894   3504136.9532   2   9   0.0247   0.0462   0.0291   0.0120  -0.0278  -0.0095   0.00    1.0
2173 202883.000  -1092365.6277  -5209399.6844   3504136.9537   2   9   0.0246   0.0460   0.0289   0.0120  -0.0277  -0.0093   0.00    1.0
2173 202884.000  -1092365.6276  -5209399.6912   3504136.9562   2   9   0.0245   0.0458   0.0288   0.0120  -0.0276  -0.0093   0.00    1.0
2173 202885.000  -1092365.6273  -5209399.6847   3504136.9526   2   9   0.0244   0.0456   0.0286   0.0118  -0.0275  -0.0093   0.00    1.0
2173 202886.000  -1092365.6234  -5209399.6843   3504136.9531   2   9   0.0245   0.0455   0.0285   0.0118  -0.0273  -0.0096   0.00    1.0
2173 202887.000  -1092365.6236  -5209399.6842   3504136.9549   2   9   0.0243   0.0453   0.0284   0.0117  -0.0273  -0.0093   0.00    1.0
2173 202888.000  -1092365.6216  -5209399.6830   3504136.9515   2   9   0.0244   0.0451   0.0282   0.0115  -0.0272  -0.0095   0.00    1.0
2173 202889.000  -1092365.6221  -5209399.6847   3504136.9500   2   9   0.0241   0.0450   0.0281   0.0114  -0.0270  -0.0092   0.00    1.0
2173 202890.000  -1092365.6199  -5209399.6884   3504136.9522   2   9   0.0242   0.0448   0.0279   0.0115  -0.0269  -0.0093   0.00    1.0
2173 202891.000  -1092365.6222  -5209399.6880   3504136.9497   2   9   0.0240   0.0446   0.0278   0.0113  -0.0268  -0.0092   0.00    1.0
2173 202892.000  -1092365.6209  -5209399.6926   3504136.9527   2   9   0.0240   0.0445   0.0277   0.0112  -0.0267  -0.0092   0.00    1.0
2173 202893.000  -1092365.6210  -5209399.6952   3504136.9529   2   9   0.0239   0.0443   0.0275   0.0111  -0.0266  -0.0091   0.00    1.0
2173 202894.000  -1092365.6194  -5209399.6955   3504136.9536   2   9   0.0239   0.0442   0.0274   0.0111  -0.0264  -0.0092   0.00    1.0
2173 202895.000  -1092365.6205  -5209399.6946   3504136.9524   2   9   0.0238   0.0440   0.0272   0.0111  -0.0264  -0.0090   0.00    1.0
2173 202896.000  -1092365.6202  -5209399.6934   3504136.9514   2   9   0.0238   0.0438   0.0272   0.0109  -0.0263  -0.0093   0.00    1.0
2173 202897.000  -1092365.6207  -5209399.6912   3504136.9523   2   9   0.0238   0.0437   0.0270   0.0109  -0.0262  -0.0091   0.00    1.0
2173 202898.000  -1092365.6180  -5209399.6924   3504136.9542   2   9   0.0236   0.0435   0.0269   0.0108  -0.0260  -0.0090   0.00    1.0
2173 202899.000  -1092365.6166  -5209399.6863   3504136.9537   2   9   0.0236   0.0434   0.0268   0.0106  -0.0259  -0.0090   0.00    1.0
2173 202900.000  -1092365.6145  -5209399.6849   3504136.9515   2   9   0.0235   0.0432   0.0266   0.0107  -0.0258  -0.0088   0.00    1.0
2173 202901.000  -1092365.6146  -5209399.6851   3504136.9543   2   9   0.0235   0.0430   0.0265   0.0105  -0.0257  -0.0090   0.00    1.0
2173 202902.000  -1092365.6121  -5209399.6852   3504136.9571   2   9   0.0233   0.0429   0.0264   0.0105  -0.0256  -0.0090   0.00    1.0
2173 202903.000  -1092365.6118  -5209399.6852   3504136.9575   2   9   0.0234   0.0427   0.0263   0.0104  -0.0255  -0.0089   0.00    1.0
2173 202904.000  -1092365.6122  -5209399.6848   3504136.9598   2   9   0.0233   0.0426   0.0262   0.0104  -0.0254  -0.0089   0.00    1.0
2173 202905.000  -1092365.6105  -5209399.6857   3504136.9623   2   9   0.0231   0.0424   0.0260   0.0102  -0.0254  -0.0086   0.00    1.0
2173 202906.000  -1092365.6107  -5209399.6869   3504136.9629   2   9   0.0232   0.0423   0.0259   0.0101  -0.0252  -0.0088   0.00    1.0
2173 202907.000  -1092365.6090  -5209399.6852   3504136.9615   2   9   0.0230   0.0421   0.0257   0.0101  -0.0251  -0.0085   0.00    1.0
2173 202908.000  -1092365.6067  -5209399.6801   3504136.9603   2   9   0.0230   0.0420   0.0256   0.0100  -0.0250  -0.0087   0.00    1.0
2173 202909.000  -1092365.6065  -5209399.6780   3504136.9607   2   9   0.0230   0.0419   0.0256   0.0100  -0.0249  -0.0088   0.00    1.0
2173 202910.000  -1092365.6045  -5209399.6724   3504136.9556   2   9   0.0228   0.0417   0.0253   0.0098  -0.0248  -0.0085   0.00    1.0
2173 202911.000  -1092365.6031  -5209399.6651   3504136.9505   2   9   0.0228   0.0416   0.0253   0.0099  -0.0247  -0.0087   0.00    1.0
2173 202912.000  -1092365.6018  -5209399.6640   3504136.9503   2   9   0.0227   0.0414   0.0251   0.0098  -0.0246  -0.0086   0.00    1.0
2173 202913.000  -1092365.6004  -5209399.6603   3504136.9480   2   9   0.0228   0.0413   0.0251   0.0096  -0.0245  -0.0088   0.00    1.0
2173 202914.000  -1092365.6014  -5209399.6580   3504136.9478   2   9   0.0227   0.0411   0.0250   0.0094  -0.0245  -0.0087   0.00    1.0
2173 202915.000  -1092365.6000  -5209399.6581   3504136.9480   2   9   0.0226   0.0410   0.0248   0.0094  -0.0243  -0.0085   0.00    1.0
2173 202916.000  -1092365.6036  -5209399.6600   3504136.9479   2   9   0.0225   0.0408   0.0247   0.0094  -0.0242  -0.0084   0.00    1.0
2173 202917.000  -1092365.6032  -5209399.6544   3504136.9449   2   9   0.0223   0.0407   0.0246   0.0094  -0.0242  -0.0083   0.00    1.0
2173 202918.000  -1092365.6018  -5209399.6483   3504136.9445   2   9   0.0225   0.0406   0.0245   0.0094  -0.0241  -0.0084   0.00    1.0
2173 202919.000  -1092365.6144  -5209399.6533   3504136.9567   2   9   0.0224   0.0404   0.0244   0.0092  -0.0240  -0.0085   0.00    1.0
2173 202920.000  -1092365.6112  -5209399.6560   3504136.9761   2   9   0.0223   0.0403   0.0243   0.0091  -0.0239  -0.0084   0.00    1.0
2173 202921.000  -1092365.6091  -5209399.6532   3504136.9904   2   9   0.0223   0.0401   0.0243   0.0090  -0.0238  -0.0083   0.00    1.0
2173 202922.000  -1092365.6065  -5209399.6551   3504137.0107   2   9   0.0222   0.0400   0.0240   0.0090  -0.0237  -0.0082   0.00    1.0
2173 202923.000  -1092365.6058  -5209399.6626   3504137.0278   2   9   0.0221   0.0399   0.0241   0.0089  -0.0236  -0.0083   0.00    1.0
2173 202924.000  -1092365.6078  -5209399.6665   3504137.0450   2   9   0.0220   0.0397   0.0238   0.0088  -0.0235  -0.0083   0.00    1.0
2173 202925.000  -1092365.6087  -5209399.6775   3504137.0671   2   9   0.0220   0.0396   0.0238   0.0088  -0.0234  -0.0081   0.00    1.0
2173 202926.000  -1092365.6088  -5209399.6846   3504137.0859   2   9   0.0220   0.0395   0.0236   0.0087  -0.0233  -0.0083   0.00    1.0
2173 202927.000  -1092365.6078  -5209399.6864   3504137.0995   2   9   0.0219   0.0393   0.0235   0.0087  -0.0232  -0.0082   0.00    1.0
2173 202928.000  -1092365.6077  -5209399.6908   3504137.1147   2   9   0.0219   0.0392   0.0234   0.0087  -0.0231  -0.0082   0.00    1.0
2173 202929.000  -1092365.6077  -5209399.6935   3504137.1319   2   9   0.0218   0.0391   0.0234   0.0086  -0.0230  -0.0081   0.00    1.0
2173 202930.000  -1092365.6027  -5209399.6883   3504137.1438   2   9   0.0218   0.0389   0.0233   0.0085  -0.0230  -0.0081   0.00    1.0
2173 202931.000  -1092365.6005  -5209399.6894   3504137.1587   2   9   0.0218   0.0388   0.0232   0.0083  -0.0229  -0.0082   0.00    1.1
2173 202932.000  -1092365.5985  -5209399.6889   3504137.1718   2   9   0.0217   0.0387   0.0230   0.0082  -0.0228  -0.0081   0.00    1.1
2173 202933.000  -1092365.5967  -5209399.6895   3504137.1881   2   9   0.0216   0.0386   0.0230   0.0081  -0.0227  -0.0081   0.00    1.1
2173 202934.000  -1092365.5940  -5209399.6892   3504137.2012   2   9   0.0215   0.0384   0.0229   0.0082  -0.0226  -0.0079   0.00    1.1
2173 202935.000  -1092365.5934  -5209399.6972   3504137.2185   2   9   0.0215   0.0383   0.0228   0.0081  -0.0226  -0.0081   0.00    1.1
2173 202936.000  -1092365.5987  -5209399.6894   3504137.2287   2   9   0.0214   0.0382   0.0227   0.0081  -0.0225  -0.0080   0.00    1.1
2173 202937.000  -1092365.5962  -5209399.6876   3504137.2341   2   9   0.0215   0.0381   0.0225   0.0079  -0.0224  -0.0080   0.00    1.1
2173 202938.000  -1092365.5955  -5209399.6861   3504137.2420   2   9   0.0213   0.0379   0.0225   0.0079  -0.0223  -0.0078   0.00    1.1
2173 202939.000  -1092365.5923  -5209399.6768   3504137.2480   2   9   0.0214   0.0378   0.0225   0.0077  -0.0222  -0.0081   0.00    1.1
2173 202940.000  -1092365.5918  -5209399.6764   3504137.2541   2   9   0.0212   0.0377   0.0223   0.0077  -0.0222  -0.0079   0.00    1.1
2173 202941.000  -1092365.5904  -5209399.6659   3504137.2573   2   9   0.0212   0.0376   0.0222   0.0077  -0.0220  -0.0079   0.00    1.1
2173 202942.000  -1092365.5870  -5209399.6545   3504137.2597   2   9   0.0212   0.0374   0.0221   0.0076  -0.0220  -0.0080   0.00    1.1
2173 202943.000  -1092365.5853  -5209399.6433   3504137.2633   2   9   0.0211   0.0373   0.0220   0.0076  -0.0219  -0.0079   0.00    1.1
2173 202944.000  -1092365.5827  -5209399.6369   3504137.2695   2   9   0.0210   0.0372   0.0219   0.0074  -0.0218  -0.0078   0.00    1.1
2173 202945.000  -1092365.5803  -5209399.6239   3504137.2705   2   9   0.0210   0.0371   0.0218   0.0073  -0.0217  -0.0078   0.00    1.1
2173 202946.000  -1092365.5799  -5209399.6101   3504137.2704   2   9   0.0210   0.0370   0.0219   0.0074  -0.0217  -0.0078   0.00    1.1
2173 202947.000  -1092365.5779  -5209399.6020   3504137.2752   2   9   0.0210   0.0369   0.0217   0.0072  -0.0216  -0.0079   0.00    1.1
2173 202948.000  -1092365.5765  -5209399.5977   3504137.2804   2   9   0.0209   0.0368   0.0217   0.0072  -0.0215  -0.0077   0.00    1.1
2173 202949.000  -1092365.5774  -5209399.5917   3504137.2882   2   9   0.0209   0.0366   0.0216   0.0071  -0.0214  -0.0076   0.00    1.1
2173 202950.000  -1092365.5777  -5209399.5864   3504137.2903   2   9   0.0207   0.0365   0.0214   0.0072  -0.0214  -0.0075   0.00    1.1
2173 202951.000  -1092365.5791  -5209399.5847   3504137.2999   2   9   0.0207   0.0364   0.0213   0.0070  -0.0214  -0.0076   0.00    1.1
2173 202952.000  -1092365.5764  -5209399.5849   3504137.3059   2   9   0.0207   0.0363   0.0213   0.0068  -0.0212  -0.0077   0.00    1.1
2173 202953.000  -1092365.5768  -5209399.5806   3504137.3155   2   9   0.0207   0.0362   0.0212   0.0068  -0.0211  -0.0077   0.00    1.1
2173 202954.000  -1092365.5754  -5209399.5765   3504137.3201   2   9   0.0204   0.0361   0.0211   0.0068  -0.0211  -0.0073   0.00    1.1
2173 202955.000  -1092365.5747  -5209399.5702   3504137.3262   2   9   0.0205   0.0360   0.0210   0.0068  -0.0210  -0.0075   0.00    1.1
2173 202956.000  -1092365.5728  -5209399.5673   3504137.3365   2   9   0.0203   0.0358   0.0209   0.0067  -0.0210  -0.0074   0.00    1.1
2173 202957.000  -1092365.5733  -5209399.5604   3504137.3426   2   9   0.0205   0.0357   0.0209   0.0067  -0.0209  -0.0076   0.00    1.1
2173 202958.000  -1092365.5727  -5209399.5592   3504137.3513   2   9   0.0204   0.0357   0.0208   0.0065  -0.0208  -0.0075   0.00    1.0
2173 202959.000  -1092365.5731  -5209399.5587   3504137.3583   2   9   0.0202   0.0355   0.0207   0.0063  -0.0208  -0.0073   0.00    1.0
2173 202960.000  -1092365.5728  -5209399.5599   3504137.3668   2   9   0.0203   0.0354   0.0206   0.0065  -0.0207  -0.0073   0.00    1.0
2173 202961.000  -1092365.5726  -5209399.5618   3504137.3738   2   9   0.0202   0.0353   0.0205   0.0062  -0.0206  -0.0072   0.00    1.0
2173 202962.000  -1092365.5707  -5209399.5606   3504137.3837   2   9   0.0203   0.0352   0.0205   0.0062  -0.0205  -0.0076   0.00    1.0
2173 202963.000  -1092365.5698  -5209399.5585   3504137.3859   2   9   0.0202   0.0351   0.0204   0.0061  -0.0205  -0.0075   0.00    1.0
2173 202964.000  -1092365.5693  -5209399.5564   3504137.3910   2   9   0.0202   0.0350   0.0204   0.0061  -0.0204  -0.0073   0.00    1.0
2173 202965.000  -1092365.5686  -5209399.5513   3504137.3925   2   9   0.0200   0.0349   0.0202   0.0061  -0.0203  -0.0073   0.00    1.0
2173 202966.000  -1092365.5679  -5209399.5481   3504137.3946   2   9   0.0200   0.0348   0.0202   0.0058  -0.0203  -0.0075   0.00    1.0
2173 202967.000  -1092365.5678  -5209399.5469   3504137.4022   2   9   0.0200   0.0346   0.0201   0.0060  -0.0202  -0.0074   0.00    1.0
2173 202968.000  -1092365.5671  -5209399.5449   3504137.4075   2   9   0.0201   0.0346   0.0201   0.0059  -0.0201  -0.0074   0.00    1.0
2173 202969.000  -1092365.5662  -5209399.5379   3504137.4126   2   9   0.0199   0.0344   0.0200   0.0058  -0.0201  -0.0074   0.00    1.0
2173 202970.000  -1092365.5665  -5209399.5400   3504137.4226   2   9   0.0199   0.0344   0.0198   0.0058  -0.0200  -0.0072   0.00    1.0
2173 202971.000  -1092365.5656  -5209399.5401   3504137.4300   2   9   0.0199   0.0343   0.0198   0.0057  -0.0199  -0.0072   0.00    1.0
2173 202972.000  -1092365.5656  -5209399.5387   3504137.4354   2   9   0.0198   0.0341   0.0198   0.0057  -0.0198  -0.0072   0.00    1.0
2173 202973.000  -1092365.5631  -5209399.5375   3504137.4391   2   9   0.0196   0.0340   0.0196   0.0055  -0.0198  -0.0071   0.00    1.0
2173 202974.000  -1092365.5627  -5209399.5363   3504137.4437   2   9   0.0196   0.0340   0.0196   0.0055  -0.0198  -0.0069   0.00    1.0
2173 202975.000  -1092365.5552  -5209399.5296   3504137.4494   2   9   0.0197   0.0339   0.0195   0.0054  -0.0196  -0.0072   0.00    1.0
2173 202976.000  -1092365.5545  -5209399.5250   3504137.4522   2   9   0.0196   0.0337   0.0195   0.0053  -0.0196  -0.0071   0.00    1.0
2173 202977.000  -1092365.5538  -5209399.5189   3504137.4507   2   9   0.0196   0.0336   0.0194   0.0052  -0.0195  -0.0073   0.00    1.0
2173 202978.000  -1092365.5491  -5209399.5136   3504137.4562   2   9   0.0195   0.0335   0.0194   0.0051  -0.0194  -0.0070   0.00    1.0
2173 202979.000  -1092365.5475  -5209399.5072   3504137.4556   2   9   0.0195   0.0334   0.0192   0.0051  -0.0194  -0.0072   0.00    1.0
2173 202980.000  -1092365.5479  -5209399.5072   3504137.4602   2   9   0.0194   0.0334   0.0192   0.0049  -0.0194  -0.0069   0.00    1.0
2173 202981.000  -1092365.5486  -5209399.4993   3504137.4591   2   9   0.0194   0.0333   0.0192   0.0050  -0.0193  -0.0072   0.00    1.0
2173 202982.000  -1092365.5469  -5209399.4920   3504137.4605   2   9   0.0193   0.0332   0.0190   0.0048  -0.0192  -0.0068   0.00    1.0
2173 202983.000  -1092365.5454  -5209399.4867   3504137.4590   2   9   0.0193   0.0331   0.0189   0.0048  -0.0192  -0.0071   0.00    1.0
2173 202984.000  -1092365.5435  -5209399.4813   3504137.4639   2   9   0.0193   0.0330   0.0189   0.0048  -0.0191  -0.0068   0.00    1.0
2173 202985.000  -1092365.5404  -5209399.4756   3504137.4630   2   9   0.0192   0.0329   0.0189   0.0046  -0.0190  -0.0071   0.00    1.0
2173 202986.000  -1092365.5409  -5209399.4728   3504137.4650   2   9   0.0192   0.0328   0.0188   0.0048  -0.0190  -0.0072   0.00    1.1
2173 202987.000  -1092365.5390  -5209399.4630   3504137.4681   2   9   0.0191   0.0327   0.0186   0.0045  -0.0189  -0.0068   0.00    1.1
2173 202988.000  -1092365.5371  -5209399.4646   3504137.4703   2   9   0.0192   0.0326   0.0186   0.0045  -0.0189  -0.0070   0.00    1.1
2173 202989.000  -1092365.5373  -5209399.4588   3504137.4720   2   9   0.0190   0.0325   0.0185   0.0044  -0.0188  -0.0069   0.00    1.1
2173 202990.000  -1092365.5353  -5209399.4515   3504137.4743   2   9   0.0190   0.0324   0.0185   0.0044  -0.0187  -0.0069   0.00    1.1
2173 202991.000  -1092365.5358  -5209399.4520   3504137.4818   2   9   0.0191   0.0323   0.0184   0.0043  -0.0187  -0.0070   0.00    1.1
2173 202992.000  -1092365.5354  -5209399.4488   3504137.4823   2   9   0.0190   0.0322   0.0184   0.0042  -0.0186  -0.0069   0.00    1.1
2173 202993.000  -1092365.5375  -5209399.4456   3504137.4891   2   9   0.0190   0.0321   0.0183   0.0041  -0.0186  -0.0070   0.00    1.1
2173 202994.000  -1092365.5384  -5209399.4439   3504137.4932   2   9   0.0188   0.0320   0.0183   0.0040  -0.0185  -0.0067   0.00    1.1
2173 202995.000  -1092365.5403  -5209399.4453   3504137.4976   2   9   0.0189   0.0320   0.0183   0.0038  -0.0184  -0.0066   0.00    1.1
2173 202996.000  -1092365.5474  -5209399.4281   3504137.4853   2   9   0.0188   0.0319   0.0181   0.0038  -0.0184  -0.0068   0.00    1.1
2173 202997.000  -1092365.5470  -5209399.4264   3504137.4869   2   9   0.0188   0.0318   0.0181   0.0038  -0.0184  -0.0069   0.00    1.1
2173 202998.000  -1092365.5452  -5209399.4218   3504137.4924   2   9   0.0187   0.0317   0.0181   0.0036  -0.0183  -0.0066   0.00    1.1
2173 202999.000  -1092365.5452  -5209399.4195   3504137.4973   2   9   0.0186   0.0316   0.0179   0.0038  -0.0182  -0.0065   0.00    1.1
2173 203000.000  -1092365.5438  -5209399.4151   3504137.5023   2   9   0.0187   0.0315   0.0178   0.0035  -0.0182  -0.0067   0.00    1.1
2173 203001.000  -1092365.5450  -5209399.4194   3504137.5094   2   9   0.0186   0.0314   0.0178   0.0035  -0.0181  -0.0067   0.00    1.1
2173 203002.000  -1092365.5448  -5209399.4157   3504137.5137   2   9   0.0185   0.0313   0.0177   0.0036  -0.0180  -0.0066   0.00    1.1
2173 203003.000  -1092365.5443  -5209399.4174   3504137.5208   2   9   0.0185   0.0313   0.0176   0.0032  -0.0180  -0.0066   0.00    1.1
2173 203004.000  -1092365.5428  -5209399.4172   3504137.5277   2   9   0.0184   0.0312   0.0177   0.0033  -0.0179  -0.0064   0.00    1.1
2173 203005.000  -1092365.5442  -5209399.4235   3504137.5417   2   9   0.0185   0.0311   0.0176   0.0033  -0.0179  -0.0066   0.00    1.1
2173 203006.000  -1092365.5442  -5209399.4275   3504137.5491   2   9   0.0184   0.0310   0.0175   0.0031  -0.0179  -0.0068   0.00    1.1
2173 203007.000  -1092365.5471  -5209399.4293   3504137.5580   2   9   0.0183   0.0309   0.0175   0.0032  -0.0178  -0.0065   0.00    1.1
2173 203008.000  -1092365.5470  -5209399.4251   3504137.5622   2   9   0.0183   0.0308   0.0174   0.0032  -0.0178  -0.0065   0.00    1.1
2173 203009.000  -1092365.5499  -5209399.4286   3504137.5672   2   9   0.0184   0.0307   0.0174   0.0028  -0.0177  -0.0065   0.00    1.1
2173 203010.000  -1092365.5518  -5209399.4255   3504137.5677   2   9   0.0183   0.0306   0.0174   0.0030  -0.0177  -0.0065   0.00    1.1
2173 203011.000  -1092365.5511  -5209399.4285   3504137.5719   2   9   0.0182   0.0306   0.0173   0.0028  -0.0176  -0.0063   0.00    1.1
2173 203012.000  -1092365.5514  -5209399.4244   3504137.5738   2   9   0.0182   0.0305   0.0172   0.0026  -0.0175  -0.0066   0.00    1.1
2173 203013.000  -1092365.5523  -5209399.4200   3504137.5737   2   9   0.0182   0.0304   0.0172   0.0028  -0.0175  -0.0064   0.00    1.1
2173 203014.000  -1092365.5533  -5209399.4183   3504137.5760   2   9   0.0181   0.0303   0.0171   0.0024  -0.0175  -0.0064   0.00    1.1
2173 203015.000  -1092365.5528  -5209399.4206   3504137.5800   2   9   0.0180   0.0303   0.0170   0.0023  -0.0174  -0.0061   0.00    1.1
2173 203016.000  -1092365.5561  -5209399.4164   3504137.5811   2   9   0.0181   0.0302   0.0171   0.0024  -0.0174  -0.0065   0.00    1.1
2173 203017.000  -1092365.5534  -5209399.4135   3504137.5870   2   9   0.0180   0.0301   0.0170   0.0021  -0.0173  -0.0063   0.00    1.1
2173 203018.000  -1092365.5534  -5209399.4122   3504137.5894   2   9   0.0181   0.0300   0.0171   0.0017  -0.0173  -0.0064   0.00    1.2
2173 203019.000  -1092365.5540  -5209399.4087   3504137.5916   2   9   0.0180   0.0299   0.0169   0.0020  -0.0172  -0.0065   0.00    1.2
2173 203020.000  -1092365.5548  -5209399.4103   3504137.5985   2   9   0.0179   0.0299   0.0168   0.0023  -0.0171  -0.0064   0.00    1.2
2173 203021.000  -1092365.5545  -5209399.4084   3504137.5993   2   9   0.0178   0.0298   0.0167   0.0016  -0.0171  -0.0060   0.00    1.2
2173 203022.000  -1092365.5566  -5209399.4106   3504137.6039   2   9   0.0179   0.0297   0.0168   0.0011  -0.0170  -0.0062   0.00    1.2
2173 203023.000  -1092365.5573  -5209399.4063   3504137.6028   2   9   0.0177   0.0296   0.0167   0.0017  -0.0170  -0.0061   0.00    1.2
2173 203024.000  -1092365.5596  -5209399.4062   3504137.6069   2   9   0.0178   0.0296   0.0166   0.0012  -0.0170  -0.0064   0.00    1.2
2173 203025.000  -1092365.5588  -5209399.4069   3504137.6117   2   9   0.0178   0.0295   0.0165   0.0017  -0.0169  -0.0062   0.00    1.2
2173 203026.000  -1092365.5608  -5209399.4078   3504137.6169   2   9   0.0177   0.0294   0.0164   0.0015  -0.0169  -0.0061   0.00    1.2
2173 203027.000  -1092365.5623  -5209399.4099   3504137.6161   2   9   0.0176   0.0293   0.0165   0.0018  -0.0168  -0.0062   0.00    1.2
2173 203028.000  -1092365.5631  -5209399.4154   3504137.6211   2   9   0.0175   0.0292   0.0164   0.0003  -0.0168  -0.0061   0.00    1.2
2173 203029.000  -1092365.5649  -5209399.4155   3504137.6236   2   9   0.0176   0.0291   0.0164   0.0008  -0.0167  -0.0060   0.00    1.2
2173 203030.000  -1092365.5663  -5209399.4167   3504137.6255   2   9   0.0175   0.0291   0.0163  -0.0003  -0.0167  -0.0061   0.00    1.2
2173 203031.000  -1092365.5620  -5209399.4120   3504137.6299   2   9   0.0176   0.0290   0.0163  -0.0010  -0.0166  -0.0063   0.00    1.2
2173 203032.000  -1092365.5633  -5209399.4191   3504137.6371   2   9   0.0175   0.0290   0.0163  -0.0010  -0.0166  -0.0060   0.00    1.2
2173 203033.000  -1092365.5638  -5209399.4203   3504137.6409   2   9   0.0175   0.0289   0.0161  -0.0015  -0.0165  -0.0061   0.00    1.2
2173 203034.000  -1092365.5628  -5209399.4225   3504137.6469   2   9   0.0174   0.0288   0.0160  -0.0015  -0.0165  -0.0059   0.00    1.2
2173 203035.000  -1092365.5638  -5209399.4273   3504137.6482   2   9   0.0175   0.0287   0.0162  -0.0020  -0.0165  -0.0061   0.00    1.2
2173 203036.000  -1092365.5641  -5209399.4291   3504137.6510   2   9   0.0173   0.0287   0.0161  -0.0015  -0.0164  -0.0060   0.00    1.2
2173 203037.000  -1092365.5646  -5209399.4310   3504137.6518   2   9   0.0174   0.0286   0.0160  -0.0016  -0.0163  -0.0060   0.00    1.2
2173 203038.000  -1092365.5654  -5209399.4351   3504137.6542   2   9   0.0174   0.0285   0.0160  -0.0019  -0.0164  -0.0060   0.00    1.2
2173 203039.000  -1092365.5641  -5209399.4363   3504137.6547   2   9   0.0173   0.0285   0.0159  -0.0019  -0.0163  -0.0058   0.00    1.2
2173 203040.000  -1092365.5641  -5209399.4364   3504137.6562   2   9   0.0172   0.0284   0.0158  -0.0017  -0.0162  -0.0059   0.00    1.2
2173 203041.000  -1092365.5645  -5209399.4396   3504137.6601   2   9   0.0172   0.0283   0.0159  -0.0020  -0.0162  -0.0059   0.00    1.2
2173 203042.000  -1092365.5654  -5209399.4440   3504137.6610   2   9   0.0171   0.0283   0.0158  -0.0024  -0.0161  -0.0059   0.00    1.2
2173 203043.000  -1092365.5636  -5209399.4448   3504137.6618   2   9   0.0172   0.0282   0.0157  -0.0021  -0.0161  -0.0059   0.00    1.2
2173 203044.000  -1092365.5665  -5209399.4468   3504137.6661   2   9   0.0173   0.0281   0.0157  -0.0021  -0.0160  -0.0062   0.00    1.2
2173 203045.000  -1092365.5681  -5209399.4520   3504137.6687   2   9   0.0171   0.0280   0.0156  -0.0023  -0.0161  -0.0059   0.00    1.2
2173 203046.000  -1092365.5661  -5209399.4512   3504137.6656   2   9   0.0171   0.0280   0.0157  -0.0024  -0.0159  -0.0061   0.00    1.2
2173 203047.000  -1092365.5677  -5209399.4475   3504137.6645   2   9   0.0170   0.0279   0.0156  -0.0028  -0.0159  -0.0059   0.00    1.2
2173 203048.000  -1092365.5652  -5209399.4530   3504137.6747   2   9   0.0171   0.0278   0.0154  -0.0025  -0.0159  -0.0059   0.00    1.2
2173 203049.000  -1092365.5649  -5209399.4514   3504137.6733   2   9   0.0169   0.0278   0.0154  -0.0026  -0.0158  -0.0058   0.00    1.2
2173 203050.000  -1092365.5602  -5209399.4419   3504137.6735   2   8   0.0170   0.0281   0.0154   0.0020  -0.0161  -0.0058   0.00    1.2
2173 203051.000  -1092365.5603  -5209399.4435   3504137.6733   2   8   0.0170   0.0281   0.0155   0.0010  -0.0159  -0.0061   0.00    1.2
2173 203052.000  -1092365.5586  -5209399.4414   3504137.6743   2   8   0.0170   0.0280   0.0154   0.0014  -0.0159  -0.0061   0.00    1.2
2173 203053.000  -1092365.5598  -5209399.4367   3504137.6724   2   8   0.0168   0.0279   0.0154   0.0013  -0.0159  -0.0059   0.00    1.2
2173 203054.000  -1092365.5574  -5209399.4373   3504137.6708   2   8   0.0170   0.0279   0.0154   0.0019  -0.0159  -0.0060   0.00    1.2
2173 203055.000  -1092365.5589  -5209399.4368   3504137.6728   2   8   0.0168   0.0279   0.0153   0.0016  -0.0159  -0.0057   0.00    1.2
2173 203056.000  -1092365.5745  -5209399.4245   3504137.6485   2   8   0.0170   0.0278   0.0153   0.0012  -0.0158  -0.0062   0.00    1.2
2173 203057.000  -1092365.5755  -5209399.4176   3504137.6447   2   8   0.0166   0.0277   0.0152   0.0019  -0.0158  -0.0058   0.00    1.2
2173 203058.000  -1092365.5736  -5209399.4109   3504137.6425   2   8   0.0169   0.0277   0.0153   0.0019  -0.0158  -0.0062   0.00    1.2
2173 203059.000  -1092365.5737  -5209399.4087   3504137.6467   2   8   0.0168   0.0276   0.0152   0.0021  -0.0158  -0.0060   0.00    1.2
2173 203060.000  -1092365.5720  -5209399.4046   3504137.6473   2   8   0.0167   0.0276   0.0152   0.0018  -0.0157  -0.0059   0.00    1.2
2173 203061.000  -1092365.5725  -5209399.4027   3504137.6477   2   8   0.0168   0.0276   0.0151   0.0014  -0.0157  -0.0061   0.00    1.2
2173 203062.000  -1092365.5733  -5209399.3989   3504137.6466   2   8   0.0166   0.0275   0.0150   0.0016  -0.0156  -0.0057   0.00    1.2
2173 203063.000  -1092365.5697  -5209399.4031   3504137.6481   2   8   0.0168   0.0274   0.0151   0.0018  -0.0156  -0.0058   0.00    1.2
2173 203064.000  -1092365.5708  -5209399.4067   3504137.6494   2   8   0.0166   0.0274   0.0150   0.0017  -0.0157  -0.0059   0.00    1.2
2173 203065.000  -1092365.5675  -5209399.3980   3504137.6424   2   8   0.0166   0.0274   0.0150   0.0008  -0.0156  -0.0059   0.00    1.2
2173 203066.000  -1092365.5649  -5209399.3934   3504137.6402   2   8   0.0166   0.0273   0.0148   0.0015  -0.0156  -0.0059   0.00    1.2
2173 203067.000  -1092365.5658  -5209399.3926   3504137.6376   2   8   0.0167   0.0272   0.0150   0.0020  -0.0156  -0.0061   0.00    1.2
2173 203068.000  -1092365.5654  -5209399.3894   3504137.6362   2   8   0.0166   0.0272   0.0149   0.0019  -0.0156  -0.0060   0.00    1.2
2173 203069.000  -1092365.5648  -5209399.3837   3504137.6327   2   8   0.0166   0.0271   0.0149   0.0009  -0.0156  -0.0059   0.00    1.2
2173 203070.000  -1092365.5638  -5209399.3785   3504137.6284   2   8   0.0165   0.0271   0.0148   0.0018  -0.0155  -0.0059   0.00    1.2
2173 203071.000  -1092365.5642  -5209399.3762   3504137.6272   2   8   0.0165   0.0270   0.0148   0.0020  -0.0155  -0.0060   0.00    1.2
2173 203072.000  -1092365.5670  -5209399.3774   3504137.6279   2   8   0.0165   0.0270   0.0147   0.0012  -0.0154  -0.0060   0.00    1.2
2173 203073.000  -1092365.5648  -5209399.3727   3504137.6255   2   8   0.0166   0.0270   0.0148   0.0020  -0.0154  -0.0062   0.00    1.2
2173 203074.000  -1092365.5644  -5209399.3670   3504137.6240   2   8   0.0163   0.0269   0.0147   0.0005  -0.0154  -0.0057   0.00    1.2
2173 203075.000  -1092365.5633  -5209399.3645   3504137.6231   2   8   0.0165   0.0269   0.0148   0.0011  -0.0153  -0.0062   0.00    1.2
2173 203076.000  -1092365.5624  -5209399.3620   3504137.6243   2   8   0.0163   0.0268   0.0147   0.0018  -0.0153  -0.0059   0.00    1.2
2173 203077.000  -1092365.5618  -5209399.3549   3504137.6216   2   8   0.0164   0.0268   0.0147   0.0013  -0.0152  -0.0059   0.00    1.2
2173 203078.000  -1092365.5604  -5209399.3538   3504137.6199   2   8   0.0163   0.0267   0.0146   0.0018  -0.0152  -0.0061   0.00    1.2
2173 203079.000  -1092365.5624  -5209399.3526   3504137.6180   2   8   0.0163   0.0266   0.0146   0.0019  -0.0152  -0.0060   0.00    1.2
2173 203080.000  -1092365.5611  -5209399.3510   3504137.6191   2   8   0.0164   0.0266   0.0146   0.0015  -0.0152  -0.0061   0.00    1.3
2173 203081.000  -1092365.5611  -5209399.3475   3504137.6180   2   8   0.0162   0.0266   0.0145   0.0018  -0.0152  -0.0058   0.00    1.3
2173 203082.000  -1092365.5629  -5209399.3513   3504137.6201   2   8   0.0162   0.0265   0.0146   0.0016  -0.0151  -0.0059   0.00    1.3
2173 203083.000  -1092365.5593  -5209399.3452   3504137.6197   2   8   0.0162   0.0265   0.0145   0.0021  -0.0151  -0.0060   0.00    1.3
2173 203084.000  -1092365.5598  -5209399.3471   3504137.6204   2   8   0.0160   0.0264   0.0144   0.0019  -0.0152  -0.0056   0.00    1.3
2173 203085.000  -1092365.5594  -5209399.3487   3504137.6222   2   8   0.0161   0.0264   0.0145   0.0015  -0.0151  -0.0061   0.00    1.3
2173 203086.000  -1092365.5567  -5209399.3468   3504137.6222   2   8   0.0163   0.0263   0.0144   0.0014  -0.0151  -0.0060   0.00    1.3
2173 203087.000  -1092365.5406  -5209399.3448   3504137.6316   2   8   0.0161   0.0263   0.0144   0.0021  -0.0151  -0.0060   0.00    1.3
2173 203088.000  -1092365.5386  -5209399.3449   3504137.6330   2   8   0.0161   0.0262   0.0143   0.0016  -0.0150  -0.0061   0.00    1.3
2173 203089.000  -1092365.5401  -5209399.3378   3504137.6328   2   8   0.0161   0.0262   0.0143   0.0019  -0.0150  -0.0061   0.00    1.3
2173 203090.000  -1092365.5395  -5209399.3339   3504137.6334   2   8   0.0161   0.0261   0.0142   0.0015  -0.0150  -0.0061   0.00    1.3
2173 203091.000  -1092365.5415  -5209399.3305   3504137.6348   2   8   0.0160   0.0261   0.0142   0.0015  -0.0149  -0.0058   0.00    1.3
2173 203092.000  -1092365.5426  -5209399.3277   3504137.6346   2   8   0.0160   0.0260   0.0142   0.0017  -0.0149  -0.0058   0.00    1.3
2173 203093.000  -1092365.5433  -5209399.3247   3504137.6351   2   8   0.0160   0.0260   0.0142   0.0015  -0.0149  -0.0061   0.00    1.3
2173 203094.000  -1092365.5434  -5209399.3267   3504137.6366   2   8   0.0160   0.0260   0.0142   0.0014  -0.0148  -0.0060   0.00    1.3
2173 203095.000  -1092365.5436  -5209399.3253   3504137.6357   2   8   0.0161   0.0259   0.0142   0.0019  -0.0148  -0.0063   0.00    1.3
2173 203096.000  -1092365.5401  -5209399.3193   3504137.6307   2   8   0.0159   0.0259   0.0141   0.0018  -0.0149  -0.0059   0.00    1.3
2173 203097.000  -1092365.5417  -5209399.3176   3504137.6301   2   8   0.0158   0.0259   0.0142   0.0009  -0.0148  -0.0059   0.00    1.3
