% program   : rnx2rtkp ver.2.4.3 b31
% inp file  : ngs/21_08_31_08_48_16_nvbm.obs
% inp file  : ngs/21_08_31_08_48_16_nvbm_SNNV.obs
% inp file  : ngs/21_08_31_08_48_16_brdc.nav
% obs start : 2021/08/31 08:00:00.0 GPST (week2173 201600.0s)
% obs end   : 2021/08/31 08:59:59.0 GPST (week2173 205199.0s)
% ref pos   : -2196944.1557  -4677747.2245   3725481.1742
%
% (x/y/z-ecef=WGS84,Q=1:fix,2:float,3:sbas,4:dgps,5:single,6:ppp,ns=# of satellites)
%  GPST              x-ecef(m)      y-ecef(m)      z-ecef(m)   Q  ns   sdx(m)   sdy(m)   sdz(m)  sdxy(m)  sdyz(m)  sdzx(m) age(s)  ratio
2173 204472.000  -2197189.4643  -4678269.7854   3725900.2493   2   9   0.4654   0.7403   0.6785   0.3932  -0.5419  -0.2637 -30.00    1.0
2173 204473.000  -2197189.4618  -4678269.7873   3725900.2452   2   9   0.3315   0.5269   0.4823   0.2801  -0.3854  -0.1876 -29.00    1.1
2173 204474.000  -2197189.4655  -4678269.7946   3725900.2489   2   9   0.2714   0.4314   0.3949   0.2294  -0.3155  -0.1536 -28.00    1.1
2173 204475.000  -2197189.4658  -4678269.7950   3725900.2438   2   9   0.2355   0.3743   0.3426   0.1990  -0.2738  -0.1333 -27.00    1.2
2173 204476.000  -2197189.4670  -4678269.7971   3725900.2447   2   9   0.2109   0.3352   0.3069   0.1782  -0.2452  -0.1194 -26.00    1.2
2173 204477.000  -2197189.4698  -4678269.8025   3725900.2468   2   9   0.1927   0.3063   0.2805   0.1628  -0.2241  -0.1091 -25.00    1.3
2173 204478.000  -2197189.4697  -4678269.8039   3725900.2482   2   9   0.1785   0.2838   0.2599   0.1508  -0.2076  -0.1011 -24.00    1.4
2173 204479.000  -2197189.4706  -4678269.8035   3725900.2486   2   9   0.1671   0.2656   0.2433   0.1412  -0.1944  -0.0947 -23.00    1.5
2173 204480.000  -2197189.4681  -4678269.8043   3725900.2467   2   9   0.1576   0.2505   0.2295   0.1332  -0.1833  -0.0893 -22.00    1.6
2173 204481.000  -2197189.4698  -4678269.8071   3725900.2511   2   9   0.1495   0.2378   0.2178   0.1264  -0.1740  -0.0848 -21.00    1.7
2173 204482.000  -2197189.4705  -4678269.8074   3725900.2484   2   9   0.1426   0.2267   0.2077   0.1205  -0.1659  -0.0808 -20.00    1.8
2173 204483.000  -2197189.4701  -4678269.8065   3725900.2502   2   9   0.1365   0.2171   0.1989   0.1154  -0.1589  -0.0774 -19.00    1.9
2173 204484.000  -2197189.4702  -4678269.8077   3725900.2504   2   9   0.1312   0.2086   0.1911   0.1108  -0.1526  -0.0744 -18.00    2.0
2173 204485.000  -2197189.4718  -4678269.8076   3725900.2506   2   9   0.1264   0.2010   0.1841   0.1068  -0.1471  -0.0717 -17.00    2.1
2173 204486.000  -2197189.4719  -4678269.8121   3725900.2521   2   9   0.1221   0.1941   0.1778   0.1032  -0.1421  -0.0692 -16.00    2.3
2173 204487.000  -2197189.4710  -4678269.8075   3725900.2488   2   9   0.1182   0.1879   0.1721   0.0999  -0.1375  -0.0670 -15.00    2.4
2173 204488.000  -2197189.4716  -4678269.8061   3725900.2497   2   9   0.1146   0.1823   0.1669   0.0969  -0.1333  -0.0650 -14.00    2.6
2173 204489.000  -2197189.4699  -4678269.8085   3725900.2498   2   9   0.1114   0.1771   0.1621   0.0941  -0.1295  -0.0632 -13.00    2.6
2173 204490.000  -2197189.4676  -4678269.8058   3725900.2483   2   9   0.1084   0.1723   0.1577   0.0916  -0.1260  -0.0615 -12.00    2.8
2173 204491.000  -2197189.4665  -4678269.8083   3725900.2503   2   9   0.1056   0.1679   0.1536   0.0892  -0.1228  -0.0599 -11.00    2.9
2173 204492.000  -2197189.5342  -4678269.6949   3725900.0972   1   9   0.0085   0.0146   0.0153   0.0073  -0.0117  -0.0055 -10.00    3.1
2173 204493.000  -2197189.5327  -4678269.6923   3725900.0964   1   9   0.0080   0.0135   0.0141   0.0068  -0.0108  -0.0050  -9.00    3.4
2173 204494.000  -2197189.5331  -4678269.6916   3725900.0979   1   9   0.0074   0.0126   0.0130   0.0062  -0.0099  -0.0046  -8.00    3.7
2173 204495.000  -2197189.5310  -4678269.6929   3725900.0963   1   9   0.0069   0.0116   0.0118   0.0057  -0.0091  -0.0042  -7.00    4.1
2173 204496.000  -2197189.5317  -4678269.6917   3725900.0946   1   9   0.0064   0.0107   0.0107   0.0055  -0.0083  -0.0039  -6.00    4.6
2173 204497.000  -2197189.5315  -4678269.6959   3725900.0996   1   9   0.0061   0.0099   0.0097   0.0051  -0.0076  -0.0036  -5.00    5.2
2173 204498.000  -2197189.5305  -4678269.6937   3725900.0970   1   9   0.0057   0.0091   0.0088   0.0048  -0.0069  -0.0032  -4.00    6.1
2173 204499.000  -2197189.5304  -4678269.6931   3725900.0972   1   9   0.0050   0.0085   0.0081   0.0044  -0.0063  -0.0029  -3.00    7.1
2173 204500.000  -2197189.5294  -4678269.6930   3725900.0971   1   9   0.0051   0.0079   0.0074   0.0043  -0.0058  -0.0026  -2.00    8.0
2173 204501.000  -2197189.5285  -4678269.6936   3725900.0979   1   9   0.0046   0.0075   0.0070   0.0040  -0.0055  -0.0028  -1.00    9.2
2173 204502.000  -2197189.5283  -4678269.6940   3725900.0967   1   9   0.0049   0.0075   0.0068   0.0038  -0.0054  -0.0025   0.00   10.1
2173 204503.000  -2197189.5295  -4678269.6944   3725900.0992   1   9   0.0045   0.0074   0.0069   0.0040  -0.0055  -0.0027   0.00   10.8
2173 204504.000  -2197189.5283  -4678269.6921   3725900.0964   1   9   0.0051   0.0077   0.0067   0.0038  -0.0054  -0.0022   0.00   11.5
2173 204505.000  -2197189.5313  -4678269.6948   3725900.0987   1   9   0.0047   0.0073   0.0067   0.0044  -0.0054  -0.0029   0.00   11.9
2173 204506.000  -2197189.5302  -4678269.6915   3725900.0979   1   9   0.0048   0.0074   0.0069   0.0041  -0.0055  -0.0025   0.00   12.6
2173 204507.000  -2197189.5301  -4678269.6930   3725900.0988   1   9   0.0047   0.0076   0.0068   0.0039  -0.0054  -0.0026   0.00   12.9
2173 204508.000  -2197189.5317  -4678269.6981   3725900.1015   1   9   0.0044   0.0076   0.0068   0.0037  -0.0056  -0.0024   0.00   13.3
2173 204509.000  -2197189.5312  -4678269.6931   3725900.0980   1   9   0.0044   0.0072   0.0066   0.0045  -0.0054  -0.0029   0.00   13.8
2173 204510.000  -2197189.5313  -4678269.6898   3725900.0968   1   9   0.0046   0.0073   0.0068   0.0043  -0.0054  -0.0027   0.00   14.1
2173 204511.000  -2197189.5315  -4678269.6928   3725900.0981   1   9   0.0046   0.0075   0.0068   0.0041  -0.0055  -0.0023   0.00   14.2
2173 204512.000  -2197189.5317  -4678269.6937   3725900.0976   1   9   0.0045   0.0076   0.0068   0.0038  -0.0053  -0.0027   0.00   14.3
2173 204513.000  -2197189.5299  -4678269.6911   3725900.0962   1   9   0.0047   0.0076   0.0069   0.0038  -0.0054  -0.0025   0.00   14.4
2173 204514.000  -2197189.5298  -4678269.6965   3725900.0998   1   9   0.0046   0.0074   0.0067   0.0039  -0.0057  -0.0026   0.00   14.6
2173 204515.000  -2197189.5271  -4678269.6887   3725900.0954   1   9   0.0050   0.0078   0.0068   0.0036  -0.0055  -0.0026   0.00   14.6
2173 204516.000  -2197189.5306  -4678269.6931   3725900.0977   1   9   0.0046   0.0075   0.0067   0.0038  -0.0054  -0.0022   0.00   14.5
2173 204517.000  -2197189.5290  -4678269.6920   3725900.0984   1   9   0.0048   0.0074   0.0068   0.0040  -0.0056  -0.0029   0.00   14.6
2173 204518.000  -2197189.5294  -4678269.6940   3725900.0986   1   9   0.0044   0.0074   0.0068   0.0039  -0.0055  -0.0028   0.00   14.6
2173 204519.000  -2197189.5319  -4678269.6947   3725900.0998   1   9   0.0046   0.0075   0.0069   0.0040  -0.0054  -0.0033   0.00   14.6
2173 204520.000  -2197189.5301  -4678269.6921   3725900.0948   1   9   0.0044   0.0078   0.0067   0.0034  -0.0053  -0.0027   0.00   14.6
2173 204521.000  -2197189.5307  -4678269.6915   3725900.0993   1   9   0.0050   0.0073   0.0069   0.0042  -0.0055  -0.0030   0.00   14.5
2173 204522.000  -2197189.5328  -4678269.6920   3725900.0970   1   9   0.0047   0.0075   0.0069   0.0039  -0.0053  -0.0029   0.00   14.6
2173 204523.000  -2197189.5310  -4678269.6917   3725900.0960   1   9   0.0050   0.0076   0.0068   0.0038  -0.0054  -0.0025   0.00   14.6
2173 204524.000  -2197189.5309  -4678269.6916   3725900.0969   1   9   0.0048   0.0076   0.0068   0.0036  -0.0052  -0.0022   0.00   14.6
2173 204525.000  -2197189.5301  -4678269.6917   3725900.0984   1   9   0.0045   0.0075   0.0069   0.0039  -0.0055  -0.0028   0.00   14.5
2173 204526.000  -2197189.5295  -4678269.6944   3725900.1007   1   9   0.0048   0.0076   0.0069   0.0038  -0.0053  -0.0020   0.00   14.4
2173 204527.000  -2197189.5297  -4678269.6941   3725900.0979   1   9   0.0045   0.0074   0.0068   0.0037  -0.0054  -0.0026   0.00   14.3
2173 204528.000  -2197189.5309  -4678269.6909   3725900.0942   1   9   0.0048   0.0076   0.0069   0.0041  -0.0053  -0.0024   0.00   14.1
2173 204529.000  -2197189.5295  -4678269.6926   3725900.0981   1   9   0.0048   0.0074   0.0068   0.0041  -0.0055  -0.0030   0.00   14.0
2173 204530.000  -2197189.5288  -4678269.6900   3725900.0974   1   9   0.0048   0.0075   0.0069   0.0038  -0.0054  -0.0028   0.00   13.9
2173 204531.000  -2197189.5320  -4678269.6918   3725900.0971   1   9   0.0052   0.0074   0.0069   0.0043  -0.0056  -0.0027   0.00   13.8
2173 204532.000  -2197189.5311  -4678269.6967   3725900.1014   1   9   0.0046   0.0075   0.0068   0.0040  -0.0055  -0.0023   0.00   13.7
2173 204533.000  -2197189.5332  -4678269.6943   3725900.0966   1   9   0.0051   0.0074   0.0069   0.0042  -0.0055  -0.0025   0.00   13.6
2173 204534.000  -2197189.5319  -4678269.6904   3725900.0976   1   9   0.0051   0.0077   0.0066   0.0035  -0.0054  -0.0026   0.00   13.5
2173 204535.000  -2197189.5306  -4678269.6922   3725900.0994   1   9   0.0049   0.0075   0.0068   0.0040  -0.0055  -0.0028   0.00   13.5
2173 204536.000  -2197189.5309  -4678269.6885   3725900.0969   1   9   0.0045   0.0074   0.0068   0.0039  -0.0054  -0.0027   0.00   13.4
2173 204537.000  -2197189.5312  -4678269.6917   3725900.0996   1   9   0.0049   0.0075   0.0068   0.0039  -0.0054  -0.0026   0.00   13.3
2173 204538.000  -2197189.5301  -4678269.6890   3725900.0987   1   9   0.0045   0.0075   0.0067   0.0041  -0.0053  -0.0025   0.00   13.3
2173 204539.000  -2197189.5309  -4678269.6927   3725900.0974   1   9   0.0049   0.0076   0.0068   0.0037  -0.0056  -0.0026   0.00   13.3
2173 204540.000  -2197189.5299  -4678269.6902   3725900.0942   1   9   0.0052   0.0075   0.0068   0.0041  -0.0054  -0.0027   0.00   13.3
2173 204541.000  -2197189.5308  -4678269.6937   3725900.0971   1   9   0.0047   0.0075   0.0068   0.0040  -0.0055  -0.0033   0.00   13.3
2173 204542.000  -2197189.5328  -4678269.6943   3725900.0955   1   9   0.0046   0.0073   0.0068   0.0040  -0.0056  -0.0029   0.00   13.3
2173 204543.000  -2197189.5325  -4678269.6928   3725900.0971   1   9   0.0046   0.0077   0.0068   0.0037  -0.0054  -0.0030   0.00   13.3
2173 204544.000  -2197189.5327  -4678269.6920   3725900.0942   1   9   0.0043   0.0074   0.0067   0.0041  -0.0055  -0.0024   0.00   13.2
2173 204545.000  -2197189.5318  -4678269.6903   3725900.0955   1   9   0.0043   0.0074   0.0068   0.0042  -0.0054  -0.0024   0.00   13.2
2173 204546.000  -2197189.5309  -4678269.6937   3725900.0974   1   9   0.0052   0.0075   0.0068   0.0040  -0.0054  -0.0025   0.00   13.2
2173 204547.000  -2197189.5339  -4678269.6927   3725900.0965   1   9   0.0049   0.0075   0.0069   0.0040  -0.0055  -0.0026   0.00   13.2
2173 204548.000  -2197189.5324  -4678269.6948   3725900.0964   1   9   0.0050   0.0076   0.0068   0.0038  -0.0053  -0.0027   0.00   13.2
2173 204549.000  -2197189.5329  -4678269.6953   3725900.0986   1   9   0.0043   0.0077   0.0068   0.0036  -0.0056  -0.0025   0.00   13.2
2173 204550.000  -2197189.5328  -4678269.6902   3725900.0960   1   9   0.0045   0.0078   0.0068   0.0035  -0.0054  -0.0027   0.00   13.1
2173 204551.000  -2197189.5319  -4678269.6906   3725900.0956   1   9   0.0050   0.0076   0.0068   0.0036  -0.0055  -0.0023   0.00   13.1
2173 204552.000  -2197189.5315  -4678269.6915   3725900.0981   1   9   0.0050   0.0077   0.0067   0.0037  -0.0054  -0.0020   0.00   13.2
2173 204553.000  -2197189.5322  -4678269.6928   3725900.0965   1   9   0.0048   0.0075   0.0068   0.0039  -0.0056  -0.0027   0.00   13.3
2173 204554.000  -2197189.5345  -4678269.6909   3725900.0944   1   9   0.0049   0.0073   0.0068   0.0042  -0.0054  -0.0024   0.00   13.3
2173 204555.000  -2197189.5355  -4678269.6961   3725900.0989   1   9   0.0046   0.0075   0.0068   0.0039  -0.0054  -0.0021   0.00   13.3
2173 204556.000  -2197189.5308  -4678269.6871   3725900.0926   1   9   0.0042   0.0075   0.0067   0.0037  -0.0055  -0.0022   0.00   13.3
2173 204557.000  -2197189.5334  -4678269.6911   3725900.0947   1   9   0.0048   0.0075   0.0068   0.0041  -0.0054  -0.0027   0.00   13.3
2173 204558.000  -2197189.5323  -4678269.6915   3725900.0941   1   9   0.0047   0.0073   0.0068   0.0040  -0.0054  -0.0027   0.00   13.3
2173 204559.000  -2197189.5330  -4678269.6916   3725900.0967   1   9   0.0050   0.0074   0.0069   0.0043  -0.0056  -0.0024   0.00   13.3
2173 204560.000  -2197189.5331  -4678269.6924   3725900.0967   1   9   0.0044   0.0073   0.0067   0.0043  -0.0056  -0.0026   0.00   13.3
2173 204561.000  -2197189.5320  -4678269.6935   3725900.0978   1   9   0.0042   0.0077   0.0066   0.0035  -0.0055  -0.0027   0.00   13.3
2173 204562.000  -2197189.5343  -4678269.6954   3725900.0995   1   9   0.0046   0.0073   0.0069   0.0044  -0.0054  -0.0027   0.00   13.3
2173 204563.000  -2197189.5338  -4678269.6942   3725900.0974   1   9   0.0046   0.0074   0.0068   0.0042  -0.0054  -0.0026   0.00   13.3
2173 204564.000  -2197189.5341  -4678269.6970   3725900.0954   1   9   0.0048   0.0075   0.0069   0.0038  -0.0054  -0.0022   0.00   13.3
2173 204565.000  -2197189.5323  -4678269.6927   3725900.0947   1   9   0.0050   0.0073   0.0069   0.0045  -0.0055  -0.0028   0.00   13.3
2173 204566.000  -2197189.5316  -4678269.6921   3725900.0969   1   9   0.0047   0.0076   0.0067   0.0034  -0.0056  -0.0029   0.00   13.3
2173 204567.000  -2197189.5343  -4678269.6941   3725900.0954   1   9   0.0047   0.0076   0.0069   0.0036  -0.0055  -0.0026   0.00   13.3
2173 204568.000  -2197189.5348  -4678269.6939   3725900.0974   1   9   0.0051   0.0078   0.0070   0.0034  -0.0053  -0.0019   0.00   13.3
2173 204569.000  -2197189.5338  -4678269.6914   3725900.0987   1   9   0.0047   0.0075   0.0069   0.0039  -0.0053  -0.0026   0.00   13.3
2173 204570.000  -2197189.5341  -4678269.6966   3725900.0993   1   9   0.0047   0.0075   0.0069   0.0040  -0.0055  -0.0024   0.00   13.3
2173 204571.000  -2197189.5344  -4678269.6962   3725900.0965   1   9   0.0047   0.0074   0.0068   0.0040  -0.0056  -0.0031   0.00   13.2
2173 204572.000  -2197189.5340  -4678269.6946   3725900.0998   1   9   0.0048   0.0076   0.0068   0.0036  -0.0056  -0.0028   0.00   13.3
2173 204573.000  -2197189.5333  -4678269.6959   3725900.0979   1   9   0.0048   0.0075   0.0067   0.0039  -0.0053  -0.0028   0.00   13.2
2173 204574.000  -2197189.5311  -4678269.6935   3725900.0966   1   9   0.0046   0.0075   0.0068   0.0039  -0.0054  -0.0027   0.00   13.2
2173 204575.000  -2197189.5322  -4678269.6931   3725900.0976   1   9   0.0048   0.0075   0.0069   0.0037  -0.0055  -0.0026   0.00   13.2
2173 204576.000  -2197189.5345  -4678269.6942   3725900.0943   1   9   0.0046   0.0074   0.0068   0.0040  -0.0055  -0.0026   0.00   13.3
2173 204577.000  -2197189.5319  -4678269.6930   3725900.0982   1   9   0.0042   0.0072   0.0069   0.0045  -0.0055  -0.0029   0.00   13.3
2173 204578.000  -2197189.5323  -4678269.6941   3725900.0978   1   9   0.0049   0.0071   0.0069   0.0046  -0.0056  -0.0030   0.00   13.3
2173 204579.000  -2197189.5298  -4678269.6923   3725900.0955   1   9   0.0044   0.0075   0.0069   0.0039  -0.0056  -0.0028   0.00   13.3
2173 204580.000  -2197189.5323  -4678269.6922   3725900.0969   1   9   0.0044   0.0074   0.0070   0.0038  -0.0056  -0.0027   0.00   13.3
2173 204581.000  -2197189.5316  -4678269.6934   3725900.0986   1   9   0.0050   0.0076   0.0069   0.0038  -0.0055  -0.0026   0.00   13.3
2173 204582.000  -2197189.5321  -4678269.6908   3725900.0956   1   9   0.0048   0.0071   0.0070   0.0044  -0.0057  -0.0027   0.00   13.3
2173 204583.000  -2197189.5299  -4678269.6886   3725900.0949   1   9   0.0047   0.0076   0.0067   0.0037  -0.0054  -0.0023   0.00   13.3
2173 204584.000  -2197189.5327  -4678269.6914   3725900.0963   1   9   0.0046   0.0075   0.0067   0.0038  -0.0055  -0.0028   0.00   13.3
2173 204585.000  -2197189.5314  -4678269.6902   3725900.0949   1   9   0.0047   0.0073   0.0068   0.0041  -0.0052  -0.0027   0.00   13.3
2173 204586.000  -2197189.5303  -4678269.6868   3725900.0907   1   9   0.0042   0.0076   0.0069   0.0037  -0.0055  -0.0025   0.00   13.2
2173 204587.000  -2197189.5321  -4678269.6937   3725900.0984   1   9   0.0048   0.0073   0.0068   0.0041  -0.0056  -0.0025   0.00   13.2
2173 204588.000  -2197189.5313  -4678269.6929   3725900.0987   1   9   0.0046   0.0074   0.0070   0.0042  -0.0055  -0.0027   0.00   13.3
2173 204589.000  -2197189.5303  -4678269.6907   3725900.0944   1   9   0.0048   0.0074   0.0070   0.0040  -0.0055  -0.0028   0.00   13.3
2173 204590.000  -2197189.5315  -4678269.6948   3725900.0981   1   9   0.0046   0.0075   0.0068   0.0035  -0.0055  -0.0025   0.00   13.2
2173 204591.000  -2197189.5313  -4678269.6943   3725900.0983   1   9   0.0044   0.0075   0.0068   0.0038  -0.0056  -0.0026   0.00   13.2
2173 204592.000  -2197189.5305  -4678269.6966   3725900.0977   1   9   0.0047   0.0075   0.0069   0.0038  -0.0055  -0.0025   0.00   13.2
2173 204593.000  -2197189.5305  -4678269.6916   3725900.0959   1   9   0.0044   0.0075   0.0067   0.0040  -0.0055  -0.0029   0.00   13.3
2173 204594.000  -2197189.5324  -4678269.6919   3725900.0979   1   9   0.0049   0.0074   0.0069   0.0039  -0.0055  -0.0028   0.00   13.3
2173 204595.000  -2197189.5295  -4678269.6916   3725900.0947   1   9   0.0043   0.0075   0.0069   0.0039  -0.0053  -0.0027   0.00   13.3
2173 204596.000  -2197189.5306  -4678269.6908   3725900.0987   1   9   0.0046   0.0074   0.0069   0.0041  -0.0055  -0.0032   0.00   13.3
2173 204597.000  -2197189.5323  -4678269.6925   3725900.0981   1   9   0.0047   0.0074   0.0070   0.0040  -0.0054  -0.0026   0.00   13.3
2173 204598.000  -2197189.5290  -4678269.6914   3725900.0952   1   9   0.0046   0.0075   0.0069   0.0039  -0.0054  -0.0025   0.00   13.3
2173 204599.000  -2197189.5330  -4678269.6952   3725900.0996   1   9   0.0044   0.0076   0.0069   0.0037  -0.0055  -0.0026   0.00   13.4
2173 204600.000  -2197189.5305  -4678269.6901   3725900.0985   1   9   0.0047   0.0075   0.0070   0.0040  -0.0055  -0.0030   0.00   13.4
2173 204601.000  -2197189.5305  -4678269.6940   3725900.0986   1   9   0.0047   0.0075   0.0070   0.0038  -0.0054  -0.0028   0.00   13.5
2173 204602.000  -2197189.5313  -4678269.6915   3725900.0977   1   9   0.0047   0.0074   0.0069   0.0040  -0.0056  -0.0029   0.00   13.5
2173 204603.000  -2197189.5328  -4678269.6941   3725900.1001   1   9   0.0046   0.0074   0.0069   0.0040  -0.0055  -0.0028   0.00   13.6
2173 204604.000  -2197189.5313  -4678269.6919   3725900.0964   1   9   0.0048   0.0074   0.0070   0.0040  -0.0054  -0.0023   0.00   13.7
2173 204605.000  -2197189.5320  -4678269.6940   3725900.0979   1   9   0.0047   0.0076   0.0069   0.0035  -0.0055  -0.0028   0.00   13.8
2173 204606.000  -2197189.5302  -4678269.6908   3725900.0965   1   9   0.0048   0.0075   0.0069   0.0039  -0.0054  -0.0024   0.00   13.8
2173 204607.000  -2197189.5319  -4678269.6917   3725900.0980   1   9   0.0049   0.0077   0.0068   0.0037  -0.0055  -0.0023   0.00   13.9
2173 204608.000  -2197189.5323  -4678269.6932   3725900.0978   1   9   0.0045   0.0075   0.0070   0.0039  -0.0055  -0.0025   0.00   14.0
2173 204609.000  -2197189.5309  -4678269.6908   3725900.0975   1   9   0.0046   0.0075   0.0070   0.0038  -0.0053  -0.0023   0.00   14.1
2173 204610.000  -2197189.5306  -4678269.6912   3725900.0968   1   9   0.0047   0.0075   0.0069   0.0040  -0.0056  -0.0029   0.00   14.1
2173 204611.000  -2197189.5326  -4678269.6935   3725900.0992   1   9   0.0048   0.0076   0.0068   0.0037  -0.0055  -0.0029   0.00   14.2
2173 204612.000  -2197189.5321  -4678269.6942   3725900.0994   1   9   0.0047   0.0073   0.0069   0.0042  -0.0055  -0.0027   0.00   14.3
2173 204613.000  -2197189.5287  -4678269.6888   3725900.0962   1   9   0.0049   0.0073   0.0069   0.0044  -0.0052  -0.0029   0.00   14.3
2173 204614.000  -2197189.5323  -4678269.6911   3725900.0951   1   9   0.0046   0.0071   0.0067   0.0042  -0.0058  -0.0029   0.00   14.4
2173 204615.000  -2197189.5329  -4678269.6942   3725900.0988   1   9   0.0049   0.0075   0.0068   0.0041  -0.0054  -0.0031   0.00   14.4
2173 204616.000  -2197189.5332  -4678269.6945   3725900.0987   1   9   0.0046   0.0073   0.0070   0.0042  -0.0056  -0.0029   0.00   14.4
2173 204617.000  -2197189.5327  -4678269.6938   3725900.0994   1   9   0.0045   0.0075   0.0067   0.0039  -0.0055  -0.0029   0.00   14.5
2173 204618.000  -2197189.5320  -4678269.6928   3725900.0985   1   9   0.0047   0.0075   0.0069   0.0039  -0.0056  -0.0019   0.00   14.5
2173 204619.000  -2197189.5304  -4678269.6923   3725900.0992   1   9   0.0045   0.0075   0.0069   0.0039  -0.0055  -0.0024   0.00   14.6
2173 204620.000  -2197189.5313  -4678269.6914   3725900.0991   1   9   0.0046   0.0076   0.0069   0.0036  -0.0055  -0.0028   0.00   14.6
2173 204621.000  -2197189.5336  -4678269.6951   3725900.0998   1   9   0.0048   0.0075   0.0070   0.0038  -0.0054  -0.0024   0.00   14.7
2173 204622.000  -2197189.5341  -4678269.6957   3725900.0996   1   9   0.0045   0.0076   0.0069   0.0036  -0.0054  -0.0024   0.00   14.7
2173 204623.000  -2197189.5327  -4678269.6927   3725900.1005   1   9   0.0045   0.0075   0.0069   0.0035  -0.0055  -0.0024   0.00   14.8
2173 204624.000  -2197189.5336  -4678269.6935   3725900.1008   1   9   0.0049   0.0077   0.0067   0.0034  -0.0056  -0.0026   0.00   14.8
2173 204625.000  -2197189.5313  -4678269.6913   3725900.0974   1   9   0.0047   0.0073   0.0067   0.0041  -0.0056  -0.0032   0.00   14.8
2173 204626.000  -2197189.5336  -4678269.6950   3725900.1009   1   9   0.0046   0.0074   0.0069   0.0040  -0.0055  -0.0024   0.00   14.9
2173 204627.000  -2197189.5334  -4678269.6946   3725900.1004   1   9   0.0047   0.0073   0.0066   0.0043  -0.0055  -0.0033   0.00   14.9
2173 204628.000  -2197189.5328  -4678269.6987   3725900.0990   1   9   0.0049   0.0074   0.0070   0.0041  -0.0055  -0.0020   0.00   14.9
2173 204629.000  -2197189.5320  -4678269.6943   3725900.0985   1   9   0.0049   0.0074   0.0070   0.0039  -0.0056  -0.0029   0.00   15.0
2173 204630.000  -2197189.5316  -4678269.6943   3725900.1001   1   9   0.0046   0.0077   0.0069   0.0035  -0.0054  -0.0022   0.00   15.0
2173 204631.000  -2197189.5331  -4678269.6910   3725900.0991   1   9   0.0045   0.0076   0.0068   0.0038  -0.0054  -0.0029   0.00   15.1
2173 204632.000  -2197189.5322  -4678269.6931   3725900.1003   1   9   0.0050   0.0075   0.0068   0.0037  -0.0056  -0.0029   0.00   15.0
2173 204633.000  -2197189.5338  -4678269.6928   3725900.0990   1   9   0.0041   0.0076   0.0067   0.0036  -0.0054  -0.0027   0.00   15.1
2173 204634.000  -2197189.5320  -4678269.6942   3725900.0999   1   9   0.0047   0.0074   0.0069   0.0041  -0.0054  -0.0027   0.00   15.1
2173 204635.000  -2197189.5347  -4678269.6957   3725900.1000   1   9   0.0047   0.0072   0.0069   0.0044  -0.0056  -0.0029   0.00   15.2
2173 204636.000  -2197189.5322  -4678269.6908   3725900.0997   1   9   0.0048   0.0075   0.0069   0.0039  -0.0055  -0.0024   0.00   15.2
2173 204637.000  -2197189.5321  -4678269.6926   3725900.1012   1   9   0.0045   0.0073   0.0069   0.0044  -0.0056  -0.0028   0.00   15.2
2173 204638.000  -2197189.5334  -4678269.6929   3725900.1011   1   9   0.0049   0.0075   0.0070   0.0039  -0.0055  -0.0027   0.00   15.2
2173 204639.000  -2197189.5339  -4678269.6940   3725900.0999   1   9   0.0047   0.0074   0.0069   0.0040  -0.0054  -0.0023   0.00   15.2
2173 204640.000  -2197189.5312  -4678269.6907   3725900.1007   1   9   0.0050   0.0076   0.0069   0.0037  -0.0055  -0.0028   0.00   15.2
2173 204641.000  -2197189.5321  -4678269.6908   3725900.0969   1   9   0.0045   0.0073   0.0070   0.0041  -0.0055  -0.0026   0.00   15.3
2173 204642.000  -2197189.5314  -4678269.6924   3725900.0987   1   9   0.0049   0.0075   0.0067   0.0038  -0.0054  -0.0025   0.00   15.3
2173 204643.000  -2197189.5318  -4678269.6912   3725900.1011   1   9   0.0047   0.0076   0.0069   0.0035  -0.0054  -0.0025   0.00   15.3
2173 204644.000  -2197189.5295  -4678269.6923   3725900.1021   1   9   0.0044   0.0074   0.0069   0.0039  -0.0055  -0.0023   0.00   15.3
2173 204645.000  -2197189.5307  -4678269.6898   3725900.0980   1   9   0.0044   0.0073   0.0069   0.0039  -0.0056  -0.0024   0.00   15.3
2173 204646.000  -2197189.5333  -4678269.6923   3725900.1002   1   9   0.0047   0.0074   0.0069   0.0040  -0.0057  -0.0028   0.00   15.3
2173 204647.000  -2197189.5304  -4678269.6885   3725900.0991   1   9   0.0048   0.0078   0.0069   0.0034  -0.0055  -0.0023   0.00   15.4
2173 204648.000  -2197189.5323  -4678269.6918   3725900.0992   1   9   0.0049   0.0076   0.0069   0.0036  -0.0055  -0.0026   0.00   15.4
2173 204649.000  -2197189.5327  -4678269.6902   3725900.1001   1   9   0.0049   0.0074   0.0067   0.0042  -0.0055  -0.0034   0.00   15.4
2173 204650.000  -2197189.5318  -4678269.6908   3725900.1003   1   9   0.0045   0.0075   0.0069   0.0037  -0.0053  -0.0028   0.00   15.4
2173 204651.000  -2197189.5323  -4678269.6920   3725900.1007   1   9   0.0045   0.0075   0.0068   0.0040  -0.0054  -0.0031   0.00   15.4
2173 204652.000  -2197189.5313  -4678269.6896   3725900.0971   1   9   0.0050   0.0076   0.0070   0.0038  -0.0054  -0.0027   0.00   15.4
2173 204653.000  -2197189.5315  -4678269.6919   3725900.0994   1   9   0.0045   0.0076   0.0068   0.0035  -0.0054  -0.0025   0.00   15.4
2173 204654.000  -2197189.5332  -4678269.6903   3725900.0969   1   9   0.0049   0.0074   0.0069   0.0041  -0.0055  -0.0028   0.00   15.4
2173 204655.000  -2197189.5301  -4678269.6905   3725900.0995   1   9   0.0046   0.0074   0.0068   0.0043  -0.0054  -0.0028   0.00   15.4
2173 204656.000  -2197189.5295  -4678269.6909   3725900.1006   1   9   0.0048   0.0074   0.0068   0.0040  -0.0055  -0.0031   0.00   15.3
2173 204657.000  -2197189.5313  -4678269.6893   3725900.0968   1   9   0.0046   0.0073   0.0067   0.0042  -0.0055  -0.0032   0.00   15.3
2173 204658.000  -2197189.5320  -4678269.6915   3725900.1001   1   9   0.0047   0.0077   0.0068   0.0035  -0.0054  -0.0024   0.00   15.3
2173 204659.000  -2197189.5316  -4678269.6917   3725900.0996   1   9   0.0046   0.0075   0.0069   0.0038  -0.0054  -0.0030   0.00   15.3
2173 204660.000  -2197189.5329  -4678269.6908   3725900.1009   1   9   0.0048   0.0075   0.0069   0.0039  -0.0055  -0.0022   0.00   15.2
2173 204661.000  -2197189.5324  -4678269.6925   3725900.0996   1   9   0.0042   0.0070   0.0068   0.0047  -0.0056  -0.0032   0.00   15.2
2173 204662.000  -2197189.5316  -4678269.6902   3725900.0970   1   9   0.0045   0.0074   0.0067   0.0040  -0.0055  -0.0030   0.00   15.2
2173 204663.000  -2197189.5307  -4678269.6909   3725900.0987   1   9   0.0045   0.0075   0.0069   0.0039  -0.0054  -0.0022   0.00   15.1
2173 204664.000  -2197189.5307  -4678269.6899   3725900.0974   1   9   0.0046   0.0075   0.0070   0.0036  -0.0055  -0.0023   0.00   15.1
2173 204665.000  -2197189.5316  -4678269.6908   3725900.0994   1   9   0.0048   0.0074   0.0067   0.0039  -0.0055  -0.0026   0.00   15.1
2173 204666.000  -2197189.5307  -4678269.6889   3725900.0989   1   9   0.0046   0.0074   0.0070   0.0040  -0.0055  -0.0022   0.00   15.1
2173 204667.000  -2197189.5319  -4678269.6940   3725900.1032   1   9   0.0047   0.0074   0.0069   0.0040  -0.0055  -0.0032   0.00   15.1
2173 204668.000  -2197189.5328  -4678269.6901   3725900.1016   1   9   0.0045   0.0075   0.0070   0.0042  -0.0053  -0.0025   0.00   15.1
2173 204669.000  -2197189.5322  -4678269.6901   3725900.1021   1   9   0.0047   0.0077   0.0069   0.0036  -0.0054  -0.0021   0.00   15.0
2173 204670.000  -2197189.5327  -4678269.6923   3725900.0996   1   9   0.0044   0.0073   0.0070   0.0041  -0.0054  -0.0029   0.00   15.0
2173 204671.000  -2197189.5308  -4678269.6863   3725900.0977   1   9   0.0045   0.0075   0.0069   0.0037  -0.0055  -0.0022   0.00   15.0
2173 204672.000  -2197189.5329  -4678269.6885   3725900.0981   1   9   0.0047   0.0071   0.0069   0.0044  -0.0054  -0.0031   0.00   14.9
2173 204673.000  -2197189.5293  -4678269.6922   3725900.0999   1   9   0.0045   0.0074   0.0068   0.0041  -0.0054  -0.0027   0.00   14.9
2173 204674.000  -2197189.5327  -4678269.6921   3725900.1022   1   9   0.0044   0.0074   0.0069   0.0039  -0.0055  -0.0024   0.00   14.9
2173 204675.000  -2197189.5314  -4678269.6898   3725900.0998   1   9   0.0043   0.0074   0.0068   0.0040  -0.0055  -0.0030   0.00   14.9
2173 204676.000  -2197189.5298  -4678269.6888   3725900.1002   1   9   0.0049   0.0073   0.0069   0.0043  -0.0053  -0.0025   0.00   14.9
2173 204677.000  -2197189.5345  -4678269.6938   3725900.0998   1   9   0.0053   0.0077   0.0069   0.0034  -0.0057  -0.0023   0.00   14.9
2173 204678.000  -2197189.5347  -4678269.6946   3725900.1049   1   9   0.0047   0.0075   0.0070   0.0040  -0.0053  -0.0028   0.00   14.9
2173 204679.000  -2197189.5326  -4678269.6929   3725900.0999   1   9   0.0045   0.0074   0.0069   0.0037  -0.0055  -0.0031   0.00   14.9
2173 204680.000  -2197189.5317  -4678269.6936   3725900.0985   1   9   0.0048   0.0075   0.0069   0.0038  -0.0055  -0.0026   0.00   14.9
2173 204681.000  -2197189.5306  -4678269.6924   3725900.0995   1   9   0.0049   0.0074   0.0068   0.0043  -0.0054  -0.0027   0.00   14.9
2173 204682.000  -2197189.5313  -4678269.6925   3725900.0992   1   9   0.0050   0.0077   0.0069   0.0037  -0.0052  -0.0028   0.00   14.9
2173 204683.000  -2197189.5333  -4678269.6921   3725900.1001   1   9   0.0046   0.0075   0.0070   0.0037  -0.0054  -0.0028   0.00   14.9
2173 204684.000  -2197189.5318  -4678269.6937   3725900.1017   1   9   0.0049   0.0074   0.0070   0.0041  -0.0055  -0.0025   0.00   14.9
2173 204685.000  -2197189.5312  -4678269.6933   3725900.0995   1   9   0.0047   0.0073   0.0068   0.0040  -0.0055  -0.0027   0.00   14.9
2173 204686.000  -2197189.5343  -4678269.6941   3725900.0992   1   9   0.0045   0.0073   0.0069   0.0043  -0.0055  -0.0027   0.00   14.9
2173 204687.000  -2197189.5300  -4678269.6906   3725900.0973   1   9   0.0047   0.0074   0.0070   0.0040  -0.0054  -0.0029   0.00   14.9
2173 204688.000  -2197189.5319  -4678269.6931   3725900.0994   1   9   0.0044   0.0071   0.0069   0.0043  -0.0056  -0.0031   0.00   14.9
2173 204689.000  -2197189.5317  -4678269.6924   3725900.0984   1   9   0.0048   0.0073   0.0068   0.0043  -0.0055  -0.0029   0.00   14.9
2173 204690.000  -2197189.5307  -4678269.6924   3725900.1016   1   9   0.0048   0.0074   0.0070   0.0041  -0.0054  -0.0028   0.00   14.9
2173 204691.000  -2197189.5308  -4678269.6911   3725900.1009   1   9   0.0046   0.0075   0.0071   0.0039  -0.0055  -0.0025   0.00   14.9
2173 204692.000  -2197189.5305  -4678269.6909   3725900.0998   1   9   0.0046   0.0075   0.0068   0.0039  -0.0055  -0.0026   0.00   14.9
2173 204693.000  -2197189.5302  -4678269.6877   3725900.0948   1   9   0.0046   0.0074   0.0069   0.0040  -0.0055  -0.0026   0.00   14.9
2173 204694.000  -2197189.5313  -4678269.6903   3725900.0965   1   9   0.0047   0.0075   0.0068   0.0039  -0.0054  -0.0026   0.00   14.8
2173 204695.000  -2197189.5329  -4678269.6913   3725900.1004   1   9   0.0045   0.0073   0.0070   0.0041  -0.0055  -0.0023   0.00   14.9
2173 204696.000  -2197189.5319  -4678269.6883   3725900.0964   1   9   0.0045   0.0072   0.0069   0.0042  -0.0056  -0.0026   0.00   14.8
2173 204697.000  -2197189.5320  -4678269.6904   3725900.0997   1   9   0.0046   0.0074   0.0071   0.0041  -0.0055  -0.0029   0.00   14.9
2173 204698.000  -2197189.5291  -4678269.6878   3725900.0975   1   9   0.0048   0.0073   0.0067   0.0043  -0.0056  -0.0031   0.00   14.9
2173 204699.000  -2197189.5323  -4678269.6948   3725900.1007   1   9   0.0048   0.0076   0.0069   0.0036  -0.0054  -0.0022   0.00   14.9
2173 204700.000  -2197189.5327  -4678269.6940   3725900.1022   1   9   0.0047   0.0074   0.0069   0.0040  -0.0054  -0.0029   0.00   14.9
2173 204701.000  -2197189.5312  -4678269.6907   3725900.0993   1   9   0.0044   0.0073   0.0069   0.0043  -0.0055  -0.0028   0.00   14.9
2173 204702.000  -2197189.5299  -4678269.6906   3725900.1002   1   9   0.0047   0.0075   0.0069   0.0039  -0.0054  -0.0028   0.00   14.9
2173 204703.000  -2197189.5307  -4678269.6909   3725900.0989   1   9   0.0048   0.0074   0.0068   0.0042  -0.0054  -0.0027   0.00   14.9
2173 204704.000  -2197189.5304  -4678269.6913   3725900.0989   1   9   0.0045   0.0075   0.0069   0.0037  -0.0056  -0.0026   0.00   14.9
2173 204705.000  -2197189.5314  -4678269.6908   3725900.1005   1   9   0.0048   0.0074   0.0069   0.0040  -0.0055  -0.0026   0.00   14.9
2173 204706.000  -2197189.5305  -4678269.6904   3725900.0987   1   9   0.0048   0.0074   0.0069   0.0038  -0.0056  -0.0028   0.00   14.9
2173 204707.000  -2197189.5281  -4678269.6886   3725900.0992   1   9   0.0044   0.0074   0.0070   0.0039  -0.0055  -0.0028   0.00   14.9
2173 204708.000  -2197189.5303  -4678269.6899   3725900.0996   1   9   0.0047   0.0076   0.0070   0.0035  -0.0055  -0.0023   0.00   14.9
2173 204709.000  -2197189.5302  -4678269.6898   3725900.0982   1   9   0.0045   0.0074   0.0070   0.0039  -0.0055  -0.0026   0.00   14.9
2173 204710.000  -2197189.5286  -4678269.6891   3725900.0991   1   9   0.0051   0.0077   0.0069   0.0035  -0.0056  -0.0026   0.00   14.9
2173 204711.000  -2197189.5279  -4678269.6894   3725900.0985   1   9   0.0047   0.0075   0.0069   0.0038  -0.0055  -0.0026   0.00   14.9
2173 204712.000  -2197189.5288  -4678269.6899   3725900.0994   1   9   0.0048   0.0073   0.0069   0.0042  -0.0054  -0.0030   0.00   14.9
2173 204713.000  -2197189.5294  -4678269.6862   3725900.0963   1   9   0.0047   0.0077   0.0068   0.0035  -0.0055  -0.0023   0.00   14.9
2173 204714.000  -2197189.5310  -4678269.6898   3725900.0954   1   9   0.0047   0.0073   0.0069   0.0040  -0.0054  -0.0027   0.00   14.9
2173 204715.000  -2197189.5307  -4678269.6888   3725900.0971   1   9   0.0047   0.0074   0.0070   0.0042  -0.0053  -0.0030   0.00   14.9
2173 204716.000  -2197189.5310  -4678269.6923   3725900.1012   1   9   0.0044   0.0075   0.0069   0.0039  -0.0055  -0.0025   0.00   15.0
2173 204717.000  -2197189.5311  -4678269.6906   3725900.0984   1   9   0.0046   0.0075   0.0068   0.0039  -0.0054  -0.0029   0.00   15.0
2173 204718.000  -2197189.5294  -4678269.6921   3725900.0987   1   9   0.0047   0.0074   0.0068   0.0041  -0.0053  -0.0031   0.00   15.0
2173 204719.000  -2197189.5304  -4678269.6898   3725900.0983   1   9   0.0046   0.0074   0.0069   0.0041  -0.0055  -0.0027   0.00   15.0
2173 204720.000  -2197189.5310  -4678269.6907   3725900.0960   1   9   0.0048   0.0074   0.0069   0.0042  -0.0055  -0.0029   0.00   15.0
2173 204721.000  -2197189.5321  -4678269.6922   3725900.0999   1   9   0.0048   0.0076   0.0067   0.0037  -0.0055  -0.0031   0.00   15.0
2173 204722.000  -2197189.5312  -4678269.6887   3725900.0959   1   9   0.0047   0.0077   0.0068   0.0036  -0.0054  -0.0025   0.00   15.0
2173 204723.000  -2197189.5312  -4678269.6896   3725900.0981   1   9   0.0047   0.0075   0.0070   0.0041  -0.0055  -0.0030   0.00   15.0
2173 204724.000  -2197189.5287  -4678269.6860   3725900.0957   1   9   0.0046   0.0074   0.0069   0.0040  -0.0056  -0.0023   0.00   15.1
2173 204725.000  -2197189.5303  -4678269.6906   3725900.0981   1   9   0.0047   0.0076   0.0070   0.0037  -0.0055  -0.0031   0.00   15.0
2173 204726.000  -2197189.5309  -4678269.6882   3725900.0966   1   9   0.0049   0.0074   0.0070   0.0041  -0.0055  -0.0024   0.00   15.0
2173 204727.000  -2197189.5312  -4678269.6885   3725900.0988   1   9   0.0048   0.0074   0.0070   0.0042  -0.0053  -0.0028   0.00   15.0
2173 204728.000  -2197189.5308  -4678269.6908   3725900.0989   1   9   0.0046   0.0074   0.0070   0.0040  -0.0055  -0.0027   0.00   15.0
2173 204729.000  -2197189.5313  -4678269.6899   3725900.0964   1   9   0.0043   0.0070   0.0068   0.0045  -0.0057  -0.0029   0.00   15.0
2173 204730.000  -2197189.5327  -4678269.6937   3725900.1010   1   9   0.0043   0.0075   0.0069   0.0036  -0.0057  -0.0026   0.00   15.1
2173 204731.000  -2197189.5311  -4678269.6925   3725900.1007   1   9   0.0048   0.0079   0.0068   0.0031  -0.0055  -0.0025   0.00   15.1
2173 204732.000  -2197189.5297  -4678269.6916   3725900.0976   1   9   0.0048   0.0075   0.0069   0.0037  -0.0057  -0.0026   0.00   15.1
2173 204733.000  -2197189.5307  -4678269.6917   3725900.1011   1   9   0.0048   0.0076   0.0067   0.0038  -0.0054  -0.0030   0.00   15.1
2173 204734.000  -2197189.5310  -4678269.6917   3725900.0992   1   9   0.0047   0.0076   0.0068   0.0033  -0.0056  -0.0024   0.00   15.1
2173 204735.000  -2197189.5295  -4678269.6898   3725900.0990   1   9   0.0042   0.0074   0.0068   0.0039  -0.0057  -0.0031   0.00   15.2
2173 204736.000  -2197189.5297  -4678269.6922   3725900.1015   1   9   0.0047   0.0078   0.0069   0.0033  -0.0054  -0.0025   0.00   15.2
2173 204737.000  -2197189.5301  -4678269.6933   3725900.1003   1   9   0.0047   0.0074   0.0069   0.0038  -0.0056  -0.0028   0.00   15.2
2173 204738.000  -2197189.5315  -4678269.6890   3725900.0966   1   9   0.0048   0.0073   0.0069   0.0036  -0.0057  -0.0026   0.00   15.2
2173 204739.000  -2197189.5301  -4678269.6900   3725900.0985   1   9   0.0044   0.0073   0.0068   0.0040  -0.0056  -0.0030   0.00   15.2
2173 204740.000  -2197189.5290  -4678269.6921   3725900.0988   1   9   0.0048   0.0077   0.0068   0.0033  -0.0055  -0.0026   0.00   15.2
2173 204741.000  -2197189.5305  -4678269.6915   3725900.0987   1   9   0.0048   0.0074   0.0068   0.0040  -0.0055  -0.0027   0.00   15.2
2173 204742.000  -2197189.5302  -4678269.6935   3725900.0992   1   9   0.0044   0.0075   0.0070   0.0040  -0.0054  -0.0027   0.00   15.2
2173 204743.000  -2197189.5309  -4678269.6909   3725900.0979   1   9   0.0049   0.0075   0.0070   0.0040  -0.0055  -0.0027   0.00   15.3
2173 204744.000  -2197189.5310  -4678269.6905   3725900.0986   1   9   0.0046   0.0074   0.0069   0.0037  -0.0056  -0.0026   0.00   15.3
2173 204745.000  -2197189.5302  -4678269.6903   3725900.0979   1   9   0.0045   0.0075   0.0069   0.0039  -0.0055  -0.0026   0.00   15.3
2173 204746.000  -2197189.5289  -4678269.6897   3725900.1008   1   9   0.0046   0.0076   0.0069   0.0037  -0.0054  -0.0024   0.00   15.3
2173 204747.000  -2197189.5307  -4678269.6925   3725900.1010   1   9   0.0048   0.0073   0.0070   0.0041  -0.0056  -0.0029   0.00   15.4
2173 204748.000  -2197189.5315  -4678269.6930   3725900.0986   1   9   0.0043   0.0075   0.0069   0.0040  -0.0055  -0.0025   0.00   15.4
2173 204749.000  -2197189.5302  -4678269.6897   3725900.0988   1   9   0.0043   0.0073   0.0070   0.0042  -0.0055  -0.0029   0.00   15.4
2173 204750.000  -2197189.5305  -4678269.6884   3725900.0999   1   9   0.0048   0.0074   0.0068   0.0039  -0.0056  -0.0031   0.00   15.3
2173 204751.000  -2197189.5312  -4678269.6912   3725900.1008   1   9   0.0046   0.0074   0.0069   0.0040  -0.0055  -0.0029   0.00   15.3
2173 204752.000  -2197189.5284  -4678269.6884   3725900.0994   1   9   0.0046   0.0073   0.0070   0.0046  -0.0055  -0.0028   0.00   15.3
2173 204753.000  -2197189.5285  -4678269.6870   3725900.0973   1   9   0.0047   0.0074   0.0069   0.0040  -0.0055  -0.0028   0.00   15.3
2173 204754.000  -2197189.5273  -4678269.6845   3725900.0999   1   9   0.0044   0.0073   0.0069   0.0042  -0.0055  -0.0027   0.00   15.2
2173 204755.000  -2197189.5287  -4678269.6894   3725900.0987   1   9   0.0048   0.0072   0.0071   0.0041  -0.0055  -0.0030   0.00   15.2
2173 204756.000  -2197189.5286  -4678269.6893   3725900.1005   1   9   0.0047   0.0077   0.0069   0.0035  -0.0055  -0.0026   0.00   15.2
2173 204757.000  -2197189.5303  -4678269.6889   3725900.0992   1   9   0.0046   0.0072   0.0069   0.0042  -0.0055  -0.0028   0.00   15.2
2173 204758.000  -2197189.5284  -4678269.6876   3725900.0984   1   9   0.0045   0.0072   0.0069   0.0041  -0.0055  -0.0028   0.00   15.1
2173 204759.000  -2197189.5288  -4678269.6896   3725900.0987   1   9   0.0044   0.0071   0.0070   0.0043  -0.0055  -0.0031   0.00   15.1
2173 204760.000  -2197189.5310  -4678269.6911   3725900.0988   1   9   0.0048   0.0071   0.0068   0.0043  -0.0056  -0.0027   0.00   15.1
2173 204761.000  -2197189.5295  -4678269.6893   3725900.0989   1   9   0.0045   0.0076   0.0070   0.0038  -0.0053  -0.0027   0.00   15.0
2173 204762.000  -2197189.5304  -4678269.6887   3725900.0964   1   9   0.0050   0.0073   0.0068   0.0042  -0.0055  -0.0026   0.00   15.0
2173 204763.000  -2197189.5314  -4678269.6905   3725900.0986   1   9   0.0047   0.0075   0.0068   0.0038  -0.0054  -0.0029   0.00   15.0
2173 204764.000  -2197189.5329  -4678269.6945   3725900.1005   1   9   0.0043   0.0075   0.0068   0.0039  -0.0054  -0.0029   0.00   15.0
2173 204765.000  -2197189.5308  -4678269.6926   3725900.1028   1   9   0.0046   0.0075   0.0068   0.0036  -0.0055  -0.0020   0.00   14.9
2173 204766.000  -2197189.5312  -4678269.6904   3725900.0991   1   9   0.0044   0.0076   0.0070   0.0037  -0.0055  -0.0025   0.00   14.9
2173 204767.000  -2197189.5299  -4678269.6923   3725900.1004   1   9   0.0048   0.0073   0.0070   0.0042  -0.0055  -0.0031   0.00   14.9
2173 204768.000  -2197189.5283  -4678269.6847   3725900.0973   1   9   0.0044   0.0073   0.0070   0.0041  -0.0053  -0.0027   0.00   14.9
2173 204769.000  -2197189.5295  -4678269.6875   3725900.0986   1   9   0.0043   0.0076   0.0070   0.0037  -0.0054  -0.0025   0.00   14.9
2173 204770.000  -2197189.5306  -4678269.6896   3725900.0987   1   9   0.0045   0.0073   0.0068   0.0042  -0.0054  -0.0031   0.00   14.8
2173 204771.000  -2197189.5320  -4678269.6920   3725900.0978   1   9   0.0049   0.0074   0.0068   0.0042  -0.0056  -0.0025   0.00   14.8
2173 204772.000  -2197189.5309  -4678269.6897   3725900.0969   1   9   0.0048   0.0079   0.0069   0.0030  -0.0055  -0.0025   0.00   14.8
2173 204773.000  -2197189.5297  -4678269.6879   3725900.1007   1   9   0.0047   0.0075   0.0068   0.0038  -0.0055  -0.0028   0.00   14.8
2173 204774.000  -2197189.5310  -4678269.6926   3725900.0986   1   9   0.0046   0.0073   0.0071   0.0042  -0.0055  -0.0031   0.00   14.8
2173 204775.000  -2197189.5313  -4678269.6937   3725900.1022   1   9   0.0045   0.0074   0.0071   0.0039  -0.0054  -0.0029   0.00   14.8
2173 204776.000  -2197189.5326  -4678269.6922   3725900.0999   1   9   0.0045   0.0075   0.0071   0.0037  -0.0055  -0.0028   0.00   14.8
2173 204777.000  -2197189.5307  -4678269.6908   3725900.1006   1   9   0.0048   0.0077   0.0069   0.0035  -0.0054  -0.0030   0.00   14.7
2173 204778.000  -2197189.5340  -4678269.6898   3725900.0988   1   9   0.0048   0.0075   0.0068   0.0036  -0.0055  -0.0029   0.00   14.7
2173 204779.000  -2197189.5313  -4678269.6917   3725900.0994   1   9   0.0048   0.0078   0.0068   0.0033  -0.0055  -0.0027   0.00   14.7
2173 204780.000  -2197189.5308  -4678269.6891   3725900.0982   1   9   0.0044   0.0075   0.0070   0.0040  -0.0055  -0.0031   0.00   14.7
2173 204781.000  -2197189.5297  -4678269.6900   3725900.0989   1   9   0.0049   0.0076   0.0069   0.0036  -0.0056  -0.0026   0.00   14.7
2173 204782.000  -2197189.5319  -4678269.6893   3725900.0990   1   9   0.0046   0.0073   0.0069   0.0040  -0.0057  -0.0029   0.00   14.7
2173 204783.000  -2197189.5324  -4678269.6892   3725900.1006   1   9   0.0046   0.0075   0.0068   0.0038  -0.0054  -0.0033   0.00   14.7
2173 204784.000  -2197189.5308  -4678269.6882   3725900.0991   1   9   0.0049   0.0077   0.0069   0.0034  -0.0055  -0.0027   0.00   14.6
2173 204785.000  -2197189.5317  -4678269.6905   3725900.1002   1   9   0.0049   0.0077   0.0071   0.0033  -0.0054  -0.0024   0.00   14.6
2173 204786.000  -2197189.5297  -4678269.6888   3725900.1007   1   9   0.0048   0.0075   0.0069   0.0039  -0.0055  -0.0028   0.00   14.6
2173 204787.000  -2197189.5305  -4678269.6891   3725900.0996   1   9   0.0045   0.0071   0.0070   0.0046  -0.0055  -0.0029   0.00   14.6
2173 204788.000  -2197189.5300  -4678269.6872   3725900.0972   1   9   0.0048   0.0076   0.0070   0.0038  -0.0055  -0.0026   0.00   14.6
2173 204789.000  -2197189.5311  -4678269.6905   3725900.0990   1   9   0.0045   0.0076   0.0070   0.0037  -0.0055  -0.0026   0.00   14.6
2173 204790.000  -2197189.5302  -4678269.6852   3725900.0980   1   9   0.0046   0.0077   0.0069   0.0035  -0.0054  -0.0027   0.00   14.6
2173 204791.000  -2197189.5325  -4678269.6904   3725900.1005   1   9   0.0051   0.0075   0.0069   0.0038  -0.0054  -0.0028   0.00   14.6
2173 204792.000  -2197189.5316  -4678269.6886   3725900.0974   1   9   0.0043   0.0072   0.0068   0.0042  -0.0055  -0.0026   0.00   14.6
2173 204793.000  -2197189.5311  -4678269.6895   3725900.0982   1   9   0.0049   0.0077   0.0071   0.0033  -0.0056  -0.0020   0.00   14.6
2173 204794.000  -2197189.5298  -4678269.6866   3725900.0985   1   9   0.0043   0.0076   0.0071   0.0037  -0.0053  -0.0027   0.00   14.7
2173 204795.000  -2197189.5288  -4678269.6886   3725900.0990   1   9   0.0046   0.0074   0.0068   0.0039  -0.0055  -0.0032   0.00   14.6
2173 204796.000  -2197189.5314  -4678269.6892   3725900.0985   1   9   0.0044   0.0073   0.0070   0.0042  -0.0054  -0.0028   0.00   14.6
2173 204797.000  -2197189.5303  -4678269.6906   3725900.1008   1   9   0.0046   0.0072   0.0070   0.0044  -0.0056  -0.0032   0.00   14.6
2173 204798.000  -2197189.5307  -4678269.6881   3725900.1006   1   9   0.0046   0.0073   0.0070   0.0041  -0.0056  -0.0026   0.00   14.6
2173 204799.000  -2197189.5316  -4678269.6907   3725900.1032   1   9   0.0045   0.0076   0.0068   0.0035  -0.0055  -0.0026   0.00   14.6
2173 204800.000  -2197189.5309  -4678269.6885   3725900.1008   1   9   0.0044   0.0075   0.0069   0.0038  -0.0055  -0.0030   0.00   14.6
2173 204801.000  -2197189.5300  -4678269.6905   3725900.1023   1   9   0.0045   0.0074   0.0068   0.0040  -0.0055  -0.0029   0.00   14.6
2173 204802.000  -2197189.5294  -4678269.6894   3725900.0999   1   9   0.0046   0.0074   0.0069   0.0038  -0.0056  -0.0031   0.00   14.6
2173 204803.000  -2197189.5290  -4678269.6879   3725900.1011   1   9   0.0044   0.0071   0.0070   0.0041  -0.0056  -0.0030   0.00   14.6
2173 204804.000  -2197189.5292  -4678269.6867   3725900.1014   1   9   0.0045   0.0074   0.0068   0.0038  -0.0055  -0.0029   0.00   14.6
2173 204805.000  -2197189.5274  -4678269.6853   3725900.0980   1   9   0.0050   0.0074   0.0068   0.0040  -0.0056  -0.0032   0.00   14.5
2173 204806.000  -2197189.5294  -4678269.6890   3725900.1012   1   9   0.0049   0.0074   0.0068   0.0036  -0.0056  -0.0028   0.00   14.5
2173 204807.000  -2197189.5302  -4678269.6879   3725900.0988   1   9   0.0041   0.0072   0.0069   0.0043  -0.0055  -0.0028   0.00   14.5
2173 204808.000  -2197189.5309  -4678269.6903   3725900.1004   1   9   0.0047   0.0075   0.0070   0.0038  -0.0055  -0.0024   0.00   14.5
2173 204809.000  -2197189.5294  -4678269.6894   3725900.1023   1   9   0.0048   0.0074   0.0069   0.0039  -0.0055  -0.0029   0.00   14.5
2173 204810.000  -2197189.5260  -4678269.6834   3725900.0966   1   9   0.0044   0.0074   0.0070   0.0040  -0.0055  -0.0026   0.00   14.5
2173 204811.000  -2197189.5297  -4678269.6909   3725900.1024   1   9   0.0048   0.0071   0.0070   0.0044  -0.0055  -0.0030   0.00   14.5
2173 204812.000  -2197189.5284  -4678269.6857   3725900.0990   1   9   0.0047   0.0075   0.0070   0.0039  -0.0055  -0.0026   0.00   14.5
2173 204813.000  -2197189.5282  -4678269.6836   3725900.0982   1   9   0.0046   0.0073   0.0069   0.0040  -0.0055  -0.0026   0.00   14.4
2173 204814.000  -2197189.5300  -4678269.6874   3725900.1001   1   9   0.0048   0.0077   0.0069   0.0035  -0.0054  -0.0028   0.00   14.4
2173 204815.000  -2197189.5276  -4678269.6878   3725900.0994   1   9   0.0045   0.0074   0.0070   0.0039  -0.0054  -0.0027   0.00   14.4
2173 204816.000  -2197189.5284  -4678269.6919   3725900.1014   1   9   0.0046   0.0075   0.0072   0.0036  -0.0054  -0.0028   0.00   14.4
2173 204817.000  -2197189.5297  -4678269.6901   3725900.1000   1   9   0.0045   0.0076   0.0069   0.0039  -0.0054  -0.0026   0.00   14.4
2173 204818.000  -2197189.5301  -4678269.6896   3725900.1016   1   9   0.0047   0.0072   0.0071   0.0042  -0.0055  -0.0027   0.00   14.4
2173 204819.000  -2197189.5260  -4678269.6853   3725900.0984   1   9   0.0044   0.0075   0.0069   0.0037  -0.0054  -0.0030   0.00   14.3
2173 204820.000  -2197189.5298  -4678269.6876   3725900.1008   1   9   0.0047   0.0075   0.0069   0.0038  -0.0054  -0.0025   0.00   14.3
2173 204821.000  -2197189.5286  -4678269.6883   3725900.1009   1   9   0.0045   0.0074   0.0070   0.0040  -0.0055  -0.0026   0.00   14.3
2173 204822.000  -2197189.5288  -4678269.6896   3725900.1008   1   9   0.0047   0.0074   0.0068   0.0039  -0.0054  -0.0032   0.00   14.3
2173 204823.000  -2197189.5280  -4678269.6886   3725900.0989   1   9   0.0048   0.0076   0.0069   0.0036  -0.0053  -0.0029   0.00   14.3
2173 204824.000  -2197189.5294  -4678269.6878   3725900.1004   1   9   0.0048   0.0075   0.0070   0.0039  -0.0055  -0.0026   0.00   14.3
2173 204825.000  -2197189.5298  -4678269.6884   3725900.1023   1   9   0.0048   0.0075   0.0070   0.0038  -0.0055  -0.0025   0.00   14.3
2173 204826.000  -2197189.5316  -4678269.6898   3725900.1026   1   9   0.0048   0.0078   0.0070   0.0031  -0.0055  -0.0022   0.00   14.3
2173 204827.000  -2197189.5287  -4678269.6903   3725900.1021   1   9   0.0043   0.0074   0.0069   0.0039  -0.0055  -0.0028   0.00   14.3
2173 204828.000  -2197189.5317  -4678269.6918   3725900.1036   1   9   0.0046   0.0076   0.0069   0.0039  -0.0054  -0.0028   0.00   14.3
2173 204829.000  -2197189.5305  -4678269.6890   3725900.1035   1   9   0.0045   0.0073   0.0069   0.0040  -0.0056  -0.0025   0.00   14.3
2173 204830.000  -2197189.5291  -4678269.6869   3725900.1015   1   9   0.0045   0.0073   0.0070   0.0041  -0.0057  -0.0029   0.00   14.3
2173 204831.000  -2197189.5272  -4678269.6844   3725900.0963   1   9   0.0048   0.0074   0.0070   0.0040  -0.0056  -0.0030   0.00   14.2
2173 204832.000  -2197189.5293  -4678269.6852   3725900.0957   1   9   0.0044   0.0073   0.0070   0.0041  -0.0054  -0.0027   0.00   14.2
2173 204833.000  -2197189.5313  -4678269.6919   3725900.1022   1   9   0.0046   0.0076   0.0070   0.0036  -0.0054  -0.0022   0.00   14.2
2173 204834.000  -2197189.5277  -4678269.6876   3725900.0975   1   9   0.0046   0.0074   0.0068   0.0039  -0.0055  -0.0031   0.00   14.2
2173 204835.000  -2197189.5305  -4678269.6897   3725900.1008   1   9   0.0049   0.0076   0.0072   0.0038  -0.0053  -0.0024   0.00   14.2
2173 204836.000  -2197189.5315  -4678269.6900   3725900.1021   1   9   0.0048   0.0074   0.0069   0.0041  -0.0055  -0.0032   0.00   14.2
2173 204837.000  -2197189.5283  -4678269.6848   3725900.0988   1   9   0.0045   0.0073   0.0070   0.0042  -0.0055  -0.0031   0.00   14.2
2173 204838.000  -2197189.5302  -4678269.6887   3725900.0991   1   9   0.0045   0.0072   0.0068   0.0044  -0.0054  -0.0029   0.00   14.2
2173 204839.000  -2197189.5331  -4678269.6933   3725900.1027   1   9   0.0047   0.0073   0.0071   0.0040  -0.0056  -0.0028   0.00   14.2
2173 204840.000  -2197189.5309  -4678269.6864   3725900.0991   1   9   0.0046   0.0073   0.0068   0.0043  -0.0055  -0.0027   0.00   14.2
2173 204841.000  -2197189.5325  -4678269.6896   3725900.1005   1   9   0.0044   0.0071   0.0070   0.0046  -0.0055  -0.0033   0.00   14.1
2173 204842.000  -2197189.5322  -4678269.6903   3725900.1018   1   9   0.0046   0.0076   0.0068   0.0035  -0.0057  -0.0031   0.00   14.2
2173 204843.000  -2197189.5305  -4678269.6874   3725900.0980   1   9   0.0045   0.0073   0.0069   0.0042  -0.0055  -0.0028   0.00   14.2
2173 204844.000  -2197189.5305  -4678269.6860   3725900.0985   1   9   0.0046   0.0074   0.0069   0.0040  -0.0054  -0.0028   0.00   14.2
2173 204845.000  -2197189.5315  -4678269.6882   3725900.1018   1   9   0.0048   0.0076   0.0069   0.0038  -0.0054  -0.0028   0.00   14.2
2173 204846.000  -2197189.5303  -4678269.6861   3725900.0966   1   9   0.0046   0.0072   0.0070   0.0043  -0.0055  -0.0028   0.00   14.2
2173 204847.000  -2197189.5323  -4678269.6896   3725900.1030   1   9   0.0045   0.0077   0.0069   0.0037  -0.0054  -0.0023   0.00   14.1
2173 204848.000  -2197189.5322  -4678269.6903   3725900.1000   1   9   0.0044   0.0074   0.0069   0.0038  -0.0054  -0.0028   0.00   14.2
2173 204849.000  -2197189.5311  -4678269.6852   3725900.0979   1   9   0.0047   0.0072   0.0070   0.0044  -0.0054  -0.0029   0.00   14.1
2173 204850.000  -2197189.5333  -4678269.6884   3725900.1000   1   9   0.0047   0.0074   0.0072   0.0039  -0.0056  -0.0025   0.00   14.1
2173 204851.000  -2197189.5309  -4678269.6882   3725900.1020   1   9   0.0048   0.0076   0.0068   0.0038  -0.0055  -0.0030   0.00   14.1
2173 204852.000  -2197189.5321  -4678269.6878   3725900.1000   1   9   0.0044   0.0075   0.0069   0.0039  -0.0054  -0.0028   0.00   14.1
2173 204853.000  -2197189.5329  -4678269.6881   3725900.1009   1   9   0.0047   0.0073   0.0070   0.0041  -0.0057  -0.0029   0.00   14.1
2173 204854.000  -2197189.5315  -4678269.6875   3725900.1004   1   9   0.0050   0.0075   0.0070   0.0038  -0.0055  -0.0027   0.00   14.1
2173 204855.000  -2197189.5327  -4678269.6870   3725900.0989   1   9   0.0049   0.0075   0.0068   0.0038  -0.0056  -0.0028   0.00   14.1
2173 204856.000  -2197189.5341  -4678269.6884   3725900.1005   1   9   0.0047   0.0074   0.0069   0.0039  -0.0054  -0.0021   0.00   14.1
2173 204857.000  -2197189.5289  -4678269.6839   3725900.0984   1   9   0.0048   0.0076   0.0070   0.0036  -0.0055  -0.0025   0.00   14.2
2173 204858.000  -2197189.5311  -4678269.6844   3725900.0982   1   9   0.0047   0.0073   0.0070   0.0041  -0.0055  -0.0029   0.00   14.2
2173 204859.000  -2197189.5316  -4678269.6873   3725900.0985   1   9   0.0047   0.0075   0.0070   0.0037  -0.0055  -0.0022   0.00   14.1
2173 204860.000  -2197189.5315  -4678269.6859   3725900.0990   1   9   0.0048   0.0075   0.0070   0.0037  -0.0055  -0.0031   0.00   14.2
2173 204861.000  -2197189.5340  -4678269.6875   3725900.1005   1   9   0.0045   0.0073   0.0068   0.0042  -0.0055  -0.0027   0.00   14.2
2173 204862.000  -2197189.5300  -4678269.6864   3725900.0994   1   9   0.0044   0.0075   0.0070   0.0036  -0.0056  -0.0025   0.00   14.2
2173 204863.000  -2197189.5316  -4678269.6867   3725900.0986   1   9   0.0049   0.0072   0.0070   0.0048  -0.0053  -0.0033   0.00   14.2
2173 204864.000  -2197189.5304  -4678269.6862   3725900.0999   1   9   0.0048   0.0075   0.0069   0.0038  -0.0053  -0.0026   0.00   14.2
2173 204865.000  -2197189.5292  -4678269.6845   3725900.0964   1   9   0.0046   0.0073   0.0070   0.0043  -0.0055  -0.0029   0.00   14.2
2173 204866.000  -2197189.5277  -4678269.6805   3725900.0980   1   9   0.0047   0.0076   0.0067   0.0036  -0.0054  -0.0029   0.00   14.2
2173 204867.000  -2197189.5311  -4678269.6824   3725900.1000   1   9   0.0049   0.0075   0.0069   0.0039  -0.0053  -0.0022   0.00   14.2
2173 204868.000  -2197189.5309  -4678269.6851   3725900.0988   1   9   0.0049   0.0075   0.0070   0.0038  -0.0054  -0.0025   0.00   14.2
2173 204869.000  -2197189.5305  -4678269.6855   3725900.1004   1   9   0.0048   0.0076   0.0069   0.0037  -0.0054  -0.0028   0.00   14.2
2173 204870.000  -2197189.5303  -4678269.6866   3725900.0994   1   9   0.0046   0.0074   0.0071   0.0040  -0.0055  -0.0027   0.00   14.2
2173 204871.000  -2197189.5313  -4678269.6855   3725900.0976   1   9   0.0047   0.0075   0.0070   0.0037  -0.0055  -0.0026   0.00   14.2
2173 204872.000  -2197189.5289  -4678269.6831   3725900.0987   1   9   0.0046   0.0074   0.0069   0.0039  -0.0055  -0.0031   0.00   14.1
2173 204873.000  -2197189.5295  -4678269.6836   3725900.0973   1   9   0.0046   0.0072   0.0070   0.0043  -0.0056  -0.0027   0.00   14.1
2173 204874.000  -2197189.5288  -4678269.6832   3725900.0994   1   9   0.0046   0.0075   0.0070   0.0034  -0.0056  -0.0030   0.00   14.1
2173 204875.000  -2197189.5286  -4678269.6837   3725900.0995   1   9   0.0046   0.0077   0.0070   0.0036  -0.0055  -0.0023   0.00   14.1
2173 204876.000  -2197189.5274  -4678269.6828   3725900.0970   1   9   0.0046   0.0075   0.0071   0.0036  -0.0056  -0.0028   0.00   14.1
2173 204877.000  -2197189.5302  -4678269.6842   3725900.0973   1   9   0.0045   0.0074   0.0069   0.0040  -0.0055  -0.0028   0.00   14.1
2173 204878.000  -2197189.5283  -4678269.6820   3725900.0969   1   9   0.0047   0.0075   0.0069   0.0039  -0.0055  -0.0027   0.00   14.1
2173 204879.000  -2197189.5293  -4678269.6831   3725900.0977   1   9   0.0048   0.0072   0.0069   0.0043  -0.0054  -0.0029   0.00   14.1
2173 204880.000  -2197189.5298  -4678269.6833   3725900.0978   1   9   0.0047   0.0075   0.0070   0.0039  -0.0055  -0.0031   0.00   14.1
2173 204881.000  -2197189.5290  -4678269.6856   3725900.0982   1   9   0.0045   0.0072   0.0070   0.0042  -0.0055  -0.0030   0.00   14.1
2173 204882.000  -2197189.5293  -4678269.6847   3725900.0975   1   9   0.0044   0.0073   0.0069   0.0041  -0.0056  -0.0029   0.00   14.1
2173 204883.000  -2197189.5304  -4678269.6856   3725900.0999   1   9   0.0046   0.0075   0.0070   0.0037  -0.0055  -0.0026   0.00   14.1
2173 204884.000  -2197189.5283  -4678269.6851   3725900.0987   1   9   0.0045   0.0073   0.0070   0.0038  -0.0056  -0.0029   0.00   14.1
2173 204885.000  -2197189.5297  -4678269.6850   3725900.0974   1   9   0.0045   0.0074   0.0068   0.0041  -0.0056  -0.0032   0.00   14.1
2173 204886.000  -2197189.5288  -4678269.6844   3725900.0989   1   9   0.0044   0.0073   0.0070   0.0040  -0.0056  -0.0030   0.00   14.1
2173 204887.000  -2197189.5276  -4678269.6865   3725900.0990   1   9   0.0048   0.0075   0.0071   0.0039  -0.0054  -0.0029   0.00   14.1
2173 204888.000  -2197189.5304  -4678269.6882   3725900.0988   1   9   0.0047   0.0075   0.0068   0.0038  -0.0055  -0.0030   0.00   14.1
2173 204889.000  -2197189.5285  -4678269.6840   3725900.0966   1   9   0.0047   0.0073   0.0070   0.0040  -0.0056  -0.0030   0.00   14.1
2173 204890.000  -2197189.5282  -4678269.6832   3725900.0974   1   9   0.0049   0.0074   0.0069   0.0038  -0.0056  -0.0028   0.00   14.1
2173 204891.000  -2197189.5274  -4678269.6819   3725900.0984   1   9   0.0044   0.0077   0.0068   0.0035  -0.0056  -0.0026   0.00   14.1
2173 204892.000  -2197189.5275  -4678269.6825   3725900.0969   1   9   0.0047   0.0072   0.0071   0.0042  -0.0055  -0.0027   0.00   14.1
2173 204893.000  -2197189.5273  -4678269.6861   3725900.0979   1   9   0.0045   0.0072   0.0071   0.0042  -0.0056  -0.0031   0.00   14.1
2173 204894.000  -2197189.5295  -4678269.6841   3725900.1006   1   9   0.0049   0.0076   0.0071   0.0037  -0.0054  -0.0026   0.00   14.1
2173 204895.000  -2197189.5308  -4678269.6867   3725900.1000   1   9   0.0044   0.0074   0.0069   0.0039  -0.0055  -0.0028   0.00   14.1
2173 204896.000  -2197189.5277  -4678269.6829   3725900.0972   1   9   0.0045   0.0073   0.0070   0.0041  -0.0056  -0.0028   0.00   14.1
2173 204897.000  -2197189.5288  -4678269.6839   3725900.0962   1   9   0.0047   0.0074   0.0070   0.0041  -0.0055  -0.0031   0.00   14.1
2173 204898.000  -2197189.5287  -4678269.6894   3725900.1005   1   9   0.0046   0.0074   0.0071   0.0040  -0.0056  -0.0027   0.00   14.1
2173 204899.000  -2197189.5260  -4678269.6786   3725900.0951   1   9   0.0047   0.0075   0.0070   0.0037  -0.0056  -0.0029   0.00   14.1
2173 204900.000  -2197189.5273  -4678269.6809   3725900.0965   1   9   0.0044   0.0073   0.0070   0.0041  -0.0055  -0.0028   0.00   14.1
2173 204901.000  -2197189.5288  -4678269.6856   3725900.0968   1   9   0.0043   0.0073   0.0068   0.0041  -0.0054  -0.0030   0.00   14.1
2173 204902.000  -2197189.5291  -4678269.6822   3725900.0955   1   9   0.0048   0.0073   0.0070   0.0041  -0.0054  -0.0029   0.00   14.1
2173 204903.000  -2197189.5306  -4678269.6840   3725900.0940   1   9   0.0047   0.0074   0.0068   0.0038  -0.0054  -0.0031   0.00   14.1
2173 204904.000  -2197189.5278  -4678269.6833   3725900.0960   1   9   0.0046   0.0075   0.0069   0.0036  -0.0056  -0.0029   0.00   14.1
