     2.11           OBSERVATION DATA    M (MIXED)           RINEX VERSION / TYPE
CONVBIN 2.4.3                           20210901 005110 UTC PGM / RUN BY / DATE 
log: logs/21_08_31_21_19_45_mego_SW.rtcm                    COMMENT             
format: RTCM 3, station ID: 4013                            COMMENT             
4013                                                        MARKER NAME         
                                                            MARKER NUMBER       
                                                            OBSERVER / AGENCY   
                    SWFT                                    REC # / TYPE / VERS 
                    NULL                                    ANT # / TYPE        
  1568794.5498 -4418135.9711  4309843.3785                  APPROX POSITION XYZ 
        0.0000        0.0000        0.0000                  ANTENNA: DELTA H/E/N
     1     1                                                WAVELENGTH FACT L1/2
     5    C1    L1    P2    L2    C2                        # / TYPES OF OBSERV 
  2021     8    31    21    19   50.0000000     GPS         TIME OF FIRST OBS   
  2021     8    31    21    53   59.0000000     GPS         TIME OF LAST OBS    
                                                            END OF HEADER       
 21  8 31 21 19 50.0000000  0 13G10G15G18G23G24G32E 3E 5E 9E15E24E31
                                E36
  21171540.552   111257151.582    21171543.465    86693872.782                  
  23029831.436   121022573.493    23029832.705    94303301.875                  
  22291167.215   117140862.048    22291168.984    91278592.667                  
  20173678.558   106013399.517    20173679.363    82607846.386                  
  20426691.469   107342945.825    20426694.507    83643843.298                  
  22979391.544   120757472.503    22979394.993    94096720.444                  
  25389509.342   133422744.646                                                  
  23497432.300   123479829.095                                                  
  24270035.585   127539872.866                                                  
  25285546.723   132876401.192                                                  
  26491790.151   139215313.899                                                  
  26729667.267   140465305.394                                                  
  27718017.025   145659060.386                                                  
 21  8 31 21 19 51.0000000  0 13G10G15G18G23G24G32E 3E 5E 9E15E24E31
                                E36
  21171155.439   111255127.725    21171158.316    86692295.753                  
  23030408.605   121025606.404    23030409.838    94305665.180                  
  22291787.073   117144119.485    22291788.842    91281130.934                  
  20173718.192   106013607.833    20173718.996    82608008.710                  
  20426875.323   107343912.095    20426878.361    83644596.233                  
  22978914.602   120754966.176    22978918.069    94094767.465                  
  25389184.037   133421035.262                                                  
  23497487.211   123480117.698                                                  
  24270414.283   127541862.976                                                  
  25285422.838   132875750.188                                                  
  26491371.927   139213116.015                                                  
  26729664.336   140465290.050                                                  
  27718636.187   145662314.070                                                  
 21  8 31 21 19 52.0000000  0 17G10G15G18G23G24G32C19C21C22C34E 3E 5
                                E 9E15E24E31E36
  21170770.362   111253104.188    21170773.256    86690718.969                  
  23030985.757   121028639.403    23030987.008    94308028.558                  
  22292407.021   117147377.254    22292408.772    91283669.453                  
  20173757.933   106013816.634    20173758.719    82608171.415                  
  20427059.339   107344879.028    20427062.358    83645349.692                  
  22978437.696   120752460.048    22978441.162    94092814.636                  
                 122739385.375                   122739385.375    23570809.977  
                 126493719.026                   126493719.026    24291787.779  
                 114429424.118                   114429424.118    21974962.291  
                 132922880.000                   132922880.000    25526445.008  
  25388858.785   133419325.984                                                  
  23497542.158   123480406.457                                                  
  24270792.999   127543853.137                                                  
  25285299.059   132875099.673                                                  
  26490953.720   139210918.392                                                  
  26729661.513   140465275.190                                                  
  27719255.349   145665567.731                                                  
 21  8 31 21 19 53.0000000  0 17G10G15G18G23G24G32C19C21C22C34E 3E 5
                                E 9E15E24E31E36
  21170385.356   111251080.957    21170388.268    86689142.427                  
  23031562.944   121031672.516    23031564.177    94310392.023                  
  22293027.023   117150635.352    22293028.774    91286208.226                  
  20173797.763   106014025.930    20173798.567    82608334.500                  
  20427243.461   107345846.618    20427246.499    83646103.656                  
  22977960.843   120749954.097    22977964.274    94090861.949                  
                 122741490.137                   122741490.137    23571214.174  
                 126491412.032                   126491412.032    24291344.735  
                 114429253.606                   114429253.606    21974929.555  
                 132923420.779                   132923420.779    25526548.845  
  25388533.533   133417616.841                                                  
  23497597.159   123480695.394                                                  
  24271171.715   127545843.339                                                  
  25285175.352   132874449.640                                                  
  26490535.585   139208721.065                                                  
  26729658.779   140465260.817                                                  
  27719874.475   145668821.368                                                  
 21  8 31 21 19 54.0000000  0 17G10G15G18G23G24G32C19C21C22C34E 3E 5
                                E 9E15E24E31E36
  21170000.403   111249058.042    21170003.298    86687566.134                  
  23032140.132   121034705.717    23032141.382    94312755.555                  
  22293647.078   117153893.775    22293648.847    91288747.257                  
  20173837.682   106014235.714    20173838.486    82608497.968                  
  20427427.726   107346814.875    20427430.746    83646858.144                  
  22977484.008   120747448.327    22977487.457    94088909.405                  
                 122743595.070                   122743595.070    23571618.408  
                 126489105.125                   126489105.125    24290901.744  
                 114429083.359                   114429083.359    21974896.855  
                 132923962.075                   132923962.075    25526652.807  
  25388208.317   133415907.812                                                  
  23497652.178   123480984.522                                                  
  24271550.467   127547833.611                                                  
  25285051.752   132873800.114                                                  
  26490117.503   139206524.032                                                  
  26729656.134   140465246.928                                                  
  27720493.636   145672075.011                                                  
 21  8 31 21 19 55.0000000  0 17G10G15G18G23G24G32C19C21C22C34E 3E 5
                                E 9E15E24E31E36
  21169615.522   111247035.447    21169618.417    86685990.079                  
  23032717.355   121037739.030    23032718.623    94315119.173                  
  22294267.204   117157152.521    22294268.955    91291286.540                  
  20173877.709   106014445.991    20173878.495    82608661.820                  
  20427612.081   107347783.788    20427615.119    83647613.140                  
  22977007.191   120744942.757    22977010.658    94086957.011                  
                 122745700.183                   122745700.183    23572022.676  
                 126486798.309                   126486798.309    24290458.735  
                 114428913.382                   114428913.382    21974864.226  
                 132924503.883                   132924503.883    25526756.841  
  25387883.136   133414198.910                                                  
  23497707.215   123481273.824                                                  
  24271929.201   127549823.921                                                  
  25284928.259   132873151.085                                                  
  26489699.475   139204327.268                                                  
  26729653.579   140465233.524                                                  
  27721112.780   145675328.622                                                  
 21  8 31 21 19 56.0000000  0 17G10G15G18G23G24G32C19C21C22C34E 3E 5
                                E 9E15E24E31E36
  21169230.695   111245013.157    21169233.572    86684414.269                  
  23033294.596   121040772.449    23033295.864    94317482.876                  
  22294887.384   117160411.599    22294889.136    91293826.079                  
  20173917.807   106014656.749    20173918.593    82608826.052                  
  20427796.597   107348753.368    20427799.634    83648368.661                  
  22976530.446   120742437.366    22976533.894    94085004.763                  
                 122747805.474                   122747805.474    23572426.981  
                 126484491.579                   126484491.579    24290015.744  
                 114428743.676                   114428743.676    21974831.633  
                 132925046.211                   132925046.211    25526860.999  
  25387557.956   133412490.134                                                  
  23497762.305   123481563.287                                                  
  24272307.953   127551814.293                                                  
  25284804.837   132872502.540                                                  
  26489281.501   139202130.807                                                  
  26729651.113   140465220.595                                                  
  27721731.924   145678582.227                                                  
 21  8 31 21 19 57.0000000  0 17G10G15G18G23G24G32C19C21C22C34E 3E 5
                                E 9E15E24E31E36
  21168845.921   111242991.175    21168848.816    86682838.703                  
  23033871.854   121043805.964    23033873.123    94319846.652                  
  22295507.618   117163670.999    22295509.387    91296365.871                  
  20173957.994   106014868.011    20173958.798    82608990.668                  
  20427981.219   107349723.614    20427984.257    83649124.695                  
  22976053.718   120739932.151    22976057.185    94083052.650                  
                 122749910.939                   122749910.939    23572831.303  
                 126482184.934                   126482184.934    24289572.789  
                 114428574.234                   114428574.234    21974799.094  
                 132925589.055                   132925589.055    25526965.247  
  25387232.829   133410781.469                                                  
  23497817.413   123481852.925                                                  
  24272686.723   127553804.714                                                  
  25284681.523   132871854.493                                                  
  26488863.580   139199934.628                                                  
  26729648.754   140465208.161                                                  
  27722351.068   145681835.800                                                  
 21  8 31 21 19 58.0000000  0 17G10G15G18G23G24G32C19C21C22C34E 3E 5
                                E 9E15E24E31E36
  21168461.219   111240969.522    21168464.096    86681263.391                  
  23034449.149   121046839.579    23034450.382    94322210.503                  
  22296127.941   117166930.734    22296129.675    91298905.927                  
  20173998.307   106015079.758    20173999.093    82609155.665                  
  20428165.985   107350694.503    20428169.023    83649881.231                  
  22975577.026   120737427.133    22975580.475    94081100.683                  
                 122752016.581                   122752016.581    23573235.679  
                 126479878.379                   126479878.379    24289129.833  
                 114428405.063                   114428405.063    21974766.608  
                 132926132.415                   132926132.415    25527069.584  
  25386907.702   133409072.942                                                  
  23497872.575   123482142.737                                                  
  24273065.492   127555795.192                                                  
  25284558.298   132871206.925                                                  
  26488445.713   139197738.730                                                  
  26729646.485   140465196.204                                                  
  27722970.176   145685089.378                                                  
 21  8 31 21 19 59.0000000  0 17G10G15G18G23G24G32C19C21C22C34E 3E 5
                                E 9E15E24E31E36
  21168076.553   111238948.174    21168079.465    86679688.313                  
  23035026.443   121049873.309    23035027.694    94324574.448                  
  22296748.300   117170190.789    22296750.051    91301446.227                  
  20174038.673   106015291.995    20174039.477    82609321.047                  
  20428350.858   107351666.064    20428353.896    83650638.289                  
  22975100.388   120734922.305    22975103.819    94079148.871                  
                 122754122.401                   122754122.401    23573640.073  
                 126477571.915                   126477571.915    24288686.896  
                 114428236.156                   114428236.156    21974734.158  
                 132926676.288                   132926676.288    25527174.046  
  25386582.593   133407364.524                                                  
  23497927.754   123482432.723                                                  
  24273444.280   127557785.719                                                  
  25284435.163   132870559.870                                                  
  26488027.900   139195543.132                                                  
  26729644.305   140465184.730                                                  
  27723589.319   145688342.927                                                  
 21  8 31 21 20  0.0000000  0 17G10G15G18G23G24G32C19C21C22C34E 3E 5
                                E 9E15E24E31E36
  21167691.976   111236927.149    21167694.888    86678113.488                  
  23035603.756   121052907.130    23035605.007    94326938.464                  
  22297368.748   117173451.172    22297370.482    91303986.781                  
  20174079.164   106015504.722    20174079.968    82609486.808                  
  20428535.874   107352638.293    20428538.894    83651395.871                  
  22974623.767   120732417.666    22974627.198    94077197.204                  
                 122756228.398                   122756228.398    23574044.521  
                 126475265.531                   126475265.531    24288243.977  
                 114428067.520                   114428067.520    21974701.779  
                 132927220.675                   132927220.675    25527278.580  
  25386257.520   133405656.232                                                  
  23497982.951   123482722.863                                                  
  24273823.085   127559776.302                                                  
  25284312.117   132869913.308                                                  
  26487610.140   139193347.821                                                  
  26729642.214   140465173.743                                                  
  27724208.445   145691596.465                                                  
 21  8 31 21 20  1.0000000  0 17G10G15G18G23G24G32C19C21C22C34E 3E 5
                                E 9E15E24E31E36
  21167307.434   111234906.426    21167310.347    86676538.899                  
  23036181.104   121055941.056    23036182.337    94329302.563                  
  22297989.215   117176711.881    22297990.984    91306527.593                  
  20174119.745   106015717.942    20174120.549    82609652.949                  
  20428720.997   107353611.186    20428724.035    83652153.974                  
  22974147.183   120729913.202    22974150.613    94075245.676                  
                 122758334.570                   122758334.570    23574448.986  
                 126472959.241                   126472959.241    24287801.075  
                 114427899.151                   114427899.151    21974669.454  
                 132927765.583                   132927765.583    25527383.221  
  25385932.464   133403948.060                                                  
  23498038.220   123483013.192                                                  
  24274201.873   127561766.929                                                  
  25284189.178   132869267.234                                                  
  26487192.434   139191152.792                                                  
  26729640.213   140465163.241                                                  
  27724827.571   145694849.987                                                  
 21  8 31 21 20  2.0000000  0 17G10G15G18G23G24G32C19C21C22C34E 3E 5
                                E 9E15E24E31E36
  21166922.982   111232886.024    21166925.859    86674964.559                  
  23036758.434   121058975.085    23036759.703    94331666.743                  
  22298609.788   117179972.919    22298611.539    91309068.659                  
  20174160.397   106015931.652    20174161.201    82609819.476                  
  20428906.281   107354584.751    20428909.301    83652912.589                  
  22973670.616   120727408.929    22973674.082    94073294.297                  
                 122760440.922                   122760440.922    23574853.487  
                 126470653.035                   126470653.035    24287358.191  
                 114427731.050                   114427731.050    21974637.165  
                 132928311.005                   132928311.005    25527487.952  
  25385607.427   133402240.014                                                  
  23498093.507   123483303.699                                                  
  24274580.696   127563757.624                                                  
  25284066.346   132868621.661                                                  
  26486774.799   139188958.051                                                  
  26729638.301   140465153.223                                                  
  27725446.697   145698103.495                                                  
 21  8 31 21 20  3.0000000  0 17G10G15G18G23G24G32C19C21C22C34E 3E 5
                                E 9E15E24E31E36
  21166538.566   111230865.938    21166541.461    86673390.466                  
  23037335.818   121062009.202    23037337.087    94334030.988                  
  22299230.397   117183234.286    22299232.166    91311609.979                  
  20174201.174   106016145.852    20174201.960    82609986.388                  
  20429091.654   107355558.964    20429094.692    83653671.719                  
  22973194.120   120724904.841    22973197.551    94071343.062                  
                 122762547.445                   122762547.445    23575258.024  
                 126468346.922                   126468346.922    24286915.343  
                 114427563.219                   114427563.219    21974604.947  
                 132928856.942                   132928856.942    25527592.807  
  25385282.425   133400532.086                                                  
  23498148.794   123483594.359                                                  
  24274959.537   127565748.362                                                  
  25283943.586   132867976.570                                                  
  26486357.218   139186763.603                                                  
  26729636.496   140465143.683                                                  
  27726065.823   145701356.989                                                  
 21  8 31 21 20  4.0000000  0 17G10G15G18G23G24G32C19C21C22C34E 3E 5
                                E 9E15E24E31E36
  21166154.221   111228846.168    21166157.116    86671816.622                  
  23037913.220   121065043.433    23037914.489    94336395.320                  
  22299851.077   117186495.972    22299852.846    91314151.555                  
  20174242.022   106016360.548    20174242.826    82610153.683                  
  20429277.188   107356533.847    20429280.208    83654431.367                  
  22972717.643   120722400.946    22972721.074    94069391.973                  
                 122764654.149                   122764654.149    23575662.596  
                 126466040.890                   126466040.890    24286472.477  
                 114427395.653                   114427395.653    21974572.765  
                 132929403.394                   132929403.394    25527697.734  
  25384957.441   133398824.284                                                  
  23498204.152   123483885.219                                                  
  24275338.361   127567739.157                                                  
  25283820.915   132867331.977                                                  
  26485939.672   139184569.436                                                  
  26729634.763   140465134.633                                                  
  27726684.931   145704610.462                                                  
 21  8 31 21 20  5.0000000  0 17G10G15G18G23G24G32C19C21C22C34E 3E 5
                                E 9E15E24E31E36
  21165769.912   111226826.707    21165772.825    86670243.012                  
  23038490.639   121068077.770    23038491.908    94338759.738                  
  22300471.812   117189757.984    22300473.581    91316693.383                  
  20174282.978   106016575.731    20174283.764    82610321.356                  
  20429462.811   107357509.395    20429465.831    83655191.535                  
  22972241.201   120719897.228    22972244.632    94067441.023                  
                 122766761.030                   122766761.030    23576067.205  
                 126463734.952                   126463734.952    24286029.665  
                 114427228.355                   114427228.355    21974540.636  
                 132929950.363                   132929950.363    25527802.786  
  25384632.475   133397116.596                                                  
  23498259.546   123484176.231                                                  
  24275717.220   127569730.001                                                  
  25283698.334   132866687.874                                                  
  26485522.198   139182375.555                                                  
  26729633.137   140465126.070                                                  
  27727304.039   145707863.911                                                  
 21  8 31 21 20  6.0000000  0 17G10G15G18G23G24G32C19C21C22C34E 3E 5
                                E 9E15E24E31E36
  21165385.692   111224807.563    21165388.587    86668669.657                  
  23039068.059   121071112.210    23039069.328    94341124.239                  
  22301092.617   117193020.328    22301094.386    91319235.464                  
  20174324.023   106016791.410    20174324.827    82610489.422                  
  20429648.578   107358485.610    20429651.616    83655952.219                  
  22971764.777   120717393.700    22971768.244    94065490.227                  
                 122768868.086                   122768868.086    23576471.849  
                 126461429.098                   126461429.098    24285586.835  
                 114427061.329                   114427061.329    21974508.561  
                 132930497.847                   132930497.847    25527907.927  
  25384307.545   133395409.014                                                  
  23498314.940   123484467.446                                                  
  24276096.079   127571720.910                                                  
  25283575.877   132866044.276                                                  
  26485104.760   139180181.964                                                  
  26729631.600   140465117.998                                                  
  27727923.165   145711117.355                                                  
 21  8 31 21 20  7.0000000  0 17G10G15G18G23G24G32C19C21C22C34E 3E 5
                                E 9E15E24E31E36
  21165001.526   111222788.745    21165004.421    86667096.554                  
  23039645.514   121074146.744    23039646.783    94343488.804                  
  22301713.476   117196283.000    22301715.263    91321777.804                  
  20174365.158   106017007.591    20174365.944    82610657.870                  
  20429834.487   107359462.485    20429837.525    83656713.423                  
  22971288.425   120714890.340    22971291.856    94063539.559                  
                 122770975.319                   122770975.319    23576876.493  
                 126459123.337                   126459123.337    24285144.041  
                 114426894.566                   114426894.566    21974476.540  
                 132931045.849                   132931045.849    25528013.158  
  25383982.597   133393701.547                                                  
  23498370.405   123484758.828                                                  
  24276474.938   127573711.871                                                  
  25283453.493   132865401.171                                                  
  26484687.393   139177988.675                                                  
  26729630.153   140465110.406                                                  
  27728542.255   145714370.786                                                  
 21  8 31 21 20  8.0000000  0 17G10G15G18G23G24G32C19C21C22C34E 3E 5
                                E 9E15E24E31E36
  21164617.414   111220770.223    21164620.308    86665523.680                  
  23040223.005   121077181.362    23040224.238    94345853.446                  
  22302334.425   117199545.984    22302336.176    91324320.391                  
  20174406.382   106017224.218    20174407.186    82610826.673                  
  20430020.486   107360439.985    20430023.524    83657475.109                  
  22970812.072   120712387.206    22970815.539    94061589.067                  
                 122773082.729                   122773082.729    23577281.226  
                 126456817.657                   126456817.657    24284701.264  
                 114426728.075                   114426728.075    21974444.554  
                 132931594.362                   132931594.362    25528118.496  
  25383657.738   133391994.308                                                  
  23498425.853   123485050.324                                                  
  24276853.815   127575702.851                                                  
  25283331.197   132864758.554                                                  
  26484270.080   139175795.662                                                  
  26729628.795   140465103.270                                                  
  27729161.381   145717624.203                                                  
 21  8 31 21 20  9.0000000  0 17G10G15G18G23G24G32C19C21C22C34E 3E 5
                                E 9E15E24E31E36
  21164233.355   111218752.033    21164236.267    86663951.060                  
  23040800.479   121080216.098    23040801.747    94348218.171                  
  22302955.391   117202809.305    22302957.160    91326863.234                  
  20174447.695   106017441.376    20174448.499    82610995.887                  
  20430206.645   107361418.186    20430209.665    83658237.348                  
  22970335.774   120709884.239    22970339.240    94059638.699                  
                 122775190.317                   122775190.317    23577685.959  
                 126454512.070                   126454512.070    24284258.505  
                 114426561.847                   114426561.847    21974412.640  
                 132932143.396                   132932143.396    25528223.941  
  25383332.861   133390287.111                                                  
  23498481.372   123485342.043                                                  
  24277232.691   127577693.909                                                  
  25283209.026   132864116.441                                                  
  26483852.821   139173602.936                                                  
  26729627.544   140465096.652                                                  
  27729780.471   145720877.597                                                  
 21  8 31 21 20 10.0000000  0 17G10G15G18G23G24G32C19C21C22C34E 3E 5
                                E 9E15E24E31E36
  21163849.385   111216734.136    21163852.262    86662378.675                  
  23041378.006   121083250.946    23041379.256    94350582.987                  
  22303576.465   117206072.948    22303578.216    91329406.335                  
  20174489.115   106017659.003    20174489.901    82611165.464                  
  20430392.894   107362397.048    20430395.932    83659000.093                  
  22969859.528   120707381.450    22969862.959    94057688.476                  
                 122777298.082                   122777298.082    23578090.728  
                 126452206.565                   126452206.565    24283815.747  
                 114426395.892                   114426395.892    21974380.762  
                 132932692.941                   132932692.941    25528329.475  
  25383008.020   133388580.036                                                  
  23498536.927   123485633.918                                                  
  24277611.604   127579685.015                                                  
  25283086.927   132863474.800                                                  
  26483435.615   139171410.507                                                  
  26729626.382   140465090.499                                                  
  27730399.579   145724130.970                                                  
 21  8 31 21 20 11.0000000  0 17G10G15G18G23G24G32C19C21C22C34E 3E 5
                                E 9E15E24E31E36
  21163465.433   111214716.567    21163468.346    86660806.544                  
  23041955.514   121086285.888    23041956.783    94352947.875                  
  22304197.574   117209336.915    22304199.343    91331949.679                  
  20174530.625   106017877.133    20174531.411    82611335.437                  
  20430579.304   107363376.570    20430582.341    83659763.359                  
  22969383.283   120704878.850    22969386.732    94055738.403                  
                 122779406.025                   122779406.025    23578495.533  
                 126449901.156                   126449901.156    24283373.024  
                 114426230.204                   114426230.204    21974348.937  
                 132933242.999                   132933242.999    25528435.099  
  25382683.197   133386873.088                                                  
  23498592.500   123485925.978                                                  
  24277990.499   127581676.185                                                  
  25282964.918   132862833.676                                                  
  26483018.462   139169218.360                                                  
  26729625.292   140465084.847                                                  
  27731018.652   145727384.337                                                  
 21  8 31 21 20 12.0000000  0 17G10G15G18G23G24G32C19C21C22C34E 3E 5
                                E 9E15E24E31E36
  21163081.553   111212699.307    21163084.466    86659234.657                  
  23042533.077   121089320.935    23042534.346    94355312.849                  
  22304818.737   117212601.210    22304820.506    91334493.290                  
  20174572.224   106018095.749    20174573.028    82611505.790                  
  20430765.821   107364356.743    20430768.858    83660527.128                  
  22968907.092   120702376.452    22968910.540    94053788.480                  
                 122781514.142                   122781514.142    23578900.374  
                 126447595.831                   126447595.831    24282930.301  
                 114426064.781                   114426064.781    21974317.184  
                 132933793.579                   132933793.579    25528540.848  
  25382358.392   133385166.261                                                  
  23498648.108   123486218.199                                                  
  24278369.412   127583667.396                                                  
  25282842.997   132862193.036                                                  
  26482601.364   139167026.488                                                  
  26729624.292   140465079.671                                                  
  27731637.760   145730637.675                                                  
 21  8 31 21 20 13.0000000  0 17G10G15G18G23G24G32C19C21C22C34E 3E 5
                                E 9E15E24E31E36
  21162697.762   111210682.379    21162700.657    86657663.020                  
  23043110.640   121092356.073    23043111.908    94357677.891                  
  22305439.972   117215865.833    22305441.741    91337037.148                  
  20174613.912   106018314.859    20174614.717    82611676.522                  
  20430952.463   107365337.591    20430955.500    83661291.425                  
  22968430.936   120699874.222    22968434.384    94051838.695                  
                 122783622.433                   122783622.433    23579305.268  
                 126445290.593                   126445290.593    24282487.596  
                 114425899.628                   114425899.628    21974285.466  
                 132934344.669                   132934344.669    25528646.668  
  25382033.622   133383459.562                                                  
  23498703.752   123486510.608                                                  
  24278748.342   127585658.665                                                  
  25282721.184   132861552.892                                                  
  26482184.318   139164834.922                                                  
  26729623.416   140465074.976                                                  
  27732256.868   145733891.007                                                  
 21  8 31 21 20 14.0000000  0 17G10G15G18G23G24G32C19C21C22C34E 3E 5
                                E 9E15E24E31E36
  21162314.007   111208665.749    21162316.902    86656091.620                  
  23043688.238   121095391.326    23043689.507    94360043.019                  
  22306061.278   117219130.768    22306063.047    91339581.253                  
  20174655.726   106018534.470    20174656.494    82611847.643                  
  20431139.247   107366319.106    20431142.285    83662056.242                  
  22967954.816   120697372.191    22967958.264    94049889.058                  
                 122785730.902                   122785730.902    23579710.162  
                 126442985.445                   126442985.445    24282044.927  
                 114425734.746                   114425734.746    21974253.803  
                 132934896.276                   132934896.276    25528752.596  
  25381708.888   133381752.984                                                  
  23498759.414   123486803.184                                                  
  24279127.273   127587649.985                                                  
  25282599.460   132860913.244                                                  
  26481767.327   139162643.646                                                  
  26729622.612   140465070.759                                                  
  27732875.940   145737144.324                                                  
 21  8 31 21 20 15.0000000  0 17G10G15G18G23G24G32C19C21C22C34E 3E 5
                                E 9E15E24E31E36
  21161930.324   111206649.449    21161933.218    86654520.479                  
  23044265.836   121098426.669    23044267.105    94362408.222                  
  22306682.637   117222396.043    22306684.406    91342125.621                  
  20174697.593   106018754.562    20174698.379    82612019.149                  
  20431326.140   107367301.274    20431329.177    83662821.566                  
  22967478.713   120694870.345    22967482.180    94047939.567                  
                 122787839.551                   122787839.551    23580115.092  
                 126440680.388                   126440680.388    24281602.257  
                 114425570.128                   114425570.128    21974222.174  
                 132935448.398                   132935448.398    25528858.613  
  25381384.137   133380046.523                                                  
  23498815.148   123487095.925                                                  
  24279506.221   127589641.352                                                  
  25282477.844   132860274.086                                                  
  26481350.407   139160452.657                                                  
  26729621.897   140465067.038                                                  
  27733495.012   145740397.612                                                  
 21  8 31 21 20 16.0000000  0 17G10G15G18G23G24G32C19C21C22C34E 3E 5
                                E 9E15E24E31E36
  21161546.676   111204633.427    21161549.588    86652949.540                  
  23044843.488   121101462.083    23044844.739    94364773.465                  
  22307304.068   117225661.688    22307305.837    91344670.305                  
  20174739.567   106018975.133    20174740.354    82612191.020                  
  20431513.175   107368284.083    20431516.212    83663587.384                  
  22967002.683   120692368.710    22967006.113    94045990.269                  
                 122789948.375                   122789948.375    23580520.076  
                 126438375.415                   126438375.415    24281159.624  
                 114425405.787                   114425405.787    21974190.618  
                 132936001.040                   132936001.040    25528964.755  
  25381059.439   133378340.279                                                  
  23498870.881   123487388.786                                                  
  24279885.187   127591632.824                                                  
  25282356.299   132859635.391                                                  
  26480933.523   139158262.027                                                  
  26729621.272   140465063.699                                                  
  27734114.103   145743650.903                                                  
 21  8 31 21 20 17.0000000  0 17G10G15G18G23G24G32C19C21C22C34E 3E 5
                                E 9E15E24E31E36
  21161163.117   111202617.740    21161166.012    86651378.874                  
  23045421.122   121104497.629    23045422.373    94367138.824                  
  22307925.553   117228927.600    22307927.322    91347215.176                  
  20174781.631   106019196.211    20174782.435    82612363.289                  
  20431700.317   107369267.569    20431703.355    83664353.739                  
  22966526.652   120689867.227    22966530.100    94044041.059                  
                 122792057.376                   122792057.376    23580925.095  
                 126436070.532                   126436070.532    24280716.972  
                 114425241.704                   114425241.704    21974159.115  
                 132936554.192                   132936554.192    25529070.986  
  25380734.759   133376634.067                                                  
  23498926.632   123487681.879                                                  
  24280264.135   127593624.305                                                  
  25282234.861   132858997.222                                                  
  26480516.692   139156071.614                                                  
  26729620.754   140465060.946                                                  
  27734733.175   145746904.168                                                  
 21  8 31 21 20 18.0000000  0 17G10G15G18G23G24G32C19C21C22C34E 3E 5
                                E 9E15E24E31E36
  21160779.594   111200602.372    21160782.507    86649808.458                  
  23045998.774   121107533.266    23046000.043    94369504.257                  
  22308547.109   117232193.844    22308548.860    91349760.296                  
  20174823.802   106019417.774    20174824.606    82612535.937                  
  20431887.602   107370251.718    20431890.640    83665120.606                  
  22966050.675   120687365.939    22966054.123    94042092.003                  
                 122794166.554                   122794166.554    23581330.132  
                 126433765.733                   126433765.733    24280274.374  
                 114425077.895                   114425077.895    21974127.665  
                 132937107.860                   132937107.860    25529177.325  
  25380410.096   133374927.994                                                  
  23498982.455   123487975.144                                                  
  24280643.120   127595615.836                                                  
  25282113.512   132858359.593                                                  
  26480099.915   139153881.491                                                  
  26729620.343   140465058.684                                                  
  27735352.247   145750157.403                                                  
 21  8 31 21 20 19.0000000  0 17G10G15G18G23G24G32C19C21C22C34E 3E 5
                                E 9E15E24E31E36
  21160396.161   111198587.316    21160399.038    86648238.284                  
  23046576.462   121110569.015    23046577.713    94371869.774                  
  22309168.701   117235460.402    22309170.488    91352305.663                  
  20174866.062   106019639.830    20174866.866    82612708.965                  
  20432074.995   107371236.516    20432078.032    83665887.981                  
  22965574.733   120684864.823    22965578.182    94040143.087                  
                 122796275.907                   122796275.907    23581735.223  
                 126431461.028                   126431461.028    24279831.777  
                 114424914.353                   114424914.353    21974096.251  
                 132937662.044                   132937662.044    25529283.735  
  25380085.452   133373222.023                                                  
  23499038.278   123488268.586                                                  
  24281022.104   127597607.428                                                  
  25281992.289   132857722.409                                                  
  26479683.227   139151691.668                                                  
  26729620.003   140465056.902                                                  
  27735971.319   145753410.644                                                  
 21  8 31 21 20 20.0000000  0 17G10G15G18G23G24G32C19C21C22C34E 3E 5
                                E 9E15E24E31E36
  21160012.763   111196572.585    21160015.658    86646668.364                  
  23047154.185   121113604.866    23047155.436    94374235.367                  
  22309790.382   117238727.288    22309792.133    91354851.289                  
  20174908.394   106019862.375    20174909.198    82612882.375                  
  20432262.548   107372221.992    20432265.586    83666655.882                  
  22965098.827   120682363.907    22965102.276    94038194.317                  
                 122798385.437                   122798385.437    23582140.332  
                 126429156.406                   126429156.406    24279389.197  
                 114424751.076                   114424751.076    21974064.891  
                 132938216.739                   132938216.739    25529390.252  
  25379760.861   133371516.181                                                  
  23499094.155   123488562.207                                                  
  24281401.106   127599599.068                                                  
  25281871.119   132857085.731                                                  
  26479266.557   139149502.118                                                  
  26729619.735   140465055.596                                                  
  27736590.374   145756663.856                                                  
 21  8 31 21 20 21.0000000  0 17G10G15G18G23G24G32C19C21C22C34E 3E 5
                                E 9E15E24E31E36
  21159629.437   111194558.174    21159632.314    86645098.691                  
  23047731.908   121116640.820    23047733.159    94376601.043                  
  22310412.099   117241994.511    22310413.886    91357397.173                  
  20174950.869   106020085.414    20174951.637    82613056.169                  
  20432450.208   107373208.116    20432453.228    83667424.288                  
  22964622.940   120679863.176    22964626.406    94036245.695                  
                 122800495.144                   122800495.144    23582545.476  
                 126426851.875                   126426851.875    24278946.635  
                 114424588.069                   114424588.069    21974033.603  
                 132938771.952                   132938771.952    25529496.877  
  25379436.253   133369810.450                                                  
  23499150.067   123488855.972                                                  
  24281780.108   127601590.742                                                  
  25281750.056   132856449.540                                                  
  26478849.959   139147312.852                                                  
  26729619.574   140465054.781                                                  
  27737209.464   145759917.047                                                  
 21  8 31 21 20 22.0000000  0 17G10G15G18G23G24G32C19C21C22C34E 3E 5
                                E 9E15E24E31E36
  21159246.164   111192544.072    21159249.059    86643529.254                  
  23048309.632   121119676.871    23048310.901    94378966.793                  
  22311033.905   117245262.052    22311035.656    91359943.301                  
  20174993.379   106020308.942    20174994.183    82613230.343                  
  20432637.976   107374194.919    20432641.014    83668193.218                  
  22964147.123   120677362.630    22964150.554    94034297.215                  
                 122802605.032                   122802605.032    23582950.656  
                 126424547.434                   126424547.434    24278504.108  
                 114424425.333                   114424425.333    21974002.332  
                 132939327.679                   132939327.679    25529603.608  
  25379111.697   133368104.843                                                  
  23499205.997   123489149.924                                                  
  24282159.128   127603582.493                                                  
  25281629.083   132855813.833                                                  
  26478433.396   139145123.879                                                  
  26729619.521   140465054.434                                                  
  27737828.501   145763170.212                                                  
 21  8 31 21 20 23.0000000  0 17G10G15G18G23G24G32C19C21C22C34E 3E 5
                                E 9E15E24E31E36
  21158862.963   111190530.286    21158865.840    86641960.065                  
  23048887.409   121122713.030    23048888.660    94381332.624                  
  22311655.765   117248529.918    22311657.516    91362489.684                  
  20175036.015   106020532.970    20175036.819    82613404.907                  
  20432825.887   107375182.372    20432828.924    83668962.660                  
  22963671.307   120674862.275    22963674.756    94032348.884                  
                 122804715.089                   122804715.089    23583355.872  
                 126422243.078                   126422243.078    24278061.564  
                 114424262.864                   114424262.864    21973971.132  
                 132939883.925                   132939883.925    25529710.411  
  25378787.160   133366399.371                                                  
  23499261.980   123489444.059                                                  
  24282538.165   127605574.283                                                  
  25281508.199   132855178.633                                                  
  26478016.923   139142935.203                                                  
  26729619.556   140465054.593                                                  
  27738447.555   145766423.379                                                  
 21  8 31 21 20 24.0000000  0 17G10G15G18G23G24G32C19C21C22C34E 3E 5
                                E 9E15E24E31E36
  21158479.797   111188516.820    21158482.692    86640391.133                  
  23049465.186   121125749.286    23049466.437    94383698.536                  
  22312277.678   117251798.105    22312279.447    91365036.320                  
  20175078.739   106020757.482    20175079.543    82613579.851                  
  20433013.922   107376170.495    20433016.960    83669732.624                  
  22963195.544   120672362.110    22963198.975    94030400.704                  
                 122806825.328                   122806825.328    23583761.141  
                 126419938.811                   126419938.811    24277619.056  
                 114424100.659                   114424100.659    21973940.005  
                 132940440.684                   132940440.684    25529817.340  
  25378462.641   133364694.008                                                  
  23499317.982   123489738.352                                                  
  24282917.185   127607566.128                                                  
  25281387.422   132854543.932                                                  
  26477600.485   139140746.812                                                  
  26729619.681   140465055.218                                                  
  27739066.627   145769676.521                                                  
 21  8 31 21 20 25.0000000  0 17G10G15G18G23G24G32C19C21C22C34E 3E 5
                                E 9E15E24E31E36
  21158096.721   111186503.671    21158099.598    86638822.446                  
  23050042.981   121128785.645    23050044.231    94386064.532                  
  22312899.663   117255066.616    22312901.415    91367583.210                  
  20175121.554   106020982.489    20175122.358    82613755.180                  
  20433202.083   107377159.290    20433205.121    83670503.113                  
  22962719.799   120669862.112    22962723.266    94028452.651                  
                 122808935.742                   122808935.742    23584166.429  
                 126417634.638                   126417634.638    24277176.565  
                 114423938.731                   114423938.731    21973908.895  
                 132940997.956                   132940997.956    25529924.357  
  25378138.139   133362988.782                                                  
  23499374.019   123490032.818                                                  
  24283296.241   127609558.028                                                  
  25281266.735   132853909.719                                                  
  26477184.101   139138558.723                                                  
  26729619.878   140465056.339                                                  
  27739685.682   145772929.659                                                  
 21  8 31 21 20 26.0000000  0 17G10G15G18G23G24G32C19C21C22C34E 3E 5
                                E 9E15E24E31E36
  21157713.681   111184490.836    21157716.576    86637254.005                  
  23050620.793   121131822.095    23050622.062    94388430.595                  
  22313521.702   117258335.448    22313523.453    91370130.352                  
  20175164.457   106021207.981    20175165.261    82613930.890                  
  20433390.351   107378148.724    20433393.407    83671274.101                  
  22962244.126   120667362.317    22962247.557    94026504.761                  
                 122811046.331                   122811046.331    23584571.734  
                 126415330.546                   126415330.546    24276734.074  
                 114423777.065                   114423777.065    21973877.838  
                 132941555.742                   132941555.742    25530031.482  
  25377813.656   133361283.659                                                  
  23499430.074   123490327.457                                                  
  24283675.278   127611549.973                                                  
  25281146.137   132853275.984                                                  
  26476767.753   139136370.889                                                  
  26729620.182   140465057.921                                                  
  27740304.718   145776182.750                                                  
 21  8 31 21 20 27.0000000  0 17G10G15G18G23G24G32C19C21C22C34E 3E 5
                                E 9E15E24E31E36
  21157330.712   111182478.315    21157333.607    86635685.809                  
  23051198.642   121134858.656    23051199.893    94390796.746                  
  22314143.794   117261604.609    22314145.563    91372677.750                  
  20175207.486   106021433.972    20175208.254    82614106.989                  
  20433578.762   107379138.822    20433581.800    83672045.606                  
  22961768.453   120664862.710    22961771.901    94024557.016                  
                 122813157.103                   122813157.103    23584977.075  
                 126413026.544                   126413026.544    24276291.637  
                 114423615.669                   114423615.669    21973846.853  
                 132942114.046                   132942114.046    25530138.696  
  25377489.226   133359578.671                                                  
  23499486.183   123490622.290                                                  
  24284054.352   127613541.985                                                  
  25281025.646   132852642.771                                                  
  26476351.494   139134183.372                                                  
  26729620.575   140465060.025                                                  
  27740923.755   145779435.850                                                  
 21  8 31 21 20 28.0000000  0 17G10G15G18G23G24G32C19C21C22C34E 3E 5
                                E 9E15E24E31E36
  21156947.797   111180466.120    21156950.691    86634117.860                  
  23051776.508   121137895.320    23051777.759    94393162.973                  
  22314765.958   117264874.095    22314767.727    91375225.399                  
  20175250.586   106021660.453    20175251.354    82614283.465                  
  20433767.298   107380129.594    20433770.336    83672817.636                  
  22961292.815   120662363.285    22961296.282    94022609.414                  
                 122815268.046                   122815268.046    23585382.487  
                 126410722.632                   126410722.632    24275849.182  
                 114423454.544                   114423454.544    21973815.922  
                 132942672.864                   132942672.864    25530246.017  
  25377164.778   133357873.801                                                  
  23499542.327   123490917.266                                                  
  24284433.443   127615534.035                                                  
  25280905.245   132852010.039                                                  
  26475935.289   139131996.140                                                  
  26729621.075   140465062.578                                                  
  27741542.791   145782688.915                                                  
 21  8 31 21 20 29.0000000  0 17G10G15G18G23G24G32C19C21C22C34E 3E 5
                                E 9E15E24E31E36
  21156564.953   111178454.236    21156567.848    86632550.160                  
  23052354.375   121140932.078    23052355.643    94395529.281                  
  22315388.175   117268143.895    22315389.944    91377773.293                  
  20175293.757   106021887.426    20175294.561    82614460.328                  
  20433955.959   107381121.021    20433958.997    83673590.177                  
  22960817.249   120659864.042    22960820.680    94020661.954                  
                 122817379.167                   122817379.167    23585787.899  
                 126408418.807                   126408418.807    24275406.763  
                 114423293.683                   114423293.683    21973785.027  
                 132943232.194                   132943232.194    25530353.428  
  25376840.384   133356169.054                                                  
  23499598.472   123491212.422                                                  
