% program   : rnx2rtkp ver.2.4.3 b31
% inp file  : ngs/21_08_28_19_51_18_txda.obs
% inp file  : ngs/21_08_28_19_51_18_txda_SNTX.obs
% inp file  : ngs/21_08_28_19_51_18_brdc.nav
% obs start : 2021/08/28 19:00:00.0 GPST (week2172 586800.0s)
% obs end   : 2021/08/28 19:59:59.0 GPST (week2172 590399.0s)
% ref pos   :  -623595.6246  -5330169.5275   3435333.5519
%
% (x/y/z-ecef=WGS84,Q=1:fix,2:float,3:sbas,4:dgps,5:single,6:ppp,ns=# of satellites)
%  GPST              x-ecef(m)      y-ecef(m)      z-ecef(m)   Q  ns   sdx(m)   sdy(m)   sdz(m)  sdxy(m)  sdyz(m)  sdzx(m) age(s)  ratio
2172 589855.000   -623611.6735  -5330305.3091   3435421.3272   2   7   0.5110   1.0822   0.6206   0.4755  -0.5446  -0.0612 -30.00    1.9
2172 589856.000   -623611.6080  -5330305.2698   3435421.2812   2   7   0.3633   0.7704   0.4416   0.3379  -0.3869  -0.0419 -29.00    1.6
2172 589857.000   -623611.6403  -5330305.2266   3435421.2675   2   7   0.2974   0.6308   0.3615   0.2766  -0.3167  -0.0341 -28.00    1.7
2172 589858.000   -623611.6907  -5330305.2306   3435421.3360   2   7   0.2580   0.5472   0.3137   0.2400  -0.2747  -0.0296 -27.00    1.9
2172 589859.000   -623611.6705  -5330305.2210   3435421.3537   2   7   0.2311   0.4900   0.2809   0.2149  -0.2460  -0.0265 -26.00    1.9
2172 589860.000   -623611.6584  -5330305.1296   3435421.3496   2   7   0.2112   0.4478   0.2567   0.1964  -0.2248  -0.0243 -25.00    1.9
2172 589861.000   -623611.6529  -5330305.0980   3435421.3607   2   7   0.1957   0.4148   0.2378   0.1819  -0.2083  -0.0225 -24.00    1.9
2172 589862.000   -623611.6421  -5330305.1119   3435421.3301   2   7   0.1831   0.3882   0.2226   0.1703  -0.1949  -0.0210 -23.00    1.9
2172 589863.000   -623611.6327  -5330305.0833   3435421.3086   2   7   0.1727   0.3661   0.2100   0.1606  -0.1838  -0.0198 -22.00    1.9
2172 589864.000   -623611.6263  -5330305.0533   3435421.3108   2   7   0.1639   0.3474   0.1992   0.1524  -0.1744  -0.0188 -21.00    1.9
2172 589865.000   -623611.6347  -5330305.0916   3435421.3341   2   7   0.1563   0.3313   0.1900   0.1453  -0.1663  -0.0178 -20.00    1.9
2172 589866.000   -623611.6418  -5330305.0757   3435421.3253   2   7   0.1497   0.3172   0.1819   0.1391  -0.1592  -0.0170 -19.00    1.9
2172 589867.000   -623611.6415  -5330305.0649   3435421.3409   2   7   0.1438   0.3047   0.1748   0.1336  -0.1529  -0.0162 -18.00    1.9
2172 589868.000   -623611.6450  -5330305.0699   3435421.3491   2   7   0.1385   0.2935   0.1684   0.1287  -0.1473  -0.0156 -17.00    1.8
2172 589869.000   -623611.6557  -5330305.0935   3435421.3612   2   7   0.1338   0.2835   0.1627   0.1243  -0.1423  -0.0149 -16.00    1.8
2172 589870.000   -623611.6577  -5330305.1149   3435421.3734   2   7   0.1295   0.2744   0.1575   0.1203  -0.1377  -0.0143 -15.00    1.8
2172 589871.000   -623611.6580  -5330305.0998   3435421.3705   2   7   0.1256   0.2661   0.1527   0.1166  -0.1335  -0.0138 -14.00    1.8
2172 589872.000   -623611.6613  -5330305.0991   3435421.3741   2   7   0.1220   0.2585   0.1484   0.1132  -0.1297  -0.0132 -13.00    1.8
2172 589873.000   -623611.6582  -5330305.0737   3435421.3731   2   7   0.1187   0.2514   0.1444   0.1101  -0.1261  -0.0127 -12.00    1.6
2172 589874.000   -623611.6532  -5330305.0727   3435421.3807   2   7   0.1156   0.2449   0.1407   0.1072  -0.1228  -0.0122 -11.00    1.5
2172 589875.000   -623611.6482  -5330305.0739   3435421.3847   2   7   0.1128   0.2389   0.1372   0.1046  -0.1198  -0.0118 -10.00    1.4
2172 589876.000   -623611.6378  -5330305.0710   3435421.3783   2   7   0.1101   0.2332   0.1340   0.1021  -0.1169  -0.0114  -9.00    1.2
2172 589877.000   -623611.6369  -5330305.0708   3435421.3715   2   7   0.1076   0.2279   0.1310   0.0997  -0.1142  -0.0109  -8.00    1.1
2172 589878.000   -623611.6219  -5330305.0461   3435421.3725   2   7   0.1053   0.2230   0.1282   0.0975  -0.1117  -0.0105  -7.00    1.1
2172 589879.000   -623611.6093  -5330305.0346   3435421.3610   2   7   0.1031   0.2183   0.1255   0.0955  -0.1094  -0.0102  -6.00    1.2
2172 589880.000   -623611.5980  -5330305.0086   3435421.3515   2   7   0.1011   0.2139   0.1230   0.0935  -0.1072  -0.0098  -5.00    1.4
2172 589881.000   -623611.5911  -5330304.9859   3435421.3401   2   7   0.0991   0.2097   0.1206   0.0916  -0.1051  -0.0095  -4.00    1.7
2172 589882.000   -623611.5871  -5330304.9791   3435421.3380   2   7   0.0973   0.2057   0.1184   0.0899  -0.1031  -0.0092  -3.00    2.1
2172 589883.000   -623611.5771  -5330304.9750   3435421.3303   2   7   0.0956   0.2020   0.1163   0.0882  -0.1012  -0.0088  -2.00    2.5
2172 589884.000   -623611.4459  -5330304.7534   3435421.3132   1   7   0.0054   0.0111   0.0062   0.0048  -0.0055   0.0006  -1.00    3.1
2172 589885.000   -623611.4433  -5330304.7472   3435421.3117   1   7   0.0050   0.0109   0.0062   0.0047  -0.0055  -0.0008   0.00    3.8
2172 589886.000   -623611.4419  -5330304.7430   3435421.3074   1   7   0.0051   0.0108   0.0063   0.0048  -0.0056  -0.0010   0.00    4.0
2172 589887.000   -623611.4425  -5330304.7496   3435421.3105   1   7   0.0054   0.0109   0.0065   0.0046  -0.0055  -0.0004   0.00    4.1
2172 589888.000   -623611.4425  -5330304.7443   3435421.3090   1   7   0.0048   0.0108   0.0062   0.0048  -0.0054   0.0003   0.00    4.3
2172 589889.000   -623611.4415  -5330304.7410   3435421.3080   1   7   0.0051   0.0108   0.0063   0.0049  -0.0055  -0.0008   0.00    4.4
2172 589890.000   -623611.4403  -5330304.7419   3435421.3128   1   7   0.0050   0.0109   0.0063   0.0049  -0.0054  -0.0010   0.00    4.5
2172 589891.000   -623611.4420  -5330304.7451   3435421.3099   1   7   0.0051   0.0109   0.0064   0.0046  -0.0055  -0.0013   0.00    4.6
2172 589892.000   -623611.4440  -5330304.7443   3435421.3072   1   7   0.0051   0.0108   0.0063   0.0048  -0.0055  -0.0014   0.00    4.7
2172 589893.000   -623611.4438  -5330304.7427   3435421.3092   1   7   0.0052   0.0109   0.0064   0.0046  -0.0055   0.0010   0.00    4.8
2172 589894.000   -623611.4442  -5330304.7461   3435421.3102   1   7   0.0050   0.0109   0.0063   0.0047  -0.0055   0.0005   0.00    5.0
2172 589895.000   -623611.4438  -5330304.7493   3435421.3094   1   7   0.0052   0.0109   0.0062   0.0048  -0.0054   0.0006   0.00    5.1
2172 589896.000   -623611.4437  -5330304.7497   3435421.3104   1   7   0.0055   0.0109   0.0064   0.0047  -0.0054   0.0008   0.00    5.3
2172 589897.000   -623611.4442  -5330304.7443   3435421.3099   1   7   0.0049   0.0108   0.0063   0.0048  -0.0054   0.0005   0.00    5.3
2172 589898.000   -623611.4423  -5330304.7392   3435421.3084   1   7   0.0055   0.0109   0.0063   0.0046  -0.0054  -0.0002   0.00    5.4
2172 589899.000   -623611.4406  -5330304.7482   3435421.3118   1   7   0.0051   0.0108   0.0063   0.0048  -0.0055  -0.0002   0.00    5.6
2172 589900.000   -623611.4403  -5330304.7448   3435421.3101   1   7   0.0052   0.0108   0.0063   0.0047  -0.0055   0.0003   0.00    5.6
2172 589901.000   -623611.4386  -5330304.7399   3435421.3099   1   7   0.0050   0.0108   0.0063   0.0049  -0.0054   0.0010   0.00    5.7
2172 589902.000   -623611.4415  -5330304.7409   3435421.3090   1   7   0.0052   0.0109   0.0065   0.0048  -0.0054  -0.0008   0.00    5.8
2172 589903.000   -623611.4401  -5330304.7419   3435421.3069   1   7   0.0053   0.0109   0.0062   0.0046  -0.0054   0.0007   0.00    5.7
2172 589904.000   -623611.4422  -5330304.7329   3435421.3111   1   7   0.0053   0.0109   0.0064   0.0046  -0.0055  -0.0010   0.00    5.7
2172 589905.000   -623611.4415  -5330304.7315   3435421.3115   1   7   0.0050   0.0108   0.0062   0.0049  -0.0054  -0.0007   0.00    5.7
2172 589906.000   -623611.4413  -5330304.7347   3435421.3098   1   7   0.0048   0.0109   0.0064   0.0047  -0.0055   0.0006   0.00    5.7
2172 589907.000   -623611.4398  -5330304.7369   3435421.3131   1   7   0.0049   0.0108   0.0063   0.0046  -0.0055   0.0015   0.00    5.7
2172 589908.000   -623611.4435  -5330304.7385   3435421.3109   1   7   0.0053   0.0109   0.0063   0.0049  -0.0053   0.0009   0.00    5.7
2172 589909.000   -623611.4408  -5330304.7385   3435421.3081   1   7   0.0051   0.0108   0.0064   0.0049  -0.0053  -0.0013   0.00    5.7
2172 589910.000   -623611.4407  -5330304.7360   3435421.3081   1   7   0.0050   0.0108   0.0064   0.0048  -0.0054  -0.0010   0.00    5.6
2172 589911.000   -623611.4418  -5330304.7374   3435421.3089   1   7   0.0052   0.0108   0.0064   0.0046  -0.0054  -0.0011   0.00    5.5
2172 589912.000   -623611.4418  -5330304.7408   3435421.3105   1   7   0.0052   0.0108   0.0063   0.0047  -0.0055   0.0011   0.00    5.5
2172 589913.000   -623611.4402  -5330304.7377   3435421.3088   1   7   0.0052   0.0109   0.0062   0.0046  -0.0054  -0.0002   0.00    5.5
2172 589914.000   -623611.4397  -5330304.7378   3435421.3108   1   7   0.0051   0.0108   0.0063   0.0047  -0.0054   0.0009   0.00    5.4
2172 589915.000   -623611.4413  -5330304.7354   3435421.3103   1   7   0.0051   0.0108   0.0063   0.0047  -0.0053  -0.0011   0.00    5.4
2172 589916.000   -623611.4437  -5330304.7420   3435421.3120   1   7   0.0053   0.0107   0.0065   0.0047  -0.0055  -0.0016   0.00    5.4
2172 589917.000   -623611.4430  -5330304.7359   3435421.3124   1   7   0.0054   0.0109   0.0064   0.0045  -0.0053   0.0002   0.00    5.3
2172 589918.000   -623611.4423  -5330304.7389   3435421.3105   1   7   0.0051   0.0108   0.0062   0.0047  -0.0054   0.0012   0.00    5.3
2172 589919.000   -623611.4442  -5330304.7395   3435421.3116   1   7   0.0049   0.0108   0.0063   0.0049  -0.0054  -0.0010   0.00    5.3
2172 589920.000   -623611.4441  -5330304.7341   3435421.3101   1   7   0.0051   0.0109   0.0063   0.0047  -0.0054  -0.0006   0.00    5.3
2172 589921.000   -623611.4439  -5330304.7418   3435421.3145   1   7   0.0053   0.0109   0.0062   0.0045  -0.0055   0.0007   0.00    5.2
2172 589922.000   -623611.4440  -5330304.7400   3435421.3112   1   7   0.0050   0.0108   0.0062   0.0047  -0.0054  -0.0004   0.00    5.2
2172 589923.000   -623611.4434  -5330304.7415   3435421.3116   1   7   0.0048   0.0108   0.0065   0.0048  -0.0054  -0.0010   0.00    5.2
2172 589924.000   -623611.4428  -5330304.7416   3435421.3094   1   7   0.0053   0.0108   0.0064   0.0048  -0.0054   0.0002   0.00    5.2
2172 589925.000   -623611.4408  -5330304.7336   3435421.3072   1   7   0.0056   0.0109   0.0062   0.0045  -0.0055   0.0012   0.00    5.2
2172 589926.000   -623611.4418  -5330304.7388   3435421.3113   1   7   0.0050   0.0108   0.0063   0.0049  -0.0053   0.0007   0.00    5.2
2172 589927.000   -623611.4423  -5330304.7366   3435421.3098   1   7   0.0048   0.0108   0.0062   0.0049  -0.0053   0.0005   0.00    5.2
2172 589928.000   -623611.4438  -5330304.7370   3435421.3093   1   7   0.0049   0.0107   0.0063   0.0050  -0.0054  -0.0005   0.00    5.2
2172 589929.000   -623611.4410  -5330304.7359   3435421.3120   1   7   0.0054   0.0108   0.0062   0.0047  -0.0054   0.0012   0.00    5.2
2172 589930.000   -623611.4415  -5330304.7316   3435421.3106   1   7   0.0049   0.0108   0.0062   0.0050  -0.0054  -0.0010   0.00    5.2
2172 589931.000   -623611.4439  -5330304.7380   3435421.3120   1   7   0.0053   0.0108   0.0063   0.0046  -0.0054   0.0009   0.00    5.2
2172 589932.000   -623611.4428  -5330304.7352   3435421.3110   1   7   0.0052   0.0109   0.0063   0.0049  -0.0054  -0.0003   0.00    5.1
2172 589933.000   -623611.4413  -5330304.7369   3435421.3098   1   7   0.0052   0.0108   0.0063   0.0045  -0.0055   0.0006   0.00    5.1
2172 589934.000   -623611.4403  -5330304.7427   3435421.3108   1   7   0.0051   0.0108   0.0063   0.0049  -0.0054   0.0010   0.00    5.2
2172 589935.000   -623611.4414  -5330304.7444   3435421.3127   1   7   0.0050   0.0108   0.0063   0.0047  -0.0054   0.0008   0.00    5.2
2172 589936.000   -623611.4411  -5330304.7441   3435421.3143   1   7   0.0051   0.0108   0.0064   0.0050  -0.0053  -0.0011   0.00    5.2
2172 589937.000   -623611.4415  -5330304.7447   3435421.3138   1   7   0.0054   0.0108   0.0064   0.0048  -0.0054   0.0010   0.00    5.2
2172 589938.000   -623611.4425  -5330304.7450   3435421.3163   1   7   0.0048   0.0108   0.0064   0.0048  -0.0055   0.0009   0.00    5.3
2172 589939.000   -623611.4431  -5330304.7375   3435421.3134   1   7   0.0053   0.0108   0.0062   0.0048  -0.0054  -0.0004   0.00    5.2
2172 589940.000   -623611.4429  -5330304.7365   3435421.3099   1   7   0.0053   0.0108   0.0063   0.0045  -0.0055  -0.0008   0.00    5.2
2172 589941.000   -623611.4438  -5330304.7410   3435421.3123   1   7   0.0055   0.0108   0.0066   0.0044  -0.0055   0.0007   0.00    5.2
2172 589942.000   -623611.4452  -5330304.7385   3435421.3112   1   7   0.0053   0.0108   0.0065   0.0047  -0.0054   0.0007   0.00    5.2
2172 589943.000   -623611.4465  -5330304.7367   3435421.3106   1   7   0.0048   0.0107   0.0062   0.0049  -0.0055  -0.0008   0.00    5.2
2172 589944.000   -623611.4441  -5330304.7383   3435421.3134   1   7   0.0049   0.0108   0.0063   0.0049  -0.0053  -0.0012   0.00    5.2
2172 589945.000   -623611.4448  -5330304.7428   3435421.3136   1   7   0.0050   0.0107   0.0063   0.0047  -0.0055  -0.0009   0.00    5.2
2172 589946.000   -623611.4442  -5330304.7389   3435421.3093   1   7   0.0052   0.0108   0.0064   0.0046  -0.0055   0.0008   0.00    5.2
2172 589947.000   -623611.4441  -5330304.7418   3435421.3145   1   7   0.0050   0.0108   0.0064   0.0048  -0.0055   0.0007   0.00    5.2
2172 589948.000   -623611.4434  -5330304.7392   3435421.3113   1   7   0.0052   0.0108   0.0062   0.0046  -0.0054   0.0006   0.00    5.3
2172 589949.000   -623611.4484  -5330304.7390   3435421.3099   1   7   0.0049   0.0107   0.0063   0.0047  -0.0055  -0.0006   0.00    5.3
2172 589950.000   -623611.4458  -5330304.7416   3435421.3121   1   7   0.0054   0.0108   0.0063   0.0048  -0.0053   0.0008   0.00    5.3
2172 589951.000   -623611.4466  -5330304.7393   3435421.3093   1   7   0.0051   0.0107   0.0064   0.0048  -0.0054  -0.0004   0.00    5.3
2172 589952.000   -623611.4464  -5330304.7393   3435421.3109   1   7   0.0050   0.0108   0.0064   0.0048  -0.0053   0.0002   0.00    5.3
2172 589953.000   -623611.4455  -5330304.7422   3435421.3086   1   7   0.0054   0.0108   0.0063   0.0046  -0.0055   0.0011   0.00    5.3
2172 589954.000   -623611.4458  -5330304.7421   3435421.3099   1   7   0.0049   0.0107   0.0063   0.0049  -0.0054  -0.0004   0.00    5.3
2172 589955.000   -623611.4476  -5330304.7416   3435421.3100   1   7   0.0051   0.0107   0.0061   0.0047  -0.0054   0.0012   0.00    5.3
2172 589956.000   -623611.4471  -5330304.7387   3435421.3093   1   7   0.0049   0.0107   0.0063   0.0049  -0.0054   0.0012   0.00    5.3
2172 589957.000   -623611.4465  -5330304.7414   3435421.3098   1   7   0.0048   0.0107   0.0063   0.0049  -0.0053  -0.0003   0.00    5.3
2172 589958.000   -623611.4474  -5330304.7401   3435421.3129   1   7   0.0052   0.0108   0.0064   0.0047  -0.0054   0.0008   0.00    5.3
2172 589959.000   -623611.4463  -5330304.7361   3435421.3105   1   7   0.0052   0.0107   0.0064   0.0048  -0.0053  -0.0007   0.00    5.3
2172 589960.000   -623611.4480  -5330304.7420   3435421.3078   1   7   0.0052   0.0108   0.0063   0.0049  -0.0054   0.0005   0.00    5.3
2172 589961.000   -623611.4468  -5330304.7411   3435421.3084   1   7   0.0051   0.0107   0.0062   0.0047  -0.0055   0.0004   0.00    5.3
2172 589962.000   -623611.4452  -5330304.7341   3435421.3101   1   7   0.0052   0.0107   0.0063   0.0048  -0.0054  -0.0000   0.00    5.3
2172 589963.000   -623611.4462  -5330304.7362   3435421.3083   1   7   0.0050   0.0107   0.0063   0.0045  -0.0054   0.0005   0.00    5.3
2172 589964.000   -623611.4473  -5330304.7407   3435421.3058   1   7   0.0055   0.0108   0.0064   0.0044  -0.0054  -0.0005   0.00    5.3
2172 589965.000   -623611.4479  -5330304.7385   3435421.3065   1   7   0.0049   0.0107   0.0062   0.0047  -0.0054   0.0008   0.00    5.3
2172 589966.000   -623611.4447  -5330304.7347   3435421.3073   1   7   0.0050   0.0108   0.0064   0.0050  -0.0053  -0.0002   0.00    5.3
2172 589967.000   -623611.4461  -5330304.7334   3435421.3087   1   7   0.0048   0.0107   0.0063   0.0048  -0.0054  -0.0002   0.00    5.3
2172 589968.000   -623611.4470  -5330304.7421   3435421.3051   1   7   0.0056   0.0108   0.0063   0.0046  -0.0054   0.0011   0.00    5.3
2172 589969.000   -623611.4490  -5330304.7458   3435421.3087   1   7   0.0054   0.0108   0.0064   0.0046  -0.0054   0.0010   0.00    5.3
2172 589970.000   -623611.4488  -5330304.7367   3435421.3071   1   7   0.0046   0.0107   0.0061   0.0049  -0.0054  -0.0009   0.00    5.3
2172 589971.000   -623611.4505  -5330304.7380   3435421.3073   1   7   0.0054   0.0108   0.0064   0.0046  -0.0053   0.0006   0.00    5.4
2172 589972.000   -623611.4506  -5330304.7395   3435421.3090   1   7   0.0052   0.0107   0.0063   0.0047  -0.0054   0.0010   0.00    5.4
2172 589973.000   -623611.4497  -5330304.7367   3435421.3065   1   7   0.0052   0.0107   0.0062   0.0047  -0.0054  -0.0007   0.00    5.4
2172 589974.000   -623611.4319  -5330304.5997   3435421.3135   2   8   0.0441   0.0810   0.0500   0.0323  -0.0399   0.0055   0.00    1.2
2172 589975.000   -623611.4322  -5330304.5986   3435421.3155   2   8   0.0439   0.0804   0.0496   0.0320  -0.0395   0.0049   0.00    1.5
2172 589976.000   -623611.4345  -5330304.6073   3435421.3151   2   8   0.0436   0.0798   0.0492   0.0317  -0.0392   0.0046   0.00    1.7
2172 589977.000   -623611.4349  -5330304.6148   3435421.3178   2   8   0.0433   0.0792   0.0488   0.0314  -0.0389   0.0042   0.00    1.9
2172 589978.000   -623611.4343  -5330304.6144   3435421.3195   2   8   0.0431   0.0786   0.0484   0.0311  -0.0385   0.0036   0.00    2.1
2172 589979.000   -623611.4349  -5330304.6205   3435421.3201   2   8   0.0429   0.0780   0.0481   0.0308  -0.0382   0.0037   0.00    2.3
2172 589980.000   -623611.4351  -5330304.6235   3435421.3268   2   8   0.0426   0.0774   0.0477   0.0305  -0.0379   0.0031   0.00    2.6
2172 589981.000   -623611.4380  -5330304.6318   3435421.3317   2   8   0.0424   0.0769   0.0473   0.0302  -0.0376   0.0028   0.00    2.7
2172 589982.000   -623611.4390  -5330304.6320   3435421.3331   2   8   0.0422   0.0763   0.0470   0.0299  -0.0373   0.0020   0.00    2.9
2172 589983.000   -623611.4519  -5330304.7389   3435421.3084   1   8   0.0051   0.0107   0.0056   0.0048  -0.0053  -0.0020   0.00    3.1
2172 589984.000   -623611.4521  -5330304.7386   3435421.3071   1   8   0.0053   0.0108   0.0058   0.0047  -0.0053  -0.0023   0.00    3.3
2172 589985.000   -623611.4531  -5330304.7406   3435421.3073   1   8   0.0046   0.0107   0.0058   0.0049  -0.0052  -0.0021   0.00    3.5
2172 589986.000   -623611.4503  -5330304.7382   3435421.3066   1   8   0.0052   0.0107   0.0053   0.0048  -0.0052  -0.0018   0.00    3.7
2172 589987.000   -623611.4556  -5330304.7384   3435421.3045   1   8   0.0050   0.0107   0.0057   0.0049  -0.0053  -0.0021   0.00    3.9
2172 589988.000   -623611.4523  -5330304.7398   3435421.3068   1   8   0.0051   0.0107   0.0057   0.0047  -0.0052  -0.0018   0.00    4.0
2172 589989.000   -623611.4524  -5330304.7369   3435421.3089   1   8   0.0044   0.0106   0.0056   0.0051  -0.0053  -0.0023   0.00    4.2
2172 589990.000   -623611.4523  -5330304.7383   3435421.3072   1   8   0.0048   0.0108   0.0056   0.0048  -0.0053  -0.0022   0.00    4.3
2172 589991.000   -623611.4504  -5330304.7330   3435421.3086   1   8   0.0053   0.0108   0.0053   0.0044  -0.0052  -0.0020   0.00    4.5
2172 589992.000   -623611.4502  -5330304.7328   3435421.3068   1   8   0.0045   0.0107   0.0056   0.0047  -0.0051  -0.0020   0.00    4.6
2172 589993.000   -623611.4521  -5330304.7360   3435421.3093   1   8   0.0048   0.0106   0.0055   0.0048  -0.0052  -0.0018   0.00    4.8
2172 589994.000   -623611.4523  -5330304.7321   3435421.3049   1   8   0.0045   0.0106   0.0056   0.0050  -0.0053  -0.0021   0.00    4.9
2172 589995.000   -623611.4517  -5330304.7369   3435421.3047   1   8   0.0053   0.0107   0.0058   0.0044  -0.0053  -0.0020   0.00    5.1
2172 589996.000   -623611.4505  -5330304.7388   3435421.3049   1   8   0.0052   0.0108   0.0055   0.0045  -0.0052  -0.0017   0.00    5.2
2172 589997.000   -623611.4504  -5330304.7351   3435421.3059   1   8   0.0049   0.0106   0.0058   0.0049  -0.0054  -0.0020   0.00    5.4
2172 589998.000   -623611.4498  -5330304.7338   3435421.3016   1   8   0.0053   0.0107   0.0056   0.0044  -0.0053  -0.0015   0.00    5.5
2172 589999.000   -623611.4501  -5330304.7358   3435421.3062   1   8   0.0052   0.0107   0.0057   0.0045  -0.0053  -0.0017   0.00    5.7
2172 590000.000   -623611.4504  -5330304.7376   3435421.3035   1   8   0.0045   0.0106   0.0054   0.0047  -0.0053  -0.0023   0.00    5.8
2172 590001.000   -623611.4478  -5330304.7328   3435421.3054   1   8   0.0049   0.0108   0.0054   0.0047  -0.0051  -0.0017   0.00    5.9
2172 590002.000   -623611.4492  -5330304.7341   3435421.3066   1   8   0.0044   0.0106   0.0054   0.0050  -0.0054  -0.0020   0.00    6.0
2172 590003.000   -623611.4497  -5330304.7375   3435421.3037   1   8   0.0050   0.0108   0.0060   0.0043  -0.0052  -0.0018   0.00    6.1
2172 590004.000   -623611.4502  -5330304.7345   3435421.3024   1   8   0.0052   0.0107   0.0056   0.0047  -0.0052  -0.0020   0.00    6.3
2172 590005.000   -623611.4483  -5330304.7315   3435421.3027   1   8   0.0044   0.0106   0.0057   0.0051  -0.0052  -0.0018   0.00    6.4
2172 590006.000   -623611.4484  -5330304.7318   3435421.3024   1   8   0.0053   0.0108   0.0055   0.0046  -0.0052  -0.0020   0.00    6.5
2172 590007.000   -623611.4526  -5330304.7351   3435421.3054   1   8   0.0051   0.0107   0.0056   0.0047  -0.0053  -0.0020   0.00    6.6
2172 590008.000   -623611.4495  -5330304.7319   3435421.3033   1   8   0.0046   0.0106   0.0056   0.0048  -0.0053  -0.0023   0.00    6.7
2172 590009.000   -623611.4523  -5330304.7352   3435421.3059   1   8   0.0045   0.0105   0.0057   0.0051  -0.0053  -0.0024   0.00    6.9
2172 590010.000   -623611.4490  -5330304.7305   3435421.3051   1   8   0.0049   0.0106   0.0056   0.0049  -0.0052  -0.0019   0.00    7.0
2172 590011.000   -623611.4521  -5330304.7315   3435421.3047   1   8   0.0047   0.0106   0.0056   0.0048  -0.0053  -0.0020   0.00    7.1
2172 590012.000   -623611.4499  -5330304.7280   3435421.3007   1   8   0.0046   0.0106   0.0055   0.0050  -0.0053  -0.0020   0.00    7.2
2172 590013.000   -623611.4503  -5330304.7329   3435421.3016   1   8   0.0050   0.0107   0.0056   0.0049  -0.0052  -0.0020   0.00    7.3
2172 590014.000   -623611.4501  -5330304.7291   3435421.3009   1   8   0.0050   0.0107   0.0057   0.0050  -0.0052  -0.0021   0.00    7.4
2172 590015.000   -623611.4507  -5330304.7314   3435421.3029   1   8   0.0046   0.0106   0.0054   0.0050  -0.0051  -0.0019   0.00    7.5
2172 590016.000   -623611.4513  -5330304.7339   3435421.3016   1   8   0.0050   0.0107   0.0056   0.0048  -0.0052  -0.0019   0.00    7.6
2172 590017.000   -623611.4513  -5330304.7304   3435421.3016   1   8   0.0045   0.0106   0.0058   0.0049  -0.0053  -0.0024   0.00    7.7
2172 590018.000   -623611.4498  -5330304.7311   3435421.3013   1   8   0.0051   0.0107   0.0057   0.0047  -0.0052  -0.0019   0.00    7.8
2172 590019.000   -623611.4523  -5330304.7335   3435421.2977   1   8   0.0051   0.0107   0.0055   0.0047  -0.0053  -0.0016   0.00    7.9
2172 590020.000   -623611.4511  -5330304.7345   3435421.3016   1   8   0.0050   0.0107   0.0056   0.0047  -0.0053  -0.0020   0.00    8.1
2172 590021.000   -623611.4513  -5330304.7337   3435421.2992   1   8   0.0051   0.0107   0.0056   0.0048  -0.0052  -0.0019   0.00    8.2
2172 590022.000   -623611.4529  -5330304.7354   3435421.2994   1   8   0.0050   0.0107   0.0055   0.0046  -0.0052  -0.0019   0.00    8.3
2172 590023.000   -623611.4533  -5330304.7334   3435421.3006   1   8   0.0045   0.0106   0.0057   0.0048  -0.0053  -0.0019   0.00    8.4
2172 590024.000   -623611.4509  -5330304.7334   3435421.2975   1   8   0.0050   0.0107   0.0057   0.0048  -0.0052  -0.0021   0.00    8.5
2172 590025.000   -623611.4516  -5330304.7341   3435421.2980   1   8   0.0044   0.0106   0.0056   0.0049  -0.0052  -0.0019   0.00    8.6
2172 590026.000   -623611.4528  -5330304.7397   3435421.2993   1   8   0.0054   0.0107   0.0058   0.0046  -0.0052  -0.0023   0.00    8.7
2172 590027.000   -623611.4503  -5330304.7385   3435421.2997   1   8   0.0050   0.0107   0.0056   0.0048  -0.0051  -0.0015   0.00    8.8
2172 590028.000   -623611.4515  -5330304.7365   3435421.2994   1   8   0.0050   0.0106   0.0056   0.0046  -0.0052  -0.0021   0.00    8.9
2172 590029.000   -623611.4541  -5330304.7351   3435421.3012   1   8   0.0051   0.0107   0.0056   0.0048  -0.0052  -0.0023   0.00    9.0
2172 590030.000   -623611.4527  -5330304.7295   3435421.3008   1   8   0.0049   0.0108   0.0056   0.0047  -0.0052  -0.0018   0.00    9.1
2172 590031.000   -623611.4527  -5330304.7359   3435421.2978   1   8   0.0049   0.0106   0.0055   0.0050  -0.0053  -0.0023   0.00    9.2
2172 590032.000   -623611.4539  -5330304.7351   3435421.2949   1   8   0.0049   0.0106   0.0056   0.0047  -0.0053  -0.0022   0.00    9.4
2172 590033.000   -623611.4518  -5330304.7329   3435421.2975   1   8   0.0049   0.0106   0.0055   0.0048  -0.0053  -0.0021   0.00    9.5
2172 590034.000   -623611.4550  -5330304.7367   3435421.2995   1   8   0.0052   0.0106   0.0058   0.0047  -0.0055  -0.0021   0.00    9.6
2172 590035.000   -623611.4533  -5330304.7336   3435421.2978   1   8   0.0047   0.0107   0.0059   0.0048  -0.0053  -0.0013   0.00    9.7
2172 590036.000   -623611.4551  -5330304.7343   3435421.2980   1   8   0.0052   0.0107   0.0058   0.0046  -0.0052  -0.0021   0.00    9.8
2172 590037.000   -623611.4573  -5330304.7402   3435421.3017   1   8   0.0047   0.0106   0.0056   0.0049  -0.0053  -0.0015   0.00    9.9
2172 590038.000   -623611.4578  -5330304.7353   3435421.3009   1   8   0.0046   0.0107   0.0054   0.0051  -0.0051  -0.0020   0.00   10.0
2172 590039.000   -623611.4549  -5330304.7352   3435421.2958   1   8   0.0050   0.0106   0.0056   0.0048  -0.0052  -0.0020   0.00   10.1
2172 590040.000   -623611.4549  -5330304.7383   3435421.2982   1   8   0.0050   0.0107   0.0056   0.0045  -0.0052  -0.0022   0.00   10.2
2172 590041.000   -623611.4556  -5330304.7343   3435421.2977   1   8   0.0050   0.0107   0.0057   0.0047  -0.0053  -0.0019   0.00   10.3
2172 590042.000   -623611.4565  -5330304.7357   3435421.2952   1   8   0.0049   0.0106   0.0055   0.0045  -0.0052  -0.0024   0.00   10.4
2172 590043.000   -623611.4570  -5330304.7361   3435421.2967   1   8   0.0052   0.0106   0.0057   0.0049  -0.0051  -0.0016   0.00   10.5
2172 590044.000   -623611.4589  -5330304.7385   3435421.2965   1   8   0.0050   0.0106   0.0056   0.0046  -0.0052  -0.0023   0.00   10.6
2172 590045.000   -623611.4604  -5330304.7404   3435421.2994   1   8   0.0049   0.0106   0.0053   0.0048  -0.0053  -0.0017   0.00   10.7
2172 590046.000   -623611.4593  -5330304.7368   3435421.2981   1   8   0.0050   0.0105   0.0054   0.0047  -0.0053  -0.0021   0.00   10.8
2172 590047.000   -623611.4634  -5330304.7414   3435421.2954   1   8   0.0052   0.0106   0.0055   0.0046  -0.0052  -0.0025   0.00   10.9
2172 590048.000   -623611.4600  -5330304.7387   3435421.2973   1   8   0.0048   0.0105   0.0059   0.0049  -0.0051  -0.0026   0.00   11.0
2172 590049.000   -623611.4616  -5330304.7385   3435421.2979   1   8   0.0048   0.0107   0.0058   0.0047  -0.0052  -0.0020   0.00   11.1
2172 590050.000   -623611.4623  -5330304.7392   3435421.2976   1   8   0.0049   0.0106   0.0056   0.0047  -0.0053  -0.0018   0.00   11.3
2172 590051.000   -623611.4622  -5330304.7433   3435421.2993   1   8   0.0051   0.0106   0.0055   0.0048  -0.0052  -0.0018   0.00   11.4
2172 590052.000   -623611.4633  -5330304.7451   3435421.2996   1   8   0.0054   0.0107   0.0056   0.0044  -0.0054  -0.0019   0.00   11.5
2172 590053.000   -623611.4633  -5330304.7426   3435421.2985   1   8   0.0047   0.0106   0.0056   0.0047  -0.0053  -0.0017   0.00   11.6
2172 590054.000   -623611.4644  -5330304.7366   3435421.2959   1   8   0.0048   0.0106   0.0056   0.0047  -0.0052  -0.0022   0.00   11.7
2172 590055.000   -623611.4621  -5330304.7305   3435421.2956   1   8   0.0046   0.0105   0.0054   0.0046  -0.0052  -0.0023   0.00   11.8
2172 590056.000   -623611.4613  -5330304.7353   3435421.2986   1   8   0.0051   0.0106   0.0055   0.0047  -0.0053  -0.0021   0.00   11.9
2172 590057.000   -623611.4618  -5330304.7388   3435421.3000   1   8   0.0056   0.0107   0.0057   0.0043  -0.0053  -0.0017   0.00   12.0
2172 590058.000   -623611.4638  -5330304.7415   3435421.2963   1   8   0.0047   0.0106   0.0057   0.0046  -0.0052  -0.0024   0.00   12.1
2172 590059.000   -623611.4627  -5330304.7379   3435421.2958   1   8   0.0050   0.0106   0.0054   0.0045  -0.0052  -0.0017   0.00   12.1
2172 590060.000   -623611.4630  -5330304.7361   3435421.2988   1   8   0.0051   0.0106   0.0055   0.0047  -0.0052  -0.0019   0.00   12.2
2172 590061.000   -623611.4642  -5330304.7374   3435421.2968   1   8   0.0048   0.0106   0.0056   0.0048  -0.0051  -0.0020   0.00   12.2
2172 590062.000   -623611.4635  -5330304.7359   3435421.2987   1   8   0.0052   0.0106   0.0055   0.0047  -0.0051  -0.0021   0.00   12.3
2172 590063.000   -623611.4647  -5330304.7420   3435421.2986   1   8   0.0046   0.0106   0.0056   0.0048  -0.0052  -0.0023   0.00   12.3
2172 590064.000   -623611.4652  -5330304.7386   3435421.2998   1   8   0.0049   0.0106   0.0057   0.0047  -0.0053  -0.0019   0.00   12.4
2172 590065.000   -623611.4652  -5330304.7411   3435421.2987   1   8   0.0049   0.0106   0.0055   0.0046  -0.0052  -0.0025   0.00   12.4
2172 590066.000   -623611.4666  -5330304.7439   3435421.3001   1   8   0.0048   0.0105   0.0056   0.0050  -0.0052  -0.0019   0.00   12.5
2172 590067.000   -623611.4645  -5330304.7425   3435421.2986   1   8   0.0050   0.0107   0.0056   0.0048  -0.0052  -0.0015   0.00   12.5
2172 590068.000   -623611.4652  -5330304.7416   3435421.2980   1   8   0.0048   0.0106   0.0056   0.0049  -0.0054  -0.0019   0.00   12.6
2172 590069.000   -623611.4667  -5330304.7476   3435421.2974   1   8   0.0046   0.0104   0.0055   0.0051  -0.0052  -0.0021   0.00   12.7
2172 590070.000   -623611.4650  -5330304.7440   3435421.2939   1   8   0.0045   0.0104   0.0055   0.0050  -0.0052  -0.0023   0.00   12.8
2172 590071.000   -623611.4665  -5330304.7453   3435421.2961   1   8   0.0048   0.0106   0.0056   0.0045  -0.0053  -0.0018   0.00   12.8
2172 590072.000   -623611.4655  -5330304.7443   3435421.2969   1   8   0.0053   0.0107   0.0056   0.0047  -0.0053  -0.0019   0.00   12.8
2172 590073.000   -623611.4644  -5330304.7410   3435421.2962   1   8   0.0048   0.0106   0.0055   0.0049  -0.0052  -0.0021   0.00   12.9
2172 590074.000   -623611.4627  -5330304.7403   3435421.2972   1   8   0.0052   0.0106   0.0055   0.0046  -0.0053  -0.0020   0.00   13.0
2172 590075.000   -623611.4656  -5330304.7481   3435421.3000   1   8   0.0050   0.0106   0.0056   0.0048  -0.0052  -0.0023   0.00   13.1
2172 590076.000   -623611.4660  -5330304.7419   3435421.2960   1   8   0.0052   0.0107   0.0054   0.0045  -0.0051  -0.0021   0.00   13.2
2172 590077.000   -623611.4647  -5330304.7477   3435421.2986   1   8   0.0043   0.0106   0.0056   0.0046  -0.0052  -0.0022   0.00   13.4
2172 590078.000   -623611.4630  -5330304.7417   3435421.2967   1   8   0.0049   0.0106   0.0056   0.0049  -0.0052  -0.0023   0.00   13.4
2172 590079.000   -623611.4650  -5330304.7453   3435421.2950   1   8   0.0052   0.0105   0.0058   0.0047  -0.0053  -0.0016   0.00   13.5
2172 590080.000   -623611.4668  -5330304.7409   3435421.2971   1   8   0.0048   0.0105   0.0054   0.0050  -0.0052  -0.0026   0.00   13.6
2172 590081.000   -623611.4652  -5330304.7440   3435421.2968   1   8   0.0045   0.0105   0.0056   0.0050  -0.0052  -0.0021   0.00   13.8
2172 590082.000   -623611.4651  -5330304.7444   3435421.2972   1   8   0.0049   0.0106   0.0057   0.0048  -0.0052  -0.0021   0.00   13.9
2172 590083.000   -623611.4652  -5330304.7451   3435421.2955   1   8   0.0052   0.0106   0.0055   0.0046  -0.0052  -0.0021   0.00   14.0
2172 590084.000   -623611.4650  -5330304.7454   3435421.2975   1   8   0.0049   0.0106   0.0058   0.0047  -0.0052  -0.0017   0.00   14.1
2172 590085.000   -623611.4659  -5330304.7464   3435421.2975   1   8   0.0047   0.0106   0.0054   0.0050  -0.0053  -0.0020   0.00   14.2
2172 590086.000   -623611.4662  -5330304.7477   3435421.2969   1   8   0.0053   0.0105   0.0056   0.0045  -0.0053  -0.0024   0.00   14.3
2172 590087.000   -623611.4666  -5330304.7434   3435421.2955   1   8   0.0041   0.0104   0.0056   0.0048  -0.0052  -0.0022   0.00   14.4
2172 590088.000   -623611.4664  -5330304.7508   3435421.2979   1   8   0.0047   0.0105   0.0056   0.0048  -0.0053  -0.0022   0.00   14.6
2172 590089.000   -623611.4662  -5330304.7460   3435421.2969   1   8   0.0045   0.0106   0.0055   0.0051  -0.0052  -0.0022   0.00   14.6
2172 590090.000   -623611.4667  -5330304.7433   3435421.2968   1   8   0.0045   0.0105   0.0058   0.0048  -0.0053  -0.0022   0.00   14.7
2172 590091.000   -623611.4653  -5330304.7450   3435421.2995   1   8   0.0049   0.0105   0.0054   0.0048  -0.0053  -0.0024   0.00   14.8
2172 590092.000   -623611.4660  -5330304.7437   3435421.2957   1   8   0.0048   0.0106   0.0057   0.0049  -0.0053  -0.0024   0.00   14.9
2172 590093.000   -623611.4682  -5330304.7441   3435421.2975   1   8   0.0051   0.0105   0.0056   0.0045  -0.0053  -0.0021   0.00   15.0
2172 590094.000   -623611.4644  -5330304.7465   3435421.2972   1   8   0.0045   0.0105   0.0054   0.0046  -0.0051  -0.0023   0.00   15.1
2172 590095.000   -623611.4652  -5330304.7426   3435421.2961   1   8   0.0047   0.0106   0.0056   0.0047  -0.0051  -0.0017   0.00   15.2
2172 590096.000   -623611.4666  -5330304.7488   3435421.2966   1   8   0.0051   0.0106   0.0055   0.0048  -0.0053  -0.0020   0.00   15.3
2172 590097.000   -623611.4698  -5330304.7518   3435421.2983   1   8   0.0051   0.0106   0.0055   0.0049  -0.0052  -0.0021   0.00   15.4
2172 590098.000   -623611.4691  -5330304.7545   3435421.2966   1   8   0.0047   0.0105   0.0056   0.0048  -0.0053  -0.0019   0.00   15.5
2172 590099.000   -623611.4682  -5330304.7491   3435421.3033   1   8   0.0047   0.0104   0.0057   0.0051  -0.0053  -0.0016   0.00   15.6
2172 590100.000   -623611.4677  -5330304.7496   3435421.3009   1   8   0.0048   0.0105   0.0057   0.0048  -0.0053  -0.0020   0.00   15.6
2172 590101.000   -623611.4670  -5330304.7524   3435421.3028   1   8   0.0049   0.0105   0.0055   0.0044  -0.0052  -0.0017   0.00   15.7
2172 590102.000   -623611.4647  -5330304.7509   3435421.3015   1   8   0.0054   0.0106   0.0055   0.0046  -0.0052  -0.0021   0.00   15.8
2172 590103.000   -623611.4667  -5330304.7547   3435421.3028   1   8   0.0052   0.0105   0.0057   0.0045  -0.0052  -0.0019   0.00   15.9
2172 590104.000   -623611.4671  -5330304.7497   3435421.2986   1   8   0.0053   0.0106   0.0051   0.0046  -0.0052  -0.0025   0.00   15.9
2172 590105.000   -623611.4659  -5330304.7484   3435421.3000   1   8   0.0045   0.0105   0.0059   0.0050  -0.0051  -0.0022   0.00   16.0
2172 590106.000   -623611.4659  -5330304.7492   3435421.2990   1   8   0.0051   0.0106   0.0057   0.0045  -0.0052  -0.0017   0.00   16.1
2172 590107.000   -623611.4673  -5330304.7477   3435421.2985   1   8   0.0051   0.0106   0.0056   0.0043  -0.0052  -0.0020   0.00   16.1
2172 590108.000   -623611.4664  -5330304.7538   3435421.3003   1   8   0.0051   0.0105   0.0057   0.0047  -0.0053  -0.0018   0.00   16.2
2172 590109.000   -623611.4678  -5330304.7557   3435421.3011   1   8   0.0047   0.0105   0.0054   0.0048  -0.0052  -0.0020   0.00   16.2
2172 590110.000   -623611.4691  -5330304.7560   3435421.3013   1   8   0.0050   0.0105   0.0055   0.0046  -0.0053  -0.0022   0.00   16.3
2172 590111.000   -623611.4671  -5330304.7468   3435421.2965   1   8   0.0046   0.0105   0.0055   0.0047  -0.0052  -0.0022   0.00   16.3
2172 590112.000   -623611.4671  -5330304.7586   3435421.3038   1   8   0.0051   0.0106   0.0057   0.0046  -0.0052  -0.0021   0.00   16.4
2172 590113.000   -623611.4658  -5330304.7491   3435421.3014   1   8   0.0047   0.0105   0.0056   0.0049  -0.0053  -0.0021   0.00   16.4
2172 590114.000   -623611.4688  -5330304.7495   3435421.3000   1   8   0.0046   0.0105   0.0055   0.0050  -0.0051  -0.0024   0.00   16.4
2172 590115.000   -623611.4653  -5330304.7515   3435421.3023   1   8   0.0055   0.0105   0.0056   0.0048  -0.0053  -0.0020   0.00   16.5
2172 590116.000   -623611.4664  -5330304.7478   3435421.2990   1   8   0.0050   0.0106   0.0056   0.0045  -0.0052  -0.0015   0.00   16.5
2172 590117.000   -623611.4672  -5330304.7533   3435421.3015   1   8   0.0047   0.0105   0.0057   0.0048  -0.0052  -0.0017   0.00   16.6
2172 590118.000   -623611.4687  -5330304.7565   3435421.3035   1   8   0.0054   0.0106   0.0054   0.0043  -0.0052  -0.0019   0.00   16.7
2172 590119.000   -623611.4682  -5330304.7570   3435421.3065   1   8   0.0052   0.0106   0.0056   0.0044  -0.0052  -0.0020   0.00   16.7
2172 590120.000   -623611.4678  -5330304.7552   3435421.3047   1   8   0.0050   0.0106   0.0058   0.0044  -0.0052  -0.0017   0.00   16.8
2172 590121.000   -623611.4660  -5330304.7541   3435421.3036   1   8   0.0048   0.0105   0.0056   0.0046  -0.0052  -0.0024   0.00   16.8
2172 590122.000   -623611.4659  -5330304.7540   3435421.3034   1   8   0.0043   0.0105   0.0053   0.0051  -0.0051  -0.0026   0.00   16.8
2172 590123.000   -623611.4650  -5330304.7555   3435421.3039   1   8   0.0049   0.0105   0.0055   0.0048  -0.0052  -0.0024   0.00   16.9
2172 590124.000   -623611.4674  -5330304.7626   3435421.3002   1   8   0.0052   0.0105   0.0057   0.0047  -0.0052  -0.0021   0.00   17.0
2172 590125.000   -623611.4661  -5330304.7612   3435421.3011   1   8   0.0048   0.0104   0.0054   0.0047  -0.0053  -0.0027   0.00   17.1
2172 590126.000   -623611.4651  -5330304.7607   3435421.3008   1   8   0.0043   0.0104   0.0057   0.0049  -0.0053  -0.0022   0.00   17.2
2172 590127.000   -623611.4656  -5330304.7587   3435421.3008   1   8   0.0051   0.0105   0.0055   0.0045  -0.0053  -0.0020   0.00   17.2
2172 590128.000   -623611.4678  -5330304.7613   3435421.3029   1   8   0.0048   0.0105   0.0056   0.0048  -0.0052  -0.0023   0.00   17.3
2172 590129.000   -623611.4666  -5330304.7554   3435421.3016   1   8   0.0046   0.0104   0.0055   0.0050  -0.0051  -0.0020   0.00   17.4
2172 590130.000   -623611.4659  -5330304.7580   3435421.3024   1   8   0.0049   0.0105   0.0056   0.0046  -0.0052  -0.0019   0.00   17.4
2172 590131.000   -623611.4657  -5330304.7560   3435421.3019   1   8   0.0048   0.0104   0.0054   0.0050  -0.0052  -0.0017   0.00   17.4
2172 590132.000   -623611.4673  -5330304.7599   3435421.3020   1   8   0.0054   0.0106   0.0053   0.0044  -0.0051  -0.0018   0.00   17.5
2172 590133.000   -623611.4669  -5330304.7576   3435421.3029   1   8   0.0044   0.0104   0.0053   0.0048  -0.0052  -0.0020   0.00   17.6
2172 590134.000   -623611.4659  -5330304.7548   3435421.3001   1   8   0.0050   0.0105   0.0057   0.0047  -0.0052  -0.0021   0.00   17.6
2172 590135.000   -623611.4629  -5330304.7517   3435421.3006   1   8   0.0047   0.0104   0.0056   0.0047  -0.0054  -0.0023   0.00   17.6
2172 590136.000   -623611.4641  -5330304.7531   3435421.3004   1   8   0.0047   0.0105   0.0055   0.0050  -0.0052  -0.0023   0.00   17.7
2172 590137.000   -623611.4631  -5330304.7525   3435421.3014   1   8   0.0047   0.0105   0.0055   0.0045  -0.0050  -0.0020   0.00   17.7
2172 590138.000   -623611.4641  -5330304.7556   3435421.3006   1   8   0.0043   0.0104   0.0057   0.0051  -0.0051  -0.0023   0.00   17.8
2172 590139.000   -623611.4654  -5330304.7539   3435421.2989   1   8   0.0048   0.0105   0.0056   0.0049  -0.0051  -0.0009   0.00   17.8
2172 590140.000   -623611.4637  -5330304.7522   3435421.2998   1   8   0.0044   0.0104   0.0056   0.0046  -0.0052  -0.0021   0.00   17.9
2172 590141.000   -623611.4623  -5330304.7534   3435421.2998   1   8   0.0049   0.0105   0.0055   0.0047  -0.0051  -0.0020   0.00   17.9
2172 590142.000   -623611.4641  -5330304.7545   3435421.2998   1   8   0.0049   0.0104   0.0056   0.0045  -0.0052  -0.0021   0.00   17.9
2172 590143.000   -623611.4637  -5330304.7578   3435421.2992   1   8   0.0050   0.0106   0.0057   0.0046  -0.0052  -0.0023   0.00   17.9
2172 590144.000   -623611.4639  -5330304.7504   3435421.3022   1   8   0.0047   0.0105   0.0056   0.0047  -0.0053  -0.0018   0.00   17.9
2172 590145.000   -623611.4660  -5330304.7545   3435421.3028   1   8   0.0049   0.0104   0.0055   0.0046  -0.0052  -0.0020   0.00   17.9
2172 590146.000   -623611.4639  -5330304.7505   3435421.2992   1   8   0.0052   0.0105   0.0057   0.0044  -0.0051  -0.0015   0.00   17.9
2172 590147.000   -623611.4632  -5330304.7530   3435421.3012   1   8   0.0048   0.0105   0.0057   0.0044  -0.0053  -0.0019   0.00   17.9
2172 590148.000   -623611.4646  -5330304.7486   3435421.2992   1   8   0.0049   0.0105   0.0058   0.0045  -0.0052  -0.0020   0.00   17.9
2172 590149.000   -623611.4612  -5330304.7473   3435421.2963   1   8   0.0051   0.0104   0.0056   0.0046  -0.0052  -0.0020   0.00   17.8
2172 590150.000   -623611.4629  -5330304.7527   3435421.2980   1   8   0.0046   0.0104   0.0054   0.0049  -0.0052  -0.0023   0.00   17.8
2172 590151.000   -623611.4631  -5330304.7542   3435421.2972   1   8   0.0052   0.0105   0.0056   0.0047  -0.0053  -0.0020   0.00   17.8
2172 590152.000   -623611.4637  -5330304.7528   3435421.2975   1   8   0.0049   0.0105   0.0056   0.0048  -0.0052  -0.0022   0.00   17.7
2172 590153.000   -623611.4631  -5330304.7532   3435421.2992   1   8   0.0046   0.0105   0.0055   0.0048  -0.0052  -0.0023   0.00   17.7
2172 590154.000   -623611.4623  -5330304.7502   3435421.2949   1   8   0.0052   0.0105   0.0057   0.0045  -0.0052  -0.0018   0.00   17.6
2172 590155.000   -623611.4618  -5330304.7554   3435421.2976   1   8   0.0051   0.0105   0.0055   0.0047  -0.0052  -0.0020   0.00   17.6
2172 590156.000   -623611.4627  -5330304.7498   3435421.2964   1   8   0.0048   0.0104   0.0055   0.0047  -0.0052  -0.0019   0.00   17.6
2172 590157.000   -623611.4625  -5330304.7537   3435421.2983   1   8   0.0045   0.0105   0.0055   0.0049  -0.0052  -0.0022   0.00   17.6
2172 590158.000   -623611.4616  -5330304.7575   3435421.2980   1   8   0.0046   0.0104   0.0058   0.0050  -0.0052  -0.0022   0.00   17.5
2172 590159.000   -623611.4624  -5330304.7522   3435421.2971   1   8   0.0049   0.0104   0.0056   0.0048  -0.0051  -0.0019   0.00   17.4
2172 590160.000   -623611.4616  -5330304.7506   3435421.2954   1   8   0.0048   0.0104   0.0058   0.0049  -0.0053  -0.0019   0.00   17.4
2172 590161.000   -623611.4649  -5330304.7500   3435421.2965   1   8   0.0047   0.0105   0.0057   0.0048  -0.0052  -0.0020   0.00   17.3
2172 590162.000   -623611.4624  -5330304.7502   3435421.2973   1   8   0.0046   0.0104   0.0054   0.0047  -0.0053  -0.0022   0.00   17.2
2172 590163.000   -623611.4642  -5330304.7532   3435421.2974   1   8   0.0047   0.0105   0.0056   0.0048  -0.0051  -0.0020   0.00   17.2
2172 590164.000   -623611.4650  -5330304.7542   3435421.2922   1   7   0.0049   0.0105   0.0066   0.0047  -0.0053   0.0007   0.00   13.8
2172 590165.000   -623611.4644  -5330304.7501   3435421.2916   1   7   0.0048   0.0103   0.0065   0.0047  -0.0052   0.0002   0.00   13.8
2172 590166.000   -623611.4637  -5330304.7477   3435421.2894   1   7   0.0050   0.0104   0.0065   0.0048  -0.0053   0.0009   0.00   13.7
2172 590167.000   -623611.4648  -5330304.7523   3435421.2936   1   7   0.0053   0.0105   0.0065   0.0046  -0.0052   0.0012   0.00   13.7
2172 590168.000   -623611.4649  -5330304.7525   3435421.2928   1   7   0.0053   0.0105   0.0066   0.0044  -0.0053   0.0002   0.00   13.6
2172 590169.000   -623611.4665  -5330304.7513   3435421.2881   1   7   0.0055   0.0105   0.0064   0.0045  -0.0053   0.0016   0.00   13.6
2172 590170.000   -623611.4663  -5330304.7488   3435421.2841   1   7   0.0053   0.0105   0.0065   0.0047  -0.0053  -0.0005   0.00   13.6
2172 590171.000   -623611.4658  -5330304.7533   3435421.2869   1   7   0.0055   0.0105   0.0065   0.0045  -0.0053   0.0012   0.00   13.5
2172 590172.000   -623611.4688  -5330304.7531   3435421.2872   1   7   0.0046   0.0103   0.0065   0.0048  -0.0052   0.0014   0.00   13.5
2172 590173.000   -623611.4674  -5330304.7478   3435421.2849   1   7   0.0051   0.0105   0.0065   0.0046  -0.0053   0.0009   0.00   13.5
2172 590174.000   -623611.4677  -5330304.7611   3435421.2880   1   7   0.0051   0.0104   0.0066   0.0047  -0.0052   0.0012   0.00   13.4
2172 590175.000   -623611.4683  -5330304.7565   3435421.2857   1   7   0.0053   0.0104   0.0065   0.0047  -0.0053   0.0008   0.00   13.4
2172 590176.000   -623611.4696  -5330304.7590   3435421.2890   1   7   0.0054   0.0105   0.0064   0.0043  -0.0053   0.0009   0.00   13.3
2172 590177.000   -623611.4684  -5330304.7555   3435421.2880   1   7   0.0053   0.0104   0.0064   0.0043  -0.0053   0.0012   0.00   13.3
2172 590178.000   -623611.4685  -5330304.7544   3435421.2856   1   7   0.0052   0.0104   0.0065   0.0047  -0.0053   0.0013   0.00   13.3
2172 590179.000   -623611.4677  -5330304.7569   3435421.2862   1   7   0.0050   0.0104   0.0066   0.0049  -0.0053   0.0002   0.00   13.2
2172 590180.000   -623611.4666  -5330304.7541   3435421.2858   1   7   0.0053   0.0105   0.0067   0.0045  -0.0053   0.0010   0.00   13.2
2172 590181.000   -623611.4658  -5330304.7611   3435421.2876   1   7   0.0051   0.0104   0.0064   0.0047  -0.0054  -0.0003   0.00   13.2
2172 590182.000   -623611.4655  -5330304.7566   3435421.2839   1   7   0.0052   0.0105   0.0065   0.0046  -0.0052   0.0014   0.00   13.2
2172 590183.000   -623611.4658  -5330304.7577   3435421.2843   1   7   0.0053   0.0105   0.0067   0.0046  -0.0054   0.0013   0.00   13.1
2172 590184.000   -623611.4644  -5330304.7522   3435421.2859   1   7   0.0050   0.0104   0.0065   0.0046  -0.0053   0.0013   0.00   13.1
2172 590185.000   -623611.4665  -5330304.7511   3435421.2827   1   7   0.0054   0.0105   0.0066   0.0045  -0.0054   0.0012   0.00   13.0
2172 590186.000   -623611.4663  -5330304.7576   3435421.2848   1   7   0.0048   0.0104   0.0065   0.0047  -0.0054   0.0010   0.00   13.0
2172 590187.000   -623611.4657  -5330304.7556   3435421.2824   1   7   0.0052   0.0105   0.0065   0.0047  -0.0053   0.0008   0.00   13.0
2172 590188.000   -623611.4676  -5330304.7593   3435421.2858   1   7   0.0048   0.0103   0.0063   0.0049  -0.0053   0.0016   0.00   12.9
2172 590189.000   -623611.4630  -5330304.7521   3435421.2813   1   7   0.0046   0.0103   0.0065   0.0048  -0.0052   0.0013   0.00   12.9
2172 590190.000   -623611.4641  -5330304.7579   3435421.2821   1   7   0.0050   0.0104   0.0065   0.0047  -0.0053   0.0008   0.00   12.8
2172 590191.000   -623611.4641  -5330304.7496   3435421.2827   1   7   0.0055   0.0105   0.0065   0.0045  -0.0052   0.0011   0.00   12.8
2172 590192.000   -623611.4635  -5330304.7527   3435421.2826   1   7   0.0048   0.0104   0.0065   0.0048  -0.0053  -0.0009   0.00   12.7
2172 590193.000   -623611.4631  -5330304.7513   3435421.2825   1   7   0.0051   0.0104   0.0065   0.0047  -0.0054   0.0013   0.00   12.6
2172 590194.000   -623611.4656  -5330304.9029   3435421.1690   2   8   0.0227   0.0263   0.0170  -0.0073  -0.0110  -0.0064   0.00    1.1
2172 590195.000   -623611.4657  -5330304.9003   3435421.1689   2   8   0.0226   0.0261   0.0168  -0.0075  -0.0110  -0.0067   0.00    1.2
2172 590196.000   -623611.4645  -5330304.9037   3435421.1656   2   8   0.0226   0.0261   0.0167  -0.0075  -0.0110  -0.0067   0.00    1.3
2172 590197.000   -623611.4653  -5330304.8944   3435421.1656   2   8   0.0225   0.0260   0.0166  -0.0073  -0.0109  -0.0068   0.00    1.4
2172 590198.000   -623611.4636  -5330304.8960   3435421.1629   2   8   0.0224   0.0259   0.0165  -0.0074  -0.0109  -0.0067   0.00    1.4
2172 590199.000   -623611.4639  -5330304.8955   3435421.1614   2   8   0.0224   0.0258   0.0164  -0.0075  -0.0108  -0.0066   0.00    1.5
2172 590200.000   -623611.4630  -5330304.8955   3435421.1619   2   8   0.0224   0.0258   0.0164  -0.0075  -0.0108  -0.0068   0.00    1.6
2172 590201.000   -623611.4609  -5330304.8954   3435421.1613   2   8   0.0223   0.0257   0.0163  -0.0075  -0.0107  -0.0068   0.00    1.7
2172 590202.000   -623611.4625  -5330304.8984   3435421.1592   2   8   0.0223   0.0256   0.0163  -0.0076  -0.0107  -0.0068   0.00    1.7
2172 590203.000   -623611.4611  -5330304.8978   3435421.1564   2   8   0.0222   0.0255   0.0162  -0.0076  -0.0107  -0.0068   0.00    1.8
2172 590204.000   -623611.4618  -5330304.8969   3435421.1567   2   8   0.0223   0.0255   0.0162  -0.0075  -0.0106  -0.0068   0.00    1.9
2172 590205.000   -623611.4607  -5330304.8960   3435421.1556   2   8   0.0221   0.0254   0.0161  -0.0077  -0.0105  -0.0068   0.00    2.0
2172 590206.000   -623611.4600  -5330304.8961   3435421.1544   2   8   0.0222   0.0253   0.0161  -0.0076  -0.0106  -0.0068   0.00    2.0
2172 590207.000   -623611.4606  -5330304.8899   3435421.1540   2   8   0.0221   0.0252   0.0160  -0.0077  -0.0106  -0.0068   0.00    2.1
2172 590208.000   -623611.4581  -5330304.8896   3435421.1528   2   8   0.0219   0.0252   0.0160  -0.0077  -0.0105  -0.0070   0.00    2.2
2172 590209.000   -623611.4569  -5330304.8818   3435421.1490   2   8   0.0220   0.0251   0.0159  -0.0078  -0.0104  -0.0069   0.00    2.2
2172 590210.000   -623611.4569  -5330304.8869   3435421.1479   2   8   0.0220   0.0250   0.0159  -0.0077  -0.0104  -0.0067   0.00    2.3
2172 590211.000   -623611.4561  -5330304.8888   3435421.1478   2   8   0.0219   0.0250   0.0158  -0.0077  -0.0103  -0.0068   0.00    2.3
2172 590212.000   -623611.4577  -5330304.8876   3435421.1473   2   8   0.0220   0.0249   0.0157  -0.0077  -0.0103  -0.0068   0.00    2.4
2172 590213.000   -623611.4553  -5330304.8868   3435421.1436   2   8   0.0219   0.0248   0.0158  -0.0080  -0.0103  -0.0066   0.00    2.4
2172 590214.000   -623611.4536  -5330304.8904   3435421.1453   2   8   0.0219   0.0248   0.0157  -0.0079  -0.0103  -0.0069   0.00    2.5
2172 590215.000   -623611.4521  -5330304.8888   3435421.1470   2   8   0.0219   0.0247   0.0157  -0.0079  -0.0102  -0.0069   0.00    2.6
2172 590216.000   -623611.4532  -5330304.8943   3435421.1452   2   8   0.0219   0.0246   0.0155  -0.0079  -0.0102  -0.0069   0.00    2.6
2172 590217.000   -623611.4525  -5330304.8869   3435421.1418   2   8   0.0218   0.0246   0.0155  -0.0080  -0.0101  -0.0068   0.00    2.7
2172 590218.000   -623611.4517  -5330304.8889   3435421.1421   2   8   0.0217   0.0245   0.0155  -0.0079  -0.0101  -0.0069   0.00    2.8
2172 590219.000   -623611.4502  -5330304.8900   3435421.1397   2   8   0.0217   0.0244   0.0154  -0.0078  -0.0100  -0.0069   0.00    2.8
2172 590220.000   -623611.4518  -5330304.8886   3435421.1413   2   8   0.0217   0.0243   0.0154  -0.0080  -0.0101  -0.0068   0.00    2.9
2172 590221.000   -623611.4505  -5330304.8844   3435421.1399   2   8   0.0216   0.0242   0.0153  -0.0078  -0.0100  -0.0069   0.00    2.9
2172 590222.000   -623611.4476  -5330304.8828   3435421.1415   2   8   0.0215   0.0242   0.0153  -0.0078  -0.0100  -0.0068   0.00    3.0
2172 590223.000   -623611.4614  -5330304.7602   3435421.2939   1   8   0.0046   0.0103   0.0057   0.0047  -0.0051  -0.0021   0.00    3.0
2172 590224.000   -623611.4583  -5330304.7619   3435421.2919   1   8   0.0048   0.0104   0.0054   0.0045  -0.0051  -0.0019   0.00    3.1
2172 590225.000   -623611.4569  -5330304.7583   3435421.2923   1   8   0.0052   0.0105   0.0057   0.0042  -0.0050  -0.0020   0.00    3.1
2172 590226.000   -623611.4558  -5330304.7563   3435421.2915   1   8   0.0047   0.0105   0.0055   0.0048  -0.0049  -0.0020   0.00    3.2
2172 590227.000   -623611.4585  -5330304.7630   3435421.2924   1   8   0.0051   0.0104   0.0056   0.0045  -0.0052  -0.0019   0.00    3.2
2172 590228.000   -623611.4573  -5330304.7597   3435421.2908   1   8   0.0049   0.0103   0.0058   0.0050  -0.0051  -0.0022   0.00    3.3
2172 590229.000   -623611.4589  -5330304.7597   3435421.2917   1   8   0.0049   0.0104   0.0055   0.0047  -0.0051  -0.0016   0.00    3.3
2172 590230.000   -623611.4569  -5330304.7600   3435421.2903   1   8   0.0051   0.0104   0.0057   0.0044  -0.0052  -0.0022   0.00    3.4
2172 590231.000   -623611.4592  -5330304.7616   3435421.2917   1   8   0.0050   0.0104   0.0057   0.0042  -0.0053  -0.0020   0.00    3.4
2172 590232.000   -623611.4590  -5330304.7581   3435421.2904   1   8   0.0050   0.0104   0.0055   0.0045  -0.0053  -0.0021   0.00    3.5
2172 590233.000   -623611.4614  -5330304.7572   3435421.2891   1   8   0.0049   0.0104   0.0056   0.0046  -0.0051  -0.0020   0.00    3.5
2172 590234.000   -623611.4574  -5330304.7667   3435421.2950   1   8   0.0049   0.0103   0.0055   0.0045  -0.0053  -0.0020   0.00    3.5
2172 590235.000   -623611.4561  -5330304.7574   3435421.2897   1   8   0.0052   0.0104   0.0055   0.0044  -0.0051  -0.0020   0.00    3.6
2172 590236.000   -623611.4558  -5330304.7604   3435421.2916   1   8   0.0050   0.0104   0.0055   0.0043  -0.0051  -0.0022   0.00    3.6
2172 590237.000   -623611.4600  -5330304.7575   3435421.2941   1   8   0.0048   0.0103   0.0058   0.0047  -0.0052  -0.0023   0.00    3.7
2172 590238.000   -623611.4576  -5330304.7597   3435421.2940   1   8   0.0046   0.0103   0.0055   0.0047  -0.0053  -0.0020   0.00    3.7
2172 590239.000   -623611.4567  -5330304.7626   3435421.2929   1   8   0.0049   0.0103   0.0056   0.0047  -0.0052  -0.0020   0.00    3.8
2172 590240.000   -623611.4549  -5330304.7565   3435421.2887   1   8   0.0049   0.0103   0.0055   0.0046  -0.0053  -0.0021   0.00    3.8
2172 590241.000   -623611.4578  -5330304.7598   3435421.2902   1   8   0.0045   0.0104   0.0056   0.0050  -0.0050  -0.0021   0.00    3.9
2172 590242.000   -623611.4575  -5330304.7583   3435421.2898   1   8   0.0054   0.0104   0.0056   0.0048  -0.0053  -0.0021   0.00    3.9
2172 590243.000   -623611.4560  -5330304.7577   3435421.2899   1   8   0.0052   0.0104   0.0056   0.0044  -0.0051  -0.0021   0.00    4.0
2172 590244.000   -623611.4562  -5330304.7637   3435421.2903   1   8   0.0050   0.0104   0.0056   0.0047  -0.0052  -0.0014   0.00    4.0
2172 590245.000   -623611.4579  -5330304.7579   3435421.2902   1   8   0.0050   0.0104   0.0058   0.0046  -0.0052  -0.0016   0.00    4.0
2172 590246.000   -623611.4571  -5330304.7640   3435421.2929   1   8   0.0047   0.0104   0.0056   0.0048  -0.0052  -0.0022   0.00    4.1
2172 590247.000   -623611.4559  -5330304.7589   3435421.2894   1   8   0.0049   0.0103   0.0057   0.0045  -0.0053  -0.0022   0.00    4.1
2172 590248.000   -623611.4606  -5330304.7671   3435421.2922   1   8   0.0050   0.0104   0.0057   0.0046  -0.0052  -0.0022   0.00    4.2
2172 590249.000   -623611.4558  -5330304.7565   3435421.2895   1   8   0.0049   0.0104   0.0056   0.0047  -0.0053  -0.0022   0.00    4.2
2172 590250.000   -623611.4564  -5330304.7563   3435421.2879   1   8   0.0051   0.0103   0.0056   0.0047  -0.0052  -0.0022   0.00    4.3
2172 590251.000   -623611.4585  -5330304.7588   3435421.2898   1   8   0.0049   0.0103   0.0057   0.0046  -0.0051  -0.0022   0.00    4.3
2172 590252.000   -623611.4556  -5330304.7554   3435421.2921   1   8   0.0056   0.0103   0.0054   0.0042  -0.0053  -0.0025   0.00    4.3
2172 590253.000   -623611.4562  -5330304.7554   3435421.2900   1   8   0.0051   0.0104   0.0053   0.0043  -0.0050  -0.0022   0.00    4.4
2172 590254.000   -623611.4572  -5330304.7583   3435421.2909   1   8   0.0047   0.0103   0.0056   0.0044  -0.0052  -0.0020   0.00    4.4
2172 590255.000   -623611.4571  -5330304.7600   3435421.2915   1   8   0.0048   0.0103   0.0057   0.0046  -0.0052  -0.0025   0.00    4.5
2172 590256.000   -623611.4581  -5330304.7579   3435421.2925   1   8   0.0048   0.0103   0.0055   0.0049  -0.0052  -0.0023   0.00    4.5
2172 590257.000   -623611.4557  -5330304.7572   3435421.2903   1   8   0.0042   0.0102   0.0059   0.0048  -0.0052  -0.0021   0.00    4.5
2172 590258.000   -623611.4554  -5330304.7576   3435421.2906   1   8   0.0050   0.0104   0.0058   0.0045  -0.0052  -0.0020   0.00    4.6
2172 590259.000   -623611.4550  -5330304.7590   3435421.2897   1   8   0.0048   0.0104   0.0056   0.0045  -0.0053  -0.0022   0.00    4.6
2172 590260.000   -623611.4564  -5330304.7567   3435421.2904   1   8   0.0046   0.0103   0.0057   0.0048  -0.0052  -0.0017   0.00    4.7
2172 590261.000   -623611.4581  -5330304.7620   3435421.2932   1   8   0.0052   0.0104   0.0058   0.0044  -0.0053  -0.0021   0.00    4.7
2172 590262.000   -623611.4570  -5330304.7545   3435421.2889   1   8   0.0051   0.0103   0.0056   0.0046  -0.0051  -0.0022   0.00    4.8
2172 590263.000   -623611.4570  -5330304.7567   3435421.2885   1   8   0.0047   0.0104   0.0056   0.0046  -0.0052  -0.0022   0.00    4.8
2172 590264.000   -623611.4555  -5330304.7581   3435421.2930   1   8   0.0049   0.0103   0.0055   0.0047  -0.0051  -0.0024   0.00    4.8
2172 590265.000   -623611.4594  -5330304.7573   3435421.2927   1   8   0.0050   0.0104   0.0058   0.0044  -0.0052  -0.0019   0.00    4.9
2172 590266.000   -623611.4594  -5330304.7630   3435421.2914   1   8   0.0049   0.0103   0.0056   0.0048  -0.0052  -0.0021   0.00    4.9
2172 590267.000   -623611.4577  -5330304.7587   3435421.2918   1   8   0.0050   0.0103   0.0057   0.0045  -0.0052  -0.0020   0.00    5.0
2172 590268.000   -623611.4583  -5330304.7595   3435421.2911   1   8   0.0054   0.0103   0.0057   0.0047  -0.0052  -0.0025   0.00    5.0
2172 590269.000   -623611.4584  -5330304.7596   3435421.2944   1   8   0.0046   0.0102   0.0059   0.0049  -0.0052  -0.0022   0.00    5.0
2172 590270.000   -623611.4550  -5330304.7605   3435421.2931   1   8   0.0054   0.0104   0.0056   0.0044  -0.0051  -0.0020   0.00    5.1
2172 590271.000   -623611.4562  -5330304.7571   3435421.2883   1   8   0.0049   0.0103   0.0056   0.0046  -0.0051  -0.0021   0.00    5.1
2172 590272.000   -623611.4556  -5330304.7613   3435421.2908   1   8   0.0049   0.0103   0.0056   0.0047  -0.0051  -0.0018   0.00    5.2
2172 590273.000   -623611.4562  -5330304.7584   3435421.2910   1   8   0.0047   0.0103   0.0054   0.0048  -0.0051  -0.0021   0.00    5.2
2172 590274.000   -623611.4557  -5330304.7584   3435421.2925   1   8   0.0048   0.0103   0.0057   0.0047  -0.0053  -0.0020   0.00    5.2
2172 590275.000   -623611.4557  -5330304.7602   3435421.2924   1   8   0.0048   0.0103   0.0055   0.0045  -0.0052  -0.0020   0.00    5.3
2172 590276.000   -623611.4590  -5330304.7636   3435421.2947   1   8   0.0049   0.0103   0.0055   0.0049  -0.0052  -0.0016   0.00    5.3
2172 590277.000   -623611.4555  -5330304.7632   3435421.2929   1   8   0.0049   0.0104   0.0056   0.0042  -0.0052  -0.0022   0.00    5.3
2172 590278.000   -623611.4585  -5330304.7624   3435421.2931   1   8   0.0047   0.0103   0.0057   0.0046  -0.0052  -0.0015   0.00    5.4
2172 590279.000   -623611.4550  -5330304.7617   3435421.2943   1   8   0.0050   0.0102   0.0057   0.0048  -0.0051  -0.0022   0.00    5.4
2172 590280.000   -623611.4556  -5330304.7568   3435421.2912   1   8   0.0049   0.0103   0.0058   0.0046  -0.0053  -0.0019   0.00    5.4
2172 590281.000   -623611.4575  -5330304.7611   3435421.2918   1   8   0.0045   0.0102   0.0057   0.0047  -0.0051  -0.0019   0.00    5.5
2172 590282.000   -623611.4555  -5330304.7611   3435421.2922   1   8   0.0046   0.0102   0.0056   0.0049  -0.0051  -0.0025   0.00    5.5
2172 590283.000   -623611.4566  -5330304.7613   3435421.2912   1   8   0.0041   0.0102   0.0058   0.0050  -0.0051  -0.0020   0.00    5.6
2172 590284.000   -623611.4581  -5330304.7598   3435421.2920   1   8   0.0048   0.0102   0.0058   0.0048  -0.0052  -0.0017   0.00    5.6
2172 590285.000   -623611.4578  -5330304.7605   3435421.2940   1   8   0.0050   0.0103   0.0057   0.0047  -0.0052  -0.0020   0.00    5.6
2172 590286.000   -623611.4578  -5330304.7651   3435421.2932   1   8   0.0042   0.0102   0.0057   0.0051  -0.0050  -0.0025   0.00    5.7
2172 590287.000   -623611.4577  -5330304.7651   3435421.2955   1   8   0.0047   0.0102   0.0057   0.0047  -0.0051  -0.0019   0.00    5.7
