% program   : rnx2rtkp ver.2.4.3 b31
% inp file  : ngs/21_09_01_11_42_59_fmyr.obs
% inp file  : ngs/21_09_01_11_42_59_fmyr_SW.obs
% inp file  : ngs/21_09_01_11_42_59_brdc.nav
% obs start : 2021/09/01 11:00:00.0 GPST (week2173 298800.0s)
% obs end   : 2021/09/01 11:59:59.0 GPST (week2173 302399.0s)
% ref pos   :   813911.2619  -5693305.6189   2748430.1503
%
% (x/y/z-ecef=WGS84,Q=1:fix,2:float,3:sbas,4:dgps,5:single,6:ppp,ns=# of satellites)
%  GPST              x-ecef(m)      y-ecef(m)      z-ecef(m)   Q  ns   sdx(m)   sdy(m)   sdz(m)  sdxy(m)  sdyz(m)  sdzx(m) age(s)  ratio
2173 301354.000    807699.7966  -5649861.1398   2837755.7385   2   6   0.5299   1.4280   0.9723   0.3848  -1.0411  -0.3797 -30.00    2.2
2173 301355.000    807699.7993  -5649861.1449   2837755.7460   2   6   0.3768   1.0166   0.6916   0.2714  -0.7410  -0.2687 -29.00    2.1
2173 301356.000    807699.8020  -5649861.1532   2837755.7494   2   6   0.3085   0.8325   0.5663   0.2219  -0.6068  -0.2198 -28.00    1.9
2173 301357.000    807699.8023  -5649861.1435   2837755.7448   2   6   0.2677   0.7224   0.4913   0.1925  -0.5265  -0.1907 -27.00    1.8
2173 301358.000    807699.8024  -5649861.1407   2837755.7424   2   6   0.2398   0.6470   0.4401   0.1725  -0.4716  -0.1708 -26.00    1.8
2173 301359.000    807699.7986  -5649861.1444   2837755.7426   2   6   0.2191   0.5912   0.4022   0.1576  -0.4310  -0.1561 -25.00    1.7
2173 301360.000    807699.7963  -5649861.1452   2837755.7382   2   6   0.2030   0.5478   0.3726   0.1461  -0.3993  -0.1447 -24.00    1.8
2173 301361.000    807699.7951  -5649861.1553   2837755.7398   2   6   0.1900   0.5127   0.3488   0.1367  -0.3737  -0.1354 -23.00    1.8
2173 301362.000    807699.7942  -5649861.1552   2837755.7388   2   6   0.1792   0.4836   0.3290   0.1289  -0.3525  -0.1277 -22.00    1.8
2173 301363.000    807699.7915  -5649861.1535   2837755.7348   2   6   0.1701   0.4589   0.3121   0.1222  -0.3345  -0.1211 -21.00    1.8
2173 301364.000    807699.7890  -5649861.1560   2837755.7351   2   6   0.1622   0.4376   0.2976   0.1164  -0.3189  -0.1154 -20.00    1.9
2173 301365.000    807699.7914  -5649861.1677   2837755.7378   2   6   0.1552   0.4190   0.2850   0.1114  -0.3053  -0.1104 -19.00    1.9
2173 301366.000    807699.7894  -5649861.1661   2837755.7337   2   6   0.1491   0.4025   0.2737   0.1069  -0.2933  -0.1060 -18.00    2.0
2173 301367.000    807699.7883  -5649861.1642   2837755.7316   2   6   0.1436   0.3878   0.2637   0.1028  -0.2826  -0.1020 -17.00    2.1
2173 301368.000    807699.7875  -5649861.1585   2837755.7263   2   6   0.1387   0.3746   0.2547   0.0991  -0.2729  -0.0984 -16.00    2.1
2173 301369.000    807699.7868  -5649861.1564   2837755.7235   2   6   0.1342   0.3626   0.2465   0.0958  -0.2641  -0.0952 -15.00    2.2
2173 301370.000    807699.7865  -5649861.1562   2837755.7222   2   6   0.1301   0.3516   0.2390   0.0927  -0.2561  -0.0922 -14.00    2.3
2173 301371.000    807699.7881  -5649861.1581   2837755.7209   2   6   0.1264   0.3416   0.2321   0.0899  -0.2488  -0.0894 -13.00    2.3
2173 301372.000    807699.7869  -5649861.1569   2837755.7188   2   6   0.1229   0.3323   0.2258   0.0873  -0.2420  -0.0869 -12.00    2.5
2173 301373.000    807699.7859  -5649861.1563   2837755.7162   2   6   0.1197   0.3238   0.2200   0.0848  -0.2358  -0.0845 -11.00    2.5
2173 301374.000    807699.7841  -5649861.1608   2837755.7164   2   6   0.1168   0.3158   0.2145   0.0826  -0.2299  -0.0823 -10.00    2.5
2173 301375.000    807699.7839  -5649861.1531   2837755.7090   2   6   0.1140   0.3084   0.2094   0.0805  -0.2245  -0.0803  -9.00    2.6
2173 301376.000    807699.7833  -5649861.1549   2837755.7088   2   6   0.1114   0.3015   0.2047   0.0785  -0.2195  -0.0783  -8.00    2.6
2173 301377.000    807699.7837  -5649861.1504   2837755.7055   2   6   0.1090   0.2950   0.2003   0.0766  -0.2147  -0.0765  -7.00    2.7
2173 301378.000    807699.7847  -5649861.1544   2837755.7040   2   6   0.1067   0.2889   0.1961   0.0749  -0.2102  -0.0749  -6.00    2.7
2173 301379.000    807699.7832  -5649861.1596   2837755.7070   2   6   0.1046   0.2831   0.1922   0.0733  -0.2060  -0.0733  -5.00    2.6
2173 301380.000    807699.7841  -5649861.1621   2837755.7064   2   6   0.1025   0.2777   0.1885   0.0718  -0.2021  -0.0718  -4.00    2.6
2173 301381.000    807699.7820  -5649861.1560   2837755.7029   2   6   0.1006   0.2726   0.1850   0.0703  -0.1984  -0.0704  -3.00    2.6
2173 301382.000    807699.7828  -5649861.1592   2837755.7043   2   6   0.0989   0.2678   0.1817   0.0690  -0.1948  -0.0691  -2.00    2.6
2173 301383.000    807699.7832  -5649861.1519   2837755.6987   2   6   0.0972   0.2632   0.1786   0.0677  -0.1915  -0.0678  -1.00    2.6
2173 301384.000    807699.7813  -5649861.1519   2837755.6973   2   6   0.0956   0.2589   0.1756   0.0665  -0.1883  -0.0667   0.00    2.6
2173 301385.000    807699.7817  -5649861.1542   2837755.6991   2   6   0.0941   0.2548   0.1728   0.0655  -0.1853  -0.0656   0.00    2.6
2173 301386.000    807699.7802  -5649861.1638   2837755.7055   2   6   0.0926   0.2509   0.1701   0.0644  -0.1825  -0.0645   0.00    2.6
2173 301387.000    807699.7751  -5649861.1697   2837755.7096   2   6   0.0912   0.2472   0.1676   0.0634  -0.1798  -0.0635   0.00    2.8
2173 301388.000    807699.7804  -5649861.1507   2837755.6959   2   6   0.0899   0.2436   0.1651   0.0624  -0.1771  -0.0626   0.00    2.7
2173 301389.000    807699.7806  -5649861.1540   2837755.6990   2   6   0.0886   0.2402   0.1628   0.0615  -0.1746  -0.0617   0.00    2.7
2173 301390.000    807699.7807  -5649861.1496   2837755.6973   2   6   0.0874   0.2369   0.1605   0.0606  -0.1722  -0.0608   0.00    2.7
2173 301391.000    807699.7798  -5649861.1518   2837755.6989   2   6   0.0862   0.2338   0.1584   0.0597  -0.1699  -0.0600   0.00    2.6
2173 301392.000    807699.7789  -5649861.1576   2837755.7022   2   6   0.0851   0.2307   0.1563   0.0589  -0.1677  -0.0591   0.00    2.6
2173 301393.000    807699.7782  -5649861.1580   2837755.7032   2   7   0.0837   0.2251   0.1533   0.0559  -0.1637  -0.0573   0.00    1.7
2173 301394.000    807699.7796  -5649861.1617   2837755.7065   2   7   0.0824   0.2199   0.1505   0.0532  -0.1600  -0.0556   0.00    2.3
2173 301395.000    807699.7794  -5649861.1639   2837755.7086   2   7   0.0812   0.2151   0.1479   0.0507  -0.1566  -0.0540   0.00    2.8
2173 301396.000    807699.7937  -5649861.6408   2837755.9827   1   7   0.0051   0.0106   0.0084  -0.0025  -0.0080  -0.0020   0.00    3.1
2173 301397.000    807699.7931  -5649861.6431   2837755.9879   1   7   0.0047   0.0107   0.0084  -0.0021  -0.0080  -0.0018   0.00    3.1
2173 301398.000    807699.7926  -5649861.6432   2837755.9861   1   7   0.0048   0.0108   0.0085  -0.0022  -0.0079  -0.0022   0.00    3.2
2173 301399.000    807699.7929  -5649861.6424   2837755.9890   1   7   0.0049   0.0107   0.0085  -0.0023  -0.0080  -0.0022   0.00    3.3
2173 301400.000    807699.7927  -5649861.6389   2837755.9866   1   7   0.0046   0.0106   0.0085  -0.0025  -0.0080  -0.0016   0.00    3.4
2173 301401.000    807699.7939  -5649861.6380   2837755.9876   1   7   0.0048   0.0107   0.0084  -0.0019  -0.0079  -0.0016   0.00    3.5
2173 301402.000    807699.7918  -5649861.6349   2837755.9864   1   7   0.0050   0.0107   0.0085  -0.0018  -0.0080  -0.0012   0.00    3.5
2173 301403.000    807699.7910  -5649861.6361   2837755.9885   1   7   0.0048   0.0107   0.0085  -0.0019  -0.0080  -0.0018   0.00    3.5
2173 301404.000    807699.7939  -5649861.6352   2837755.9832   1   7   0.0049   0.0108   0.0085  -0.0023  -0.0079  -0.0021   0.00    3.5
2173 301405.000    807699.7924  -5649861.6307   2837755.9818   1   7   0.0051   0.0107   0.0085  -0.0021  -0.0080  -0.0023   0.00    3.4
2173 301406.000    807699.7941  -5649861.6320   2837755.9823   1   7   0.0051   0.0107   0.0085  -0.0023  -0.0080  -0.0018   0.00    3.4
2173 301407.000    807699.7935  -5649861.6340   2837755.9823   1   7   0.0052   0.0107   0.0085  -0.0024  -0.0079  -0.0023   0.00    3.3
2173 301408.000    807699.7949  -5649861.6305   2837755.9793   1   7   0.0051   0.0108   0.0086  -0.0015  -0.0079  -0.0014   0.00    3.3
2173 301409.000    807699.7955  -5649861.6311   2837755.9790   1   7   0.0050   0.0108   0.0086  -0.0020  -0.0079  -0.0021   0.00    3.2
2173 301410.000    807699.7958  -5649861.6292   2837755.9784   1   7   0.0051   0.0108   0.0086  -0.0023  -0.0079  -0.0020   0.00    3.2
2173 301411.000    807699.7964  -5649861.6251   2837755.9774   1   7   0.0049   0.0107   0.0084  -0.0025  -0.0079  -0.0025   0.00    3.2
2173 301412.000    807699.7951  -5649861.6275   2837755.9753   1   7   0.0048   0.0107   0.0086  -0.0020  -0.0080  -0.0012   0.00    3.1
2173 301413.000    807699.7939  -5649861.6298   2837755.9787   1   7   0.0047   0.0107   0.0085  -0.0023  -0.0079  -0.0022   0.00    3.1
2173 301414.000    807699.7958  -5649861.6332   2837755.9795   1   7   0.0045   0.0107   0.0085  -0.0025  -0.0080  -0.0019   0.00    3.0
2173 301415.000    807699.7765  -5649861.1626   2837755.7019   2   7   0.0648   0.1584   0.1141   0.0212  -0.1156  -0.0361   0.00    3.0
2173 301416.000    807699.7755  -5649861.1645   2837755.6994   2   7   0.0642   0.1567   0.1130   0.0201  -0.1143  -0.0355   0.00    2.9
2173 301417.000    807699.7749  -5649861.1580   2837755.6943   2   7   0.0637   0.1550   0.1118   0.0192  -0.1130  -0.0350   0.00    2.9
2173 301418.000    807699.7731  -5649861.1623   2837755.6956   2   7   0.0631   0.1533   0.1107   0.0183  -0.1118  -0.0345   0.00    2.9
2173 301419.000    807699.7748  -5649861.1591   2837755.6921   2   7   0.0626   0.1517   0.1097   0.0174  -0.1106  -0.0340   0.00    2.9
2173 301420.000    807699.7730  -5649861.1630   2837755.6931   2   7   0.0621   0.1501   0.1086   0.0164  -0.1095  -0.0335   0.00    2.8
2173 301421.000    807699.7749  -5649861.1635   2837755.6945   2   7   0.0616   0.1486   0.1076   0.0156  -0.1083  -0.0330   0.00    2.8
2173 301422.000    807699.7764  -5649861.1625   2837755.6908   2   7   0.0611   0.1472   0.1066   0.0147  -0.1072  -0.0326   0.00    2.8
2173 301423.000    807699.7763  -5649861.1673   2837755.6965   2   7   0.0606   0.1457   0.1056   0.0137  -0.1062  -0.0322   0.00    2.7
2173 301424.000    807699.7775  -5649861.1704   2837755.6971   2   7   0.0601   0.1444   0.1046   0.0129  -0.1051  -0.0317   0.00    2.7
2173 301425.000    807699.7779  -5649861.1652   2837755.6911   2   7   0.0596   0.1430   0.1037   0.0120  -0.1041  -0.0313   0.00    2.7
2173 301426.000    807699.7799  -5649861.1725   2837755.6934   2   7   0.0592   0.1417   0.1028   0.0111  -0.1032  -0.0309   0.00    2.7
2173 301427.000    807699.7798  -5649861.1745   2837755.6940   2   7   0.0588   0.1404   0.1019   0.0100  -0.1022  -0.0305   0.00    2.6
2173 301428.000    807699.7800  -5649861.1678   2837755.6894   2   7   0.0583   0.1392   0.1010   0.0091  -0.1013  -0.0301   0.00    2.6
2173 301429.000    807699.7809  -5649861.1696   2837755.6892   2   7   0.0579   0.1380   0.1001   0.0081  -0.1003  -0.0297   0.00    2.6
2173 301430.000    807699.7809  -5649861.1728   2837755.6898   2   7   0.0575   0.1368   0.0993   0.0069  -0.0995  -0.0293   0.00    2.6
2173 301431.000    807699.7798  -5649861.1726   2837755.6906   2   7   0.0571   0.1356   0.0984   0.0057  -0.0986  -0.0289   0.00    2.5
2173 301432.000    807699.7794  -5649861.1742   2837755.6898   2   7   0.0567   0.1345   0.0976   0.0047  -0.0977  -0.0286   0.00    2.5
2173 301433.000    807699.7788  -5649861.1677   2837755.6870   2   7   0.0563   0.1334   0.0968   0.0027  -0.0969  -0.0282   0.00    2.5
2173 301434.000    807699.7792  -5649861.1701   2837755.6878   2   7   0.0559   0.1323   0.0960  -0.0031  -0.0961  -0.0279   0.00    2.5
2173 301435.000    807699.7768  -5649861.1750   2837755.6931   2   7   0.0555   0.1313   0.0952  -0.0045  -0.0953  -0.0275   0.00    2.5
2173 301436.000    807699.7770  -5649861.1675   2837755.6918   2   7   0.0551   0.1303   0.0945  -0.0058  -0.0945  -0.0272   0.00    2.4
2173 301437.000    807699.7767  -5649861.1704   2837755.6911   2   7   0.0548   0.1293   0.0937  -0.0068  -0.0937  -0.0269   0.00    2.4
2173 301438.000    807699.7758  -5649861.1673   2837755.6884   2   7   0.0544   0.1283   0.0930  -0.0076  -0.0930  -0.0265   0.00    2.4
2173 301439.000    807699.7739  -5649861.1699   2837755.6884   2   7   0.0541   0.1273   0.0923  -0.0080  -0.0922  -0.0262   0.00    2.4
2173 301440.000    807699.7598  -5649861.1845   2837755.6650   2   7   0.0537   0.1264   0.0915  -0.0088  -0.0915  -0.0260   0.00    2.4
2173 301441.000    807699.7529  -5649861.1902   2837755.6826   2   7   0.0534   0.1255   0.0908  -0.0092  -0.0908  -0.0256   0.00    2.4
2173 301442.000    807699.7466  -5649861.1971   2837755.6997   2   7   0.0531   0.1245   0.0901  -0.0097  -0.0901  -0.0253   0.00    2.4
2173 301443.000    807699.7410  -5649861.2019   2837755.7195   2   7   0.0527   0.1237   0.0894  -0.0100  -0.0894  -0.0250   0.00    2.4
2173 301444.000    807699.7369  -5649861.2037   2837755.7338   2   7   0.0525   0.1228   0.0888  -0.0106  -0.0888  -0.0248   0.00    2.4
2173 301445.000    807699.7327  -5649861.2103   2837755.7478   2   7   0.0521   0.1220   0.0881  -0.0108  -0.0881  -0.0245   0.00    2.5
2173 301446.000    807699.7261  -5649861.2110   2837755.7655   2   7   0.0518   0.1211   0.0874  -0.0112  -0.0875  -0.0242   0.00    2.5
2173 301447.000    807699.7191  -5649861.2220   2837755.7858   2   7   0.0515   0.1203   0.0868  -0.0116  -0.0868  -0.0239   0.00    2.5
2173 301448.000    807699.7171  -5649861.2202   2837755.7951   2   7   0.0512   0.1195   0.0861  -0.0116  -0.0862  -0.0236   0.00    2.4
2173 301449.000    807699.7109  -5649861.2279   2837755.8114   2   7   0.0509   0.1187   0.0855  -0.0120  -0.0856  -0.0233   0.00    2.4
2173 301450.000    807699.7043  -5649861.2266   2837755.8218   2   7   0.0506   0.1179   0.0849  -0.0122  -0.0850  -0.0231   0.00    2.4
2173 301451.000    807699.6994  -5649861.2291   2837755.8320   2   7   0.0503   0.1172   0.0843  -0.0124  -0.0844  -0.0228   0.00    2.4
2173 301452.000    807699.6938  -5649861.2358   2837755.8452   2   7   0.0500   0.1164   0.0837  -0.0127  -0.0838  -0.0226   0.00    2.4
2173 301453.000    807699.6899  -5649861.2313   2837755.8562   2   7   0.0497   0.1157   0.0831  -0.0127  -0.0832  -0.0223   0.00    2.4
2173 301454.000    807699.6841  -5649861.2359   2837755.8714   2   7   0.0495   0.1150   0.0825  -0.0129  -0.0827  -0.0220   0.00    2.4
2173 301455.000    807699.6804  -5649861.2344   2837755.8806   2   7   0.0492   0.1143   0.0819  -0.0132  -0.0821  -0.0217   0.00    2.4
2173 301456.000    807699.6790  -5649861.2394   2837755.8914   2   7   0.0489   0.1136   0.0813  -0.0134  -0.0816  -0.0215   0.00    2.4
2173 301457.000    807699.6762  -5649861.2308   2837755.8924   2   7   0.0487   0.1129   0.0807  -0.0135  -0.0810  -0.0213   0.00    2.4
2173 301458.000    807699.6752  -5649861.2340   2837755.9033   2   7   0.0484   0.1122   0.0802  -0.0136  -0.0805  -0.0210   0.00    2.4
2173 301459.000    807699.6718  -5649861.2282   2837755.9084   2   7   0.0482   0.1116   0.0796  -0.0138  -0.0800  -0.0208   0.00    2.4
2173 301460.000    807699.6669  -5649861.2321   2837755.9200   2   7   0.0479   0.1109   0.0791  -0.0139  -0.0794  -0.0206   0.00    2.4
2173 301461.000    807699.6619  -5649861.2348   2837755.9323   2   7   0.0477   0.1103   0.0785  -0.0140  -0.0789  -0.0203   0.00    2.4
2173 301462.000    807699.6583  -5649861.2363   2837755.9441   2   7   0.0474   0.1097   0.0780  -0.0141  -0.0784  -0.0201   0.00    2.4
2173 301463.000    807699.6531  -5649861.2358   2837755.9513   2   7   0.0472   0.1090   0.0774  -0.0142  -0.0779  -0.0199   0.00    2.3
2173 301464.000    807699.6491  -5649861.2413   2837755.9627   2   7   0.0469   0.1084   0.0769  -0.0143  -0.0775  -0.0196   0.00    2.3
2173 301465.000    807699.6467  -5649861.2340   2837755.9650   2   7   0.0467   0.1078   0.0764  -0.0145  -0.0770  -0.0194   0.00    2.3
2173 301466.000    807699.6457  -5649861.2388   2837755.9745   2   7   0.0464   0.1072   0.0759  -0.0145  -0.0765  -0.0191   0.00    2.3
2173 301467.000    807699.6416  -5649861.2348   2837755.9807   2   7   0.0462   0.1066   0.0754  -0.0146  -0.0760  -0.0190   0.00    2.3
2173 301468.000    807699.6407  -5649861.2332   2837755.9840   2   7   0.0460   0.1061   0.0749  -0.0146  -0.0756  -0.0187   0.00    2.3
2173 301469.000    807699.6355  -5649861.2313   2837755.9884   2   7   0.0458   0.1055   0.0744  -0.0147  -0.0751  -0.0185   0.00    2.3
2173 301470.000    807699.6337  -5649861.2290   2837755.9871   2   7   0.0455   0.1049   0.0739  -0.0147  -0.0747  -0.0183   0.00    2.3
2173 301471.000    807699.6312  -5649861.2317   2837755.9927   2   7   0.0453   0.1044   0.0734  -0.0148  -0.0742  -0.0181   0.00    2.3
2173 301472.000    807699.6286  -5649861.2302   2837755.9931   2   7   0.0451   0.1039   0.0729  -0.0148  -0.0738  -0.0178   0.00    2.2
2173 301473.000    807699.6257  -5649861.2227   2837755.9978   2   7   0.0449   0.1033   0.0725  -0.0149  -0.0734  -0.0177   0.00    2.2
2173 301474.000    807699.6256  -5649861.2226   2837756.0050   2   7   0.0447   0.1028   0.0720  -0.0150  -0.0729  -0.0175   0.00    2.2
2173 301475.000    807699.6236  -5649861.2262   2837756.0153   2   7   0.0445   0.1023   0.0715  -0.0151  -0.0725  -0.0172   0.00    2.2
2173 301476.000    807699.6203  -5649861.2230   2837756.0192   2   7   0.0443   0.1017   0.0711  -0.0152  -0.0721  -0.0171   0.00    2.2
2173 301477.000    807699.6230  -5649861.2252   2837756.0235   2   7   0.0441   0.1012   0.0706  -0.0152  -0.0717  -0.0169   0.00    2.2
2173 301478.000    807699.6232  -5649861.2243   2837756.0245   2   7   0.0439   0.1007   0.0702  -0.0152  -0.0713  -0.0166   0.00    2.2
2173 301479.000    807699.6219  -5649861.2240   2837756.0265   2   7   0.0437   0.1003   0.0697  -0.0152  -0.0709  -0.0165   0.00    2.2
2173 301480.000    807699.6226  -5649861.2217   2837756.0283   2   7   0.0435   0.0998   0.0692  -0.0152  -0.0705  -0.0163   0.00    2.2
2173 301481.000    807699.6212  -5649861.2245   2837756.0307   2   7   0.0433   0.0993   0.0688  -0.0153  -0.0701  -0.0161   0.00    2.2
2173 301482.000    807699.6223  -5649861.2190   2837756.0264   2   7   0.0431   0.0988   0.0684  -0.0152  -0.0697  -0.0159   0.00    2.2
2173 301483.000    807699.6223  -5649861.2214   2837756.0283   2   7   0.0429   0.0983   0.0680  -0.0153  -0.0693  -0.0157   0.00    2.2
2173 301484.000    807699.6232  -5649861.2181   2837756.0237   2   7   0.0427   0.0979   0.0675  -0.0153  -0.0690  -0.0156   0.00    2.2
2173 301485.000    807699.6241  -5649861.2166   2837756.0243   2   7   0.0425   0.0974   0.0671  -0.0154  -0.0686  -0.0153   0.00    2.2
2173 301486.000    807699.6258  -5649861.2219   2837756.0280   2   7   0.0423   0.0970   0.0667  -0.0154  -0.0682  -0.0152   0.00    2.2
2173 301487.000    807699.6259  -5649861.2220   2837756.0309   2   7   0.0422   0.0965   0.0663  -0.0153  -0.0679  -0.0149   0.00    2.2
2173 301488.000    807699.6262  -5649861.2235   2837756.0305   2   7   0.0420   0.0961   0.0659  -0.0154  -0.0675  -0.0148   0.00    2.2
2173 301489.000    807699.6258  -5649861.2237   2837756.0309   2   7   0.0418   0.0957   0.0655  -0.0154  -0.0672  -0.0145   0.00    2.2
2173 301490.000    807699.6277  -5649861.2236   2837756.0348   2   7   0.0416   0.0952   0.0651  -0.0155  -0.0668  -0.0144   0.00    2.2
2173 301491.000    807699.6290  -5649861.2263   2837756.0387   2   7   0.0414   0.0948   0.0647  -0.0154  -0.0665  -0.0143   0.00    2.1
2173 301492.000    807699.6293  -5649861.2275   2837756.0387   2   7   0.0413   0.0944   0.0643  -0.0154  -0.0661  -0.0140   0.00    2.1
2173 301493.000    807699.6300  -5649861.2261   2837756.0418   2   7   0.0411   0.0940   0.0639  -0.0154  -0.0658  -0.0139   0.00    2.1
2173 301494.000    807699.6339  -5649861.2286   2837756.0353   2   7   0.0409   0.0936   0.0635  -0.0154  -0.0655  -0.0136   0.00    2.1
2173 301495.000    807699.6351  -5649861.2192   2837756.0244   2   7   0.0408   0.0932   0.0632  -0.0154  -0.0651  -0.0135   0.00    2.1
2173 301496.000    807699.6429  -5649861.2261   2837756.0263   2   7   0.0405   0.0927   0.0628  -0.0153  -0.0648  -0.0133   0.00    2.1
2173 301497.000    807699.6449  -5649861.2315   2837756.0266   2   7   0.0404   0.0924   0.0624  -0.0153  -0.0645  -0.0132   0.00    2.1
2173 301498.000    807699.6470  -5649861.2274   2837756.0192   2   7   0.0402   0.0920   0.0620  -0.0154  -0.0641  -0.0130   0.00    2.1
2173 301499.000    807699.6496  -5649861.2225   2837756.0124   2   7   0.0401   0.0916   0.0617  -0.0154  -0.0638  -0.0129   0.00    2.1
2173 301500.000    807699.6497  -5649861.2188   2837756.0108   2   7   0.0399   0.0912   0.0613  -0.0153  -0.0635  -0.0127   0.00    2.1
2173 301501.000    807699.6520  -5649861.2214   2837756.0114   2   7   0.0398   0.0908   0.0609  -0.0153  -0.0632  -0.0126   0.00    2.1
2173 301502.000    807699.6581  -5649861.2218   2837756.0047   2   7   0.0396   0.0904   0.0606  -0.0154  -0.0629  -0.0123   0.00    2.1
2173 301503.000    807699.6579  -5649861.2203   2837756.0005   2   7   0.0394   0.0901   0.0602  -0.0152  -0.0626  -0.0122   0.00    2.1
2173 301504.000    807699.6610  -5649861.2195   2837755.9993   2   7   0.0393   0.0897   0.0599  -0.0153  -0.0623  -0.0120   0.00    2.1
2173 301505.000    807699.6635  -5649861.2164   2837755.9937   2   7   0.0391   0.0893   0.0595  -0.0152  -0.0620  -0.0117   0.00    2.1
2173 301506.000    807699.6638  -5649861.2195   2837755.9942   2   7   0.0390   0.0890   0.0592  -0.0152  -0.0617  -0.0116   0.00    2.1
2173 301507.000    807699.6638  -5649861.2148   2837755.9917   2   7   0.0388   0.0886   0.0589  -0.0153  -0.0614  -0.0115   0.00    2.1
2173 301508.000    807699.6688  -5649861.2092   2837755.9768   2   7   0.0387   0.0883   0.0585  -0.0153  -0.0611  -0.0114   0.00    2.1
2173 301509.000    807699.6704  -5649861.2102   2837755.9737   2   7   0.0385   0.0879   0.0582  -0.0151  -0.0609  -0.0110   0.00    2.1
2173 301510.000    807699.6689  -5649861.2064   2837755.9668   2   7   0.0384   0.0876   0.0579  -0.0152  -0.0606  -0.0110   0.00    2.1
2173 301511.000    807699.6735  -5649861.2056   2837755.9629   2   7   0.0383   0.0872   0.0575  -0.0152  -0.0603  -0.0110   0.00    2.1
2173 301512.000    807699.6756  -5649861.2049   2837755.9565   2   7   0.0381   0.0869   0.0572  -0.0151  -0.0600  -0.0107   0.00    2.1
2173 301513.000    807699.6764  -5649861.1982   2837755.9487   2   7   0.0380   0.0866   0.0569  -0.0150  -0.0597  -0.0106   0.00    2.1
2173 301514.000    807699.6768  -5649861.1980   2837755.9468   2   7   0.0378   0.0862   0.0566  -0.0151  -0.0595  -0.0106   0.00    2.1
2173 301515.000    807699.6765  -5649861.1929   2837755.9187   2   7   0.0376   0.0859   0.0563  -0.0151  -0.0592  -0.0102   0.00    2.1
2173 301516.000    807699.6782  -5649861.1923   2837755.9123   2   7   0.0375   0.0856   0.0559  -0.0150  -0.0589  -0.0100   0.00    2.1
2173 301517.000    807699.6816  -5649861.1857   2837755.9039   2   7   0.0374   0.0853   0.0557  -0.0150  -0.0587  -0.0099   0.00    2.1
2173 301518.000    807699.6837  -5649861.1849   2837755.8950   2   7   0.0373   0.0850   0.0553  -0.0150  -0.0584  -0.0100   0.00    2.1
2173 301519.000    807699.6894  -5649861.1869   2837755.8901   2   7   0.0371   0.0846   0.0550  -0.0150  -0.0582  -0.0097   0.00    2.0
2173 301520.000    807699.6918  -5649861.1852   2837755.8839   2   7   0.0370   0.0843   0.0547  -0.0150  -0.0579  -0.0096   0.00    2.0
2173 301521.000    807699.6958  -5649861.1851   2837755.8772   2   7   0.0368   0.0840   0.0544  -0.0149  -0.0577  -0.0094   0.00    2.0
2173 301522.000    807699.6996  -5649861.1792   2837755.8667   2   7   0.0367   0.0837   0.0541  -0.0148  -0.0574  -0.0091   0.00    2.0
2173 301523.000    807699.7007  -5649861.1777   2837755.8618   2   7   0.0365   0.0834   0.0538  -0.0148  -0.0572  -0.0090   0.00    2.0
2173 301524.000    807699.7057  -5649861.1696   2837755.8518   2   7   0.0365   0.0831   0.0535  -0.0147  -0.0569  -0.0089   0.00    2.0
2173 301525.000    807699.7091  -5649861.1637   2837755.8422   2   7   0.0363   0.0828   0.0533  -0.0148  -0.0567  -0.0087   0.00    1.9
2173 301526.000    807699.7097  -5649861.1643   2837755.8380   2   7   0.0362   0.0825   0.0530  -0.0147  -0.0564  -0.0086   0.00    1.9
2173 301527.000    807699.7132  -5649861.1638   2837755.8304   2   7   0.0360   0.0822   0.0527  -0.0147  -0.0562  -0.0085   0.00    1.9
2173 301528.000    807699.7158  -5649861.1592   2837755.8194   2   7   0.0359   0.0819   0.0524  -0.0148  -0.0560  -0.0084   0.00    1.9
2173 301529.000    807699.7181  -5649861.1568   2837755.8132   2   7   0.0358   0.0817   0.0522  -0.0147  -0.0557  -0.0082   0.00    1.9
2173 301530.000    807699.7211  -5649861.1573   2837755.8096   2   7   0.0357   0.0814   0.0519  -0.0146  -0.0555  -0.0082   0.00    1.9
2173 301531.000    807699.7234  -5649861.1584   2837755.8054   2   7   0.0355   0.0811   0.0516  -0.0145  -0.0553  -0.0078   0.00    1.9
2173 301532.000    807699.7261  -5649861.1563   2837755.8018   2   7   0.0354   0.0808   0.0513  -0.0145  -0.0550  -0.0078   0.00    1.9
2173 301533.000    807699.7279  -5649861.1534   2837755.7979   2   7   0.0354   0.0805   0.0511  -0.0145  -0.0548  -0.0076   0.00    1.8
2173 301534.000    807699.7329  -5649861.1501   2837755.7893   2   7   0.0352   0.0803   0.0508  -0.0144  -0.0546  -0.0075   0.00    1.8
2173 301535.000    807699.7343  -5649861.1468   2837755.7820   2   7   0.0351   0.0800   0.0506  -0.0145  -0.0544  -0.0074   0.00    1.8
2173 301536.000    807699.7399  -5649861.1495   2837755.7782   2   7   0.0349   0.0797   0.0503  -0.0144  -0.0542  -0.0073   0.00    1.8
2173 301537.000    807699.7402  -5649861.1515   2837755.7759   2   7   0.0348   0.0795   0.0500  -0.0142  -0.0539  -0.0070   0.00    1.8
2173 301538.000    807699.7435  -5649861.1452   2837755.7663   2   7   0.0347   0.0792   0.0498  -0.0143  -0.0537  -0.0070   0.00    1.8
2173 301539.000    807699.7432  -5649861.1427   2837755.7602   2   7   0.0346   0.0789   0.0495  -0.0142  -0.0535  -0.0069   0.00    1.8
2173 301540.000    807699.7456  -5649861.1467   2837755.7582   2   7   0.0345   0.0787   0.0493  -0.0142  -0.0533  -0.0065   0.00    1.8
2173 301541.000    807699.7464  -5649861.1396   2837755.7499   2   7   0.0343   0.0784   0.0490  -0.0143  -0.0531  -0.0067   0.00    1.8
2173 301542.000    807699.7476  -5649861.1326   2837755.7408   2   7   0.0343   0.0782   0.0488  -0.0140  -0.0529  -0.0065   0.00    1.8
2173 301543.000    807699.7485  -5649861.1322   2837755.7356   2   7   0.0342   0.0779   0.0485  -0.0140  -0.0527  -0.0061   0.00    1.7
2173 301544.000    807699.7509  -5649861.1264   2837755.7307   2   7   0.0340   0.0776   0.0483  -0.0140  -0.0525  -0.0062   0.00    1.7
2173 301545.000    807699.7531  -5649861.1338   2837755.7278   2   7   0.0339   0.0774   0.0481  -0.0139  -0.0523  -0.0059   0.00    1.7
2173 301546.000    807699.7538  -5649861.1277   2837755.7223   2   7   0.0338   0.0772   0.0478  -0.0138  -0.0521  -0.0057   0.00    1.7
2173 301547.000    807699.7579  -5649861.1280   2837755.7163   2   7   0.0337   0.0769   0.0476  -0.0139  -0.0519  -0.0057   0.00    1.7
2173 301548.000    807699.7601  -5649861.1287   2837755.7126   2   7   0.0336   0.0767   0.0474  -0.0138  -0.0517  -0.0055   0.00    1.7
2173 301549.000    807699.7601  -5649861.1260   2837755.7101   2   7   0.0335   0.0764   0.0471  -0.0139  -0.0515  -0.0054   0.00    1.7
2173 301550.000    807699.7624  -5649861.1229   2837755.7081   2   7   0.0334   0.0762   0.0469  -0.0138  -0.0513  -0.0053   0.00    1.7
2173 301551.000    807699.7651  -5649861.1232   2837755.7034   2   7   0.0333   0.0759   0.0467  -0.0136  -0.0511  -0.0053   0.00    1.7
2173 301552.000    807699.7697  -5649861.1222   2837755.7005   2   7   0.0332   0.0757   0.0464  -0.0137  -0.0509  -0.0052   0.00    1.7
2173 301553.000    807699.7706  -5649861.1195   2837755.6951   2   7   0.0331   0.0755   0.0462  -0.0135  -0.0507  -0.0048   0.00    1.7
2173 301554.000    807699.7732  -5649861.1197   2837755.6907   2   7   0.0329   0.0752   0.0460  -0.0136  -0.0505  -0.0049   0.00    1.7
2173 301555.000    807699.7745  -5649861.1223   2837755.6897   2   7   0.0328   0.0750   0.0458  -0.0135  -0.0504  -0.0047   0.00    1.7
2173 301556.000    807699.7758  -5649861.1173   2837755.6840   2   7   0.0327   0.0748   0.0456  -0.0134  -0.0502  -0.0046   0.00    1.7
2173 301557.000    807699.7781  -5649861.1190   2837755.6786   2   7   0.0326   0.0746   0.0453  -0.0134  -0.0500  -0.0047   0.00    1.7
2173 301558.000    807699.7776  -5649861.1200   2837755.6746   2   7   0.0325   0.0743   0.0451  -0.0133  -0.0498  -0.0042   0.00    1.7
2173 301559.000    807699.7772  -5649861.1118   2837755.6688   2   7   0.0325   0.0741   0.0449  -0.0133  -0.0496  -0.0043   0.00    1.7
2173 301560.000    807699.7809  -5649861.1148   2837755.6643   2   7   0.0323   0.0739   0.0447  -0.0133  -0.0495  -0.0042   0.00    1.7
2173 301561.000    807699.7813  -5649861.1140   2837755.6615   2   7   0.0322   0.0737   0.0445  -0.0132  -0.0493  -0.0037   0.00    1.7
2173 301562.000    807699.7824  -5649861.1104   2837755.6560   2   7   0.0321   0.0734   0.0443  -0.0131  -0.0491  -0.0038   0.00    1.7
2173 301563.000    807699.7848  -5649861.1112   2837755.6531   2   7   0.0320   0.0732   0.0441  -0.0130  -0.0489  -0.0035   0.00    1.7
2173 301564.000    807699.7846  -5649861.1150   2837755.6504   2   7   0.0319   0.0730   0.0439  -0.0130  -0.0488  -0.0032   0.00    1.7
2173 301565.000    807699.7887  -5649861.1116   2837755.6442   2   7   0.0318   0.0728   0.0437  -0.0131  -0.0486  -0.0035   0.00    1.7
2173 301566.000    807699.7895  -5649861.1046   2837755.6372   2   7   0.0318   0.0726   0.0435  -0.0128  -0.0484  -0.0033   0.00    1.7
2173 301567.000    807699.7908  -5649861.1094   2837755.6407   2   7   0.0316   0.0724   0.0433  -0.0129  -0.0483  -0.0029   0.00    1.7
2173 301568.000    807699.7928  -5649861.1007   2837755.6295   2   7   0.0316   0.0722   0.0431  -0.0128  -0.0481  -0.0033   0.00    1.7
2173 301569.000    807699.7928  -5649861.0993   2837755.6291   2   7   0.0314   0.0720   0.0429  -0.0127  -0.0479  -0.0029   0.00    1.7
2173 301570.000    807699.7927  -5649861.0925   2837755.6221   2   7   0.0313   0.0717   0.0427  -0.0128  -0.0478  -0.0025   0.00    1.7
2173 301571.000    807699.7937  -5649861.1002   2837755.6223   2   7   0.0312   0.0716   0.0425  -0.0126  -0.0476  -0.0024   0.00    1.7
2173 301572.000    807699.7940  -5649861.0942   2837755.6145   2   7   0.0312   0.0714   0.0424  -0.0126  -0.0474  -0.0026   0.00    1.7
2173 301573.000    807699.7955  -5649861.0895   2837755.6091   2   7   0.0311   0.0711   0.0422  -0.0126  -0.0473  -0.0017   0.00    1.7
2173 301574.000    807699.7981  -5649861.0874   2837755.6023   2   7   0.0310   0.0709   0.0419  -0.0124  -0.0471  -0.0020   0.00    1.7
2173 301575.000    807699.8075  -5649861.0795   2837755.5901   2   7   0.0309   0.0707   0.0418  -0.0124  -0.0470  -0.0020   0.00    1.7
2173 301576.000    807699.8085  -5649861.0853   2837755.5907   2   7   0.0308   0.0705   0.0416  -0.0124  -0.0468  -0.0018   0.00    1.7
2173 301577.000    807699.8121  -5649861.0883   2837755.5917   2   7   0.0308   0.0703   0.0414  -0.0124  -0.0467  -0.0022   0.00    1.7
2173 301578.000    807699.8153  -5649861.0948   2837755.5906   2   7   0.0306   0.0702   0.0412  -0.0123  -0.0465  -0.0007   0.00    1.7
2173 301579.000    807699.8197  -5649861.1064   2837755.5979   2   7   0.0305   0.0700   0.0411  -0.0121  -0.0463   0.0003   0.00    1.7
2173 301580.000    807699.8213  -5649861.1034   2837755.5953   2   7   0.0305   0.0698   0.0409  -0.0120  -0.0462   0.0011   0.00    1.7
2173 301581.000    807699.8247  -5649861.1127   2837755.6007   2   7   0.0304   0.0696   0.0407  -0.0121  -0.0461  -0.0003   0.00    1.7
2173 301582.000    807699.8243  -5649861.1139   2837755.5989   2   7   0.0303   0.0694   0.0405  -0.0120  -0.0459  -0.0007   0.00    1.7
2173 301583.000    807699.8277  -5649861.1256   2837755.6063   2   7   0.0302   0.0692   0.0404  -0.0120  -0.0458   0.0017   0.00    1.8
2173 301584.000    807699.8287  -5649861.1245   2837755.6072   2   7   0.0302   0.0690   0.0402  -0.0120  -0.0456   0.0010   0.00    1.8
2173 301585.000    807699.8288  -5649861.1308   2837755.6087   2   7   0.0301   0.0688   0.0400  -0.0118  -0.0455   0.0015   0.00    1.8
2173 301586.000    807699.8316  -5649861.1335   2837755.6113   2   7   0.0300   0.0687   0.0399  -0.0118  -0.0453   0.0016   0.00    1.8
2173 301587.000    807699.8333  -5649861.1420   2837755.6127   2   7   0.0299   0.0685   0.0397  -0.0116  -0.0452   0.0015   0.00    1.8
2173 301588.000    807699.8355  -5649861.1460   2837755.6157   2   7   0.0298   0.0683   0.0395  -0.0117  -0.0450   0.0024   0.00    1.8
2173 301589.000    807699.8372  -5649861.1593   2837755.6219   2   7   0.0297   0.0681   0.0394  -0.0115  -0.0449   0.0025   0.00    1.8
2173 301590.000    807699.8410  -5649861.1628   2837755.6231   2   7   0.0296   0.0679   0.0392  -0.0116  -0.0448   0.0027   0.00    1.8
2173 301591.000    807699.8438  -5649861.1580   2837755.6211   2   7   0.0296   0.0678   0.0390  -0.0114  -0.0446   0.0025   0.00    1.8
2173 301592.000    807699.8445  -5649861.1635   2837755.6209   2   7   0.0294   0.0676   0.0389  -0.0114  -0.0445   0.0028   0.00    1.8
2173 301593.000    807699.8480  -5649861.1712   2837755.6258   2   7   0.0293   0.0674   0.0387  -0.0113  -0.0443   0.0028   0.00    1.9
2173 301594.000    807699.8525  -5649861.1768   2837755.6276   2   7   0.0292   0.0672   0.0386  -0.0113  -0.0442   0.0030   0.00    1.9
2173 301595.000    807699.8571  -5649861.1834   2837755.6289   2   7   0.0292   0.0670   0.0384  -0.0112  -0.0441   0.0029   0.00    1.9
2173 301596.000    807699.8579  -5649861.1876   2837755.6291   2   7   0.0291   0.0669   0.0383  -0.0111  -0.0439   0.0032   0.00    1.9
2173 301597.000    807699.8630  -5649861.1966   2837755.6359   2   7   0.0290   0.0667   0.0381  -0.0112  -0.0438   0.0029   0.00    1.9
2173 301598.000    807699.8668  -5649861.1964   2837755.6319   2   7   0.0290   0.0665   0.0379  -0.0111  -0.0437   0.0029   0.00    1.9
2173 301599.000    807699.8715  -5649861.2016   2837755.6326   2   7   0.0288   0.0663   0.0378  -0.0111  -0.0435   0.0031   0.00    1.9
2173 301600.000    807699.8729  -5649861.2086   2837755.6335   2   7   0.0288   0.0662   0.0377  -0.0109  -0.0434   0.0030   0.00    1.9
2173 301601.000    807699.8757  -5649861.2132   2837755.6348   2   7   0.0288   0.0660   0.0375  -0.0108  -0.0433   0.0029   0.00    1.9
2173 301602.000    807699.8780  -5649861.2171   2837755.6353   2   7   0.0286   0.0658   0.0373  -0.0108  -0.0432   0.0033   0.00    1.9
2173 301603.000    807699.8799  -5649861.2244   2837755.6397   2   7   0.0286   0.0657   0.0372  -0.0107  -0.0430   0.0034   0.00    1.9
2173 301604.000    807699.8830  -5649861.2286   2837755.6408   2   7   0.0285   0.0655   0.0371  -0.0107  -0.0429   0.0033   0.00    2.0
2173 301605.000    807699.8866  -5649861.2337   2837755.6426   2   7   0.0284   0.0654   0.0369  -0.0105  -0.0428   0.0035   0.00    2.0
2173 301606.000    807699.8895  -5649861.2323   2837755.6392   2   7   0.0283   0.0652   0.0367  -0.0107  -0.0426   0.0029   0.00    2.0
2173 301607.000    807699.8900  -5649861.2313   2837755.6359   2   7   0.0283   0.0650   0.0366  -0.0104  -0.0425   0.0035   0.00    2.0
2173 301608.000    807699.8885  -5649861.2575   2837755.6391   2   7   0.0282   0.0649   0.0365  -0.0105  -0.0424   0.0036   0.00    2.0
2173 301609.000    807699.8927  -5649861.2740   2837755.6547   2   7   0.0282   0.0647   0.0364  -0.0103  -0.0423   0.0033   0.00    2.0
2173 301610.000    807699.8962  -5649861.2935   2837755.6679   2   7   0.0280   0.0646   0.0362  -0.0103  -0.0422   0.0037   0.00    2.0
2173 301611.000    807699.8982  -5649861.2976   2837755.6774   2   7   0.0279   0.0644   0.0361  -0.0102  -0.0420   0.0035   0.00    2.0
2173 301612.000    807699.9028  -5649861.3095   2837755.6870   2   7   0.0279   0.0642   0.0359  -0.0103  -0.0419   0.0031   0.00    2.1
2173 301613.000    807699.9046  -5649861.3199   2837755.6977   2   7   0.0278   0.0641   0.0358  -0.0101  -0.0418   0.0038   0.00    2.1
2173 301614.000    807699.9084  -5649861.3369   2837755.7096   2   7   0.0277   0.0639   0.0357  -0.0099  -0.0417   0.0039   0.00    2.1
2173 301615.000    807699.9112  -5649861.3379   2837755.7154   2   7   0.0277   0.0638   0.0356  -0.0100  -0.0416   0.0033   0.00    2.1
2173 301616.000    807699.9127  -5649861.3506   2837755.7301   2   7   0.0276   0.0636   0.0354  -0.0100  -0.0414   0.0033   0.00    2.1
2173 301617.000    807699.9138  -5649861.3639   2837755.7419   2   7   0.0275   0.0634   0.0353  -0.0100  -0.0413   0.0038   0.00    2.1
2173 301618.000    807699.9167  -5649861.3714   2837755.7494   2   7   0.0274   0.0633   0.0351  -0.0096  -0.0412   0.0038   0.00    2.2
2173 301619.000    807699.9198  -5649861.3804   2837755.7582   2   7   0.0274   0.0632   0.0350  -0.0097  -0.0411   0.0039   0.00    2.2
2173 301620.000    807699.9223  -5649861.3876   2837755.7656   2   7   0.0273   0.0630   0.0349  -0.0095  -0.0410   0.0037   0.00    2.2
2173 301621.000    807699.9230  -5649861.3961   2837755.7752   2   7   0.0272   0.0629   0.0347  -0.0096  -0.0409   0.0038   0.00    2.2
2173 301622.000    807699.9266  -5649861.4075   2837755.7832   2   7   0.0272   0.0627   0.0346  -0.0094  -0.0407   0.0037   0.00    2.2
2173 301623.000    807699.9285  -5649861.4193   2837755.7946   2   7   0.0271   0.0626   0.0345  -0.0096  -0.0406   0.0033   0.00    2.2
2173 301624.000    807699.9307  -5649861.4290   2837755.8039   2   7   0.0271   0.0624   0.0344  -0.0094  -0.0405   0.0037   0.00    2.2
2173 301625.000    807699.9332  -5649861.4394   2837755.8138   2   7   0.0269   0.0623   0.0342  -0.0092  -0.0404   0.0037   0.00    2.2
2173 301626.000    807699.9375  -5649861.4468   2837755.8232   2   7   0.0269   0.0621   0.0341  -0.0093  -0.0403   0.0035   0.00    2.2
2173 301627.000    807699.9390  -5649861.4605   2837755.8380   2   7   0.0268   0.0620   0.0340  -0.0091  -0.0402   0.0040   0.00    2.1
2173 301628.000    807699.9423  -5649861.4680   2837755.8393   2   7   0.0267   0.0619   0.0339  -0.0091  -0.0401   0.0037   0.00    2.1
2173 301629.000    807699.9451  -5649861.4791   2837755.8469   2   7   0.0267   0.0617   0.0338  -0.0091  -0.0400   0.0040   0.00    2.1
2173 301630.000    807699.9478  -5649861.4879   2837755.8559   2   7   0.0266   0.0616   0.0337  -0.0089  -0.0399   0.0040   0.00    2.1
2173 301631.000    807699.9480  -5649861.4937   2837755.8588   2   7   0.0266   0.0614   0.0335  -0.0088  -0.0398   0.0040   0.00    2.1
2173 301632.000    807699.9512  -5649861.5073   2837755.8696   2   7   0.0264   0.0613   0.0334  -0.0089  -0.0397   0.0035   0.00    2.1
2173 301633.000    807699.9568  -5649861.5142   2837755.8731   2   7   0.0264   0.0611   0.0333  -0.0088  -0.0396   0.0040   0.00    2.1
2173 301634.000    807699.9557  -5649861.5195   2837755.8795   2   7   0.0263   0.0610   0.0332  -0.0088  -0.0395   0.0038   0.00    2.1
2173 301635.000    807699.9603  -5649861.5303   2837755.8896   2   7   0.0263   0.0609   0.0331  -0.0085  -0.0394   0.0039   0.00    2.1
2173 301636.000    807699.9617  -5649861.5337   2837755.8974   2   7   0.0262   0.0607   0.0329  -0.0086  -0.0392   0.0037   0.00    2.1
2173 301637.000    807699.9673  -5649861.5439   2837755.9068   2   7   0.0262   0.0606   0.0328  -0.0086  -0.0392   0.0036   0.00    2.1
2173 301638.000    807699.9716  -5649861.5506   2837755.9135   2   7   0.0261   0.0605   0.0327  -0.0084  -0.0390   0.0037   0.00    2.1
2173 301639.000    807699.9743  -5649861.5563   2837755.9192   2   7   0.0260   0.0603   0.0326  -0.0082  -0.0389   0.0038   0.00    2.1
2173 301640.000    807699.9767  -5649861.5642   2837755.9258   2   7   0.0259   0.0602   0.0325  -0.0083  -0.0389   0.0037   0.00    2.1
2173 301641.000    807699.9816  -5649861.5674   2837755.9311   2   7   0.0259   0.0600   0.0324  -0.0083  -0.0388   0.0038   0.00    2.1
2173 301642.000    807699.9829  -5649861.5755   2837755.9375   2   7   0.0258   0.0599   0.0323  -0.0080  -0.0386   0.0038   0.00    2.1
2173 301643.000    807699.9844  -5649861.5835   2837755.9410   2   7   0.0257   0.0598   0.0322  -0.0080  -0.0386   0.0040   0.00    2.1
2173 301644.000    807699.9886  -5649861.5878   2837755.9457   2   7   0.0257   0.0597   0.0321  -0.0080  -0.0384   0.0037   0.00    2.0
2173 301645.000    807699.9897  -5649861.5990   2837755.9501   2   7   0.0257   0.0595   0.0320  -0.0079  -0.0384   0.0038   0.00    2.0
2173 301646.000    807699.9898  -5649861.6057   2837755.9551   2   7   0.0256   0.0594   0.0318  -0.0077  -0.0383   0.0038   0.00    2.0
2173 301647.000    807699.9938  -5649861.6050   2837755.9565   2   7   0.0256   0.0593   0.0317  -0.0077  -0.0382   0.0034   0.00    2.0
2173 301648.000    807699.9953  -5649861.6098   2837755.9603   2   7   0.0254   0.0591   0.0316  -0.0078  -0.0381   0.0038   0.00    2.0
2173 301649.000    807699.9971  -5649861.6093   2837755.9632   2   7   0.0254   0.0590   0.0315  -0.0076  -0.0380   0.0036   0.00    2.0
2173 301650.000    807699.9981  -5649861.6184   2837755.9679   2   7   0.0254   0.0589   0.0314  -0.0076  -0.0379   0.0038   0.00    2.0
2173 301651.000    807700.0009  -5649861.6169   2837755.9702   2   7   0.0253   0.0587   0.0313  -0.0076  -0.0378   0.0038   0.00    2.0
2173 301652.000    807700.0047  -5649861.6274   2837755.9794   2   7   0.0252   0.0586   0.0312  -0.0074  -0.0377   0.0036   0.00    2.0
2173 301653.000    807700.0037  -5649861.6247   2837755.9793   2   7   0.0252   0.0585   0.0311  -0.0072  -0.0376   0.0037   0.00    2.0
2173 301654.000    807700.0072  -5649861.6359   2837755.9862   2   7   0.0251   0.0584   0.0310  -0.0072  -0.0375   0.0038   0.00    2.0
2173 301655.000    807700.0086  -5649861.6355   2837755.9889   2   7   0.0251   0.0583   0.0309  -0.0070  -0.0374   0.0036   0.00    2.0
2173 301656.000    807700.0132  -5649861.6421   2837755.9938   2   7   0.0250   0.0581   0.0308  -0.0072  -0.0373   0.0039   0.00    2.0
2173 301657.000    807700.0135  -5649861.6429   2837755.9954   2   7   0.0250   0.0580   0.0308  -0.0069  -0.0372   0.0036   0.00    2.0
2173 301658.000    807700.0162  -5649861.6449   2837755.9979   2   7   0.0248   0.0579   0.0307  -0.0071  -0.0372   0.0038   0.00    2.0
2173 301659.000    807700.0172  -5649861.6476   2837756.0004   2   7   0.0248   0.0578   0.0305  -0.0070  -0.0371   0.0039   0.00    2.0
2173 301660.000    807700.0201  -5649861.6548   2837756.0034   2   7   0.0248   0.0577   0.0304  -0.0066  -0.0370   0.0034   0.00    2.0
2173 301661.000    807700.0233  -5649861.6567   2837756.0041   2   7   0.0247   0.0575   0.0303  -0.0067  -0.0369   0.0037   0.00    2.0
2173 301662.000    807700.0256  -5649861.6604   2837756.0087   2   7   0.0246   0.0574   0.0303  -0.0066  -0.0368   0.0037   0.00    2.0
2173 301663.000    807700.0275  -5649861.6707   2837756.0130   2   7   0.0246   0.0573   0.0301  -0.0064  -0.0367   0.0036   0.00    1.9
2173 301664.000    807700.0347  -5649861.6710   2837756.0141   2   7   0.0245   0.0572   0.0301  -0.0064  -0.0366   0.0035   0.00    1.9
2173 301665.000    807700.0385  -5649861.6810   2837756.0147   2   7   0.0245   0.0570   0.0300  -0.0065  -0.0365   0.0033   0.00    1.9
2173 301666.000    807700.0409  -5649861.6865   2837756.0202   2   7   0.0244   0.0569   0.0299  -0.0065  -0.0365   0.0035   0.00    1.9
2173 301667.000    807700.0435  -5649861.6943   2837756.0270   2   7   0.0243   0.0568   0.0298  -0.0062  -0.0364   0.0036   0.00    1.9
2173 301668.000    807700.0458  -5649861.7018   2837756.0309   2   7   0.0243   0.0567   0.0297  -0.0060  -0.0363   0.0037   0.00    1.9
2173 301669.000    807700.0489  -5649861.7043   2837756.0319   2   7   0.0242   0.0566   0.0296  -0.0061  -0.0362   0.0038   0.00    1.9
2173 301670.000    807700.0520  -5649861.7087   2837756.0351   2   7   0.0241   0.0565   0.0295  -0.0059  -0.0361   0.0035   0.00    1.9
2173 301671.000    807700.0546  -5649861.7169   2837756.0410   2   7   0.0241   0.0564   0.0294  -0.0057  -0.0360   0.0034   0.00    1.9
2173 301672.000    807700.0575  -5649861.7237   2837756.0431   2   7   0.0241   0.0562   0.0294  -0.0059  -0.0360   0.0036   0.00    1.9
2173 301673.000    807700.0593  -5649861.7350   2837756.0506   2   7   0.0240   0.0562   0.0292  -0.0055  -0.0358   0.0033   0.00    1.9
2173 301674.000    807700.0615  -5649861.7339   2837756.0496   2   7   0.0240   0.0560   0.0292  -0.0056  -0.0358   0.0031   0.00    1.9
2173 301675.000    807700.0623  -5649861.7446   2837756.0566   2   7   0.0239   0.0559   0.0291  -0.0054  -0.0357   0.0031   0.00    1.9
2173 301676.000    807700.0655  -5649861.7550   2837756.0676   2   7   0.0239   0.0558   0.0290  -0.0054  -0.0356   0.0036   0.00    1.9
2173 301677.000    807700.0693  -5649861.7563   2837756.0698   2   7   0.0239   0.0557   0.0289  -0.0055  -0.0355   0.0029   0.00    1.9
2173 301678.000    807700.0727  -5649861.7584   2837756.0664   2   7   0.0237   0.0556   0.0288  -0.0051  -0.0355   0.0036   0.00    1.9
2173 301679.000    807700.0746  -5649861.7619   2837756.0739   2   7   0.0237   0.0555   0.0287  -0.0050  -0.0354   0.0033   0.00    1.9
2173 301680.000    807700.0772  -5649861.7613   2837756.0736   2   7   0.0237   0.0554   0.0287  -0.0048  -0.0353   0.0028   0.00    1.9
2173 301681.000    807700.0793  -5649861.7672   2837756.0796   2   7   0.0236   0.0552   0.0286  -0.0048  -0.0352   0.0030   0.00    1.9
2173 301682.000    807700.0786  -5649861.7669   2837756.0827   2   7   0.0236   0.0551   0.0285  -0.0048  -0.0351   0.0026   0.00    1.9
2173 301683.000    807700.0830  -5649861.7700   2837756.0801   2   7   0.0235   0.0550   0.0284  -0.0046  -0.0350   0.0030   0.00    1.9
2173 301684.000    807700.0840  -5649861.7718   2837756.0798   2   7   0.0235   0.0550   0.0283  -0.0038  -0.0350   0.0032   0.00    1.9
2173 301685.000    807700.0869  -5649861.7763   2837756.0817   2   7   0.0235   0.0548   0.0282  -0.0045  -0.0349   0.0028   0.00    1.9
2173 301686.000    807700.0884  -5649861.7693   2837756.0748   2   7   0.0234   0.0547   0.0282  -0.0041  -0.0348   0.0024   0.00    1.9
2173 301687.000    807700.0907  -5649861.7770   2837756.0762   2   7   0.0233   0.0546   0.0281  -0.0042  -0.0347   0.0031   0.00    1.9
2173 301688.000    807700.0932  -5649861.7888   2837756.0788   2   7   0.0232   0.0545   0.0280  -0.0042  -0.0347   0.0029   0.00    1.8
2173 301689.000    807700.0982  -5649861.7894   2837756.0778   2   7   0.0232   0.0544   0.0279  -0.0038  -0.0346   0.0028   0.00    1.8
2173 301690.000    807700.0984  -5649861.7912   2837756.0748   2   7   0.0231   0.0543   0.0279  -0.0040  -0.0345   0.0029   0.00    1.8
2173 301691.000    807700.1025  -5649861.7999   2837756.0785   2   7   0.0231   0.0542   0.0278  -0.0038  -0.0344   0.0031   0.00    1.8
2173 301692.000    807700.1029  -5649861.8013   2837756.0768   2   7   0.0231   0.0541   0.0277  -0.0035  -0.0344   0.0028   0.00    1.8
2173 301693.000    807700.1042  -5649861.8055   2837756.0826   2   7   0.0230   0.0540   0.0276  -0.0034  -0.0343   0.0029   0.00    1.8
2173 301694.000    807700.1083  -5649861.8102   2837756.0866   2   7   0.0229   0.0539   0.0275  -0.0030  -0.0342   0.0029   0.00    1.8
2173 301695.000    807700.1104  -5649861.8122   2837756.0882   2   7   0.0229   0.0538   0.0275  -0.0034  -0.0342   0.0029   0.00    1.8
2173 301696.000    807700.1016  -5649861.8392   2837756.1254   2   7   0.0229   0.0537   0.0274  -0.0033  -0.0341   0.0030   0.00    1.8
2173 301697.000    807700.1021  -5649861.8368   2837756.1253   2   7   0.0228   0.0536   0.0273  -0.0024  -0.0340   0.0028   0.00    1.8
2173 301698.000    807700.0990  -5649861.8317   2837756.1184   2   7   0.0227   0.0535   0.0272  -0.0025  -0.0339   0.0028   0.00    1.8
2173 301699.000    807700.1033  -5649861.8298   2837756.1162   2   7   0.0227   0.0534   0.0272  -0.0025  -0.0338   0.0023   0.00    1.8
2173 301700.000    807700.1039  -5649861.8272   2837756.1113   2   7   0.0227   0.0533   0.0271  -0.0018  -0.0338   0.0030   0.00    1.8
2173 301701.000    807700.1012  -5649861.8251   2837756.1089   2   7   0.0226   0.0532   0.0270  -0.0022  -0.0337   0.0025   0.00    1.8
2173 301702.000    807700.1016  -5649861.8135   2837756.1012   2   7   0.0225   0.0531   0.0269  -0.0018  -0.0336   0.0025   0.00    1.8
2173 301703.000    807700.1013  -5649861.8196   2837756.1018   2   7   0.0225   0.0530   0.0269  -0.0018  -0.0335   0.0025   0.00    1.8
2173 301704.000    807700.1004  -5649861.8168   2837756.0982   2   7   0.0225   0.0529   0.0268  -0.0013  -0.0335   0.0025   0.00    1.8
2173 301705.000    807700.0979  -5649861.8141   2837756.0966   2   7   0.0224   0.0528   0.0267  -0.0011  -0.0334   0.0024   0.00    1.8
2173 301706.000    807700.0990  -5649861.8117   2837756.0937   2   7   0.0224   0.0527   0.0266   0.0011  -0.0334   0.0022   0.00    1.8
2173 301707.000    807700.1011  -5649861.8122   2837756.0921   2   7   0.0223   0.0526   0.0266  -0.0005  -0.0333   0.0019   0.00    1.8
2173 301708.000    807700.0971  -5649861.8111   2837756.0903   2   7   0.0222   0.0525   0.0265   0.0024  -0.0332   0.0028   0.00    1.8
2173 301709.000    807700.0971  -5649861.8113   2837756.0888   2   7   0.0222   0.0524   0.0264   0.0019  -0.0332   0.0024   0.00    1.8
2173 301710.000    807700.0960  -5649861.8056   2837756.0846   2   7   0.0221   0.0523   0.0264   0.0004  -0.0331   0.0026   0.00    1.8
2173 301711.000    807700.0956  -5649861.8018   2837756.0823   2   7   0.0221   0.0522   0.0263   0.0012  -0.0330   0.0018   0.00    1.8
2173 301712.000    807700.0948  -5649861.7973   2837756.0790   2   7   0.0221   0.0521   0.0263   0.0025  -0.0329   0.0023   0.00    1.8
2173 301713.000    807700.0925  -5649861.7949   2837756.0776   2   7   0.0220   0.0520   0.0262   0.0018  -0.0329   0.0019   0.00    1.8
2173 301714.000    807700.0943  -5649861.7907   2837756.0731   2   7   0.0220   0.0519   0.0261   0.0032  -0.0328   0.0024   0.00    1.8
2173 301715.000    807700.0950  -5649861.7872   2837756.0676   2   7   0.0220   0.0518   0.0260   0.0032  -0.0327   0.0014   0.00    1.8
2173 301716.000    807700.0934  -5649861.7786   2837756.0650   2   7   0.0220   0.0517   0.0260   0.0032  -0.0327   0.0013   0.00    1.8
2173 301717.000    807700.0927  -5649861.7804   2837756.0650   2   7   0.0219   0.0516   0.0259   0.0031  -0.0326   0.0017   0.00    1.8
2173 301718.000    807700.0884  -5649861.7749   2837756.0594   2   7   0.0218   0.0515   0.0258   0.0034  -0.0325   0.0019   0.00    1.8
2173 301719.000    807700.0907  -5649861.7787   2837756.0602   2   7   0.0218   0.0514   0.0258   0.0033  -0.0325   0.0025   0.00    1.8
2173 301720.000    807700.0810  -5649861.8111   2837756.1003   2   7   0.0217   0.0513   0.0257   0.0035  -0.0324   0.0017   0.00    1.8
2173 301721.000    807700.0779  -5649861.8015   2837756.0952   2   7   0.0217   0.0513   0.0256   0.0037  -0.0324   0.0022   0.00    1.8
2173 301722.000    807700.0733  -5649861.7939   2837756.0927   2   7   0.0217   0.0512   0.0256   0.0039  -0.0323   0.0004   0.00    1.8
2173 301723.000    807700.0686  -5649861.7801   2837756.0887   2   7   0.0216   0.0511   0.0255   0.0040  -0.0322   0.0008   0.00    1.8
2173 301724.000    807700.0638  -5649861.7688   2837756.0840   2   7   0.0216   0.0510   0.0255   0.0039  -0.0321   0.0023   0.00    1.8
2173 301725.000    807700.0595  -5649861.7609   2837756.0793   2   7   0.0215   0.0509   0.0254   0.0039  -0.0321   0.0011   0.00    1.8
2173 301726.000    807700.0551  -5649861.7521   2837756.0789   2   7   0.0214   0.0508   0.0253   0.0040  -0.0320   0.0020   0.00    1.8
2173 301727.000    807700.0494  -5649861.7398   2837756.0735   2   7   0.0214   0.0507   0.0252   0.0042  -0.0320   0.0022   0.00    1.8
2173 301728.000    807700.0465  -5649861.7233   2837756.0601   2   7   0.0213   0.0506   0.0252   0.0043  -0.0319  -0.0001   0.00    1.8
2173 301729.000    807700.0413  -5649861.7152   2837756.0554   2   7   0.0214   0.0505   0.0251   0.0044  -0.0318   0.0008   0.00    1.8
2173 301730.000    807700.0376  -5649861.7118   2837756.0579   2   7   0.0213   0.0504   0.0251   0.0039  -0.0318   0.0007   0.00    1.8
2173 301731.000    807700.0333  -5649861.6941   2837756.0452   2   7   0.0213   0.0504   0.0250   0.0047  -0.0317   0.0014   0.00    1.8
2173 301732.000    807700.0286  -5649861.6904   2837756.0445   2   7   0.0212   0.0503   0.0249   0.0046  -0.0317   0.0016   0.00    1.8
2173 301733.000    807700.0266  -5649861.6818   2837756.0429   2   7   0.0211   0.0502   0.0249   0.0047  -0.0316   0.0014   0.00    1.8
2173 301734.000    807700.0250  -5649861.6753   2837756.0415   2   7   0.0212   0.0501   0.0248   0.0051  -0.0315   0.0007   0.00    1.8
2173 301735.000    807700.0187  -5649861.6706   2837756.0431   2   7   0.0211   0.0500   0.0248   0.0047  -0.0315  -0.0012   0.00    1.8
2173 301736.000    807700.0171  -5649861.6666   2837756.0438   2   7   0.0210   0.0499   0.0247   0.0051  -0.0314  -0.0011   0.00    1.8
2173 301737.000    807700.0157  -5649861.6561   2837756.0379   2   7   0.0210   0.0499   0.0246   0.0051  -0.0314  -0.0013   0.00    1.8
2173 301738.000    807700.0115  -5649861.6531   2837756.0402   2   7   0.0209   0.0498   0.0246   0.0051  -0.0313   0.0012   0.00    1.8
2173 301739.000    807700.0094  -5649861.6408   2837756.0356   2   7   0.0210   0.0497   0.0246   0.0051  -0.0312  -0.0010   0.00    1.8
2173 301740.000    807700.0054  -5649861.6360   2837756.0337   2   7   0.0208   0.0496   0.0244   0.0051  -0.0312  -0.0008   0.00    1.8
2173 301741.000    807700.0042  -5649861.6260   2837756.0293   2   7   0.0209   0.0495   0.0244   0.0052  -0.0311  -0.0019   0.00    1.8
2173 301742.000    807699.9977  -5649861.6216   2837756.0299   2   7   0.0209   0.0494   0.0243   0.0056  -0.0311  -0.0010   0.00    1.8
2173 301743.000    807699.9984  -5649861.6154   2837756.0239   2   7   0.0208   0.0493   0.0243   0.0052  -0.0310  -0.0007   0.00    1.8
2173 301744.000    807699.9954  -5649861.6052   2837756.0168   2   7   0.0207   0.0492   0.0243   0.0052  -0.0309  -0.0020   0.00    1.8
2173 301745.000    807699.9904  -5649861.5933   2837756.0112   2   7   0.0208   0.0492   0.0242   0.0057  -0.0309  -0.0009   0.00    1.8
2173 301746.000    807699.9875  -5649861.5828   2837756.0061   2   7   0.0206   0.0491   0.0241   0.0057  -0.0308  -0.0015   0.00    1.8
2173 301747.000    807699.9799  -5649861.5747   2837756.0066   2   7   0.0207   0.0490   0.0241   0.0053  -0.0308  -0.0024   0.00    1.8
2173 301748.000    807699.9814  -5649861.5684   2837756.0021   2   7   0.0205   0.0489   0.0240   0.0059  -0.0307  -0.0007   0.00    1.8
2173 301749.000    807699.9726  -5649861.5599   2837755.9978   2   7   0.0205   0.0488   0.0240   0.0057  -0.0306  -0.0016   0.00    1.8
2173 301750.000    807699.9700  -5649861.5492   2837755.9913   2   7   0.0206   0.0488   0.0239   0.0059  -0.0306  -0.0023   0.00    1.8
2173 301751.000    807699.9648  -5649861.5435   2837755.9880   2   7   0.0205   0.0487   0.0239   0.0058  -0.0305  -0.0021   0.00    1.8
2173 301752.000    807699.9614  -5649861.5301   2837755.9800   2   7   0.0204   0.0486   0.0238   0.0061  -0.0305  -0.0023   0.00    1.8
2173 301753.000    807699.9562  -5649861.5213   2837755.9789   2   7   0.0204   0.0485   0.0238   0.0058  -0.0304  -0.0011   0.00    1.8
2173 301754.000    807699.9559  -5649861.5147   2837755.9737   2   7   0.0203   0.0484   0.0237   0.0060  -0.0304  -0.0016   0.00    1.8
2173 301755.000    807699.9388  -5649861.4869   2837755.9582   2   7   0.0203   0.0483   0.0237   0.0059  -0.0303  -0.0016   0.00    1.8
2173 301756.000    807699.9395  -5649861.4832   2837755.9546   2   7   0.0203   0.0483   0.0236   0.0061  -0.0303  -0.0017   0.00    1.8
2173 301757.000    807699.9358  -5649861.4758   2837755.9551   2   7   0.0202   0.0482   0.0236   0.0063  -0.0302  -0.0014   0.00    1.8
2173 301758.000    807699.9328  -5649861.4690   2837755.9521   2   7   0.0202   0.0481   0.0235   0.0062  -0.0301  -0.0022   0.00    1.8
2173 301759.000    807699.9287  -5649861.4646   2837755.9526   2   7   0.0201   0.0480   0.0234   0.0062  -0.0301  -0.0024   0.00    1.8
2173 301760.000    807699.9269  -5649861.4580   2837755.9495   2   7   0.0201   0.0480   0.0234   0.0061  -0.0300  -0.0027   0.00    1.8
2173 301761.000    807699.9244  -5649861.4541   2837755.9481   2   7   0.0201   0.0479   0.0233   0.0063  -0.0300  -0.0031   0.00    1.8
2173 301762.000    807699.9201  -5649861.4497   2837755.9473   2   7   0.0200   0.0478   0.0233   0.0066  -0.0299  -0.0020   0.00    1.8
2173 301763.000    807699.9168  -5649861.4399   2837755.9416   2   7   0.0200   0.0477   0.0233   0.0065  -0.0299  -0.0027   0.00    1.8
2173 301764.000    807699.9150  -5649861.4354   2837755.9372   2   7   0.0200   0.0477   0.0232   0.0066  -0.0298  -0.0021   0.00    1.8
2173 301765.000    807699.9082  -5649861.4364   2837755.9374   2   7   0.0199   0.0476   0.0231   0.0065  -0.0298  -0.0023   0.00    1.8
2173 301766.000    807699.9077  -5649861.4301   2837755.9361   2   7   0.0199   0.0475   0.0231   0.0068  -0.0297  -0.0026   0.00    1.8
2173 301767.000    807699.9058  -5649861.4231   2837755.9302   2   7   0.0198   0.0474   0.0230   0.0064  -0.0297  -0.0022   0.00    1.8
2173 301768.000    807699.9023  -5649861.4163   2837755.9283   2   7   0.0199   0.0474   0.0230   0.0068  -0.0296  -0.0025   0.00    1.8
2173 301769.000    807699.8982  -5649861.4124   2837755.9272   2   7   0.0198   0.0473   0.0229   0.0066  -0.0295  -0.0032   0.00    1.8
2173 301770.000    807699.8967  -5649861.4057   2837755.9237   2   7   0.0197   0.0472   0.0229   0.0068  -0.0295  -0.0025   0.00    1.8
2173 301771.000    807699.8926  -5649861.3998   2837755.9222   2   7   0.0197   0.0471   0.0228   0.0069  -0.0295  -0.0022   0.00    1.8
2173 301772.000    807699.8878  -5649861.4007   2837755.9226   2   7   0.0196   0.0471   0.0228   0.0070  -0.0294  -0.0027   0.00    1.8
2173 301773.000    807699.8861  -5649861.3947   2837755.9203   2   7   0.0197   0.0470   0.0228   0.0069  -0.0294  -0.0023   0.00    1.8
2173 301774.000    807699.8835  -5649861.3856   2837755.9184   2   7   0.0196   0.0469   0.0227   0.0067  -0.0293  -0.0030   0.00    1.8
2173 301775.000    807699.8814  -5649861.3783   2837755.9182   2   7   0.0195   0.0468   0.0226   0.0071  -0.0292  -0.0025   0.00    1.8
2173 301776.000    807699.8815  -5649861.3770   2837755.9166   2   7   0.0196   0.0468   0.0226   0.0071  -0.0292  -0.0029   0.00    1.8
2173 301777.000    807699.8806  -5649861.3696   2837755.9149   2   7   0.0196   0.0467   0.0226   0.0069  -0.0292  -0.0031   0.00    1.8
2173 301778.000    807699.8779  -5649861.3613   2837755.9114   2   7   0.0195   0.0466   0.0225   0.0072  -0.0291  -0.0028   0.00    1.8
2173 301779.000    807699.8772  -5649861.3577   2837755.9057   2   7   0.0195   0.0465   0.0225   0.0071  -0.0291  -0.0030   0.00    1.8
2173 301780.000    807699.8736  -5649861.3514   2837755.9029   2   7   0.0194   0.0465   0.0224   0.0072  -0.0290  -0.0033   0.00    1.8
2173 301781.000    807699.8702  -5649861.3421   2837755.8960   2   7   0.0194   0.0464   0.0224   0.0071  -0.0289  -0.0029   0.00    1.8
2173 301782.000    807699.8655  -5649861.3321   2837755.8935   2   7   0.0194   0.0463   0.0223   0.0073  -0.0289  -0.0033   0.00    1.8
2173 301783.000    807699.8624  -5649861.3246   2837755.8886   2   7   0.0194   0.0463   0.0223   0.0073  -0.0288  -0.0031   0.00    1.8
2173 301784.000    807699.8594  -5649861.3207   2837755.8871   2   7   0.0193   0.0462   0.0222   0.0074  -0.0288  -0.0028   0.00    1.8
2173 301785.000    807699.8587  -5649861.3124   2837755.8816   2   7   0.0192   0.0461   0.0222   0.0073  -0.0288  -0.0033   0.00    1.8
2173 301786.000    807699.8568  -5649861.3043   2837755.8799   2   7   0.0192   0.0460   0.0221   0.0074  -0.0287  -0.0033   0.00    1.8
