% program   : rnx2rtkp ver.2.4.3 b31
% inp file  : ngs/21_08_31_19_18_40_pbch.obs
% inp file  : ngs/21_08_31_19_18_40_pbch_SW.obs
% inp file  : ngs/21_08_31_19_18_40_brdc.nav
% obs start : 2021/08/31 19:00:00.0 GPST (week2173 241200.0s)
% obs end   : 2021/08/31 19:59:59.0 GPST (week2173 244799.0s)
% ref pos   :   974910.6272  -5655458.4910   2773892.8335
%
% (x/y/z-ecef=WGS84,Q=1:fix,2:float,3:sbas,4:dgps,5:single,6:ppp,ns=# of satellites)
%  GPST              x-ecef(m)      y-ecef(m)      z-ecef(m)   Q  ns   sdx(m)   sdy(m)   sdz(m)  sdxy(m)  sdyz(m)  sdzx(m) age(s)  ratio
2173 242295.000    967386.0277  -5611812.0707   2863022.6819   2   7   0.6059   1.3115   0.6831  -0.6843  -0.8242   0.4620 -30.00    1.4
2173 242296.000    967386.0323  -5611812.0882   2863022.6923   2   7   0.4307   0.9326   0.4854  -0.4862  -0.5858   0.3283 -29.00    1.4
2173 242297.000    967386.0316  -5611812.0872   2863022.6881   2   7   0.3526   0.7634   0.3974  -0.3980  -0.4795   0.2687 -28.00    1.4
2173 242298.000    967386.0294  -5611812.0829   2863022.6873   2   7   0.3059   0.6622   0.3447  -0.3453  -0.4159   0.2331 -27.00    1.4
2173 242299.000    967386.0281  -5611812.0821   2863022.6882   2   7   0.2740   0.5930   0.3087  -0.3092  -0.3724   0.2088 -26.00    1.3
2173 242300.000    967386.0240  -5611812.0849   2863022.6913   2   7   0.2504   0.5417   0.2821  -0.2825  -0.3403   0.1907 -25.00    1.3
2173 242301.000    967386.0242  -5611812.0911   2863022.6941   2   7   0.2320   0.5018   0.2613  -0.2617  -0.3152   0.1767 -24.00    1.3
2173 242302.000    967386.0253  -5611812.0946   2863022.6942   2   7   0.2171   0.4696   0.2446  -0.2450  -0.2950   0.1654 -23.00    1.3
2173 242303.000    967386.0240  -5611812.0963   2863022.6942   2   7   0.2048   0.4429   0.2307  -0.2310  -0.2782   0.1560 -22.00    1.3
2173 242304.000    967386.0253  -5611812.1051   2863022.6989   2   7   0.1944   0.4201   0.2188  -0.2192  -0.2639   0.1480 -21.00    1.3
2173 242305.000    967386.0232  -5611812.1016   2863022.6973   2   7   0.1853   0.4006   0.2087  -0.2090  -0.2516   0.1411 -20.00    1.3
2173 242306.000    967386.0245  -5611812.1090   2863022.7000   2   7   0.1774   0.3834   0.1997  -0.2000  -0.2408   0.1350 -19.00    1.3
2173 242307.000    967386.0238  -5611812.1108   2863022.7012   2   7   0.1705   0.3683   0.1918  -0.1921  -0.2313   0.1297 -18.00    1.3
2173 242308.000    967386.0279  -5611812.1184   2863022.7034   2   7   0.1642   0.3547   0.1848  -0.1850  -0.2227   0.1249 -17.00    1.3
2173 242309.000    967386.0262  -5611812.1224   2863022.7042   2   7   0.1586   0.3425   0.1784  -0.1787  -0.2150   0.1206 -16.00    1.3
2173 242310.000    967386.0246  -5611812.1213   2863022.7062   2   7   0.1535   0.3314   0.1726  -0.1729  -0.2081   0.1167 -15.00    1.2
2173 242311.000    967386.0257  -5611812.1220   2863022.7062   2   7   0.1489   0.3213   0.1674  -0.1676  -0.2017   0.1131 -14.00    1.2
2173 242312.000    967386.0239  -5611812.1233   2863022.7086   2   7   0.1446   0.3120   0.1625  -0.1627  -0.1958   0.1098 -13.00    1.2
2173 242313.000    967386.0235  -5611812.1178   2863022.7051   2   7   0.1406   0.3034   0.1581  -0.1582  -0.1904   0.1068 -12.00    1.2
2173 242314.000    967386.0235  -5611812.1222   2863022.7071   2   7   0.1370   0.2955   0.1539  -0.1540  -0.1854   0.1040 -11.00    1.1
2173 242315.000    967386.0229  -5611812.1189   2863022.7068   2   7   0.1336   0.2881   0.1501  -0.1502  -0.1807   0.1014 -10.00    1.1
2173 242316.000    967386.0216  -5611812.1186   2863022.7054   2   7   0.1304   0.2812   0.1465  -0.1465  -0.1764   0.0989  -9.00    1.0
2173 242317.000    967386.0164  -5611812.1103   2863022.7042   2   7   0.1275   0.2747   0.1431  -0.1431  -0.1723   0.0966  -8.00    1.0
2173 242318.000    967386.0181  -5611812.1092   2863022.7033   2   7   0.1247   0.2686   0.1399  -0.1399  -0.1684   0.0945  -7.00    1.1
2173 242319.000    967386.0163  -5611812.1030   2863022.7007   2   7   0.1221   0.2628   0.1370  -0.1369  -0.1648   0.0924  -6.00    1.2
2173 242320.000    967386.0171  -5611812.1043   2863022.7002   2   7   0.1196   0.2574   0.1341  -0.1341  -0.1613   0.0905  -5.00    1.2
2173 242321.000    967386.0138  -5611812.1000   2863022.6985   2   7   0.1173   0.2523   0.1315  -0.1314  -0.1581   0.0887  -4.00    1.3
2173 242322.000    967386.0123  -5611812.0938   2863022.6945   2   7   0.1151   0.2474   0.1290  -0.1288  -0.1550   0.0870  -3.00    1.3
2173 242323.000    967386.0133  -5611812.0928   2863022.6948   2   7   0.1131   0.2428   0.1266  -0.1264  -0.1521   0.0853  -2.00    1.3
2173 242324.000    967386.0129  -5611812.0899   2863022.6922   2   7   0.1111   0.2384   0.1243  -0.1241  -0.1493   0.0838  -1.00    1.2
2173 242325.000    967386.0156  -5611812.0941   2863022.6927   2   7   0.1092   0.2342   0.1221  -0.1219  -0.1466   0.0823   0.00    1.2
2173 242326.000    967386.0157  -5611812.1030   2863022.6967   2   7   0.1075   0.2302   0.1201  -0.1198  -0.1441   0.0809   0.00    1.2
2173 242327.000    967386.0184  -5611812.1089   2863022.6978   2   7   0.1058   0.2264   0.1182  -0.1179  -0.1417   0.0796   0.00    1.2
2173 242328.000    967386.0214  -5611812.1117   2863022.6989   2   7   0.1042   0.2228   0.1163  -0.1160  -0.1394   0.0783   0.00    1.1
2173 242329.000    967386.0210  -5611812.1109   2863022.6967   2   7   0.1026   0.2193   0.1145  -0.1141  -0.1372   0.0770   0.00    1.1
2173 242330.000    967386.0168  -5611812.1048   2863022.6953   2   7   0.1011   0.2159   0.1128  -0.1124  -0.1351   0.0759   0.00    1.1
2173 242331.000    967386.0149  -5611812.0975   2863022.6886   2   7   0.0997   0.2127   0.1111  -0.1107  -0.1330   0.0747   0.00    1.1
2173 242332.000    967386.0131  -5611812.0884   2863022.6854   2   7   0.0983   0.2095   0.1095  -0.1090  -0.1310   0.0736   0.00    1.1
2173 242333.000    967386.0081  -5611812.0772   2863022.6810   2   7   0.0970   0.2065   0.1080  -0.1074  -0.1291   0.0725   0.00    1.1
2173 242334.000    967386.0049  -5611812.0693   2863022.6769   2   7   0.0957   0.2036   0.1065  -0.1059  -0.1272   0.0715   0.00    1.1
2173 242335.000    967386.0058  -5611812.0692   2863022.6755   2   7   0.0945   0.2007   0.1050  -0.1044  -0.1254   0.0704   0.00    1.1
2173 242336.000    967386.0040  -5611812.0674   2863022.6752   2   7   0.0933   0.1979   0.1036  -0.1029  -0.1236   0.0695   0.00    1.1
2173 242337.000    967386.0068  -5611812.0726   2863022.6760   2   7   0.0921   0.1952   0.1022  -0.1014  -0.1219   0.0685   0.00    1.1
2173 242338.000    967386.0084  -5611812.0774   2863022.6763   2   7   0.0910   0.1925   0.1009  -0.1001  -0.1202   0.0675   0.00    1.1
2173 242339.000    967386.0111  -5611812.0928   2863022.6834   2   7   0.0899   0.1899   0.0996  -0.0987  -0.1185   0.0666   0.00    1.1
2173 242340.000    967386.0136  -5611812.1050   2863022.6872   2   7   0.0888   0.1874   0.0983  -0.0974  -0.1169   0.0657   0.00    1.1
2173 242341.000    967386.0156  -5611812.1099   2863022.6878   2   7   0.0878   0.1849   0.0971  -0.0961  -0.1153   0.0648   0.00    1.1
2173 242342.000    967386.0179  -5611812.1157   2863022.6891   2   7   0.0868   0.1825   0.0958  -0.0948  -0.1138   0.0640   0.00    1.1
2173 242343.000    967386.0184  -5611812.1179   2863022.6894   2   7   0.0858   0.1802   0.0946  -0.0935  -0.1123   0.0631   0.00    1.1
2173 242344.000    967386.0200  -5611812.1261   2863022.6924   2   7   0.0849   0.1778   0.0935  -0.0923  -0.1107   0.0623   0.00    1.0
2173 242345.000    967386.0238  -5611812.1377   2863022.6927   2   7   0.0840   0.1756   0.0924  -0.0911  -0.1093   0.0615   0.00    1.0
2173 242346.000    967386.0213  -5611812.1468   2863022.6962   2   7   0.0831   0.1733   0.0913  -0.0899  -0.1079   0.0607   0.00    1.0
2173 242347.000    967386.0293  -5611812.1774   2863022.7062   2   7   0.0821   0.1712   0.0901  -0.0887  -0.1064   0.0599   0.00    1.0
2173 242348.000    967386.0396  -5611812.2014   2863022.7182   2   7   0.0813   0.1690   0.0891  -0.0876  -0.1050   0.0591   0.00    1.0
2173 242349.000    967386.0448  -5611812.2181   2863022.7280   2   7   0.0805   0.1669   0.0881  -0.0865  -0.1037   0.0584   0.00    1.0
2173 242350.000    967386.0503  -5611812.2323   2863022.7341   2   7   0.0796   0.1648   0.0870  -0.0854  -0.1024   0.0576   0.00    1.0
2173 242351.000    967386.0560  -5611812.2474   2863022.7421   2   7   0.0788   0.1628   0.0860  -0.0843  -0.1010   0.0569   0.00    1.0
2173 242352.000    967386.0577  -5611812.2591   2863022.7485   2   7   0.0780   0.1608   0.0850  -0.0832  -0.0997   0.0562   0.00    1.0
2173 242353.000    967386.0576  -5611812.2591   2863022.7503   2   7   0.0773   0.1588   0.0841  -0.0822  -0.0984   0.0555   0.00    1.0
2173 242354.000    967386.0615  -5611812.2685   2863022.7549   2   7   0.0765   0.1569   0.0831  -0.0811  -0.0972   0.0548   0.00    1.0
2173 242355.000    967386.0647  -5611812.2790   2863022.7596   2   7   0.0758   0.1550   0.0822  -0.0801  -0.0959   0.0541   0.00    1.0
2173 242356.000    967386.0662  -5611812.3274   2863022.7702   2   7   0.0751   0.1531   0.0813  -0.0791  -0.0947   0.0534   0.00    1.0
2173 242357.000    967386.0803  -5611812.3663   2863022.7830   2   7   0.0744   0.1512   0.0803  -0.0781  -0.0935   0.0527   0.00    1.0
2173 242358.000    967386.0924  -5611812.4091   2863022.8024   2   7   0.0736   0.1494   0.0794  -0.0771  -0.0923   0.0521   0.00    1.0
2173 242359.000    967386.1076  -5611812.4550   2863022.8221   2   7   0.0730   0.1476   0.0786  -0.0761  -0.0911   0.0514   0.00    1.0
2173 242360.000    967386.1196  -5611812.4987   2863022.8410   2   7   0.0723   0.1458   0.0777  -0.0752  -0.0900   0.0508   0.00    1.0
2173 242361.000    967386.1295  -5611812.5338   2863022.8567   2   7   0.0716   0.1441   0.0769  -0.0742  -0.0889   0.0501   0.00    1.0
2173 242362.000    967386.1414  -5611812.5716   2863022.8735   2   7   0.0710   0.1424   0.0760  -0.0733  -0.0877   0.0495   0.00    1.0
2173 242363.000    967386.1493  -5611812.6076   2863022.8912   2   7   0.0704   0.1407   0.0752  -0.0724  -0.0866   0.0489   0.00    1.0
2173 242364.000    967386.1596  -5611812.6387   2863022.9070   2   7   0.0697   0.1390   0.0744  -0.0715  -0.0855   0.0483   0.00    1.0
2173 242365.000    967386.1713  -5611812.6755   2863022.9227   2   7   0.0692   0.1374   0.0736  -0.0706  -0.0844   0.0477   0.00    1.0
2173 242366.000    967386.1810  -5611812.7082   2863022.9398   2   7   0.0685   0.1358   0.0728  -0.0697  -0.0834   0.0471   0.00    1.0
2173 242367.000    967386.1922  -5611812.7464   2863022.9599   2   7   0.0679   0.1342   0.0720  -0.0689  -0.0823   0.0465   0.00    1.0
2173 242368.000    967386.2014  -5611812.7755   2863022.9735   2   7   0.0674   0.1326   0.0713  -0.0680  -0.0813   0.0460   0.00    1.0
2173 242369.000    967386.2098  -5611812.8026   2863022.9840   2   7   0.0668   0.1310   0.0705  -0.0672  -0.0803   0.0454   0.00    1.0
2173 242370.000    967386.2206  -5611812.8348   2863022.9997   2   7   0.0663   0.1295   0.0698  -0.0664  -0.0793   0.0448   0.00    1.0
2173 242371.000    967386.2304  -5611812.8634   2863023.0156   2   7   0.0657   0.1280   0.0691  -0.0655  -0.0783   0.0443   0.00    1.0
2173 242372.000    967386.2358  -5611812.8885   2863023.0266   2   7   0.0652   0.1265   0.0684  -0.0647  -0.0773   0.0437   0.00    1.0
2173 242373.000    967386.2461  -5611812.9165   2863023.0394   2   7   0.0646   0.1251   0.0677  -0.0639  -0.0763   0.0432   0.00    1.0
2173 242374.000    967386.2492  -5611812.9288   2863023.0449   2   7   0.0641   0.1236   0.0670  -0.0632  -0.0754   0.0427   0.00    1.0
2173 242375.000    967386.2544  -5611812.9466   2863023.0542   2   7   0.0636   0.1222   0.0663  -0.0624  -0.0744   0.0422   0.00    1.0
2173 242376.000    967386.2579  -5611812.9599   2863023.0596   2   7   0.0631   0.1208   0.0656  -0.0616  -0.0735   0.0416   0.00    1.0
2173 242377.000    967386.2636  -5611812.9772   2863023.0667   2   7   0.0627   0.1194   0.0650  -0.0609  -0.0726   0.0411   0.00    1.0
2173 242378.000    967386.2647  -5611812.9780   2863023.0716   2   7   0.0622   0.1181   0.0643  -0.0601  -0.0717   0.0406   0.00    1.0
2173 242379.000    967386.2678  -5611812.9845   2863023.0747   2   7   0.0617   0.1167   0.0636  -0.0594  -0.0708   0.0401   0.00    1.0
2173 242380.000    967386.2692  -5611812.9917   2863023.0788   2   7   0.0612   0.1154   0.0630  -0.0587  -0.0700   0.0397   0.00    1.0
2173 242381.000    967386.2820  -5611813.0070   2863023.0966   2   7   0.0608   0.1141   0.0624  -0.0580  -0.0691   0.0392   0.00    1.0
2173 242382.000    967386.2878  -5611813.0235   2863023.1081   2   7   0.0603   0.1128   0.0618  -0.0573  -0.0682   0.0387   0.00    1.0
2173 242383.000    967386.2919  -5611813.0305   2863023.1134   2   7   0.0599   0.1115   0.0612  -0.0566  -0.0674   0.0382   0.00    1.1
2173 242384.000    967386.2961  -5611813.0449   2863023.1205   2   7   0.0594   0.1103   0.0606  -0.0559  -0.0666   0.0378   0.00    1.1
2173 242385.000    967386.2974  -5611813.0492   2863023.1272   2   7   0.0590   0.1091   0.0600  -0.0552  -0.0658   0.0373   0.00    1.1
2173 242386.000    967386.3001  -5611813.0597   2863023.1313   2   7   0.0586   0.1079   0.0594  -0.0546  -0.0650   0.0368   0.00    1.1
2173 242387.000    967386.3002  -5611813.0648   2863023.1342   2   7   0.0582   0.1067   0.0588  -0.0539  -0.0642   0.0364   0.00    1.0
2173 242388.000    967386.3010  -5611813.0750   2863023.1413   2   7   0.0578   0.1055   0.0583  -0.0533  -0.0634   0.0360   0.00    1.0
2173 242389.000    967386.3020  -5611813.0731   2863023.1422   2   7   0.0574   0.1043   0.0577  -0.0526  -0.0626   0.0356   0.00    1.0
2173 242390.000    967386.3028  -5611813.0738   2863023.1446   2   7   0.0570   0.1032   0.0571  -0.0520  -0.0619   0.0351   0.00    1.0
2173 242391.000    967386.3037  -5611813.0771   2863023.1480   2   7   0.0566   0.1021   0.0567  -0.0514  -0.0611   0.0347   0.00    1.0
2173 242392.000    967386.3031  -5611813.0740   2863023.1506   2   7   0.0562   0.1010   0.0561  -0.0508  -0.0604   0.0343   0.00    1.0
2173 242393.000    967386.3019  -5611813.0736   2863023.1520   2   7   0.0558   0.0999   0.0556  -0.0502  -0.0597   0.0339   0.00    1.0
2173 242394.000    967386.3007  -5611813.0702   2863023.1530   2   7   0.0555   0.0988   0.0550  -0.0496  -0.0589   0.0335   0.00    1.0
2173 242395.000    967386.3004  -5611813.0670   2863023.1529   2   7   0.0551   0.0977   0.0545  -0.0490  -0.0582   0.0331   0.00    1.0
2173 242396.000    967386.2960  -5611813.0642   2863023.1536   2   7   0.0547   0.0967   0.0541  -0.0484  -0.0575   0.0327   0.00    1.0
2173 242397.000    967386.2991  -5611813.0677   2863023.1557   2   7   0.0544   0.0957   0.0535  -0.0478  -0.0569   0.0323   0.00    1.0
2173 242398.000    967386.2961  -5611813.0687   2863023.1580   2   7   0.0540   0.0946   0.0531  -0.0473  -0.0562   0.0320   0.00    1.0
2173 242399.000    967386.2961  -5611813.0700   2863023.1598   2   7   0.0537   0.0937   0.0526  -0.0467  -0.0555   0.0316   0.00    1.0
2173 242400.000    967386.2984  -5611813.0819   2863023.1653   2   7   0.0534   0.0927   0.0521  -0.0462  -0.0549   0.0312   0.00    1.0
2173 242401.000    967386.2967  -5611813.0817   2863023.1651   2   7   0.0530   0.0917   0.0517  -0.0457  -0.0542   0.0309   0.00    1.0
2173 242402.000    967386.2984  -5611813.0905   2863023.1702   2   7   0.0527   0.0907   0.0512  -0.0452  -0.0536   0.0305   0.00    1.0
2173 242403.000    967386.3029  -5611813.1040   2863023.1793   2   7   0.0524   0.0898   0.0508  -0.0446  -0.0530   0.0301   0.00    1.0
2173 242404.000    967386.3031  -5611813.1106   2863023.1839   2   7   0.0520   0.0889   0.0503  -0.0441  -0.0523   0.0299   0.00    1.0
2173 242405.000    967386.3060  -5611813.1233   2863023.1885   2   7   0.0518   0.0880   0.0499  -0.0436  -0.0517   0.0294   0.00    1.0
2173 242406.000    967386.3065  -5611813.1281   2863023.1932   2   7   0.0514   0.0871   0.0494  -0.0431  -0.0512   0.0291   0.00    1.0
2173 242407.000    967386.3066  -5611813.1405   2863023.1975   2   7   0.0512   0.0862   0.0490  -0.0426  -0.0506   0.0287   0.00    1.0
2173 242408.000    967386.3132  -5611813.1584   2863023.2074   2   7   0.0508   0.0853   0.0486  -0.0421  -0.0500   0.0284   0.00    1.0
2173 242409.000    967386.3176  -5611813.1757   2863023.2158   2   7   0.0506   0.0844   0.0482  -0.0417  -0.0494   0.0281   0.00    1.0
2173 242410.000    967386.3176  -5611813.1855   2863023.2201   2   7   0.0502   0.0836   0.0477  -0.0412  -0.0488   0.0278   0.00    1.0
2173 242411.000    967386.3238  -5611813.2043   2863023.2251   2   7   0.0500   0.0828   0.0474  -0.0407  -0.0483   0.0275   0.00    1.0
2173 242412.000    967386.3261  -5611813.2221   2863023.2326   2   7   0.0497   0.0819   0.0470  -0.0403  -0.0477   0.0272   0.00    1.0
2173 242413.000    967386.3310  -5611813.2440   2863023.2376   2   7   0.0494   0.0811   0.0466  -0.0398  -0.0472   0.0269   0.00    1.0
2173 242414.000    967386.3376  -5611813.2750   2863023.2445   2   7   0.0492   0.0803   0.0462  -0.0394  -0.0467   0.0265   0.00    1.0
2173 242415.000    967386.3453  -5611813.3074   2863023.2547   2   7   0.0489   0.0795   0.0458  -0.0389  -0.0461   0.0263   0.00    1.0
2173 242416.000    967386.3555  -5611813.3570   2863023.2718   2   7   0.0486   0.0788   0.0454  -0.0385  -0.0456   0.0261   0.00    1.0
2173 242417.000    967386.3549  -5611813.3935   2863023.2970   2   7   0.0483   0.0780   0.0451  -0.0381  -0.0451   0.0257   0.00    1.0
2173 242418.000    967386.3692  -5611813.4392   2863023.3191   2   7   0.0481   0.0773   0.0447  -0.0377  -0.0446   0.0254   0.00    1.0
2173 242419.000    967386.3808  -5611813.4873   2863023.3410   2   7   0.0478   0.0765   0.0444  -0.0373  -0.0441   0.0251   0.00    1.0
2173 242420.000    967386.3932  -5611813.5262   2863023.3626   2   7   0.0476   0.0758   0.0439  -0.0369  -0.0436   0.0249   0.00    1.0
2173 242421.000    967386.4051  -5611813.5630   2863023.3802   2   7   0.0473   0.0751   0.0436  -0.0364  -0.0432   0.0246   0.00    1.0
2173 242422.000    967386.4148  -5611813.5958   2863023.3974   2   7   0.0471   0.0744   0.0433  -0.0360  -0.0427   0.0243   0.00    1.0
2173 242423.000    967386.4247  -5611813.6264   2863023.4142   2   7   0.0469   0.0737   0.0430  -0.0356  -0.0423   0.0241   0.00    1.0
2173 242424.000    967386.4307  -5611813.6550   2863023.4321   2   7   0.0466   0.0730   0.0426  -0.0353  -0.0418   0.0238   0.00    1.0
2173 242425.000    967386.4419  -5611813.6825   2863023.4489   2   7   0.0464   0.0723   0.0423  -0.0349  -0.0413   0.0235   0.00    1.0
2173 242426.000    967386.4464  -5611813.7074   2863023.4612   2   7   0.0462   0.0716   0.0420  -0.0345  -0.0409   0.0232   0.00    1.0
2173 242427.000    967386.4520  -5611813.7231   2863023.4726   2   7   0.0459   0.0710   0.0416  -0.0342  -0.0404   0.0230   0.00    1.0
2173 242428.000    967386.4567  -5611813.7360   2863023.4839   2   7   0.0457   0.0703   0.0413  -0.0338  -0.0400   0.0228   0.00    1.0
2173 242429.000    967386.4616  -5611813.7519   2863023.4929   2   7   0.0455   0.0697   0.0410  -0.0334  -0.0396   0.0225   0.00    1.0
2173 242430.000    967386.4628  -5611813.7585   2863023.5019   2   7   0.0453   0.0691   0.0406  -0.0330  -0.0392   0.0223   0.00    1.0
2173 242431.000    967386.4658  -5611813.7676   2863023.5098   2   7   0.0451   0.0684   0.0403  -0.0327  -0.0388   0.0221   0.00    1.0
2173 242432.000    967386.4677  -5611813.7744   2863023.5170   2   7   0.0449   0.0678   0.0401  -0.0324  -0.0384   0.0218   0.00    1.0
2173 242433.000    967386.4722  -5611813.7789   2863023.5247   2   7   0.0446   0.0672   0.0397  -0.0321  -0.0380   0.0217   0.00    1.0
2173 242434.000    967386.4731  -5611813.7828   2863023.5305   2   7   0.0444   0.0666   0.0395  -0.0317  -0.0376   0.0214   0.00    1.0
2173 242435.000    967386.4760  -5611813.7883   2863023.5377   2   7   0.0443   0.0660   0.0391  -0.0313  -0.0372   0.0212   0.00    1.0
2173 242436.000    967386.4786  -5611813.7919   2863023.5441   2   7   0.0440   0.0654   0.0389  -0.0311  -0.0368   0.0209   0.00    1.0
2173 242437.000    967386.4895  -5611813.7984   2863023.5588   2   7   0.0438   0.0649   0.0386  -0.0308  -0.0364   0.0208   0.00    1.0
2173 242438.000    967386.4920  -5611813.8012   2863023.5641   2   7   0.0436   0.0643   0.0383  -0.0304  -0.0361   0.0205   0.00    1.0
2173 242439.000    967386.4947  -5611813.8098   2863023.5708   2   7   0.0434   0.0638   0.0381  -0.0301  -0.0357   0.0203   0.00    1.0
2173 242440.000    967386.4973  -5611813.8160   2863023.5766   2   7   0.0433   0.0632   0.0377  -0.0298  -0.0354   0.0201   0.00    1.0
2173 242441.000    967386.5008  -5611813.8184   2863023.5825   2   7   0.0431   0.0627   0.0374  -0.0295  -0.0350   0.0199   0.00    1.0
2173 242442.000    967386.5016  -5611813.8173   2863023.5825   2   7   0.0429   0.0621   0.0373  -0.0292  -0.0347   0.0197   0.00    1.0
2173 242443.000    967386.5037  -5611813.8231   2863023.5908   2   7   0.0427   0.0616   0.0370  -0.0289  -0.0343   0.0195   0.00    1.0
2173 242444.000    967386.5016  -5611813.8188   2863023.5938   2   7   0.0425   0.0611   0.0367  -0.0286  -0.0340   0.0193   0.00    1.0
2173 242445.000    967386.5021  -5611813.8237   2863023.5971   2   7   0.0423   0.0606   0.0364  -0.0283  -0.0336   0.0191   0.00    1.0
2173 242446.000    967386.4973  -5611813.8198   2863023.5998   2   7   0.0421   0.0601   0.0362  -0.0280  -0.0333   0.0190   0.00    1.0
2173 242447.000    967386.4954  -5611813.8176   2863023.6018   2   7   0.0420   0.0596   0.0359  -0.0277  -0.0330   0.0187   0.00    1.0
2173 242448.000    967386.4919  -5611813.8113   2863023.6057   2   7   0.0418   0.0591   0.0357  -0.0275  -0.0327   0.0185   0.00    1.0
2173 242449.000    967386.4906  -5611813.8097   2863023.6091   2   7   0.0416   0.0586   0.0355  -0.0272  -0.0324   0.0184   0.00    1.0
2173 242450.000    967386.4920  -5611813.8037   2863023.6098   2   7   0.0415   0.0581   0.0352  -0.0270  -0.0320   0.0182   0.00    1.0
2173 242451.000    967386.4911  -5611813.7993   2863023.6125   2   7   0.0413   0.0577   0.0351  -0.0267  -0.0317   0.0179   0.00    1.0
2173 242452.000    967386.4888  -5611813.7906   2863023.6136   2   7   0.0411   0.0572   0.0347  -0.0264  -0.0315   0.0178   0.00    1.0
2173 242453.000    967386.4875  -5611813.7868   2863023.6166   2   7   0.0410   0.0568   0.0345  -0.0262  -0.0311   0.0176   0.00    1.0
2173 242454.000    967386.4851  -5611813.7780   2863023.6151   2   7   0.0408   0.0563   0.0342  -0.0259  -0.0308   0.0174   0.00    1.0
2173 242455.000    967386.4815  -5611813.7716   2863023.6155   2   7   0.0406   0.0559   0.0341  -0.0257  -0.0306   0.0172   0.00    1.0
2173 242456.000    967386.4800  -5611813.7704   2863023.6169   2   8   0.0405   0.0554   0.0338  -0.0253  -0.0303   0.0171   0.00    1.0
2173 242457.000    967386.4781  -5611813.7671   2863023.6166   2   8   0.0402   0.0548   0.0335  -0.0249  -0.0298   0.0169   0.00    1.0
2173 242458.000    967386.4763  -5611813.7658   2863023.6168   2   8   0.0400   0.0543   0.0333  -0.0245  -0.0295   0.0165   0.00    1.0
2173 242459.000    967386.4755  -5611813.7675   2863023.6171   2   8   0.0398   0.0538   0.0331  -0.0242  -0.0292   0.0163   0.00    1.0
2173 242460.000    967386.4773  -5611813.7646   2863023.6191   2   8   0.0396   0.0533   0.0328  -0.0239  -0.0289   0.0161   0.00    1.0
2173 242461.000    967386.4770  -5611813.7690   2863023.6200   2   8   0.0394   0.0529   0.0326  -0.0237  -0.0286   0.0159   0.00    1.0
2173 242462.000    967386.4775  -5611813.7703   2863023.6228   2   8   0.0393   0.0525   0.0324  -0.0233  -0.0283   0.0158   0.00    1.0
2173 242463.000    967386.4784  -5611813.7740   2863023.6270   2   8   0.0391   0.0521   0.0322  -0.0231  -0.0281   0.0155   0.00    1.0
2173 242464.000    967386.4794  -5611813.7724   2863023.6273   2   8   0.0389   0.0517   0.0319  -0.0228  -0.0278   0.0154   0.00    1.0
2173 242465.000    967386.4801  -5611813.7766   2863023.6309   2   8   0.0387   0.0513   0.0317  -0.0226  -0.0276   0.0152   0.00    1.0
2173 242466.000    967386.4755  -5611813.7733   2863023.6302   2   8   0.0386   0.0509   0.0315  -0.0223  -0.0273   0.0150   0.00    1.0
2173 242467.000    967386.4736  -5611813.7740   2863023.6343   2   8   0.0384   0.0505   0.0314  -0.0221  -0.0271   0.0148   0.00    1.0
2173 242468.000    967386.4783  -5611813.7689   2863023.6315   2   8   0.0382   0.0501   0.0312  -0.0218  -0.0268   0.0147   0.00    1.0
2173 242469.000    967386.4788  -5611813.7659   2863023.6309   2   8   0.0381   0.0497   0.0310  -0.0216  -0.0265   0.0146   0.00    1.0
2173 242470.000    967386.4779  -5611813.7586   2863023.6301   2   8   0.0379   0.0493   0.0307  -0.0214  -0.0263   0.0145   0.00    1.0
2173 242471.000    967386.4780  -5611813.7579   2863023.6288   2   8   0.0377   0.0490   0.0305  -0.0211  -0.0261   0.0143   0.00    1.0
2173 242472.000    967386.4780  -5611813.7581   2863023.6271   2   8   0.0377   0.0486   0.0304  -0.0208  -0.0258   0.0140   0.00    1.0
2173 242473.000    967386.4800  -5611813.7571   2863023.6269   2   8   0.0374   0.0482   0.0302  -0.0207  -0.0256   0.0140   0.00    1.0
2173 242474.000    967386.4780  -5611813.7552   2863023.6270   2   8   0.0373   0.0479   0.0300  -0.0205  -0.0254   0.0138   0.00    1.0
2173 242475.000    967386.4819  -5611813.7401   2863023.6216   2   8   0.0372   0.0476   0.0298  -0.0202  -0.0252   0.0137   0.00    1.0
2173 242476.000    967386.4832  -5611813.7351   2863023.6212   2   8   0.0370   0.0472   0.0296  -0.0200  -0.0249   0.0135   0.00    1.1
2173 242477.000    967386.4815  -5611813.7299   2863023.6167   2   8   0.0369   0.0469   0.0295  -0.0198  -0.0248   0.0134   0.00    1.1
2173 242478.000    967386.4828  -5611813.7286   2863023.6190   2   8   0.0368   0.0465   0.0293  -0.0196  -0.0245   0.0131   0.00    1.1
2173 242479.000    967386.4846  -5611813.7265   2863023.6181   2   8   0.0366   0.0462   0.0292  -0.0194  -0.0243   0.0130   0.00    1.1
2173 242480.000    967386.4844  -5611813.7234   2863023.6166   2   8   0.0365   0.0459   0.0290  -0.0192  -0.0241   0.0129   0.00    1.1
2173 242481.000    967386.4853  -5611813.7195   2863023.6157   2   8   0.0364   0.0456   0.0288  -0.0190  -0.0239   0.0128   0.00    1.1
2173 242482.000    967386.4863  -5611813.7178   2863023.6137   2   8   0.0362   0.0452   0.0286  -0.0188  -0.0237   0.0127   0.00    1.1
2173 242483.000    967386.4870  -5611813.7207   2863023.6153   2   8   0.0361   0.0449   0.0285  -0.0186  -0.0235   0.0124   0.00    1.1
2173 242484.000    967386.4905  -5611813.7263   2863023.6152   2   8   0.0359   0.0446   0.0283  -0.0184  -0.0233   0.0124   0.00    1.1
2173 242485.000    967386.4912  -5611813.7279   2863023.6137   2   8   0.0358   0.0443   0.0281  -0.0182  -0.0231   0.0122   0.00    1.1
2173 242486.000    967386.4899  -5611813.7244   2863023.6109   2   8   0.0357   0.0440   0.0280  -0.0180  -0.0230   0.0121   0.00    1.1
2173 242487.000    967386.4900  -5611813.7249   2863023.6110   2   8   0.0356   0.0437   0.0278  -0.0178  -0.0227   0.0120   0.00    1.1
2173 242488.000    967386.4900  -5611813.7258   2863023.6079   2   8   0.0355   0.0434   0.0277  -0.0176  -0.0226   0.0118   0.00    1.1
2173 242489.000    967386.4911  -5611813.7266   2863023.6072   2   8   0.0353   0.0431   0.0274  -0.0174  -0.0224   0.0117   0.00    1.2
2173 242490.000    967386.4897  -5611813.7281   2863023.6066   2   8   0.0352   0.0428   0.0273  -0.0173  -0.0222   0.0116   0.00    1.2
2173 242491.000    967386.4930  -5611813.7362   2863023.6095   2   8   0.0350   0.0426   0.0272  -0.0171  -0.0220   0.0115   0.00    1.2
2173 242492.000    967386.4945  -5611813.7365   2863023.6103   2   8   0.0349   0.0423   0.0270  -0.0169  -0.0219   0.0114   0.00    1.2
2173 242493.000    967386.5103  -5611813.7536   2863023.6775   2   8   0.0348   0.0420   0.0269  -0.0167  -0.0217   0.0113   0.00    1.2
2173 242494.000    967386.5229  -5611813.7988   2863023.7069   2   8   0.0347   0.0417   0.0267  -0.0166  -0.0215   0.0112   0.00    1.2
2173 242495.000    967386.5326  -5611813.8367   2863023.7291   2   8   0.0346   0.0415   0.0266  -0.0165  -0.0214   0.0110   0.00    1.2
2173 242496.000    967386.5442  -5611813.8752   2863023.7535   2   8   0.0345   0.0412   0.0264  -0.0163  -0.0212   0.0109   0.00    1.2
2173 242497.000    967386.5516  -5611813.9048   2863023.7729   2   8   0.0344   0.0410   0.0263  -0.0161  -0.0210   0.0107   0.00    1.2
2173 242498.000    967386.5627  -5611813.9415   2863023.7977   2   8   0.0343   0.0407   0.0261  -0.0159  -0.0208   0.0107   0.00    1.1
2173 242499.000    967386.5713  -5611813.9713   2863023.8159   2   8   0.0341   0.0405   0.0259  -0.0158  -0.0207   0.0106   0.00    1.1
2173 242500.000    967386.5799  -5611814.0036   2863023.8361   2   8   0.0340   0.0402   0.0259  -0.0157  -0.0205   0.0104   0.00    1.1
2173 242501.000    967386.5910  -5611814.0381   2863023.8599   2   8   0.0339   0.0399   0.0257  -0.0155  -0.0204   0.0104   0.00    1.1
2173 242502.000    967386.5982  -5611814.0702   2863023.8777   2   8   0.0338   0.0397   0.0256  -0.0154  -0.0202   0.0104   0.00    1.1
2173 242503.000    967386.6051  -5611814.0956   2863023.8934   2   8   0.0337   0.0394   0.0255  -0.0152  -0.0200   0.0101   0.00    1.1
2173 242504.000    967386.6135  -5611814.1254   2863023.9143   2   8   0.0336   0.0392   0.0252  -0.0150  -0.0199   0.0103   0.00    1.1
2173 242505.000    967386.6205  -5611814.1574   2863023.9332   2   8   0.0335   0.0390   0.0251  -0.0149  -0.0198   0.0101   0.00    1.1
2173 242506.000    967386.6249  -5611814.1808   2863023.9484   2   8   0.0333   0.0387   0.0250  -0.0148  -0.0196   0.0100   0.00    1.1
2173 242507.000    967386.6329  -5611814.2081   2863023.9673   2   8   0.0333   0.0385   0.0249  -0.0146  -0.0195   0.0098   0.00    1.1
2173 242508.000    967386.6368  -5611814.2311   2863023.9845   2   8   0.0331   0.0382   0.0248  -0.0145  -0.0194   0.0097   0.00    1.1
2173 242509.000    967386.6400  -5611814.2548   2863024.0005   2   8   0.0331   0.0380   0.0246  -0.0143  -0.0193   0.0097   0.00    1.0
2173 242510.000    967386.6445  -5611814.2760   2863024.0159   2   8   0.0330   0.0378   0.0245  -0.0141  -0.0192   0.0094   0.00    1.0
2173 242511.000    967386.6514  -5611814.2961   2863024.0305   2   8   0.0329   0.0376   0.0244  -0.0141  -0.0189   0.0094   0.00    1.0
2173 242512.000    967386.6550  -5611814.3140   2863024.0440   2   8   0.0328   0.0374   0.0243  -0.0138  -0.0188   0.0093   0.00    1.0
2173 242513.000    967386.6607  -5611814.3354   2863024.0572   2   8   0.0327   0.0371   0.0242  -0.0138  -0.0187   0.0093   0.00    1.0
2173 242514.000    967386.6676  -5611814.3596   2863024.0696   2   8   0.0326   0.0370   0.0240  -0.0136  -0.0186   0.0090   0.00    1.0
2173 242515.000    967386.6715  -5611814.3776   2863024.0808   2   8   0.0325   0.0367   0.0239  -0.0136  -0.0185   0.0091   0.00    1.0
2173 242516.000    967386.6738  -5611814.3911   2863024.0910   2   8   0.0324   0.0365   0.0237  -0.0133  -0.0183   0.0091   0.00    1.0
2173 242517.000    967386.6808  -5611814.4149   2863024.1074   2   8   0.0323   0.0363   0.0236  -0.0132  -0.0182   0.0091   0.00    1.0
2173 242518.000    967386.6836  -5611814.4298   2863024.1195   2   8   0.0322   0.0361   0.0236  -0.0131  -0.0181   0.0087   0.00    1.0
2173 242519.000    967386.6851  -5611814.4435   2863024.1312   2   8   0.0321   0.0359   0.0236  -0.0130  -0.0180   0.0085   0.00    1.0
2173 242520.000    967386.6879  -5611814.4617   2863024.1420   2   8   0.0320   0.0357   0.0233  -0.0129  -0.0178   0.0086   0.00    1.1
2173 242521.000    967386.6914  -5611814.4754   2863024.1528   2   8   0.0319   0.0355   0.0230  -0.0128  -0.0177   0.0086   0.00    1.1
2173 242522.000    967386.6945  -5611814.4903   2863024.1604   2   8   0.0318   0.0353   0.0230  -0.0126  -0.0176   0.0086   0.00    1.1
2173 242523.000    967386.6981  -5611814.5036   2863024.1729   2   8   0.0317   0.0351   0.0229  -0.0125  -0.0174   0.0084   0.00    1.1
2173 242524.000    967386.7008  -5611814.5184   2863024.1790   2   8   0.0317   0.0349   0.0228  -0.0124  -0.0174   0.0082   0.00    1.1
2173 242525.000    967386.7017  -5611814.5324   2863024.1904   2   8   0.0315   0.0347   0.0227  -0.0124  -0.0172   0.0083   0.00    1.1
2173 242526.000    967386.7043  -5611814.5447   2863024.1989   2   8   0.0315   0.0345   0.0225  -0.0122  -0.0172   0.0082   0.00    1.1
2173 242527.000    967386.7037  -5611814.5488   2863024.2054   2   8   0.0314   0.0343   0.0225  -0.0120  -0.0170   0.0080   0.00    1.1
2173 242528.000    967386.7108  -5611814.5724   2863024.2162   2   8   0.0313   0.0341   0.0224  -0.0120  -0.0170   0.0078   0.00    1.1
2173 242529.000    967386.7125  -5611814.5808   2863024.2239   2   8   0.0313   0.0340   0.0222  -0.0118  -0.0168   0.0081   0.00    1.1
2173 242530.000    967386.7152  -5611814.5947   2863024.2305   2   8   0.0312   0.0338   0.0222  -0.0117  -0.0167   0.0076   0.00    1.1
2173 242531.000    967386.7170  -5611814.6016   2863024.2371   2   8   0.0310   0.0336   0.0220  -0.0117  -0.0166   0.0079   0.00    1.1
2173 242532.000    967386.7194  -5611814.6123   2863024.2440   2   8   0.0310   0.0334   0.0221  -0.0115  -0.0165   0.0076   0.00    1.1
2173 242533.000    967386.7229  -5611814.6217   2863024.2504   2   8   0.0309   0.0333   0.0219  -0.0115  -0.0164   0.0074   0.00    1.1
2173 242534.000    967386.7252  -5611814.6311   2863024.2564   2   8   0.0308   0.0331   0.0218  -0.0113  -0.0163   0.0074   0.00    1.1
2173 242535.000    967386.7294  -5611814.6415   2863024.2616   2   8   0.0307   0.0329   0.0218  -0.0112  -0.0162   0.0073   0.00    1.1
2173 242536.000    967386.7287  -5611814.6501   2863024.2689   2   8   0.0307   0.0328   0.0216  -0.0110  -0.0161   0.0074   0.00    1.1
2173 242537.000    967386.7438  -5611814.6723   2863024.2723   2   8   0.0306   0.0326   0.0214  -0.0109  -0.0160   0.0074   0.00    1.1
2173 242538.000    967386.7415  -5611814.6822   2863024.2772   2   8   0.0305   0.0324   0.0214  -0.0109  -0.0159   0.0071   0.00    1.1
2173 242539.000    967386.7442  -5611814.6944   2863024.2829   2   8   0.0305   0.0323   0.0213  -0.0108  -0.0158   0.0071   0.00    1.1
2173 242540.000    967386.7415  -5611814.7037   2863024.2919   2   8   0.0304   0.0321   0.0213  -0.0107  -0.0157   0.0069   0.00    1.1
2173 242541.000    967386.7415  -5611814.7185   2863024.2994   2   8   0.0302   0.0319   0.0212  -0.0106  -0.0156   0.0070   0.00    1.1
2173 242542.000    967386.7406  -5611814.7281   2863024.3062   2   8   0.0302   0.0318   0.0210  -0.0104  -0.0155   0.0070   0.00    1.1
2173 242543.000    967386.7388  -5611814.7300   2863024.3118   2   8   0.0301   0.0316   0.0209  -0.0104  -0.0155   0.0069   0.00    1.1
2173 242544.000    967386.7378  -5611814.7368   2863024.3170   2   8   0.0301   0.0315   0.0207  -0.0102  -0.0154   0.0070   0.00    1.1
2173 242545.000    967386.7365  -5611814.7462   2863024.3229   2   8   0.0300   0.0313   0.0207  -0.0102  -0.0152   0.0067   0.00    1.1
2173 242546.000    967386.7334  -5611814.7508   2863024.3265   2   8   0.0299   0.0312   0.0205  -0.0101  -0.0153   0.0068   0.00    1.1
2173 242547.000    967386.7308  -5611814.7523   2863024.3284   2   8   0.0298   0.0310   0.0205  -0.0100  -0.0151   0.0067   0.00    1.1
2173 242548.000    967386.7287  -5611814.7577   2863024.3339   2   8   0.0298   0.0309   0.0203  -0.0099  -0.0151   0.0067   0.00    1.2
2173 242549.000    967386.7341  -5611814.7652   2863024.3473   2   8   0.0297   0.0307   0.0203  -0.0098  -0.0150   0.0063   0.00    1.2
2173 242550.000    967386.7319  -5611814.7669   2863024.3526   2   8   0.0296   0.0306   0.0202  -0.0098  -0.0149   0.0067   0.00    1.2
2173 242551.000    967386.7276  -5611814.7754   2863024.3571   2   8   0.0295   0.0304   0.0201  -0.0096  -0.0148   0.0065   0.00    1.2
2173 242552.000    967386.7274  -5611814.7861   2863024.3640   2   8   0.0294   0.0303   0.0200  -0.0096  -0.0147   0.0064   0.00    1.2
2173 242553.000    967386.7238  -5611814.7916   2863024.3717   2   8   0.0294   0.0301   0.0200  -0.0094  -0.0147   0.0063   0.00    1.2
2173 242554.000    967386.7186  -5611814.7902   2863024.3750   2   8   0.0293   0.0300   0.0199  -0.0093  -0.0145   0.0062   0.00    1.2
2173 242555.000    967386.7177  -5611814.7987   2863024.3843   2   8   0.0293   0.0299   0.0198  -0.0093  -0.0144   0.0061   0.00    1.2
2173 242556.000    967386.7136  -5611814.8002   2863024.3887   2   8   0.0292   0.0297   0.0197  -0.0093  -0.0144   0.0062   0.00    1.2
2173 242557.000    967386.7123  -5611814.8054   2863024.3957   2   8   0.0291   0.0296   0.0196  -0.0091  -0.0143   0.0060   0.00    1.2
2173 242558.000    967386.7091  -5611814.8048   2863024.3992   2   8   0.0290   0.0294   0.0196  -0.0090  -0.0142   0.0058   0.00    1.2
2173 242559.000    967386.7076  -5611814.8074   2863024.4064   2   8   0.0289   0.0293   0.0197  -0.0090  -0.0141   0.0060   0.00    1.2
2173 242560.000    967386.7045  -5611814.8100   2863024.4136   2   8   0.0289   0.0292   0.0194  -0.0089  -0.0141   0.0058   0.00    1.2
2173 242561.000    967386.7040  -5611814.8084   2863024.4169   2   8   0.0289   0.0290   0.0193  -0.0088  -0.0141   0.0059   0.00    1.2
2173 242562.000    967386.6993  -5611814.8084   2863024.4206   2   8   0.0288   0.0289   0.0192  -0.0088  -0.0139   0.0059   0.00    1.2
2173 242563.000    967386.6979  -5611814.8086   2863024.4208   2   8   0.0287   0.0288   0.0192  -0.0087  -0.0138   0.0057   0.00    1.2
2173 242564.000    967386.6953  -5611814.8088   2863024.4239   2   8   0.0286   0.0287   0.0189  -0.0085  -0.0138   0.0056   0.00    1.2
2173 242565.000    967386.6909  -5611814.8129   2863024.4264   2   8   0.0286   0.0285   0.0189  -0.0085  -0.0137   0.0056   0.00    1.2
2173 242566.000    967386.6885  -5611814.8159   2863024.4306   2   8   0.0285   0.0284   0.0190  -0.0086  -0.0137   0.0054   0.00    1.2
2173 242567.000    967386.6856  -5611814.8136   2863024.4334   2   8   0.0284   0.0283   0.0188  -0.0084  -0.0136   0.0055   0.00    1.2
2173 242568.000    967386.6823  -5611814.8165   2863024.4341   2   8   0.0284   0.0281   0.0187  -0.0083  -0.0135   0.0053   0.00    1.2
2173 242569.000    967386.6774  -5611814.8149   2863024.4345   2   8   0.0283   0.0280   0.0186  -0.0081  -0.0135   0.0055   0.00    1.2
2173 242570.000    967386.6767  -5611814.8132   2863024.4351   2   8   0.0283   0.0279   0.0186  -0.0081  -0.0134   0.0051   0.00    1.2
2173 242571.000    967386.6718  -5611814.8120   2863024.4364   2   8   0.0283   0.0278   0.0186  -0.0080  -0.0133   0.0050   0.00    1.2
2173 242572.000    967386.6687  -5611814.8076   2863024.4349   2   8   0.0281   0.0277   0.0184  -0.0079  -0.0132   0.0053   0.00    1.2
2173 242573.000    967386.6647  -5611814.8069   2863024.4347   2   8   0.0281   0.0276   0.0183  -0.0078  -0.0132   0.0052   0.00    1.2
2173 242574.000    967386.6609  -5611814.8092   2863024.4371   2   8   0.0280   0.0274   0.0184  -0.0078  -0.0131   0.0049   0.00    1.2
2173 242575.000    967386.6572  -5611814.8111   2863024.4362   2   8   0.0279   0.0273   0.0182  -0.0078  -0.0131   0.0050   0.00    1.2
2173 242576.000    967386.6549  -5611814.8086   2863024.4386   2   8   0.0278   0.0272   0.0181  -0.0078  -0.0130   0.0051   0.00    1.2
2173 242577.000    967386.6503  -5611814.8068   2863024.4391   2   8   0.0278   0.0271   0.0181  -0.0076  -0.0129   0.0048   0.00    1.2
2173 242578.000    967386.6488  -5611814.8069   2863024.4424   2   8   0.0278   0.0270   0.0181  -0.0075  -0.0129   0.0047   0.00    1.2
2173 242579.000    967386.6467  -5611814.8048   2863024.4419   2   8   0.0278   0.0269   0.0180  -0.0073  -0.0129   0.0047   0.00    1.2
2173 242580.000    967386.6446  -5611814.8089   2863024.4449   2   8   0.0277   0.0268   0.0179  -0.0074  -0.0128   0.0047   0.00    1.2
2173 242581.000    967386.6421  -5611814.8111   2863024.4487   2   8   0.0276   0.0267   0.0178  -0.0074  -0.0127   0.0049   0.00    1.2
2173 242582.000    967386.6364  -5611814.8123   2863024.4497   2   8   0.0275   0.0265   0.0176  -0.0072  -0.0126   0.0049   0.00    1.2
2173 242583.000    967386.6312  -5611814.8183   2863024.4548   2   8   0.0275   0.0264   0.0175  -0.0072  -0.0126   0.0048   0.00    1.2
2173 242584.000    967386.6248  -5611814.8090   2863024.4555   2   8   0.0274   0.0263   0.0176  -0.0072  -0.0126   0.0047   0.00    1.3
2173 242585.000    967386.6212  -5611814.8058   2863024.4582   2   8   0.0273   0.0262   0.0176  -0.0071  -0.0125   0.0048   0.00    1.3
2173 242586.000    967386.6143  -5611814.7991   2863024.4597   2   8   0.0273   0.0261   0.0174  -0.0071  -0.0125   0.0045   0.00    1.3
2173 242587.000    967386.6074  -5611814.7841   2863024.4572   2   8   0.0272   0.0260   0.0174  -0.0069  -0.0124   0.0046   0.00    1.3
2173 242588.000    967386.6060  -5611814.7882   2863024.4602   2   8   0.0273   0.0260   0.0174  -0.0067  -0.0124   0.0044   0.00    1.3
2173 242589.000    967386.5991  -5611814.7753   2863024.4584   2   8   0.0271   0.0258   0.0171  -0.0069  -0.0122   0.0046   0.00    1.3
2173 242590.000    967386.5946  -5611814.7749   2863024.4598   2   8   0.0271   0.0257   0.0173  -0.0067  -0.0122   0.0042   0.00    1.3
2173 242591.000    967386.5919  -5611814.7686   2863024.4569   2   8   0.0270   0.0256   0.0170  -0.0067  -0.0121   0.0044   0.00    1.3
2173 242592.000    967386.5877  -5611814.7654   2863024.4592   2   8   0.0269   0.0255   0.0170  -0.0066  -0.0122   0.0043   0.00    1.3
2173 242593.000    967386.5838  -5611814.7629   2863024.4568   2   8   0.0268   0.0254   0.0171  -0.0065  -0.0120   0.0046   0.00    1.3
2173 242594.000    967386.5801  -5611814.7542   2863024.4534   2   8   0.0269   0.0253   0.0168  -0.0065  -0.0120   0.0046   0.00    1.3
2173 242595.000    967386.5771  -5611814.7478   2863024.4524   2   8   0.0268   0.0252   0.0167  -0.0064  -0.0120   0.0042   0.00    1.3
2173 242596.000    967386.5671  -5611814.7368   2863024.4479   2   8   0.0267   0.0251   0.0168  -0.0062  -0.0120   0.0039   0.00    1.3
2173 242597.000    967386.5622  -5611814.7309   2863024.4453   2   8   0.0267   0.0250   0.0167  -0.0064  -0.0119   0.0043   0.00    1.2
2173 242598.000    967386.5575  -5611814.7202   2863024.4425   2   8   0.0267   0.0249   0.0166  -0.0062  -0.0119   0.0042   0.00    1.2
2173 242599.000    967386.5523  -5611814.7127   2863024.4398   2   8   0.0266   0.0249   0.0167  -0.0062  -0.0117   0.0039   0.00    1.2
2173 242600.000    967386.5446  -5611814.6981   2863024.4345   2   8   0.0265   0.0248   0.0166  -0.0061  -0.0117   0.0040   0.00    1.2
2173 242601.000    967386.5406  -5611814.6876   2863024.4331   2   8   0.0265   0.0247   0.0165  -0.0060  -0.0117   0.0039   0.00    1.2
2173 242602.000    967386.5384  -5611814.6775   2863024.4298   2   8   0.0265   0.0246   0.0164  -0.0060  -0.0117   0.0038   0.00    1.2
2173 242603.000    967386.5310  -5611814.6620   2863024.4215   2   8   0.0264   0.0245   0.0164  -0.0061  -0.0115   0.0039   0.00    1.2
2173 242604.000    967386.5289  -5611814.6543   2863024.4175   2   8   0.0263   0.0244   0.0164  -0.0058  -0.0116   0.0037   0.00    1.2
2173 242605.000    967386.5270  -5611814.6051   2863024.3973   2   8   0.0262   0.0243   0.0162  -0.0060  -0.0115   0.0036   0.00    1.2
2173 242606.000    967386.5272  -5611814.5994   2863024.3897   2   8   0.0262   0.0242   0.0162  -0.0059  -0.0114   0.0039   0.00    1.2
2173 242607.000    967386.5232  -5611814.5938   2863024.3833   2   8   0.0262   0.0242   0.0162  -0.0057  -0.0114   0.0034   0.00    1.2
2173 242608.000    967386.5219  -5611814.5925   2863024.3782   2   8   0.0261   0.0240   0.0161  -0.0059  -0.0114   0.0032   0.00    1.2
2173 242609.000    967386.5196  -5611814.5862   2863024.3707   2   8   0.0260   0.0240   0.0161  -0.0057  -0.0113   0.0037   0.00    1.1
2173 242610.000    967386.5174  -5611814.5830   2863024.3664   2   8   0.0260   0.0239   0.0159  -0.0056  -0.0113   0.0039   0.00    1.1
2173 242611.000    967386.5123  -5611814.5781   2863024.3587   2   8   0.0260   0.0238   0.0159  -0.0055  -0.0112   0.0033   0.00    1.1
2173 242612.000    967386.5082  -5611814.5663   2863024.3483   2   8   0.0260   0.0237   0.0159  -0.0055  -0.0113   0.0031   0.00    1.1
2173 242613.000    967386.5067  -5611814.5646   2863024.3430   2   8   0.0258   0.0236   0.0157  -0.0054  -0.0112   0.0035   0.00    1.1
2173 242614.000    967386.5061  -5611814.5595   2863024.3366   2   8   0.0259   0.0236   0.0158  -0.0052  -0.0112   0.0030   0.00    1.1
2173 242615.000    967386.5039  -5611814.5586   2863024.3311   2   8   0.0258   0.0235   0.0158  -0.0055  -0.0111   0.0035   0.00    1.1
2173 242616.000    967386.5015  -5611814.5518   2863024.3266   2   8   0.0257   0.0234   0.0156  -0.0053  -0.0110   0.0033   0.00    1.1
2173 242617.000    967386.4986  -5611814.5430   2863024.3176   2   8   0.0257   0.0233   0.0155  -0.0054  -0.0110   0.0036   0.00    1.1
2173 242618.000    967386.4959  -5611814.5402   2863024.3150   2   8   0.0257   0.0232   0.0155  -0.0053  -0.0109   0.0035   0.00    1.1
2173 242619.000    967386.4954  -5611814.5322   2863024.3090   2   8   0.0256   0.0231   0.0156  -0.0052  -0.0110   0.0031   0.00    1.1
2173 242620.000    967386.4933  -5611814.5272   2863024.3042   2   8   0.0256   0.0231   0.0153  -0.0050  -0.0109   0.0032   0.00    1.1
2173 242621.000    967386.4903  -5611814.5186   2863024.2986   2   8   0.0255   0.0230   0.0153  -0.0051  -0.0109   0.0033   0.00    1.0
2173 242622.000    967386.4879  -5611814.5157   2863024.2939   2   8   0.0255   0.0230   0.0152  -0.0049  -0.0109   0.0034   0.00    1.0
2173 242623.000    967386.4826  -5611814.5023   2863024.2856   2   8   0.0254   0.0229   0.0152  -0.0049  -0.0108   0.0032   0.00    1.0
2173 242624.000    967386.4794  -5611814.4986   2863024.2825   2   8   0.0254   0.0228   0.0150  -0.0047  -0.0108   0.0033   0.00    1.0
2173 242625.000    967386.4765  -5611814.4937   2863024.2776   2   8   0.0253   0.0227   0.0153  -0.0049  -0.0107   0.0025   0.00    1.0
2173 242626.000    967386.4759  -5611814.4907   2863024.2708   2   8   0.0252   0.0226   0.0151  -0.0049  -0.0107   0.0032   0.00    1.0
2173 242627.000    967386.4727  -5611814.4784   2863024.2624   2   8   0.0252   0.0226   0.0152  -0.0048  -0.0106   0.0030   0.00    1.0
2173 242628.000    967386.4710  -5611814.4760   2863024.2561   2   8   0.0252   0.0225   0.0148  -0.0049  -0.0106   0.0034   0.00    1.0
2173 242629.000    967386.4699  -5611814.4724   2863024.2524   2   8   0.0252   0.0224   0.0150  -0.0049  -0.0105   0.0029   0.00    1.0
2173 242630.000    967386.4693  -5611814.4680   2863024.2441   2   8   0.0252   0.0224   0.0150  -0.0043  -0.0105   0.0030   0.00    1.0
2173 242631.000    967386.4638  -5611814.4600   2863024.2370   2   8   0.0251   0.0223   0.0151  -0.0043  -0.0106   0.0020   0.00    1.0
2173 242632.000    967386.4627  -5611814.4571   2863024.2331   2   8   0.0250   0.0222   0.0149  -0.0044  -0.0104   0.0026   0.00    1.1
2173 242633.000    967386.4606  -5611814.4544   2863024.2258   2   8   0.0250   0.0222   0.0148  -0.0044  -0.0105   0.0026   0.00    1.1
2173 242634.000    967386.4574  -5611814.4476   2863024.2183   2   8   0.0249   0.0221   0.0149  -0.0045  -0.0104   0.0025   0.00    1.1
2173 242635.000    967386.4592  -5611814.4469   2863024.2136   2   8   0.0249   0.0220   0.0149  -0.0043  -0.0104   0.0017   0.00    1.1
2173 242636.000    967386.4542  -5611814.4425   2863024.2072   2   8   0.0248   0.0219   0.0146  -0.0045  -0.0103   0.0028   0.00    1.1
2173 242637.000    967386.4519  -5611814.4388   2863024.2035   2   8   0.0248   0.0219   0.0146  -0.0042  -0.0103   0.0027   0.00    1.1
2173 242638.000    967386.4508  -5611814.4322   2863024.1964   2   8   0.0247   0.0218   0.0146  -0.0043  -0.0103   0.0032   0.00    1.1
2173 242639.000    967386.4504  -5611814.4337   2863024.1937   2   8   0.0247   0.0217   0.0144  -0.0042  -0.0102   0.0027   0.00    1.1
2173 242640.000    967386.4457  -5611814.4278   2863024.1875   2   8   0.0247   0.0217   0.0143  -0.0040  -0.0102   0.0029   0.00    1.1
2173 242641.000    967386.4441  -5611814.4215   2863024.1812   2   8   0.0246   0.0216   0.0145  -0.0039  -0.0103   0.0027   0.00    1.1
2173 242642.000    967386.4401  -5611814.4166   2863024.1754   2   8   0.0246   0.0216   0.0144  -0.0042  -0.0101   0.0023   0.00    1.1
2173 242643.000    967386.4390  -5611814.4158   2863024.1707   2   8   0.0245   0.0215   0.0144  -0.0041  -0.0102   0.0025   0.00    1.2
2173 242644.000    967386.4345  -5611814.4064   2863024.1630   2   8   0.0245   0.0214   0.0142  -0.0040  -0.0102   0.0031   0.00    1.2
2173 242645.000    967386.4320  -5611814.4031   2863024.1588   2   8   0.0245   0.0214   0.0141  -0.0040  -0.0101   0.0026   0.00    1.2
2173 242646.000    967386.4277  -5611814.3977   2863024.1523   2   8   0.0244   0.0213   0.0143  -0.0038  -0.0100   0.0027   0.00    1.2
2173 242647.000    967386.4235  -5611814.3858   2863024.1473   2   8   0.0244   0.0213   0.0140  -0.0039  -0.0101   0.0025   0.00    1.2
2173 242648.000    967386.4247  -5611814.3882   2863024.1421   2   8   0.0243   0.0212   0.0142  -0.0040  -0.0098   0.0020   0.00    1.2
2173 242649.000    967386.4234  -5611814.3816   2863024.1346   2   8   0.0243   0.0211   0.0141  -0.0037  -0.0099   0.0021   0.00    1.2
2173 242650.000    967386.4223  -5611814.3788   2863024.1328   2   8   0.0243   0.0211   0.0140  -0.0037  -0.0100   0.0030   0.00    1.2
2173 242651.000    967386.4214  -5611814.3720   2863024.1268   2   8   0.0242   0.0210   0.0140  -0.0037  -0.0100   0.0024   0.00    1.2
2173 242652.000    967386.4201  -5611814.3658   2863024.1207   2   8   0.0242   0.0209   0.0140  -0.0037  -0.0098   0.0023   0.00    1.2
2173 242653.000    967386.4171  -5611814.3590   2863024.1153   2   8   0.0241   0.0208   0.0141  -0.0038  -0.0098   0.0021   0.00    1.2
2173 242654.000    967386.4138  -5611814.3483   2863024.1058   2   8   0.0241   0.0208   0.0139  -0.0034  -0.0098   0.0018   0.00    1.2
2173 242655.000    967386.4036  -5611814.3372   2863024.0945   2   8   0.0241   0.0208   0.0138  -0.0035  -0.0099   0.0024   0.00    1.2
2173 242656.000    967386.4008  -5611814.3299   2863024.0894   2   8   0.0241   0.0207   0.0138  -0.0035  -0.0098   0.0013   0.00    1.2
2173 242657.000    967386.3975  -5611814.3220   2863024.0821   2   8   0.0240   0.0206   0.0138  -0.0036  -0.0097   0.0021   0.00    1.2
2173 242658.000    967386.3930  -5611814.3199   2863024.0777   2   8   0.0239   0.0206   0.0136  -0.0036  -0.0097   0.0025   0.00    1.2
2173 242659.000    967386.3916  -5611814.3156   2863024.0724   2   8   0.0239   0.0205   0.0137  -0.0036  -0.0097   0.0019   0.00    1.2
2173 242660.000    967386.3864  -5611814.3107   2863024.0695   2   8   0.0238   0.0205   0.0133  -0.0031  -0.0097   0.0026   0.00    1.3
2173 242661.000    967386.3907  -5611814.3013   2863024.0720   2   8   0.0238   0.0204   0.0135  -0.0034  -0.0096   0.0012   0.00    1.3
2173 242662.000    967386.3852  -5611814.2971   2863024.0703   2   8   0.0238   0.0204   0.0136  -0.0035  -0.0096   0.0020   0.00    1.3
2173 242663.000    967386.3797  -5611814.2916   2863024.0652   2   8   0.0236   0.0203   0.0135  -0.0035  -0.0095   0.0022   0.00    1.3
2173 242664.000    967386.3767  -5611814.2898   2863024.0648   2   8   0.0238   0.0202   0.0134  -0.0031  -0.0096   0.0019   0.00    1.3
2173 242665.000    967386.3706  -5611814.2830   2863024.0602   2   8   0.0237   0.0202   0.0134  -0.0032  -0.0096   0.0018   0.00    1.3
2173 242666.000    967386.3656  -5611814.2769   2863024.0553   2   8   0.0236   0.0201   0.0135  -0.0033  -0.0095   0.0018   0.00    1.3
2173 242667.000    967386.3622  -5611814.2693   2863024.0512   2   8   0.0235   0.0201   0.0133  -0.0034  -0.0094   0.0023   0.00    1.3
2173 242668.000    967386.3590  -5611814.2627   2863024.0461   2   8   0.0236   0.0200   0.0133  -0.0028  -0.0095  -0.0008   0.00    1.3
2173 242669.000    967386.3567  -5611814.2541   2863024.0428   2   8   0.0235   0.0200   0.0134  -0.0032  -0.0094   0.0013   0.00    1.3
2173 242670.000    967386.3519  -5611814.2456   2863024.0359   2   8   0.0234   0.0199   0.0134  -0.0030  -0.0093   0.0017   0.00    1.3
2173 242671.000    967386.3477  -5611814.2358   2863024.0301   2   8   0.0235   0.0199   0.0131  -0.0027  -0.0094   0.0014   0.00    1.3
2173 242672.000    967386.3449  -5611814.2295   2863024.0268   2   8   0.0234   0.0199   0.0132  -0.0028  -0.0093   0.0023   0.00    1.3
2173 242673.000    967386.3376  -5611814.2242   2863024.0221   2   8   0.0233   0.0198   0.0131  -0.0029  -0.0093   0.0018   0.00    1.3
2173 242674.000    967386.3332  -5611814.2199   2863024.0203   2   8   0.0233   0.0198   0.0133  -0.0028  -0.0093   0.0013   0.00    1.3
2173 242675.000    967386.3282  -5611814.2029   2863024.0125   2   8   0.0233   0.0197   0.0130  -0.0027  -0.0093   0.0015   0.00    1.3
2173 242676.000    967386.3235  -5611814.2013   2863024.0062   2   8   0.0233   0.0196   0.0130  -0.0026  -0.0093   0.0013   0.00    1.4
2173 242677.000    967386.3202  -5611814.1897   2863023.9997   2   8   0.0232   0.0196   0.0130  -0.0024  -0.0094   0.0008   0.00    1.4
2173 242678.000    967386.3177  -5611814.1781   2863023.9944   2   8   0.0232   0.0195   0.0130  -0.0027  -0.0092   0.0011   0.00    1.4
2173 242679.000    967386.3132  -5611814.1693   2863023.9877   2   8   0.0231   0.0195   0.0129  -0.0031  -0.0092   0.0019   0.00    1.4
2173 242680.000    967386.3100  -5611814.1593   2863023.9838   2   8   0.0231   0.0194   0.0130  -0.0028  -0.0092  -0.0007   0.00    1.4
2173 242681.000    967386.3095  -5611814.1475   2863023.9756   2   8   0.0231   0.0194   0.0127  -0.0027  -0.0092   0.0016   0.00    1.4
2173 242682.000    967386.3065  -5611814.1423   2863023.9713   2   8   0.0230   0.0193   0.0130  -0.0028  -0.0091   0.0010   0.00    1.4
2173 242683.000    967386.3032  -5611814.1346   2863023.9645   2   8   0.0230   0.0193   0.0127  -0.0028  -0.0092   0.0017   0.00    1.4
2173 242684.000    967386.3001  -5611814.1222   2863023.9557   2   8   0.0230   0.0192   0.0128  -0.0025  -0.0092   0.0013   0.00    1.4
2173 242685.000    967386.2969  -5611814.1228   2863023.9515   2   8   0.0229   0.0192   0.0127  -0.0030  -0.0090   0.0019   0.00    1.4
2173 242686.000    967386.2945  -5611814.1131   2863023.9446   2   8   0.0229   0.0191   0.0126  -0.0022  -0.0091   0.0013   0.00    1.4
2173 242687.000    967386.2898  -5611814.1051   2863023.9369   2   8   0.0228   0.0191   0.0127  -0.0027  -0.0091   0.0013   0.00    1.4
2173 242688.000    967386.2861  -5611814.0967   2863023.9286   2   8   0.0228   0.0190   0.0126  -0.0023  -0.0090   0.0014   0.00    1.4
2173 242689.000    967386.2843  -5611814.0888   2863023.9215   2   8   0.0228   0.0190   0.0125  -0.0024  -0.0091   0.0019   0.00    1.4
2173 242690.000    967386.2826  -5611814.0821   2863023.9129   2   8   0.0227   0.0190   0.0125  -0.0023  -0.0090   0.0018   0.00    1.4
2173 242691.000    967386.2792  -5611814.0709   2863023.9044   2   8   0.0227   0.0189   0.0126  -0.0024  -0.0089   0.0010   0.00    1.4
2173 242692.000    967386.2780  -5611814.0687   2863023.8988   2   8   0.0227   0.0189   0.0126  -0.0022  -0.0089  -0.0001   0.00    1.4
2173 242693.000    967386.2786  -5611814.0625   2863023.8899   2   8   0.0227   0.0188   0.0125  -0.0017  -0.0090   0.0014   0.00    1.4
2173 242694.000    967386.2748  -5611814.0515   2863023.8826   2   8   0.0226   0.0188   0.0124  -0.0019  -0.0090   0.0018   0.00    1.4
2173 242695.000    967386.2742  -5611814.0512   2863023.8779   2   8   0.0226   0.0187   0.0123  -0.0023  -0.0089   0.0011   0.00    1.4
2173 242696.000    967386.2706  -5611814.0409   2863023.8696   2   8   0.0226   0.0187   0.0123  -0.0022  -0.0089  -0.0010   0.00    1.4
2173 242697.000    967386.2697  -5611814.0334   2863023.8606   2   8   0.0225   0.0187   0.0124  -0.0023  -0.0089  -0.0007   0.00    1.4
2173 242698.000    967386.2702  -5611814.0325   2863023.8561   2   8   0.0225   0.0186   0.0125  -0.0022  -0.0088   0.0008   0.00    1.4
2173 242699.000    967386.2683  -5611814.0255   2863023.8503   2   8   0.0224   0.0185   0.0124  -0.0020  -0.0088  -0.0008   0.00    1.4
2173 242700.000    967386.2689  -5611814.0220   2863023.8456   2   8   0.0224   0.0185   0.0121  -0.0018  -0.0089   0.0012   0.00    1.4
2173 242701.000    967386.2671  -5611814.0111   2863023.8380   2   8   0.0223   0.0184   0.0122  -0.0023  -0.0089   0.0012   0.00    1.4
2173 242702.000    967386.2666  -5611814.0065   2863023.8336   2   8   0.0223   0.0185   0.0123  -0.0016  -0.0088  -0.0008   0.00    1.4
2173 242703.000    967386.2648  -5611813.9984   2863023.8255   2   8   0.0223   0.0184   0.0120  -0.0019  -0.0088  -0.0015   0.00    1.4
2173 242704.000    967386.2644  -5611813.9920   2863023.8188   2   8   0.0222   0.0184   0.0120  -0.0019  -0.0087  -0.0009   0.00    1.4
2173 242705.000    967386.2637  -5611813.9884   2863023.8123   2   8   0.0223   0.0183   0.0122  -0.0016  -0.0086  -0.0011   0.00    1.4
2173 242706.000    967386.2614  -5611813.9793   2863023.8041   2   8   0.0222   0.0183   0.0120  -0.0017  -0.0087  -0.0008   0.00    1.4
2173 242707.000    967386.2582  -5611813.9714   2863023.7949   2   8   0.0222   0.0182   0.0120  -0.0017  -0.0087  -0.0007   0.00    1.4
2173 242708.000    967386.2612  -5611813.9700   2863023.7938   2   8   0.0221   0.0182   0.0120  -0.0019  -0.0087  -0.0006   0.00    1.4
2173 242709.000    967386.2597  -5611813.9655   2863023.7853   2   8   0.0221   0.0182   0.0120  -0.0018  -0.0087  -0.0005   0.00    1.4
2173 242710.000    967386.2589  -5611813.9562   2863023.7789   2   8   0.0221   0.0181   0.0118  -0.0013  -0.0088   0.0010   0.00    1.4
2173 242711.000    967386.2575  -5611813.9524   2863023.7727   2   8   0.0221   0.0181   0.0120  -0.0010  -0.0086  -0.0012   0.00    1.4
2173 242712.000    967386.2572  -5611813.9496   2863023.7663   2   8   0.0220   0.0180   0.0119  -0.0019  -0.0086   0.0004   0.00    1.4
2173 242713.000    967386.2583  -5611813.9436   2863023.7596   2   8   0.0219   0.0180   0.0119  -0.0019  -0.0086   0.0012   0.00    1.4
2173 242714.000    967386.2561  -5611813.9381   2863023.7537   2   8   0.0219   0.0180   0.0118  -0.0021  -0.0086  -0.0005   0.00    1.4
2173 242715.000    967386.2552  -5611813.9341   2863023.7476   2   8   0.0220   0.0179   0.0119  -0.0011  -0.0087  -0.0013   0.00    1.4
2173 242716.000    967386.2491  -5611813.9165   2863023.7329   2   8   0.0219   0.0179   0.0117  -0.0011  -0.0085   0.0013   0.00    1.4
2173 242717.000    967386.2592  -5611813.9111   2863023.7382   2   8   0.0219   0.0179   0.0118  -0.0013  -0.0086  -0.0016   0.00    1.4
2173 242718.000    967386.2558  -5611813.9017   2863023.7295   2   8   0.0218   0.0178   0.0116  -0.0014  -0.0086   0.0006   0.00    1.4
2173 242719.000    967386.2543  -5611813.8970   2863023.7249   2   8   0.0218   0.0178   0.0116  -0.0010  -0.0086   0.0013   0.00    1.4
2173 242720.000    967386.2542  -5611813.8893   2863023.7178   2   8   0.0218   0.0178   0.0117  -0.0005  -0.0086  -0.0002   0.00    1.4
2173 242721.000    967386.2519  -5611813.8785   2863023.7105   2   8   0.0217   0.0177   0.0115  -0.0008  -0.0085   0.0015   0.00    1.4
2173 242722.000    967386.2540  -5611813.8743   2863023.7058   2   8   0.0217   0.0177   0.0116  -0.0016  -0.0084   0.0012   0.00    1.4
2173 242723.000    967386.2514  -5611813.8637   2863023.7003   2   8   0.0217   0.0176   0.0117  -0.0014  -0.0084  -0.0020   0.00    1.4
2173 242724.000    967386.2503  -5611813.8544   2863023.6927   2   8   0.0216   0.0176   0.0115  -0.0017  -0.0084  -0.0001   0.00    1.4
2173 242725.000    967386.2508  -5611813.8463   2863023.6859   2   8   0.0216   0.0176   0.0116   0.0008  -0.0084  -0.0010   0.00    1.4
2173 242726.000    967386.2510  -5611813.8411   2863023.6823   2   8   0.0215   0.0175   0.0117  -0.0015  -0.0084   0.0001   0.00    1.4
2173 242727.000    967386.2491  -5611813.8289   2863023.6755   2   8   0.0216   0.0175   0.0113   0.0011  -0.0085   0.0007   0.00    1.4
