     2.11           OBSERVATION DATA    M (MIXED)           RINEX VERSION / TYPE
CONVBIN 2.4.3                           20210901 004851 UTC PGM / RUN BY / DATE 
log: logs/21_08_31_18_18_23_okdt_VZ.rtcm                    COMMENT             
format: RTCM 3, station ID: 1339                            COMMENT             
1339                                                        MARKER NAME         
                                                            MARKER NUMBER       
                                                            OBSERVER / AGENCY   
                    LEICA GR50          4.40/7.701          REC # / TYPE / VERS 
                    GPPNULLANTENNA                          ANT # / TYPE        
  -688033.7737 -5158311.4450  3675952.2011                  APPROX POSITION XYZ 
        0.0000        0.0000        0.0000                  ANTENNA: DELTA H/E/N
     1     1                                                WAVELENGTH FACT L1/2
     7    C1    L1    C2    L2    P2    C5    L5            # / TYPES OF OBSERV 
  2021     8    31    18    18   32.0000000     GPS         TIME OF FIRST OBS   
  2021     8    31    18    48   27.0000000     GPS         TIME OF LAST OBS    
                                                            END OF HEADER       
 21  8 31 18 18 32.0000000  0 18G 5G10G13G15G18G23G29R 3R 4R 5R18R19
                                R20E 4E 5E 9E11E36
  22543465.954   118466737.209    22543464.346    92311746.305    22543463.542  
                                
  24364968.969   128038778.622    24364971.649    99770492.226    24364971.381  
  24364970.434    95613386.783  
  21725953.043   114170687.243                    88964175.957    21725950.255  
                                
  20302297.356   106689345.194    20302295.533    83134569.242    20302294.765  
                                
  20989392.577   110300037.269    20989390.808    85948100.747    20989390.308  
  20989395.007    82366945.936  
  21633567.442   113685208.918    21633566.084    88585897.541    21633565.637  
  21633570.194    84894836.884  
  20956950.705   110129520.007    20956949.097    85815209.819    20956948.328  
                                
  22850295.841   122319456.441    22850295.090    95137357.925    22850294.876  
                                
  19427610.879   104034029.037    19427609.557    80915370.772    19427609.360  
                                
  20158255.590   107757447.581    20158256.841    83811368.294    20158256.770  
                                
  21792450.825   116329572.028    21792453.737    90478554.123    21792454.059  
                                
  19451404.841   104051910.599    19451404.984    80929281.149    19451404.448  
                                
  21454073.714   114724592.184    21454077.216    89230249.922    21454075.858  
                                
  28034457.337   147322075.350                                                  
  28034460.107   110013254.769  
  24196109.972   127151467.571                                                  
  24196113.027    94950812.038  
  22281964.882   117092561.200                                                  
  22281966.937    87439285.148  
  24821818.506   130439521.933                                                  
  24821818.685    97406108.427  
  23626624.782   124158766.484                                                  
  23626627.766    92715981.757  
 21  8 31 18 18 33.0000000  0 18G 5G10G13G15G18G23G29R 3R 4R 5R18R19
                                R20E 4E 5E 9E11E36
  22543981.368   118469445.751    22543979.778    92313856.855    22543978.956  
                                
  24364477.410   128036195.524    24364480.090    99768479.415    24364479.822  
  24364478.875    95611457.846  
  21726192.077   114171943.371                    88965154.758    21726189.289  
                                
  20302260.081   106689149.241    20302258.240    83134416.553    20302257.472  
                                
  20989078.726   110298387.924    20989076.957    85946815.548    20989076.456  
  20989081.156    82365714.274  
  21633242.780   113683502.894    21633241.440    88584568.172    21633240.975  
  21633245.532    84893562.901  
  20957344.735   110131590.627    20957343.127    85816823.287    20957342.358  
                                
  22851031.562   122323394.881    22851030.812    95140421.151    22851030.597  
                                
  19427897.588   104035564.410    19427896.265    80916564.954    19427896.069  
                                
  20157810.026   107755065.893    20157811.295    83809515.870    20157811.223  
                                
  21793020.775   116332614.387    21793023.688    90480920.403    21793024.009  
                                
  19451450.175   104052153.250    19451450.336    80929469.878    19451449.800  
                                
  21453445.439   114721232.447    21453448.942    89227636.796    21453447.583  
                                
  28034969.142   147324764.781                                                  
  28034971.912   110015263.083  
  24195747.999   127149565.426                                                  
  24195751.037    94949391.603  
  22282118.735   117093369.682                                                  
  22282120.790    87439888.882  
  24822194.828   130441499.522                                                  
  24822195.006    97407585.202  
  23626664.630   124158975.916                                                  
  23626667.632    92716138.146  
 21  8 31 18 18 34.0000000  0 18G 5G10G13G15G18G23G29R 3R 4R 5R18R19
                                R20E 4E 5E 9E11E36
  22544496.836   118472154.508    22544495.245    92315967.577    22544494.423  
                                
  24363985.922   128033612.702    24363988.585    99766466.851    24363988.335  
  24363987.388    95609529.148  
  21726431.271   114173200.257                    88966134.148    21726428.466  
                                
  20302222.931   106688954.117    20302221.091    83134264.504    20302220.340  
                                
  20988764.910   110296738.902    20988763.141    85945530.586    20988762.641  
  20988767.358    82364482.861  
  21632918.225   113681797.287    21632916.867    88583239.126    21632916.420  
  21632920.977    84892289.242  
  20957738.890   110133661.928    20957737.264    85818437.285    20957736.495  
                                
  22851767.337   122327333.541    22851766.604    95143484.559    22851766.390  
                                
  19428184.457   104037100.555    19428183.135    80917759.729    19428182.938  
                                
  20157364.623   107752684.967    20157365.874    83807664.036    20157365.802  
                                
  21793590.797   116335657.334    21793593.727    90483287.127    21793594.049  
                                
  19451495.688   104052396.648    19451495.848    80929659.188    19451495.312  
                                
  21452817.200   114717873.045    21452820.702    89225023.922    21452819.344  
                                
  28035480.911   147327454.420                                                  
  28035483.663   110017271.593  
  24195386.116   127147663.763                                                  
  24195389.171    94947971.543  
  22282272.676   117094178.709                                                  
  22282274.731    87440493.019  
  24822571.185   130443477.420                                                  
  24822571.364    97409062.215  
  23626704.567   124159185.696                                                  
  23626707.551    92716294.814  
 21  8 31 18 18 35.0000000  0 18G 5G10G13G15G18G23G29R 3R 4R 5R18R19
                                R20E 4E 5E 9E11E36
  22545012.286   118474863.180    22545010.695    92318078.231    22545009.873  
                                
  24363494.417   128031029.868    24363497.080    99764454.251    24363496.829  
  24363495.882    95607600.415  
  21726670.520   114174457.613                    88967113.903    21726667.714  
                                
  20302185.906   106688759.525    20302184.066    83134112.869    20302183.315  
                                
  20988451.148   110295089.909    20988449.361    85944245.654    20988448.861  
  20988453.578    82363251.472  
  21632593.688   113680091.812    21632592.330    88581910.182    21632591.883  
  21632596.439    84891015.673  
  20958133.116   110135733.619    20958131.508    85820051.585    20958130.739  
                                
  22852503.112   122331272.130    22852502.379    95146547.903    22852502.165  
                                
  19428471.398   104038637.149    19428470.076    80918954.855    19428469.879  
                                
  20156919.327   107750304.479    20156920.578    83805812.541    20156920.506  
                                
  21794160.908   116338700.504    21794163.839    90485654.028    21794164.142  
                                
  19451541.289   104052640.527    19451541.432    80929848.864    19451540.896  
                                
  21452188.979   114714513.628    21452192.481    89222411.036    21452191.123  
                                
  28035992.787   147330144.050                                                  
  28035995.574   110019280.070  
  24195024.268   127145762.261                                                  
  24195027.323    94946551.594  
  22282426.689   117094987.965                                                  
  22282428.744    87441097.338  
  24822947.578   130445455.326                                                  
  24822947.757    97410539.227  
  23626744.504   124159395.562                                                  
  23626747.488    92716451.536  
 21  8 31 18 18 36.0000000  0 18G 5G10G13G15G18G23G29R 3R 4R 5R18R19
                                R20E 4E 5E 9E11E36
  22545527.753   118477572.122    22545526.163    92320189.099    22545525.359  
                                
  24363002.983   128028447.386    24363005.646    99762441.925    24363005.396  
  24363004.448    95605671.936  
  21726909.947   114175715.796                    88968094.307    21726907.141  
                                
  20302149.043   106688565.819    20302147.220    83133961.934    20302146.452  
                                
  20988137.421   110293441.298    20988135.652    85942961.027    20988135.152  
  20988139.869    82362020.360  
  21632269.222   113678386.812    21632267.864    88580581.615    21632267.417  
  21632271.974    84889742.459  
  20958527.485   110137806.041    20958525.877    85821666.460    20958525.109  
                                
  22853238.922   122335210.991    22853238.172    95149611.466    22853237.957  
                                
  19428758.517   104040174.592    19428757.195    80920150.646    19428756.981  
                                
  20156474.138   107747924.808    20156475.407    83803961.686    20156475.335  
                                
  21794731.091   116341744.282    21794734.021    90488021.415    21794734.325  
                                
  19451587.034   104052885.248    19451587.195    80930039.205    19451586.659  
                                
  21451560.811   114711154.563    21451564.314    89219798.437    21451562.955  
                                
  28036504.627   147332833.930                                                  
  28036507.397   110021288.773  
  24194662.545   127143861.293                                                  
  24194665.601    94945132.036  
  22282580.792   117095797.809                                                  
  22282582.847    87441702.093  
  24823324.043   130447433.593                                                  
  24823324.221    97412016.487  
  23626784.495   124159605.833                                                  
  23626787.497    92716608.552  
 21  8 31 18 18 37.0000000  0 18G 5G10G13G15G18G23G29R 3R 4R 5R18R19
                                R20E 4E 5E 9E11E36
  22546043.257   118480281.044    22546041.666    92322299.947    22546040.844  
                                
  24362511.549   128025864.945    24362514.212    99760429.638    24362513.962  
  24362513.015    95603743.503  
  21727149.481   114176974.513                    88969075.121    21727146.676  
                                
  20302112.304   106688372.712    20302110.463    83133811.461    20302109.695  
                                
  20987823.713   110291792.777    20987821.944    85941676.466    20987821.426  
  20987826.143    82360789.331  
  21631944.810   113676682.001    21631943.452    88579253.188    21631943.005  
  21631947.562    84888469.390  
  20958921.944   110139878.909    20958920.336    85823281.679    20958919.567  
                                
  22853974.733   122339149.834    22853973.983    95152675.013    22853973.768  
                                
  19429045.708   104041712.597    19429044.386    80921346.877    19429044.189  
                                
  20156029.092   107745545.676    20156030.343    83802111.256    20156030.272  
                                
  21795301.363   116344788.391    21795304.293    90490389.053    21795304.597  
                                
  19451632.886   104053130.504    19451633.047    80930229.960    19451632.493  
                                
  21450932.679   114707795.594    21450936.182    89217185.907    21450934.824  
                                
  28037016.503   147335523.869                                                  
  28037019.273   110023297.478  
  24194300.840   127141960.565                                                  
  24194303.896    94943712.664  
  22282734.966   117096607.963                                                  
  22282737.021    87442307.079  
  24823700.507   130449411.913                                                  
  24823700.686    97413493.808  
  23626824.540   124159816.242                                                  
  23626827.524    92716765.678  
 21  8 31 18 18 38.0000000  0 18G 5G10G13G15G18G23G29R 3R 4R 5R18R19
                                R20E 4E 5E 9E11E36
  22546558.796   118482990.162    22546557.188    92324410.946    22546556.384  
                                
  24362020.205   128023282.818    24362022.849    99758417.592    24362022.599  
  24362021.652    95601815.281  
  21727389.158   114178234.004                    88970056.546    21727386.353  
                                
  20302075.708   106688180.432    20302073.886    83133661.631    20302073.117  
                                
  20987510.076   110290144.597    20987508.307    85940392.165    20987507.788  
  20987512.506    82359558.541  
  21631620.487   113674977.617    21631619.129    88577925.099    21631618.682  
  21631623.239    84887196.634  
  20959316.546   110141952.464    20959314.920    85824897.434    20959314.151  
                                
  22854710.562   122343088.895    22854709.811    95155738.732    22854709.597  
                                
  19429333.078   104043251.412    19429331.756    80922543.735    19429331.559  
                                
  20155584.153   107743167.337    20155585.422    83800261.435    20155585.351  
                                
  21795871.724   116347833.048    21795874.655    90492757.118    21795874.958  
                                
  19451678.881   104053376.512    19451679.024    80930421.302    19451678.488  
                                
  21450304.583   114704436.893    21450308.085    89214573.585    21450306.727  
                                
  28037528.415   147338214.042                                                  
  28037531.202   110025306.371  
  24193939.225   127140060.293                                                  
  24193942.281    94942293.634  
  22282889.229   117097418.645                                                  
  22282891.284    87442912.461  
  24824077.008   130451390.533                                                  
  24824077.186    97414971.349  
  23626864.656   124160027.011                                                  
  23626867.640    92716923.069  
 21  8 31 18 18 39.0000000  0 18G 5G10G13G15G18G23G29R 3R 4R 5R18R19
                                R20E 4E 5E 9E11E36
  22547074.371   118485699.506    22547072.763    92326522.120    22547071.959  
                                
  24361528.896   128020701.017    24361531.541    99756405.810    24361531.290  
  24361530.343    95599887.326  
  21727628.978   114179494.294                    88971038.587    21727626.173  
                                
  20302039.291   106687989.001    20302037.451    83133512.465    20302036.700  
                                
  20987196.492   110288496.755    20987194.723    85939108.132    20987194.223  
  20987198.940    82358328.015  
  21631296.218   113673273.683    21631294.878    88576597.363    21631294.413  
  21631298.970    84885924.222  
  20959711.255   110144026.717    20959709.646    85826513.735    20959708.878  
                                
  22855446.479   122347028.234    22855445.729    95158802.651    22855445.497  
                                
  19429620.590   104044791.035    19429619.268    80923741.215    19429619.072  
                                
  20155139.376   107740789.777    20155140.644    83798412.229    20155140.555  
                                
  21796442.211   116350878.302    21796445.141    90495125.644    21796445.445  
                                
  19451725.019   104053623.340    19451725.179    80930613.277    19451724.643  
                                
  21449676.558   114701078.512    21449680.061    89211961.511    21449678.703  
                                
  28038040.380   147340904.494                                                  
  28038043.168   110027315.466  
  24193577.699   127138160.525                                                  
  24193580.755    94940874.978  
  22283043.599   117098229.891                                                  
  22283045.654    87443518.266  
  24824453.579   130453369.525                                                  
  24824453.758    97416449.174  
  23626904.843   124160238.177                                                  
  23626907.827    92717080.760  
 21  8 31 18 18 40.0000000  0 18G 5G10G13G15G18G23G29R 3R 4R 5R18R19
                                R20E 4E 5E 9E11E36
  22547589.946   118488408.952    22547588.338    92328633.378    22547587.533  
                                
  24361037.623   128018119.351    24361040.268    99754394.124    24361040.017  
  24361039.070    95597959.458  
  21727868.942   114180755.221                    88972021.125    21727866.118  
                                
  20302002.981   106687798.291    20302001.159    83133363.860    20302000.390  
                                
  20986882.962   110286849.127    20986881.193    85937824.264    20986880.675  
  20986885.410    82357097.642  
  21630972.038   113671570.039    21630970.680    88575269.850    21630970.233  
  21630974.772    84884652.027  
  20960106.088   110146101.521    20960104.480    85828130.463    20960103.712  
                                
  22856182.415   122350967.696    22856181.647    95161866.672    22856181.432  
                                
  19429908.228   104046331.322    19429906.888    80924939.218    19429906.691  
                                
  20154694.741   107738412.844    20154695.992    83796563.506    20154695.920  
                                
  21797012.768   116353924.002    21797015.681    90497494.522    21797016.003  
                                
  19451771.281   104053870.845    19451771.442    80930805.781    19451770.906  
                                
  21449048.552   114697720.328    21449052.054    89209349.587    21449050.696  
                                
  28038552.399   147343595.069                                                  
  28038555.187   110029324.678  
  24193216.262   127136261.098                                                  
  24193219.318    94939456.572  
  22283198.059   117099041.551                                                  
  22283200.114    87444124.373  
  24824830.205   130455348.657                                                  
  24824830.401    97417927.078  
  23626945.084   124160449.575                                                  
  23626948.068    92717238.622  
 21  8 31 18 18 41.0000000  0 18G 5G10G13G15G18G23G29R 3R 4R 5R18R19
                                R20E 4E 5E 9E11E36
  22548105.556   118491118.490    22548103.966    92330744.706    22548103.144  
                                
  24360546.368   128015537.858    24360549.030    99752382.562    24360548.762  
  24360547.833    95596031.722  
  21728109.012   114182016.810                    88973004.182    21728106.206  
                                
  20301966.832   106687608.297    20301964.992    83133215.813    20301964.241  
                                
  20986569.468   110285201.724    20986567.699    85936540.573    20986567.199  
  20986571.916    82355867.436  
  21630647.894   113669866.726    21630646.536    88573942.596    21630646.089  
  21630650.646    84883380.066  
  20960501.012   110148176.925    20960499.404    85829747.658    20960498.635  
                                
  22856918.351   122354907.286    22856917.600    95164930.798    22856917.368  
                                
  19430195.991   104047872.302    19430194.669    80926137.759    19430194.472  
                                
  20154250.195   107736036.580    20154251.464    83794715.300    20154251.375  
                                
  21797583.434   116356970.183    21797586.346    90499863.771    21797586.668  
                                
  19451817.687   104054119.016    19451817.830    80930998.805    19451817.294  
                                
  21448420.598   114694362.344    21448424.101    89206737.825    21448422.743  
                                
  28039064.436   147346285.788                                                  
  28039067.224   110031333.950  
  24192854.879   127134362.037                                                  
  24192857.935    94938038.443  
  22283352.591   117099853.636                                                  
  22283354.628    87444730.794  
  24825206.866   130457327.966                                                  
  24825207.045    97419405.151  
  23626985.343   124160661.237                                                  
  23626988.327    92717396.681  
 21  8 31 18 18 42.0000000  0 18G 5G10G13G15G18G23G29R 3R 4R 5R18R19
                                R20E 4E 5E 9E11E36
  22548621.203   118493828.242    22548619.612    92332856.203    22548618.808  
                                
  24360055.184   128012956.670    24360057.829    99750371.247    24360057.561  
  24360056.631    95594104.220  
  21728349.225   114183279.198                    88973987.866    21728346.402  
                                
  20301930.844   106687419.154    20301929.004    83133068.431    20301928.253  
                                
  20986256.046   110283554.668    20986254.276    85935257.155    20986253.776  
  20986258.494    82354637.490  
  21630323.857   113668163.851    21630322.499    88572615.678    21630322.052  
  21630326.609    84882108.441  
  20960896.096   110150253.012    20960894.470    85831365.391    20960893.719  
                                
  22857654.358   122358847.094    22857653.590    95167995.093    22857653.375  
                                
  19430483.897   104049414.060    19430482.574    80927336.906    19430482.378  
                                
  20153805.810   107733661.095    20153807.061    83792867.701    20153806.990  
                                
  21798154.206   116360016.939    21798157.119    90502233.466    21798157.440  
                                
  19451864.218   104054368.012    19451864.379    80931192.466    19451863.843  
                                
  21447792.717   114691004.710    21447796.219    89204126.331    21447794.861  
                                
  28039576.491   147348976.745                                                  
  28039579.278   110033343.442  
  24192493.603   127132463.469                                                  
  24192496.659    94936620.679  
  22283507.229   117100666.276                                                  
  22283509.284    87445337.637  
  24825583.581   130459307.616                                                  
  24825583.759    97420883.452  
  23627025.691   124160873.277                                                  
  23627028.675    92717555.022  
 21  8 31 18 18 43.0000000  0 18G 5G10G13G15G18G23G29R 3R 4R 5R18R19
                                R20E 4E 5E 9E11E36
  22549136.903   118496538.170    22549135.295    92334967.835    22549134.490  
                                
  24359564.054   128010375.773    24359566.716    99748360.154    24359566.448  
  24359565.519    95592176.914  
  21728589.581   114184542.329                    88974972.121    21728586.776  
                                
  20301894.999   106687230.821    20301893.176    83132921.676    20301892.408  
                                
  20985942.676   110281907.912    20985940.907    85933973.966    20985940.389  
  20985945.125    82353407.775  
  21629999.874   113666461.378    21629998.516    88571289.078    21629998.069  
  21630002.626    84880837.118  
  20961291.287   110152329.753    20961289.661    85832983.629    20961288.893  
                                
  22858390.365   122362787.082    22858389.597    95171059.526    22858389.382  
                                
  19430771.945   104050956.568    19430770.623    80928536.639    19430770.426  
                                
  20153361.587   107731286.371    20153362.837    83791020.696    20153362.766  
                                
  21798725.050   116363064.213    21798727.980    90504603.566    21798728.284  
                                
  19451910.910   104054617.742    19451911.071    80931386.703    19451910.517  
                                
  21447164.871   114687647.359    21447168.373    89201515.058    21447167.015  
                                
  28040088.617   147351667.957                                                  
  28040091.440   110035353.111  
  24192132.399   127130565.336                                                  
  24192135.454    94935203.248  
  22283661.957   117101479.429                                                  
  22283664.012    87445944.862  
  24825960.349   130461287.541                                                  
  24825960.545    97422361.970  
  23627066.111   124161085.664                                                  
  23627069.095    92717713.625  
 21  8 31 18 18 44.0000000  0 18G 5G10G13G15G18G23G29R 3R 4R 5R18R19
                                R20E 4E 5E 9E11E36
  22549652.567   118499248.153    22549650.977    92337079.497    22549650.173  
                                
  24359072.942   128007794.943    24359075.586    99746349.138    24359075.318  
  24359074.407    95590249.708  
  21728830.063   114185806.040                    88975956.831    21728827.257  
                                
  20301859.296   106687043.146    20301857.456    83132775.433    20301856.705  
                                
  20985629.343   110280261.308    20985627.574    85932690.900    20985627.056  
  20985631.791    82352178.171  
  21629675.962   113664759.149    21629674.604    88569962.666    21629674.157  
  21629678.714    84879565.968  
  20961686.568   110154407.002    20961684.960    85834602.269    20961684.191  
                                
  22859126.390   122366727.088    22859125.622    95174123.982    22859125.390  
                                
  19431060.137   104052499.720    19431058.814    80929736.859    19431058.618  
                                
  20152917.452   107728912.253    20152918.703    83789174.162    20152918.631  
                                
  21799296.001   116366111.890    21799298.913    90506973.970    21799299.235  
                                
  19451957.709   104054868.091    19451957.852    80931581.415    19451957.316  
                                
  21446537.043   114684290.122    21446540.545    89198903.876    21446539.187  
                                
  28040600.743   147354359.189                                                  
  28040603.549   110037362.828  
  24191771.266   127128667.526                                                  
  24191774.321    94933786.043  
  22283816.774   117102292.934                                                  
  22283818.829    87446552.354  
  24826337.135   130463267.589                                                  
  24826337.314    97423840.568  
  23627106.566   124161298.244                                                  
  23627109.550    92717872.361  
 21  8 31 18 18 45.0000000  0 18G 5G10G13G15G18G23G29R 3R 4R 5R18R19
                                R20E 4E 5E 9E11E36
  22550168.267   118501958.140    22550166.677    92339191.175    22550165.873  
                                
  24358581.865   128005214.266    24358584.510    99744338.225    24358584.242  
  24358583.331    95588322.566  
  21729070.669   114187070.362                    88976942.017    21729067.846  
                                
  20301823.701   106686856.128    20301821.861    83132629.707    20301821.092  
                                
  20985316.046   110278614.868    20985314.259    85931407.958    20985313.758  
  20985318.494    82350948.680  
  21629352.086   113663057.175    21629350.728    88568636.452    21629350.281  
  21629354.820    84878295.013  
  20962081.956   110156484.759    20962080.347    85836221.300    20962079.579  
                                
  22859862.433   122370667.130    22859861.665    95177188.454    22859861.432  
                                
  19431348.418   104054043.484    19431347.095    80930937.567    19431346.899  
                                
  20152473.425   107726538.750    20152474.675    83787328.106    20152474.604  
                                
  21799867.005   116369159.973    21799869.936    90509344.698    21799870.240  
                                
  19452004.615   104055119.047    19452004.776    80931776.604    19452004.222  
                                
  21445909.250   114680933.004    21445912.753    89196292.787    21445911.395  
                                
  28041112.887   147357050.527                                                  
  28041115.693   110039372.589  
  24191410.151   127126769.988                                                  
  24191413.206    94932369.055  
  22283971.645   117103106.809                                                  
  22283973.700    87447160.118  
  24826713.939   130465247.755                                                  
  24826714.136    97425319.250  
  23627147.058   124161511.009                                                  
  23627150.042    92718031.242  
 21  8 31 18 18 46.0000000  0 18G 5G10G13G15G18G23G29R 3R 4R 5R18R19
                                R20E 4E 5E 9E11E36
  22550683.931   118504667.933    22550682.341    92341302.699    22550681.537  
                                
  24358090.735   128002633.395    24358093.362    99742327.159    24358093.094  
  24358092.183    95586395.314  
  21729311.329   114188335.015                    88977927.463    21729308.506  
                                
  20301788.178   106686669.500    20301786.355    83132484.283    20301785.587  
                                
  20985002.712   110276968.319    20985000.943    85930124.938    20985000.425  
  20985005.160    82349719.117  
  21629028.228   113661355.189    21629026.870    88567310.234    21629026.405  
  21629030.962    84877024.050  
  20962477.379   110158562.774    20962475.771    85837840.530    20962475.003  
                                
  22860598.422   122374606.977    22860597.636    95180252.784    22860597.422  
                                
  19431636.770   104055587.619    19431635.448    80932138.560    19431635.251  
                                
  20152029.487   107724165.561    20152030.737    83785482.294    20152030.666  
                                
  21800438.046   116372208.174    21800440.976    90511715.517    21800441.280  
                                
  19452051.593   104055370.331    19452051.736    80931972.050    19452051.200  
                                
  21445281.422   114677575.797    21445284.924    89193681.628    21445283.566  
                                
  28041625.013   147359741.704                                                  
  28041627.837   110041382.221  
  24191049.071   127124872.500                                                  
  24191052.145    94930952.098  
  22284126.534   117103920.787                                                  
  22284128.589    87447767.956  
  24827090.725   130467227.751                                                  
  24827090.904    97426797.843  
  23627187.531   124161723.704                                                  
  23627190.515    92718190.073  
 21  8 31 18 18 47.0000000  0 18G 5G10G13G15G18G23G29R 3R 4R 5R18R19
                                R20E 4E 5E 9E11E36
  22551199.596   118507377.696    22551197.987    92343414.203    22551197.183  
                                
  24357599.641   128000052.645    24357602.285    99740316.190    24357602.017  
  24357601.088    95584468.119  
  21729552.078   114189600.220                    88978913.340    21729549.255  
                                
  20301752.779   106686483.488    20301750.957    83132339.341    20301750.188  
                                
  20984689.415   110275321.886    20984687.628    85928842.002    20984687.127  
  20984691.863    82348489.632  
  21628704.370   113659653.408    21628703.012    88565984.171    21628702.565  
  21628707.104    84875753.246  
  20962872.892   110160641.238    20962871.284    85839460.115    20962870.534  
                                
  22861334.430   122378546.848    22861333.643    95183317.133    22861333.429  
                                
  19431925.230   104057132.316    19431923.908    80933339.992    19431923.711  
                                
  20151585.620   107721792.899    20151586.871    83783636.896    20151586.799  
                                
  21801009.140   116375256.713    21801012.070    90514086.602    21801012.374  
                                
  19452098.660   104055622.182    19452098.821    80932167.936    19452098.285  
                                
  21444653.630   114674218.640    21444657.114    89191070.503    21444655.756  
                                
  28042137.104   147362432.860                                                  
  28042139.909   110043391.864  
  24190688.046   127122975.259                                                  
  24190691.101    94929535.334  
  22284281.494   117104735.082                                                  
  22284283.549    87448376.034  
  24827467.530   130469207.878                                                  
  24827467.726    97428276.490  
  23627228.040   124161936.545                                                  
  23627231.024    92718349.019  
 21  8 31 18 18 48.0000000  0 18G 5G10G13G15G18G23G29R 3R 4R 5R18R19
                                R20E 4E 5E 9E11E36
  22551715.260   118510087.613    22551713.652    92345525.833    22551712.848  
                                
  24357108.564   127997472.091    24357111.209    99738305.377    24357110.941  
  24357110.030    95582541.098  
  21729792.971   114190866.144                    88979899.774    21729790.147  
                                
  20301717.542   106686298.268    20301715.719    83132195.016    20301714.951  
                                
  20984376.153   110273675.730    20984374.384    85927559.289    20984373.883  
  20984378.619    82347260.356  
  21628380.601   113657952.006    21628379.243    88564658.403    21628378.796  
  21628383.335    84874482.714  
  20963268.530   110162720.336    20963266.922    85841080.191    20963266.154  
                                
  22862070.455   122382486.914    22862069.668    95186381.631    22862069.454  
                                
  19432213.815   104058677.716    19432212.492    80934541.972    19432212.296  
                                
  20151141.897   107719420.930    20151143.147    83781792.031    20151143.076  
                                
  21801580.341   116378305.758    21801583.254    90516458.080    21801583.557  
                                
  19452145.888   104055874.762    19452146.031    80932364.388    19452145.495  
                                
  21444025.873   114670861.722    21444029.375    89188459.570    21444028.017  
                                
  28042649.248   147365124.243                                                  
  28042652.071   110045401.656  
  24190327.091   127121078.438                                                  
  24190330.147    94928118.869  
  22284436.543   117105549.864                                                  
  22284438.598    87448984.475  
  24827844.369   130471188.229                                                  
  24827844.566    97429755.338  
  23627268.603   124162149.703                                                  
  23627271.587    92718508.191  
 21  8 31 18 18 49.0000000  0 18G 5G10G13G15G18G23G29R 3R 4R 5R18R19
                                R20E 4E 5E 9E11E36
  22552230.942   118512797.529    22552229.352    92347637.461    22552228.530  
                                
  24356617.524   127994891.651    24356620.150    99736294.632    24356619.882  
  24356618.971    95580614.122  
  21730033.970   114192132.617                    88980886.640    21730031.147  
                                
  20301682.411   106686113.645    20301680.588    83132051.156    20301679.820  
                                
  20984062.927   110272029.669    20984061.140    85926276.637    20984060.639  
  20984065.375    82346031.164  
  21628056.886   113656250.812    21628055.528    88563332.795    21628055.063  
  21628059.620    84873212.347  
  20963664.276   110164799.909    20963662.667    85842700.635    20963661.899  
                                
  22862806.498   122386426.973    22862805.694    95189446.112    22862805.479  
                                
  19432502.506   104060223.687    19432501.184    80935744.394    19432500.988  
                                
  20150698.262   107717049.514    20150699.513    83779947.596    20150699.442  
                                
  21802151.578   116381355.128    21802154.508    90518829.823    21802154.812  
                                
  19452193.205   104056127.901    19452193.348    80932561.269    19452192.812  
                                
  21443398.134   114667504.900    21443401.637    89185848.713    21443400.279  
                                
  28043161.392   147367815.619                                                  
  28043164.198   110047411.474  
  24189966.191   127119181.862                                                  
  24189969.246    94926702.607  
  22284591.647   117106364.963                                                  
  22284593.701    87449593.155  
  24828221.245   130473168.694                                                  
  24828221.441    97431234.242  
  23627309.165   124162362.988                                                  
  23627312.167    92718667.467  
 21  8 31 18 18 50.0000000  0 18G 5G10G13G15G18G23G29R 3R 4R 5R18R19
                                R20E 4E 5E 9E11E36
  22552746.660   118515507.577    22552745.070    92349749.187    22552744.248  
                                
  24356126.519   127992311.382    24356129.145    99734284.035    24356128.877  
  24356127.966    95578687.302  
  21730275.113   114193399.788                    88981874.044    21730272.289  
                                
  20301647.423   106685929.790    20301645.583    83131907.885    20301644.815  
                                
  20983749.736   110270383.881    20983747.967    85924994.200    20983747.449  
  20983752.184    82344802.161  
  21627733.224   113654549.965    21627731.866    88562007.462    21627731.401  
  21627735.958    84871942.227  
  20964060.110   110166880.087    20964058.502    85844321.549    20964057.734  
                                
  22863542.576   122390367.185    22863541.772    95192510.724    22863541.558  
                                
  19432791.341   104061770.373    19432790.019    80936947.371    19432789.822  
                                
  20150254.789   107714678.796    20150256.040    83778103.702    20150255.968  
                                
  21802722.922   116384404.981    21802725.835    90521201.931    21802726.156  
                                
  19452240.665   104056381.751    19452240.826    80932758.708    19452240.272  
                                
  21442770.431   114664148.299    21442773.916    89183238.023    21442772.558  
                                
  28043673.590   147370507.209                                                  
  28043676.431   110049421.410  
  24189605.362   127117285.681                                                  
  24189608.417    94925286.622  
  22284746.839   117107180.525                                                  
  22284748.894    87450202.174  
  24828598.156   130475149.368                                                  
  24828598.353    97432713.301  
  23627349.817   124162576.581                                                  
  23627352.801    92718826.968  
 21  8 31 18 18 51.0000000  0 18G 5G10G13G15G18G23G29R 3R 4R 5R18R19
                                R20E 4E 5E 9E11E36
  22553262.413   118518217.933    22553260.823    92351861.148    22553260.001  
                                
  24355635.585   127989731.517    24355638.194    99732273.753    24355637.926  
  24355637.032    95576760.789  
  21730516.416   114194667.831                    88982862.129    21730513.593  
                                
  20301612.615   106685746.877    20301610.792    83131765.356    20301610.024  
                                
  20983436.653   110268738.530    20983434.866    85923712.112    20983434.366  
  20983439.101    82343573.490  
  21627409.652   113652849.649    21627408.294    88560682.538    21627407.829  
  21627412.386    84870672.519  
  20964456.106   110168961.054    20964454.497    85845943.079    20964453.729  
                                
  22864278.691   122394307.690    22864277.887    95195575.559    22864277.672  
                                
  19433080.355   104063317.968    19433079.033    80938151.056    19433078.836  
                                
  20149811.458   107712308.973    20149812.709    83776260.509    20149812.638  
                                
  21803294.373   116387455.519    21803297.286    90523574.575    21803297.590  
                                
  19452288.286   104056636.494    19452288.447    80932956.841    19452287.893  
                                
  21442142.800   114660792.124    21442146.302    89180627.663    21442144.944  
                                
  28044185.859   147373199.152                                                  
  28044188.682   110051431.623  
  24189244.622   127115390.089                                                  
  24189247.695    94923871.087  
  22284902.174   117107996.736                                                  
  22284904.229    87450811.684  
  24828975.157   130477130.461                                                  
  24828975.353    97434192.686  
  23627390.559   124162790.657                                                  
  23627393.543    92718986.826  
 21  8 31 18 18 52.0000000  0 18G 5G10G13G15G18G23G29R 3R 4R 5R18R19
                                R20E 4E 5E 9E11E36
  22553778.203   118520928.430    22553776.612    92353973.222    22553775.808  
                                
  24355144.705   127987151.894    24355147.314    99730263.654    24355147.046  
  24355146.152    95574834.440  
  21730757.844   114195936.572                    88983850.756    21730755.021  
                                
  20301577.949   106685564.709    20301576.126    83131623.407    20301575.358  
                                
  20983123.570   110267093.437    20983121.801    85922430.217    20983121.301  
  20983126.036    82342345.012  
  21627086.169   113651149.688    21627084.793    88559357.893    21627084.346  
  21627088.903    84869403.061  
  20964852.226   110171042.625    20964850.636    85847565.081    20964849.867  
                                
  22865014.841   122398248.368    22865014.037    95198640.528    22865013.822  
                                
  19433369.476   104064866.262    19433368.153    80939355.285    19433367.957  
                                
  20149368.253   107709939.834    20149369.522    83774417.845    20149369.432  
                                
  21803865.950   116390506.544    21803868.862    90525947.594    21803869.166  
                                
  19452336.032   104056891.936    19452336.193    80933155.516    19452335.657  
                                
  21441515.222   114657436.162    21441518.724    89178017.467    21441517.366  
                                
  28044698.146   147375891.253                                                  
  28044700.987   110053441.965  
  24188883.989   127113494.899                                                  
  24188887.045    94922455.846  
  22285057.581   117108813.408                                                  
  22285059.636    87451421.532  
  24829352.175   130479111.756                                                  
  24829352.390    97435672.216  
  23627431.354   124163005.010                                                  
  23627434.338    92719146.901  
 21  8 31 18 18 53.0000000  0 18G 5G10G13G15G18G23G29R 3R 4R 5R18R19
                                R20E 4E 5E 9E11E36
  22554294.046   118523639.148    22554292.455    92356085.464    22554291.651  
                                
  24354653.861   127984572.549    24354656.470    99728253.770    24354656.202  
  24354655.308    95572908.325  
  21730999.434   114197206.105                    88984840.003    21730996.610  
                                
  20301543.461   106685383.404    20301541.621    83131482.130    20301540.870  
                                
  20982810.594   110265448.690    20982808.807    85921148.601    20982808.307  
  20982813.042    82341116.794  
  21626762.757   113649450.172    21626761.381    88558033.595    21626760.935  
  21626765.491    84868133.947  
  20965248.489   110173124.916    20965246.881    85849187.642    20965246.113  
                                
  22865751.045   122402189.292    22865750.240    95201705.693    22865750.026  
                                
  19433658.775   104066415.355    19433657.453    80940560.135    19433657.256  
                                
  20148925.208   107707571.483    20148926.459    83772575.794    20148926.388  
                                
  21804437.616   116393558.167    21804440.528    90528321.079    21804440.832  
                                
  19452383.957   104057148.196    19452384.100    80933354.827    19452383.564  
                                
  21440887.697   114654080.582    21440891.200    89175407.574    21440889.842  
                                
  28045210.504   147378583.645                                                  
  28045213.346   110055452.506  
  24188523.446   127111600.196                                                  
  24188526.501    94921040.970  
  22285213.078   117109630.634                                                  
  22285215.132    87452031.805  
  24829729.265   130481093.383                                                  
  24829729.462    97437152.025  
  23627472.220   124163219.762                                                  
  23627475.204    92719307.268  
 21  8 31 18 18 54.0000000  0 18G 5G10G13G15G18G23G29R 3R 4R 5R18R19
                                R20E 4E 5E 9E11E36
  22554809.942   118526350.161    22554808.352    92358197.942    22554807.548  
                                
  24354163.088   127981993.594    24354165.697    99726244.200    24354165.429  
  24354164.536    95570982.484  
  21731241.184   114198476.487                    88985829.899    21731238.360  
                                
  20301509.117   106685203.027    20301507.295    83131341.574    20301506.526  
                                
  20982497.690   110263804.375    20982495.903    85919867.319    20982495.402  
  20982500.156    82339888.898  
  21626439.453   113647751.180    21626438.095    88556709.707    21626437.631  
  21626442.187    84866865.223  
  20965644.878   110175207.957    20965643.270    85850810.798    20965642.501  
                                
  22866487.320   122406130.601    22866486.516    95204771.147    22866486.283  
                                
  19433948.218   104067965.363    19433946.895    80941765.688    19433946.699  
                                
  20148482.307   107705204.016    20148483.576    83770734.431    20148483.486  
                                
  21805009.406   116396610.462    21805012.319    90530695.069    21805012.623  
                                
  19452432.006   104057405.317    19452432.167    80933554.810    19452431.631  
                                
  21440260.262   114650725.408    21440263.765    89172798.004    21440262.407  
                                
  28045722.881   147381276.345                                                  
  28045725.704   110057463.295  
  24188163.010   127109706.077                                                  
  24188166.065    94919626.531  
  22285368.717   117110448.500                                                  
  22285370.772    87452642.543  
  24830106.463   130483075.392                                                  
  24830106.659    97438632.098  
  23627513.158   124163434.974                                                  
  23627516.160    92719467.974  
 21  8 31 18 18 55.0000000  0 18G 5G10G13G15G18G23G29R 3R 4R 5R18R19
                                R20E 4E 5E 9E11E36
  22555325.839   118529061.254    22555324.249    92360310.485    22555323.444  
                                
  24353672.351   127979414.786    24353674.960    99724234.755    24353674.692  
  24353673.799    95569056.764  
  21731483.041   114199747.520                    88986820.319    21731480.217  
                                
  20301474.934   106685023.344    20301473.093    83131201.562    20301472.343  
                                
  20982184.839   110262160.259    20982183.052    85918586.190    20982182.552  
  20982187.287    82338661.145  
  21626116.203   113646052.477    21626114.844    88555386.045    21626114.398  
  21626118.937    84865596.707  
  20966041.356   110177291.565    20966039.766    85852434.387    20966038.997  
                                
  22867223.595   122410071.949    22867222.791    95207836.637    22867222.559  
                                
  19434237.803   104069516.026    19434236.481    80942971.761    19434236.284  
                                
  20148039.548   107702837.170    20148040.799    83768893.553    20148040.728  
                                
  21805581.287   116399663.167    21805584.199    90533069.400    21805584.503  
                                
  19452480.199   104057663.095    19452480.360    80933755.304    19452479.806  
                                
  21439632.863   114647370.416    21439636.365    89170188.566    21439635.007  
                                
  28046235.311   147383969.168                                                  
  28046238.134   110059474.182  
  24187802.627   127107812.280                                                  
  24187805.683    94918212.334  
  22285524.427   117111266.759                                                  
  22285526.482    87453253.583  
  24830483.660   130485057.600                                                  
  24830483.874    97440112.314  
  23627554.167   124163650.413                                                  
  23627557.152    92719628.851  
 21  8 31 18 18 56.0000000  0 18G 5G10G13G15G18G23G29R 3R 4R 5R18R19
                                R20E 4E 5E 9E11E36
  22555841.735   118531772.327    22555840.145    92362423.013    22555839.341  
                                
  24353181.650   127976836.063    24353184.259    99722225.372    24353183.991  
  24353183.097    95567131.090  
  21731725.023   114201019.092                    88987811.155    21731722.182  
                                
  20301440.858   106684844.261    20301439.017    83131062.023    20301438.267  
                                
  20981871.988   110260516.246    20981870.201    85917305.143    20981869.701  
  20981874.454    82337433.478  
  21625792.988   113644353.975    21625791.630    88554062.544    21625791.165  
  21625795.722    84864328.351  
  20966437.941   110179375.619    20966436.333    85854058.332    20966435.564  
                                
  22867959.852   122414013.255    22867959.048    95210902.095    22867958.834  
                                
  19434527.478   104071067.248    19434526.155    80944178.269    19434525.959  
                                
  20147596.897   107700470.884    20147598.148    83767053.113    20147598.076  
                                
  21806153.220   116402716.231    21806156.133    90535444.003    21806156.437  
                                
  19452528.499   104057921.440    19452528.660    80933956.244    19452528.124  
                                
  21439005.482   114644015.496    21439008.966    89167579.181    21439007.608  
                                
  28046747.759   147386662.052                                                  
  28046750.600   110061485.089  
  24187442.298   127105918.734                                                  
  24187445.354    94916798.324  
  22285680.210   117112085.341                                                  
  22285682.264    87453864.859  
  24830860.875   130487039.873                                                  
  24830861.089    97441592.579  
  23627595.195   124163866.007                                                  
  23627598.179    92719789.846  
 21  8 31 18 18 57.0000000  0 18G 5G10G13G15G18G23G29R 3R 4R 5R18R19
                                R20E 4E 5E 9E11E36
  22556357.704   118534483.725    22556356.131    92364535.784    22556355.309  
                                
  24352691.002   127974257.710    24352693.611    99720216.270    24352693.325  
  24352692.450    95565205.708  
  21731967.166   114202291.543                    88988802.672    21731964.343  
                                
  20301406.942   106684666.116    20301405.102    83130923.207    20301404.351  
                                
  20981559.226   110258872.665    20981557.457    85916024.430    20981556.939  
  20981561.692    82336206.126  
  21625469.880   113642656.003    21625468.504    88552739.447    21625468.057  
  21625472.614    84863060.379  
  20966834.669   110181460.480    20966833.061    85855682.897    20966832.310  
                                
  22868696.199   122417954.890    22868695.395    95213967.811    22868695.163  
                                
  19434817.313   104072619.322    19434816.009    80945385.438    19434815.794  
                                
  20147154.388   107698105.488    20147155.639    83765213.356    20147155.568  
                                
  21806725.279   116405769.950    21806728.192    90537819.113    21806728.496  
                                
  19452576.942   104058180.676    19452577.103    80934157.867    19452576.567  
                                
  21438378.172   114640661.009    21438381.674    89164970.138    21438380.316  
                                
  28047260.260   147389355.251                                                  
  28047263.101   110063496.246  
  24187082.077   127104025.768                                                  
  24187085.150    94915384.746  
  22285836.099   117112904.551                                                  
  22285838.154    87454476.607  
  24831238.161   130489022.562                                                  
  24831238.376    97443073.158  
  23627636.311   124164082.055                                                  
  23627639.296    92719951.179  
 21  8 31 18 18 58.0000000  0 18G 5G10G13G15G18G23G29R 3R 4R 5R18R19
                                R20E 4E 5E 9E11E36
  22556873.654   118537195.082    22556872.063    92366648.532    22556871.259  
                                
  24352200.355   127971679.425    24352202.964    99718207.212    24352202.678  
  24352201.802    95563280.358  
  21732209.417   114203564.553                    88989794.622    21732206.575  
                                
  20301373.152   106684488.562    20301371.329    83130784.851    20301370.561  
                                
  20981246.483   110257229.186    20981244.696    85914743.797    20981244.196  
  20981248.931    82334978.850  
  21625146.808   113640958.210    21625145.432    88551416.491    21625144.968  
  21625149.524    84861792.555  
  20967231.504   110183545.782    20967229.896    85857307.800    20967229.146  
                                
  22869432.528   122421896.533    22869431.724    95217033.534    22869431.492  
                                
  19435107.256   104074171.931    19435105.934    80946593.023    19435105.737  
                                
  20146711.987   107695740.618    20146713.256    83763374.013    20146713.166  
                                
  21807297.410   116408823.976    21807300.322    90540194.469    21807300.626  
                                
  19452625.528   104058440.467    19452625.689    80934359.929    19452625.153  
                                
  21437750.880   114637306.590    21437754.382    89162361.148    21437753.024  
                                
  28047772.744   147392048.482                                                  
  28047775.585   110065507.401  
  24186721.891   127102133.043                                                  
  24186724.964    94913971.341  
  22285992.042   117113724.072                                                  
  22285994.097    87455088.589  
  24831615.466   130491005.325                                                  
  24831615.680    97444553.775  
  23627677.464   124164298.251                                                  
  23627680.448    92720112.626  
