% program   : rnx2rtkp ver.2.4.3 b31
% inp file  : ngs/21_08_31_03_04_47_tn31.obs
% inp file  : ngs/21_08_31_03_04_47_tn31_SNTN.obs
% inp file  : ngs/21_08_31_03_04_47_brdc.nav
% obs start : 2021/08/31 03:00:00.0 GPST (week2173 183600.0s)
% obs end   : 2021/08/31 03:59:59.0 GPST (week2173 187199.0s)
% ref pos   :   281404.8190  -5147182.6825   3743462.2143
%
% (x/y/z-ecef=WGS84,Q=1:fix,2:float,3:sbas,4:dgps,5:single,6:ppp,ns=# of satellites)
%  GPST              x-ecef(m)      y-ecef(m)      z-ecef(m)   Q  ns   sdx(m)   sdy(m)   sdz(m)  sdxy(m)  sdyz(m)  sdzx(m) age(s)  ratio
2173 183864.000    281409.6732  -5147273.3925   3743528.4326   2   6   0.5047   1.2193   1.1304   0.2444  -1.0349  -0.4469 -30.00    1.6
2173 183865.000    281409.7658  -5147273.3056   3743528.2907   2   6   0.3588   0.8665   0.8033   0.1740  -0.7354  -0.3178 -29.00    1.3
2173 183866.000    281409.8120  -5147273.5369   3743528.4549   2   6   0.2937   0.7093   0.6573   0.1421  -0.6018  -0.2600 -28.00    1.1
2173 183867.000    281409.8281  -5147273.6267   3743528.4700   2   6   0.2549   0.6153   0.5701   0.1229  -0.5219  -0.2255 -27.00    1.0
2173 183868.000    281409.8560  -5147273.5842   3743528.4882   2   6   0.2283   0.5510   0.5104   0.1098  -0.4673  -0.2018 -26.00    1.0
2173 183869.000    281409.8734  -5147273.5186   3743528.4430   2   6   0.2086   0.5035   0.4663   0.1000  -0.4269  -0.1844 -25.00    1.1
2173 183870.000    281409.8738  -5147273.4912   3743528.4426   2   6   0.1933   0.4664   0.4319   0.0924  -0.3954  -0.1707 -24.00    1.1
2173 183871.000    281409.8722  -5147273.4936   3743528.4545   2   6   0.1809   0.4365   0.4041   0.0863  -0.3700  -0.1597 -23.00    1.1
2173 183872.000    281409.8820  -5147273.5306   3743528.4518   2   6   0.1707   0.4117   0.3810   0.0812  -0.3488  -0.1506 -22.00    1.2
2173 183873.000    281409.9037  -5147273.5357   3743528.4507   2   6   0.1620   0.3906   0.3614   0.0769  -0.3309  -0.1429 -21.00    1.3
2173 183874.000    281409.9000  -5147273.5491   3743528.4638   2   6   0.1545   0.3724   0.3445   0.0732  -0.3154  -0.1362 -20.00    1.4
2173 183875.000    281409.9067  -5147273.5403   3743528.4706   2   6   0.1479   0.3565   0.3297   0.0700  -0.3018  -0.1303 -19.00    1.5
2173 183876.000    281409.9153  -5147273.5329   3743528.4600   2   6   0.1421   0.3424   0.3166   0.0671  -0.2898  -0.1252 -18.00    1.6
2173 183877.000    281409.8979  -5147273.5782   3743528.5005   2   6   0.1369   0.3298   0.3049   0.0646  -0.2791  -0.1206 -17.00    1.8
2173 183878.000    281409.8881  -5147273.5826   3743528.5113   2   6   0.1322   0.3184   0.2944   0.0623  -0.2695  -0.1164 -16.00    1.9
2173 183879.000    281409.8818  -5147273.5882   3743528.5133   2   6   0.1280   0.3081   0.2848   0.0602  -0.2607  -0.1127 -15.00    2.0
2173 183880.000    281409.8766  -5147273.5790   3743528.4839   2   6   0.1241   0.2987   0.2761   0.0583  -0.2527  -0.1092 -14.00    2.1
2173 183881.000    281409.8758  -5147273.5968   3743528.4939   2   6   0.1206   0.2900   0.2680   0.0566  -0.2453  -0.1061 -13.00    2.3
2173 183882.000    281409.8801  -5147273.6021   3743528.4943   2   6   0.1173   0.2821   0.2606   0.0550  -0.2385  -0.1032 -12.00    2.6
2173 183883.000    281409.8708  -5147273.5945   3743528.4964   2   6   0.1142   0.2747   0.2537   0.0535  -0.2322  -0.1005 -11.00    2.9
2173 183884.000    281409.8107  -5147273.8819   3743529.0099   1   6   0.0113   0.0278   0.0249  -0.0039  -0.0230  -0.0084 -10.00    3.3
2173 183885.000    281409.8111  -5147273.8802   3743529.0103   1   6   0.0103   0.0256   0.0229  -0.0034  -0.0211  -0.0079  -9.00    3.8
2173 183886.000    281409.8098  -5147273.8841   3743529.0102   1   6   0.0095   0.0234   0.0210  -0.0029  -0.0194  -0.0073  -8.00    4.4
2173 183887.000    281409.8109  -5147273.8824   3743529.0063   1   6   0.0086   0.0213   0.0192  -0.0022  -0.0177  -0.0068  -7.00    5.2
2173 183888.000    281409.8109  -5147273.8839   3743529.0054   1   6   0.0078   0.0193   0.0174  -0.0015  -0.0161  -0.0062  -6.00    6.0
2173 183889.000    281409.8077  -5147273.8787   3743529.0004   1   6   0.0072   0.0175   0.0158   0.0008  -0.0145  -0.0058  -5.00    6.7
2173 183890.000    281409.8100  -5147273.8797   3743528.9998   1   6   0.0066   0.0158   0.0143   0.0015  -0.0132  -0.0053  -4.00    7.6
2173 183891.000    281409.8111  -5147273.8787   3743528.9971   1   6   0.0058   0.0143   0.0131   0.0022  -0.0120  -0.0048  -3.00    8.7
2173 183892.000    281409.8085  -5147273.8821   3743529.0029   1   6   0.0057   0.0132   0.0121   0.0022  -0.0111  -0.0047  -2.00   10.3
2173 183893.000    281409.8085  -5147273.8775   3743529.0004   1   6   0.0054   0.0125   0.0115   0.0025  -0.0105  -0.0046  -1.00   11.5
2173 183894.000    281409.8094  -5147273.8838   3743529.0027   1   6   0.0048   0.0122   0.0113   0.0022  -0.0103  -0.0044   0.00   12.9
2173 183895.000    281409.8089  -5147273.8817   3743529.0035   1   6   0.0047   0.0122   0.0112   0.0025  -0.0103  -0.0046   0.00   14.7
2173 183896.000    281409.8112  -5147273.8786   3743528.9996   1   6   0.0053   0.0122   0.0112   0.0023  -0.0103  -0.0045   0.00   15.8
2173 183897.000    281409.8110  -5147273.8792   3743529.0025   1   6   0.0047   0.0122   0.0111   0.0022  -0.0103  -0.0049   0.00   16.6
2173 183898.000    281409.8101  -5147273.8810   3743529.0014   1   6   0.0045   0.0122   0.0112   0.0023  -0.0103  -0.0045   0.00   17.1
2173 183899.000    281409.8107  -5147273.8817   3743529.0024   1   6   0.0049   0.0122   0.0112   0.0026  -0.0103  -0.0045   0.00   18.7
2173 183900.000    281409.8108  -5147273.8780   3743528.9977   1   6   0.0052   0.0122   0.0112   0.0022  -0.0103  -0.0044   0.00   20.8
2173 183901.000    281409.8100  -5147273.8795   3743528.9969   1   6   0.0056   0.0122   0.0113   0.0023  -0.0103  -0.0044   0.00   22.3
2173 183902.000    281409.8088  -5147273.8808   3743529.0016   1   6   0.0048   0.0122   0.0112   0.0026  -0.0103  -0.0045   0.00   23.7
2173 183903.000    281409.8101  -5147273.8800   3743528.9975   1   6   0.0054   0.0122   0.0112   0.0026  -0.0103  -0.0044   0.00   25.3
2173 183904.000    281409.8060  -5147273.8870   3743529.0056   1   6   0.0049   0.0121   0.0112   0.0027  -0.0103  -0.0044   0.00   25.7
2173 183905.000    281409.8096  -5147273.8867   3743529.0015   1   6   0.0043   0.0122   0.0112   0.0024  -0.0103  -0.0046   0.00   26.2
2173 183906.000    281409.8098  -5147273.8810   3743528.9966   1   6   0.0045   0.0122   0.0112   0.0024  -0.0103  -0.0046   0.00   26.9
2173 183907.000    281409.8115  -5147273.8816   3743528.9979   1   6   0.0056   0.0122   0.0113   0.0025  -0.0102  -0.0040   0.00   27.9
2173 183908.000    281409.8090  -5147273.8835   3743528.9995   1   6   0.0047   0.0122   0.0112   0.0022  -0.0103  -0.0045   0.00   29.3
2173 183909.000    281409.8083  -5147273.8832   3743529.0024   1   6   0.0053   0.0122   0.0112   0.0022  -0.0103  -0.0046   0.00   30.4
2173 183910.000    281409.8101  -5147273.8844   3743529.0016   1   6   0.0052   0.0122   0.0113   0.0024  -0.0102  -0.0043   0.00   31.3
2173 183911.000    281409.8122  -5147273.8832   3743529.0004   1   6   0.0052   0.0121   0.0112   0.0021  -0.0103  -0.0046   0.00   32.0
2173 183912.000    281409.8104  -5147273.8858   3743529.0006   1   6   0.0052   0.0122   0.0112   0.0021  -0.0103  -0.0044   0.00   32.5
2173 183913.000    281409.8123  -5147273.8834   3743529.0012   1   6   0.0051   0.0122   0.0113   0.0023  -0.0102  -0.0044   0.00   33.5
2173 183914.000    281409.8107  -5147273.8888   3743529.0020   1   6   0.0051   0.0122   0.0112   0.0023  -0.0102  -0.0044   0.00   34.1
2173 183915.000    281409.8118  -5147273.8859   3743529.0049   1   6   0.0050   0.0121   0.0112   0.0027  -0.0103  -0.0043   0.00   34.5
2173 183916.000    281409.8114  -5147273.8841   3743529.0007   1   6   0.0057   0.0122   0.0113   0.0024  -0.0102  -0.0039   0.00   34.6
2173 183917.000    281409.8129  -5147273.8849   3743529.0010   1   6   0.0055   0.0121   0.0113   0.0026  -0.0103  -0.0040   0.00   34.4
2173 183918.000    281409.8114  -5147273.8794   3743528.9974   1   6   0.0052   0.0122   0.0112   0.0024  -0.0102  -0.0044   0.00   34.5
2173 183919.000    281409.8101  -5147273.8781   3743528.9964   1   6   0.0047   0.0122   0.0111   0.0019  -0.0102  -0.0048   0.00   34.9
2173 183920.000    281409.8142  -5147273.8779   3743528.9908   1   6   0.0048   0.0122   0.0112   0.0022  -0.0103  -0.0043   0.00   35.6
2173 183921.000    281409.8127  -5147273.8810   3743528.9966   1   6   0.0043   0.0121   0.0111   0.0018  -0.0103  -0.0048   0.00   36.0
2173 183922.000    281409.8133  -5147273.8904   3743529.0037   1   6   0.0047   0.0121   0.0111   0.0020  -0.0103  -0.0047   0.00   35.9
2173 183923.000    281409.8115  -5147273.8820   3743528.9967   1   6   0.0045   0.0122   0.0111   0.0022  -0.0102  -0.0046   0.00   36.0
2173 183924.000    281409.8128  -5147273.8851   3743529.0001   1   6   0.0049   0.0122   0.0112   0.0020  -0.0102  -0.0044   0.00   36.2
2173 183925.000    281409.8093  -5147273.8751   3743528.9955   1   6   0.0045   0.0122   0.0111   0.0020  -0.0102  -0.0045   0.00   36.4
2173 183926.000    281409.8124  -5147273.8883   3743529.0006   1   6   0.0059   0.0122   0.0112   0.0024  -0.0102  -0.0041   0.00   36.7
2173 183927.000    281409.8097  -5147273.8755   3743528.9913   1   6   0.0048   0.0121   0.0111   0.0022  -0.0102  -0.0047   0.00   37.1
2173 183928.000    281409.8112  -5147273.8830   3743528.9969   1   6   0.0051   0.0122   0.0111   0.0019  -0.0102  -0.0047   0.00   36.8
2173 183929.000    281409.8122  -5147273.8810   3743528.9957   1   6   0.0050   0.0121   0.0112   0.0023  -0.0102  -0.0043   0.00   36.9
2173 183930.000    281409.8084  -5147273.8804   3743528.9971   1   6   0.0045   0.0121   0.0111   0.0025  -0.0102  -0.0043   0.00   37.2
2173 183931.000    281409.8099  -5147273.8802   3743528.9957   1   6   0.0048   0.0121   0.0111   0.0025  -0.0102  -0.0046   0.00   37.3
2173 183932.000    281409.8103  -5147273.8874   3743529.0002   1   6   0.0053   0.0121   0.0112   0.0025  -0.0102  -0.0042   0.00   37.7
2173 183933.000    281409.8096  -5147273.8801   3743528.9954   1   6   0.0051   0.0121   0.0112   0.0025  -0.0102  -0.0041   0.00   38.1
2173 183934.000    281409.8119  -5147273.8744   3743528.9913   1   6   0.0052   0.0121   0.0111   0.0014  -0.0102  -0.0048   0.00   38.0
2173 183935.000    281409.8101  -5147273.8838   3743528.9965   1   6   0.0052   0.0122   0.0112   0.0025  -0.0101  -0.0040   0.00   38.4
2173 183936.000    281409.8098  -5147273.8814   3743528.9948   1   6   0.0048   0.0121   0.0111   0.0022  -0.0102  -0.0045   0.00   38.2
2173 183937.000    281409.8116  -5147273.8795   3743528.9956   1   6   0.0053   0.0121   0.0111   0.0026  -0.0102  -0.0042   0.00   38.4
2173 183938.000    281409.8114  -5147273.8799   3743528.9959   1   6   0.0051   0.0121   0.0111   0.0020  -0.0102  -0.0046   0.00   38.8
2173 183939.000    281409.8107  -5147273.8854   3743528.9979   1   6   0.0048   0.0121   0.0110   0.0020  -0.0102  -0.0047   0.00   39.1
2173 183940.000    281409.8116  -5147273.8784   3743528.9967   1   6   0.0055   0.0121   0.0112   0.0019  -0.0102  -0.0042   0.00   38.9
2173 183941.000    281409.8110  -5147273.8739   3743528.9929   1   6   0.0045   0.0121   0.0111   0.0019  -0.0102  -0.0046   0.00   38.9
2173 183942.000    281409.8111  -5147273.8801   3743528.9943   1   6   0.0049   0.0121   0.0111   0.0020  -0.0101  -0.0046   0.00   39.2
2173 183943.000    281409.8116  -5147273.8755   3743528.9938   1   6   0.0039   0.0121   0.0110   0.0022  -0.0102  -0.0046   0.00   39.6
2173 183944.000    281409.8132  -5147273.8846   3743528.9969   1   6   0.0055   0.0121   0.0111   0.0024  -0.0101  -0.0041   0.00   39.5
2173 183945.000    281409.8131  -5147273.8807   3743528.9947   1   6   0.0050   0.0121   0.0110   0.0020  -0.0101  -0.0048   0.00   39.4
2173 183946.000    281409.8122  -5147273.8762   3743528.9939   1   6   0.0057   0.0121   0.0111   0.0023  -0.0101  -0.0043   0.00   40.0
2173 183947.000    281409.8134  -5147273.8739   3743528.9886   1   6   0.0053   0.0121   0.0111   0.0020  -0.0102  -0.0042   0.00   40.6
2173 183948.000    281409.8163  -5147273.8696   3743528.9830   1   6   0.0051   0.0121   0.0110   0.0025  -0.0101  -0.0043   0.00   40.9
2173 183949.000    281409.8134  -5147273.8753   3743528.9887   1   6   0.0051   0.0121   0.0111   0.0022  -0.0101  -0.0043   0.00   41.5
2173 183950.000    281409.8113  -5147273.8727   3743528.9864   1   6   0.0053   0.0121   0.0111   0.0023  -0.0102  -0.0042   0.00   41.3
2173 183951.000    281409.8141  -5147273.8760   3743528.9867   1   6   0.0052   0.0121   0.0111   0.0021  -0.0101  -0.0045   0.00   40.8
2173 183952.000    281409.8140  -5147273.8722   3743528.9865   1   6   0.0052   0.0121   0.0111   0.0021  -0.0101  -0.0042   0.00   40.9
2173 183953.000    281409.8154  -5147273.8755   3743528.9870   1   6   0.0051   0.0121   0.0111   0.0022  -0.0101  -0.0044   0.00   40.8
2173 183954.000    281409.8146  -5147273.8710   3743528.9864   1   6   0.0049   0.0121   0.0110   0.0023  -0.0101  -0.0043   0.00   40.9
2173 183955.000    281409.8135  -5147273.8696   3743528.9818   1   6   0.0049   0.0121   0.0111   0.0025  -0.0101  -0.0041   0.00   40.9
2173 183956.000    281409.8138  -5147273.8752   3743528.9874   1   6   0.0044   0.0121   0.0109   0.0020  -0.0101  -0.0047   0.00   41.0
2173 183957.000    281409.8133  -5147273.8790   3743528.9892   1   6   0.0047   0.0121   0.0110   0.0020  -0.0101  -0.0046   0.00   41.3
2173 183958.000    281409.8123  -5147273.8804   3743528.9910   1   6   0.0047   0.0121   0.0111   0.0022  -0.0101  -0.0043   0.00   41.8
2173 183959.000    281409.8159  -5147273.8619   3743528.9748   1   6   0.0044   0.0121   0.0109   0.0018  -0.0101  -0.0049   0.00   42.0
2173 183960.000    281409.8167  -5147273.8698   3743528.9774   1   6   0.0046   0.0121   0.0110   0.0021  -0.0101  -0.0045   0.00   42.2
2173 183961.000    281409.8167  -5147273.8740   3743528.9824   1   6   0.0052   0.0121   0.0111   0.0023  -0.0101  -0.0042   0.00   42.2
2173 183962.000    281409.8175  -5147273.8703   3743528.9803   1   6   0.0050   0.0121   0.0110   0.0022  -0.0101  -0.0045   0.00   42.1
2173 183963.000    281409.8180  -5147273.8716   3743528.9801   1   6   0.0052   0.0121   0.0111   0.0016  -0.0101  -0.0046   0.00   42.0
2173 183964.000    281409.8173  -5147273.8730   3743528.9857   1   6   0.0050   0.0121   0.0111   0.0022  -0.0101  -0.0043   0.00   42.1
2173 183965.000    281409.8178  -5147273.8738   3743528.9849   1   6   0.0053   0.0121   0.0110   0.0020  -0.0101  -0.0044   0.00   42.2
2173 183966.000    281409.8179  -5147273.8701   3743528.9811   1   6   0.0050   0.0121   0.0110   0.0023  -0.0101  -0.0040   0.00   42.4
2173 183967.000    281409.8145  -5147273.8742   3743528.9892   1   6   0.0053   0.0121   0.0111   0.0015  -0.0100  -0.0046   0.00   43.0
2173 183968.000    281409.8146  -5147273.8730   3743528.9858   1   6   0.0053   0.0121   0.0110   0.0019  -0.0101  -0.0043   0.00   43.3
2173 183969.000    281409.8148  -5147273.8705   3743528.9851   1   6   0.0050   0.0121   0.0111   0.0019  -0.0100  -0.0046   0.00   43.8
2173 183970.000    281409.8157  -5147273.8730   3743528.9860   1   6   0.0050   0.0121   0.0110   0.0021  -0.0100  -0.0045   0.00   44.3
2173 183971.000    281409.8173  -5147273.8755   3743528.9841   1   6   0.0053   0.0121   0.0111   0.0017  -0.0100  -0.0044   0.00   44.7
2173 183972.000    281409.8175  -5147273.8738   3743528.9850   1   6   0.0049   0.0120   0.0110   0.0023  -0.0101  -0.0044   0.00   45.3
2173 183973.000    281409.8148  -5147273.8780   3743528.9884   1   6   0.0053   0.0121   0.0110   0.0013  -0.0101  -0.0045   0.00   45.9
2173 183974.000    281409.8164  -5147273.8664   3743528.9812   1   6   0.0052   0.0120   0.0110   0.0018  -0.0101  -0.0043   0.00   46.3
2173 183975.000    281409.8134  -5147273.8711   3743528.9859   1   6   0.0050   0.0121   0.0111   0.0023  -0.0100  -0.0043   0.00   46.6
2173 183976.000    281409.8127  -5147273.8747   3743528.9887   1   6   0.0052   0.0121   0.0110   0.0019  -0.0100  -0.0044   0.00   46.6
2173 183977.000    281409.8132  -5147273.8784   3743528.9903   1   6   0.0049   0.0120   0.0109   0.0024  -0.0101  -0.0043   0.00   47.2
2173 183978.000    281409.8145  -5147273.8734   3743528.9868   1   6   0.0051   0.0120   0.0110   0.0018  -0.0100  -0.0043   0.00   47.8
2173 183979.000    281409.8165  -5147273.8755   3743528.9865   1   6   0.0053   0.0121   0.0110   0.0022  -0.0100  -0.0041   0.00   48.2
2173 183980.000    281409.8141  -5147273.8778   3743528.9891   1   6   0.0049   0.0120   0.0109   0.0022  -0.0100  -0.0044   0.00   48.8
2173 183981.000    281409.8143  -5147273.8732   3743528.9830   1   6   0.0052   0.0120   0.0109   0.0021  -0.0101  -0.0042   0.00   48.8
2173 183982.000    281409.8151  -5147273.8755   3743528.9868   1   6   0.0054   0.0121   0.0109   0.0016  -0.0100  -0.0045   0.00   49.2
2173 183983.000    281409.8141  -5147273.8760   3743528.9863   1   6   0.0051   0.0120   0.0109   0.0015  -0.0100  -0.0045   0.00   49.6
2173 183984.000    281409.8139  -5147273.8761   3743528.9899   1   6   0.0052   0.0120   0.0109   0.0026  -0.0100  -0.0044   0.00   50.0
2173 183985.000    281409.8173  -5147273.8798   3743528.9856   1   6   0.0052   0.0120   0.0109   0.0016  -0.0101  -0.0046   0.00   50.3
2173 183986.000    281409.8157  -5147273.8803   3743528.9923   1   6   0.0050   0.0120   0.0109   0.0020  -0.0100  -0.0043   0.00   50.8
2173 183987.000    281409.8147  -5147273.8830   3743528.9913   1   6   0.0053   0.0120   0.0109   0.0019  -0.0100  -0.0042   0.00   50.8
2173 183988.000    281409.8154  -5147273.8766   3743528.9864   1   6   0.0050   0.0119   0.0109   0.0021  -0.0101  -0.0043   0.00   50.6
2173 183989.000    281409.8147  -5147273.8757   3743528.9866   1   6   0.0050   0.0121   0.0110   0.0024  -0.0099  -0.0041   0.00   50.6
2173 183990.000    281409.8150  -5147273.8810   3743528.9861   1   6   0.0052   0.0121   0.0109   0.0020  -0.0099  -0.0043   0.00   50.9
2173 183991.000    281409.8139  -5147273.8778   3743528.9872   1   6   0.0050   0.0120   0.0109   0.0019  -0.0100  -0.0044   0.00   51.5
2173 183992.000    281409.8156  -5147273.8897   3743528.9963   1   6   0.0051   0.0121   0.0110   0.0017  -0.0099  -0.0046   0.00   51.5
2173 183993.000    281409.8143  -5147273.8813   3743528.9891   1   6   0.0050   0.0121   0.0109   0.0022  -0.0099  -0.0045   0.00   51.2
2173 183994.000    281409.8143  -5147273.8828   3743528.9891   1   6   0.0052   0.0120   0.0108   0.0023  -0.0101  -0.0045   0.00   51.4
2173 183995.000    281409.8138  -5147273.8828   3743528.9900   1   6   0.0050   0.0120   0.0109   0.0017  -0.0100  -0.0044   0.00   51.3
2173 183996.000    281409.8125  -5147273.8807   3743528.9870   1   6   0.0051   0.0120   0.0110   0.0018  -0.0100  -0.0044   0.00   51.6
2173 183997.000    281409.8117  -5147273.8824   3743528.9903   1   6   0.0051   0.0120   0.0109   0.0018  -0.0100  -0.0044   0.00   51.7
2173 183998.000    281409.8123  -5147273.8774   3743528.9862   1   6   0.0053   0.0121   0.0110   0.0018  -0.0099  -0.0044   0.00   51.8
2173 183999.000    281409.8117  -5147273.8763   3743528.9885   1   6   0.0050   0.0120   0.0109   0.0019  -0.0099  -0.0044   0.00   52.1
2173 184000.000    281409.8132  -5147273.8817   3743528.9909   1   6   0.0050   0.0120   0.0108   0.0025  -0.0100  -0.0044   0.00   52.7
2173 184001.000    281409.8126  -5147273.8797   3743528.9898   1   6   0.0051   0.0119   0.0109   0.0018  -0.0100  -0.0043   0.00   52.8
2173 184002.000    281409.8093  -5147273.8759   3743528.9852   1   6   0.0051   0.0120   0.0108   0.0023  -0.0099  -0.0043   0.00   52.4
2173 184003.000    281409.8128  -5147273.8747   3743528.9840   1   6   0.0050   0.0121   0.0109   0.0020  -0.0099  -0.0043   0.00   53.4
2173 184004.000    281409.8103  -5147273.8819   3743528.9918   1   6   0.0050   0.0119   0.0109   0.0018  -0.0100  -0.0044   0.00   53.7
2173 184005.000    281409.8114  -5147273.8804   3743528.9899   1   6   0.0050   0.0120   0.0109   0.0013  -0.0099  -0.0046   0.00   54.1
2173 184006.000    281409.8125  -5147273.8747   3743528.9817   1   6   0.0051   0.0120   0.0109   0.0020  -0.0099  -0.0043   0.00   54.4
2173 184007.000    281409.8124  -5147273.8781   3743528.9828   1   6   0.0047   0.0120   0.0109   0.0023  -0.0099  -0.0042   0.00   54.8
2173 184008.000    281409.8086  -5147273.8751   3743528.9854   1   6   0.0053   0.0119   0.0109   0.0013  -0.0100  -0.0045   0.00   55.3
2173 184009.000    281409.8091  -5147273.8826   3743528.9882   1   6   0.0053   0.0120   0.0109   0.0021  -0.0099  -0.0042   0.00   56.3
2173 184010.000    281409.8101  -5147273.8782   3743528.9839   1   6   0.0049   0.0120   0.0108   0.0021  -0.0100  -0.0044   0.00   56.8
2173 184011.000    281409.8105  -5147273.8729   3743528.9805   1   6   0.0051   0.0121   0.0108   0.0023  -0.0099  -0.0042   0.00   57.4
2173 184012.000    281409.8091  -5147273.8749   3743528.9823   1   6   0.0051   0.0120   0.0109   0.0017  -0.0099  -0.0043   0.00   57.4
2173 184013.000    281409.8103  -5147273.8754   3743528.9874   1   6   0.0052   0.0120   0.0108   0.0023  -0.0099  -0.0042   0.00   57.7
2173 184014.000    281409.8094  -5147273.8726   3743528.9824   1   6   0.0052   0.0119   0.0108   0.0023  -0.0100  -0.0041   0.00   57.7
2173 184015.000    281409.8108  -5147273.8748   3743528.9824   1   6   0.0051   0.0120   0.0109   0.0020  -0.0099  -0.0042   0.00   58.1
2173 184016.000    281409.8107  -5147273.8747   3743528.9803   1   6   0.0053   0.0119   0.0108   0.0013  -0.0100  -0.0041   0.00   58.1
2173 184017.000    281409.8101  -5147273.8743   3743528.9812   1   6   0.0054   0.0120   0.0108   0.0022  -0.0099  -0.0042   0.00   58.2
2173 184018.000    281409.8106  -5147273.8728   3743528.9809   1   6   0.0053   0.0121   0.0108   0.0020  -0.0098  -0.0040   0.00   58.2
2173 184019.000    281409.8121  -5147273.8710   3743528.9801   1   6   0.0053   0.0120   0.0109   0.0013  -0.0098  -0.0043   0.00   58.5
2173 184020.000    281409.8112  -5147273.8703   3743528.9784   1   6   0.0051   0.0120   0.0108   0.0015  -0.0099  -0.0043   0.00   58.9
2173 184021.000    281409.8122  -5147273.8727   3743528.9808   1   6   0.0048   0.0119   0.0107   0.0020  -0.0100  -0.0041   0.00   58.9
2173 184022.000    281409.8144  -5147273.8693   3743528.9750   1   6   0.0052   0.0119   0.0108   0.0019  -0.0099  -0.0043   0.00   58.8
2173 184023.000    281409.8143  -5147273.8728   3743528.9791   1   6   0.0050   0.0120   0.0108   0.0018  -0.0099  -0.0044   0.00   59.4
2173 184024.000    281409.8147  -5147273.8777   3743528.9812   1   6   0.0050   0.0120   0.0108   0.0017  -0.0099  -0.0042   0.00   59.2
2173 184025.000    281409.8129  -5147273.8756   3743528.9854   1   6   0.0049   0.0120   0.0108   0.0023  -0.0099  -0.0042   0.00   59.6
2173 184026.000    281409.8149  -5147273.8771   3743528.9808   1   6   0.0051   0.0120   0.0108   0.0022  -0.0099  -0.0041   0.00   59.6
2173 184027.000    281409.8122  -5147273.8750   3743528.9853   1   6   0.0054   0.0119   0.0107   0.0017  -0.0099  -0.0041   0.00   60.2
2173 184028.000    281409.8082  -5147273.8738   3743528.9861   1   6   0.0053   0.0119   0.0108   0.0020  -0.0099  -0.0039   0.00   59.5
2173 184029.000    281409.8120  -5147273.8685   3743528.9814   1   6   0.0051   0.0120   0.0108   0.0019  -0.0098  -0.0044   0.00   59.3
2173 184030.000    281409.8119  -5147273.8656   3743528.9791   1   6   0.0050   0.0119   0.0107   0.0017  -0.0099  -0.0044   0.00   59.2
2173 184031.000    281409.8097  -5147273.8702   3743528.9826   1   6   0.0050   0.0119   0.0107   0.0019  -0.0100  -0.0041   0.00   59.1
2173 184032.000    281409.8113  -5147273.8726   3743528.9842   1   6   0.0051   0.0120   0.0108   0.0021  -0.0098  -0.0041   0.00   59.4
2173 184033.000    281409.8098  -5147273.8697   3743528.9813   1   6   0.0053   0.0119   0.0107   0.0018  -0.0099  -0.0042   0.00   59.6
2173 184034.000    281409.8125  -5147273.8689   3743528.9820   1   6   0.0050   0.0119   0.0107   0.0018  -0.0099  -0.0041   0.00   60.3
2173 184035.000    281409.8112  -5147273.8711   3743528.9849   1   6   0.0055   0.0119   0.0107   0.0016  -0.0099  -0.0044   0.00   60.1
2173 184036.000    281409.8097  -5147273.8706   3743528.9835   1   6   0.0051   0.0120   0.0108   0.0021  -0.0098  -0.0043   0.00   60.4
2173 184037.000    281409.8109  -5147273.8744   3743528.9850   1   6   0.0048   0.0119   0.0108   0.0017  -0.0099  -0.0045   0.00   60.3
2173 184038.000    281409.8137  -5147273.8674   3743528.9777   1   6   0.0050   0.0119   0.0107   0.0018  -0.0098  -0.0045   0.00   60.6
2173 184039.000    281409.8117  -5147273.8704   3743528.9816   1   6   0.0050   0.0120   0.0107   0.0020  -0.0098  -0.0043   0.00   60.2
2173 184040.000    281409.8126  -5147273.8712   3743528.9854   1   6   0.0051   0.0120   0.0108   0.0021  -0.0098  -0.0041   0.00   60.7
2173 184041.000    281409.8105  -5147273.8740   3743528.9854   1   6   0.0052   0.0119   0.0108   0.0015  -0.0098  -0.0043   0.00   61.0
2173 184042.000    281409.8123  -5147273.8674   3743528.9785   1   6   0.0054   0.0120   0.0107   0.0013  -0.0098  -0.0044   0.00   61.1
2173 184043.000    281409.8077  -5147273.8703   3743528.9850   1   6   0.0051   0.0119   0.0107   0.0016  -0.0099  -0.0043   0.00   61.1
2173 184044.000    281409.8119  -5147273.8665   3743528.9790   1   6   0.0051   0.0119   0.0107   0.0022  -0.0098  -0.0042   0.00   61.2
2173 184045.000    281409.8107  -5147273.8691   3743528.9776   1   6   0.0050   0.0119   0.0106   0.0021  -0.0099  -0.0042   0.00   61.0
2173 184046.000    281409.8119  -5147273.8665   3743528.9782   1   6   0.0052   0.0120   0.0107   0.0017  -0.0098  -0.0043   0.00   60.7
2173 184047.000    281409.8123  -5147273.8662   3743528.9742   1   6   0.0049   0.0119   0.0107   0.0019  -0.0098  -0.0042   0.00   60.5
2173 184048.000    281409.8141  -5147273.8669   3743528.9754   1   6   0.0051   0.0119   0.0107   0.0021  -0.0098  -0.0042   0.00   60.5
2173 184049.000    281409.8163  -5147273.8719   3743528.9758   1   6   0.0053   0.0120   0.0107   0.0019  -0.0098  -0.0041   0.00   59.9
2173 184050.000    281409.8137  -5147273.8650   3743528.9762   1   6   0.0053   0.0119   0.0107   0.0015  -0.0098  -0.0042   0.00   59.2
2173 184051.000    281409.8141  -5147273.8672   3743528.9786   1   6   0.0049   0.0120   0.0107   0.0018  -0.0098  -0.0042   0.00   59.0
2173 184052.000    281409.8148  -5147273.8704   3743528.9755   1   6   0.0050   0.0119   0.0106   0.0020  -0.0099  -0.0042   0.00   58.2
2173 184053.000    281409.8146  -5147273.8742   3743528.9799   1   6   0.0054   0.0119   0.0107   0.0017  -0.0098  -0.0041   0.00   57.7
2173 184054.000    281409.8109  -5147273.8743   3743528.9822   1   6   0.0050   0.0120   0.0108   0.0017  -0.0097  -0.0044   0.00   56.9
2173 184055.000    281409.8153  -5147273.8692   3743528.9771   1   6   0.0050   0.0119   0.0107   0.0020  -0.0099  -0.0041   0.00   56.4
2173 184056.000    281409.8142  -5147273.8711   3743528.9787   1   6   0.0053   0.0119   0.0106   0.0012  -0.0098  -0.0043   0.00   55.9
2173 184057.000    281409.8153  -5147273.8739   3743528.9768   1   6   0.0052   0.0120   0.0107   0.0016  -0.0097  -0.0042   0.00   56.1
2173 184058.000    281409.8156  -5147273.8744   3743528.9801   1   6   0.0052   0.0119   0.0107   0.0019  -0.0097  -0.0041   0.00   55.2
2173 184059.000    281409.8134  -5147273.8691   3743528.9773   1   6   0.0052   0.0119   0.0107   0.0020  -0.0098  -0.0042   0.00   54.7
2173 184060.000    281409.8134  -5147273.8723   3743528.9793   1   6   0.0048   0.0120   0.0107   0.0014  -0.0098  -0.0042   0.00   53.7
2173 184061.000    281409.8122  -5147273.8768   3743528.9840   1   6   0.0051   0.0120   0.0107   0.0017  -0.0097  -0.0043   0.00   53.1
2173 184062.000    281409.8149  -5147273.8696   3743528.9787   1   6   0.0054   0.0120   0.0107   0.0014  -0.0097  -0.0043   0.00   51.5
2173 184063.000    281409.8114  -5147273.8725   3743528.9809   1   6   0.0051   0.0120   0.0107   0.0017  -0.0097  -0.0042   0.00   50.7
2173 184064.000    281409.8129  -5147273.8750   3743528.9825   1   6   0.0049   0.0119   0.0107   0.0011  -0.0098  -0.0042   0.00   49.6
2173 184065.000    281409.8142  -5147273.8692   3743528.9792   1   6   0.0053   0.0118   0.0107   0.0011  -0.0098  -0.0042   0.00   49.2
2173 184066.000    281409.8143  -5147273.8659   3743528.9782   1   6   0.0052   0.0120   0.0107   0.0018  -0.0097  -0.0043   0.00   48.8
2173 184067.000    281409.8124  -5147273.8746   3743528.9838   1   6   0.0051   0.0119   0.0107   0.0011  -0.0098  -0.0045   0.00   48.0
2173 184068.000    281409.8131  -5147273.8715   3743528.9812   1   6   0.0050   0.0119   0.0107   0.0014  -0.0097  -0.0042   0.00   47.9
2173 184069.000    281409.8118  -5147273.8720   3743528.9826   1   6   0.0050   0.0118   0.0106   0.0013  -0.0098  -0.0041   0.00   47.4
2173 184070.000    281409.8122  -5147273.8683   3743528.9792   1   6   0.0050   0.0119   0.0107   0.0015  -0.0097  -0.0043   0.00   47.5
2173 184071.000    281409.8126  -5147273.8732   3743528.9792   1   6   0.0049   0.0119   0.0107   0.0019  -0.0097  -0.0043   0.00   47.3
2173 184072.000    281409.8142  -5147273.8731   3743528.9824   1   6   0.0050   0.0119   0.0107   0.0012  -0.0097  -0.0044   0.00   46.7
2173 184073.000    281409.8108  -5147273.8686   3743528.9800   1   6   0.0050   0.0120   0.0107   0.0022  -0.0097  -0.0040   0.00   46.6
2173 184074.000    281409.8114  -5147273.8746   3743528.9828   1   6   0.0052   0.0119   0.0105   0.0012  -0.0098  -0.0041   0.00   46.3
2173 184075.000    281409.8101  -5147273.8657   3743528.9784   1   6   0.0052   0.0119   0.0107   0.0020  -0.0097  -0.0042   0.00   46.0
2173 184076.000    281409.8131  -5147273.8712   3743528.9782   1   6   0.0052   0.0119   0.0106   0.0015  -0.0097  -0.0044   0.00   45.8
2173 184077.000    281409.8118  -5147273.8697   3743528.9782   1   6   0.0052   0.0119   0.0107   0.0017  -0.0097  -0.0041   0.00   45.0
2173 184078.000    281409.8121  -5147273.8682   3743528.9786   1   6   0.0053   0.0119   0.0106   0.0018  -0.0097  -0.0042   0.00   44.5
2173 184079.000    281409.8116  -5147273.8709   3743528.9767   1   6   0.0050   0.0119   0.0106   0.0019  -0.0097  -0.0041   0.00   43.9
2173 184080.000    281409.8128  -5147273.8726   3743528.9832   1   6   0.0053   0.0119   0.0106   0.0012  -0.0097  -0.0044   0.00   43.9
2173 184081.000    281409.8109  -5147273.8641   3743528.9768   1   6   0.0052   0.0119   0.0106   0.0011  -0.0097  -0.0041   0.00   43.6
2173 184082.000    281409.8113  -5147273.8662   3743528.9827   1   6   0.0053   0.0119   0.0106   0.0015  -0.0097  -0.0041   0.00   43.6
2173 184083.000    281409.8134  -5147273.8696   3743528.9810   1   6   0.0049   0.0118   0.0105   0.0016  -0.0098  -0.0041   0.00   43.3
2173 184084.000    281409.8124  -5147273.8668   3743528.9798   1   6   0.0054   0.0119   0.0105   0.0014  -0.0097  -0.0040   0.00   43.0
2173 184085.000    281409.8130  -5147273.8701   3743528.9802   1   6   0.0053   0.0119   0.0106  -0.0008  -0.0097  -0.0044   0.00   42.8
2173 184086.000    281409.8154  -5147273.8679   3743528.9755   1   6   0.0052   0.0119   0.0106   0.0007  -0.0096  -0.0045   0.00   42.5
2173 184087.000    281409.8127  -5147273.8674   3743528.9811   1   6   0.0051   0.0119   0.0106   0.0018  -0.0097  -0.0040   0.00   42.5
2173 184088.000    281409.8115  -5147273.8633   3743528.9771   1   6   0.0048   0.0119   0.0106   0.0013  -0.0097  -0.0043   0.00   42.6
2173 184089.000    281409.8123  -5147273.8636   3743528.9743   1   6   0.0050   0.0119   0.0106   0.0012  -0.0096  -0.0046   0.00   42.4
2173 184090.000    281409.8130  -5147273.8628   3743528.9755   1   6   0.0051   0.0119   0.0105   0.0020  -0.0096  -0.0042   0.00   42.3
2173 184091.000    281409.8139  -5147273.8658   3743528.9745   1   6   0.0050   0.0119   0.0106   0.0013  -0.0096  -0.0044   0.00   42.1
2173 184092.000    281409.8097  -5147273.8624   3743528.9761   1   6   0.0053   0.0119   0.0106   0.0013  -0.0097  -0.0041   0.00   41.9
2173 184093.000    281409.8122  -5147273.8551   3743528.9717   1   6   0.0052   0.0118   0.0106   0.0004  -0.0097  -0.0043   0.00   41.9
2173 184094.000    281409.8113  -5147273.8619   3743528.9768   1   6   0.0052   0.0118   0.0105   0.0010  -0.0097  -0.0042   0.00   41.3
2173 184095.000    281409.8106  -5147273.8580   3743528.9763   1   6   0.0052   0.0118   0.0106   0.0008  -0.0097  -0.0041   0.00   41.3
2173 184096.000    281409.8101  -5147273.8692   3743528.9834   1   6   0.0050   0.0118   0.0105   0.0007  -0.0097  -0.0043   0.00   41.4
2173 184097.000    281409.8102  -5147273.8662   3743528.9814   1   6   0.0050   0.0119   0.0105   0.0018  -0.0096  -0.0042   0.00   41.5
2173 184098.000    281409.8089  -5147273.8649   3743528.9812   1   6   0.0052   0.0119   0.0106   0.0012  -0.0097  -0.0043   0.00   41.5
2173 184099.000    281409.8110  -5147273.8606   3743528.9754   1   6   0.0052   0.0118   0.0106   0.0004  -0.0097  -0.0042   0.00   41.4
2173 184100.000    281409.8104  -5147273.8622   3743528.9771   1   6   0.0052   0.0119   0.0106   0.0009  -0.0097  -0.0042   0.00   41.3
2173 184101.000    281409.8097  -5147273.8631   3743528.9806   1   6   0.0049   0.0118   0.0105   0.0018  -0.0097  -0.0042   0.00   40.6
2173 184102.000    281409.8095  -5147273.8598   3743528.9776   1   6   0.0050   0.0118   0.0106   0.0011  -0.0097  -0.0043   0.00   40.3
2173 184103.000    281409.8088  -5147273.8645   3743528.9787   1   6   0.0050   0.0118   0.0105   0.0015  -0.0097  -0.0039   0.00   39.9
2173 184104.000    281409.8110  -5147273.8632   3743528.9759   1   6   0.0051   0.0119   0.0106   0.0012  -0.0096  -0.0044   0.00   39.2
2173 184105.000    281409.8107  -5147273.8646   3743528.9787   1   6   0.0051   0.0118   0.0105   0.0010  -0.0096  -0.0044   0.00   38.6
2173 184106.000    281409.8142  -5147273.8685   3743528.9806   1   6   0.0050   0.0119   0.0106   0.0010  -0.0096  -0.0044   0.00   38.0
2173 184107.000    281409.8109  -5147273.8635   3743528.9773   1   6   0.0053   0.0118   0.0105   0.0015  -0.0097  -0.0040   0.00   37.6
2173 184108.000    281409.8151  -5147273.8624   3743528.9756   1   6   0.0052   0.0117   0.0104   0.0014  -0.0097  -0.0041   0.00   37.2
2173 184109.000    281409.8136  -5147273.8597   3743528.9711   1   6   0.0054   0.0118   0.0105   0.0013  -0.0096  -0.0041   0.00   36.8
2173 184110.000    281409.8113  -5147273.8672   3743528.9782   1   6   0.0053   0.0118   0.0105   0.0014  -0.0096  -0.0039   0.00   36.4
2173 184111.000    281409.8108  -5147273.8676   3743528.9770   1   6   0.0053   0.0118   0.0105   0.0013  -0.0096  -0.0040   0.00   35.9
2173 184112.000    281409.8140  -5147273.8686   3743528.9773   1   6   0.0050   0.0119   0.0105   0.0016  -0.0096  -0.0044   0.00   35.3
2173 184113.000    281409.8099  -5147273.8706   3743528.9814   1   6   0.0052   0.0119   0.0106   0.0005  -0.0095  -0.0042   0.00   34.8
2173 184114.000    281409.8091  -5147273.8638   3743528.9775   1   6   0.0050   0.0118   0.0105   0.0012  -0.0097  -0.0043   0.00   34.4
2173 184115.000    281409.8088  -5147273.8711   3743528.9820   1   6   0.0054   0.0118   0.0105   0.0015  -0.0096  -0.0041   0.00   33.9
2173 184116.000    281409.8123  -5147273.8633   3743528.9762   1   6   0.0051   0.0118   0.0105   0.0018  -0.0096  -0.0041   0.00   33.5
2173 184117.000    281409.8105  -5147273.8690   3743528.9845   1   6   0.0053   0.0118   0.0104   0.0016  -0.0096  -0.0040   0.00   33.0
2173 184118.000    281409.8089  -5147273.8671   3743528.9824   1   6   0.0052   0.0118   0.0105   0.0016  -0.0096  -0.0040   0.00   32.6
2173 184119.000    281409.8112  -5147273.8685   3743528.9793   1   6   0.0051   0.0119   0.0104   0.0012  -0.0096  -0.0041   0.00   32.1
2173 184120.000    281409.8088  -5147273.8688   3743528.9821   1   6   0.0049   0.0118   0.0105   0.0010  -0.0096  -0.0041   0.00   31.7
2173 184121.000    281409.8078  -5147273.8627   3743528.9770   1   6   0.0052   0.0118   0.0105   0.0012  -0.0096  -0.0042   0.00   31.2
2173 184122.000    281409.8105  -5147273.8685   3743528.9812   1   6   0.0054   0.0118   0.0104   0.0011  -0.0096  -0.0040   0.00   31.0
2173 184123.000    281409.8083  -5147273.8618   3743528.9759   1   6   0.0051   0.0118   0.0104   0.0017  -0.0096  -0.0042   0.00   30.6
2173 184124.000    281409.8096  -5147273.8656   3743528.9813   1   6   0.0050   0.0117   0.0104   0.0011  -0.0096  -0.0043   0.00   30.3
2173 184125.000    281409.8097  -5147273.8680   3743528.9799   1   6   0.0052   0.0118   0.0104   0.0015  -0.0097  -0.0041   0.00   29.8
2173 184126.000    281409.8112  -5147273.8668   3743528.9755   1   6   0.0051   0.0119   0.0106  -0.0004  -0.0095  -0.0043   0.00   29.2
2173 184127.000    281409.8122  -5147273.8702   3743528.9827   1   6   0.0049   0.0118   0.0104   0.0016  -0.0096  -0.0041   0.00   28.7
2173 184128.000    281409.8084  -5147273.8690   3743528.9854   1   6   0.0051   0.0118   0.0104   0.0014  -0.0095  -0.0042   0.00   28.3
2173 184129.000    281409.8107  -5147273.8693   3743528.9809   1   6   0.0053   0.0118   0.0105  -0.0002  -0.0095  -0.0043   0.00   28.0
2173 184130.000    281409.8118  -5147273.8678   3743528.9773   1   6   0.0050   0.0118   0.0105   0.0011  -0.0096  -0.0040   0.00   27.7
2173 184131.000    281409.8102  -5147273.8602   3743528.9781   1   6   0.0051   0.0119   0.0106  -0.0006  -0.0095  -0.0041   0.00   27.3
2173 184132.000    281409.8117  -5147273.8656   3743528.9792   1   6   0.0053   0.0119   0.0105   0.0011  -0.0095  -0.0041   0.00   26.9
2173 184133.000    281409.8107  -5147273.8713   3743528.9834   1   6   0.0051   0.0119   0.0105   0.0017  -0.0094  -0.0040   0.00   26.5
2173 184134.000    281409.8092  -5147273.8666   3743528.9816   1   6   0.0050   0.0118   0.0104   0.0010  -0.0095  -0.0041   0.00   26.2
2173 184135.000    281409.8078  -5147273.8700   3743528.9835   1   6   0.0050   0.0117   0.0104   0.0018  -0.0096  -0.0041   0.00   25.9
2173 184136.000    281409.8085  -5147273.8693   3743528.9804   1   6   0.0052   0.0118   0.0105   0.0006  -0.0095  -0.0042   0.00   25.6
2173 184137.000    281409.8092  -5147273.8671   3743528.9788   1   6   0.0048   0.0118   0.0104   0.0012  -0.0095  -0.0041   0.00   25.4
2173 184138.000    281409.8079  -5147273.8708   3743528.9824   1   6   0.0048   0.0118   0.0104   0.0017  -0.0095  -0.0042   0.00   25.1
2173 184139.000    281409.8108  -5147273.8701   3743528.9801   1   6   0.0049   0.0118   0.0104   0.0018  -0.0096  -0.0042   0.00   24.9
2173 184140.000    281409.8102  -5147273.8739   3743528.9839   1   6   0.0051   0.0118   0.0105   0.0014  -0.0095  -0.0041   0.00   24.8
2173 184141.000    281409.8114  -5147273.8668   3743528.9770   1   6   0.0050   0.0118   0.0104   0.0020  -0.0095  -0.0038   0.00   24.5
2173 184142.000    281409.8118  -5147273.8709   3743528.9827   1   6   0.0053   0.0118   0.0104   0.0013  -0.0095  -0.0041   0.00   24.3
2173 184143.000    281409.8104  -5147273.8663   3743528.9779   1   6   0.0050   0.0118   0.0104   0.0008  -0.0095  -0.0043   0.00   24.1
2173 184144.000    281409.8116  -5147273.8714   3743528.9790   1   6   0.0052   0.0118   0.0104   0.0015  -0.0095  -0.0041   0.00   23.9
2173 184145.000    281409.8107  -5147273.8688   3743528.9826   1   6   0.0048   0.0118   0.0104   0.0015  -0.0095  -0.0041   0.00   23.7
2173 184146.000    281409.8093  -5147273.8725   3743528.9826   1   6   0.0052   0.0118   0.0104   0.0007  -0.0095  -0.0040   0.00   23.5
2173 184147.000    281409.8117  -5147273.8732   3743528.9796   1   6   0.0052   0.0119   0.0104   0.0009  -0.0094  -0.0042   0.00   23.3
2173 184148.000    281409.8104  -5147273.8762   3743528.9827   1   6   0.0053   0.0117   0.0103   0.0008  -0.0096  -0.0043   0.00   23.2
2173 184149.000    281409.8100  -5147273.8682   3743528.9797   1   6   0.0051   0.0118   0.0104   0.0011  -0.0095  -0.0041   0.00   23.1
2173 184150.000    281409.8094  -5147273.8700   3743528.9822   1   6   0.0050   0.0118   0.0104   0.0014  -0.0094  -0.0039   0.00   23.0
2173 184151.000    281409.8122  -5147273.8732   3743528.9800   1   6   0.0051   0.0118   0.0104  -0.0011  -0.0094  -0.0042   0.00   22.9
2173 184152.000    281409.8093  -5147273.8681   3743528.9786   1   6   0.0054   0.0117   0.0103   0.0016  -0.0096  -0.0037   0.00   22.7
2173 184153.000    281409.8104  -5147273.8743   3743528.9829   1   6   0.0052   0.0117   0.0104   0.0010  -0.0095  -0.0041   0.00   22.6
2173 184154.000    281409.8105  -5147273.8649   3743528.9765   1   6   0.0051   0.0118   0.0104   0.0016  -0.0094  -0.0042   0.00   22.5
2173 184155.000    281409.8129  -5147273.8683   3743528.9785   1   6   0.0053   0.0117   0.0104   0.0010  -0.0095  -0.0039   0.00   22.5
2173 184156.000    281409.8088  -5147273.8736   3743528.9817   1   6   0.0050   0.0118   0.0104   0.0014  -0.0094  -0.0043   0.00   22.4
2173 184157.000    281409.8096  -5147273.8733   3743528.9808   1   6   0.0054   0.0118   0.0104   0.0011  -0.0095  -0.0040   0.00   22.2
2173 184158.000    281409.8118  -5147273.8716   3743528.9776   1   6   0.0052   0.0118   0.0103   0.0014  -0.0095  -0.0039   0.00   22.2
2173 184159.000    281409.8113  -5147273.8751   3743528.9811   1   6   0.0051   0.0118   0.0104   0.0013  -0.0094  -0.0041   0.00   22.2
2173 184160.000    281409.8140  -5147273.8712   3743528.9786   1   6   0.0055   0.0118   0.0104  -0.0010  -0.0094  -0.0041   0.00   22.2
2173 184161.000    281409.8127  -5147273.8749   3743528.9812   1   6   0.0050   0.0117   0.0104  -0.0009  -0.0095  -0.0042   0.00   22.2
2173 184162.000    281409.8131  -5147273.8724   3743528.9785   1   6   0.0052   0.0118   0.0104   0.0009  -0.0094  -0.0041   0.00   22.2
2173 184163.000    281409.8143  -5147273.8720   3743528.9781   1   6   0.0050   0.0118   0.0103   0.0016  -0.0094  -0.0042   0.00   22.1
2173 184164.000    281409.8134  -5147273.8694   3743528.9754   1   6   0.0050   0.0117   0.0103  -0.0009  -0.0095  -0.0043   0.00   22.1
2173 184165.000    281409.8127  -5147273.8719   3743528.9752   1   6   0.0049   0.0117   0.0104   0.0013  -0.0094  -0.0039   0.00   22.1
2173 184166.000    281409.8124  -5147273.8662   3743528.9736   1   6   0.0051   0.0118   0.0103   0.0012  -0.0094  -0.0043   0.00   22.0
2173 184167.000    281409.8116  -5147273.8750   3743528.9799   1   6   0.0052   0.0118   0.0103   0.0014  -0.0094  -0.0039   0.00   21.8
2173 184168.000    281409.8130  -5147273.8771   3743528.9826   1   6   0.0050   0.0118   0.0104   0.0009  -0.0094  -0.0043   0.00   21.6
2173 184169.000    281409.8131  -5147273.8833   3743528.9871   1   6   0.0052   0.0117   0.0103   0.0011  -0.0095  -0.0042   0.00   21.6
2173 184170.000    281409.8136  -5147273.8688   3743528.9775   1   6   0.0053   0.0118   0.0103   0.0010  -0.0094  -0.0040   0.00   21.6
2173 184171.000    281409.8140  -5147273.8783   3743528.9854   1   6   0.0052   0.0118   0.0104   0.0009  -0.0094  -0.0040   0.00   21.5
2173 184172.000    281409.8134  -5147273.8763   3743528.9840   1   6   0.0052   0.0117   0.0102   0.0015  -0.0094  -0.0041   0.00   21.4
2173 184173.000    281409.8146  -5147273.8741   3743528.9824   1   6   0.0052   0.0118   0.0103   0.0002  -0.0094  -0.0043   0.00   21.5
2173 184174.000    281409.8125  -5147273.8763   3743528.9814   1   6   0.0053   0.0118   0.0104   0.0005  -0.0094  -0.0041   0.00   21.5
2173 184175.000    281409.8133  -5147273.8723   3743528.9801   1   6   0.0052   0.0118   0.0104   0.0009  -0.0093  -0.0041   0.00   21.5
2173 184176.000    281409.8116  -5147273.8688   3743528.9764   1   6   0.0049   0.0118   0.0103   0.0010  -0.0094  -0.0042   0.00   21.5
2173 184177.000    281409.8137  -5147273.8710   3743528.9756   1   6   0.0052   0.0117   0.0103   0.0001  -0.0095  -0.0040   0.00   21.5
2173 184178.000    281409.8118  -5147273.8734   3743528.9791   1   6   0.0052   0.0118   0.0103   0.0015  -0.0094  -0.0040   0.00   21.5
2173 184179.000    281409.8124  -5147273.8729   3743528.9808   1   6   0.0050   0.0118   0.0103   0.0006  -0.0094  -0.0040   0.00   21.5
2173 184180.000    281409.8133  -5147273.8668   3743528.9731   1   6   0.0052   0.0117   0.0103   0.0006  -0.0094  -0.0039   0.00   21.6
2173 184181.000    281409.8132  -5147273.8704   3743528.9780   1   6   0.0051   0.0117   0.0103   0.0010  -0.0094  -0.0039   0.00   21.7
2173 184182.000    281409.8140  -5147273.8684   3743528.9742   1   6   0.0051   0.0118   0.0103   0.0007  -0.0093  -0.0042   0.00   21.7
2173 184183.000    281409.8146  -5147273.8714   3743528.9801   1   6   0.0052   0.0118   0.0103   0.0011  -0.0094  -0.0038   0.00   21.8
2173 184184.000    281409.8150  -5147273.8700   3743528.9798   1   6   0.0051   0.0117   0.0103   0.0004  -0.0094  -0.0041   0.00   21.7
2173 184185.000    281409.8148  -5147273.8738   3743528.9802   1   6   0.0051   0.0117   0.0103   0.0017  -0.0094  -0.0041   0.00   21.7
2173 184186.000    281409.8126  -5147273.8711   3743528.9798   1   6   0.0054   0.0117   0.0103  -0.0006  -0.0094  -0.0040   0.00   21.7
2173 184187.000    281409.8153  -5147273.8749   3743528.9795   1   6   0.0052   0.0117   0.0103   0.0014  -0.0094  -0.0040   0.00   21.7
2173 184188.000    281409.8131  -5147273.8709   3743528.9791   1   6   0.0050   0.0118   0.0102   0.0011  -0.0093  -0.0041   0.00   21.6
2173 184189.000    281409.8152  -5147273.8676   3743528.9750   1   6   0.0051   0.0116   0.0103   0.0012  -0.0095  -0.0040   0.00   21.6
2173 184190.000    281409.8126  -5147273.8737   3743528.9813   1   6   0.0055   0.0117   0.0102  -0.0007  -0.0094  -0.0041   0.00   21.7
2173 184191.000    281409.8125  -5147273.8722   3743528.9812   1   6   0.0052   0.0118   0.0102   0.0016  -0.0093  -0.0039   0.00   21.6
2173 184192.000    281409.8157  -5147273.8764   3743528.9826   1   6   0.0050   0.0117   0.0102   0.0011  -0.0094  -0.0039   0.00   21.6
2173 184193.000    281409.8128  -5147273.8752   3743528.9865   1   6   0.0050   0.0116   0.0102   0.0005  -0.0094  -0.0038   0.00   21.7
2173 184194.000    281409.8151  -5147273.8679   3743528.9775   1   6   0.0052   0.0117   0.0103   0.0009  -0.0094  -0.0039   0.00   21.7
2173 184195.000    281409.8122  -5147273.8741   3743528.9861   1   6   0.0048   0.0117   0.0102   0.0015  -0.0093  -0.0038   0.00   21.7
2173 184196.000    281409.8151  -5147273.8761   3743528.9862   1   6   0.0051   0.0117   0.0103   0.0005  -0.0093  -0.0041   0.00   21.7
2173 184197.000    281409.8127  -5147273.8741   3743528.9884   1   6   0.0052   0.0116   0.0102   0.0011  -0.0094  -0.0038   0.00   21.7
2173 184198.000    281409.8137  -5147273.8731   3743528.9864   1   6   0.0049   0.0117   0.0102  -0.0005  -0.0094  -0.0040   0.00   21.6
2173 184199.000    281409.8124  -5147273.8776   3743528.9894   1   6   0.0049   0.0118   0.0102   0.0011  -0.0093  -0.0042   0.00   21.5
2173 184200.000    281409.8144  -5147273.8758   3743528.9849   1   6   0.0054   0.0118   0.0102  -0.0009  -0.0093  -0.0040   0.00   21.5
2173 184201.000    281409.8107  -5147273.8736   3743528.9884   1   6   0.0052   0.0116   0.0101   0.0003  -0.0094  -0.0041   0.00   21.4
2173 184202.000    281409.8094  -5147273.8708   3743528.9863   1   6   0.0052   0.0118   0.0102   0.0015  -0.0093  -0.0038   0.00   21.4
2173 184203.000    281409.8108  -5147273.8760   3743528.9948   1   6   0.0051   0.0117   0.0102   0.0007  -0.0094  -0.0039   0.00   21.4
2173 184204.000    281409.8148  -5147273.8724   3743528.9860   1   6   0.0051   0.0117   0.0103  -0.0010  -0.0093  -0.0041   0.00   21.5
2173 184205.000    281409.8100  -5147273.8706   3743528.9885   1   6   0.0048   0.0116   0.0101   0.0009  -0.0094  -0.0042   0.00   21.5
2173 184206.000    281409.8110  -5147273.8740   3743528.9895   1   6   0.0053   0.0117   0.0101  -0.0011  -0.0093  -0.0040   0.00   21.5
2173 184207.000    281409.8112  -5147273.8773   3743528.9915   1   6   0.0051   0.0116   0.0101   0.0001  -0.0094  -0.0040   0.00   21.5
2173 184208.000    281409.8097  -5147273.8705   3743528.9904   1   6   0.0051   0.0117   0.0102   0.0009  -0.0093  -0.0041   0.00   21.6
2173 184209.000    281409.8103  -5147273.8703   3743528.9897   1   6   0.0050   0.0118   0.0102  -0.0015  -0.0092  -0.0043   0.00   21.6
2173 184210.000    281409.8119  -5147273.8745   3743528.9885   1   6   0.0051   0.0118   0.0103  -0.0008  -0.0092  -0.0042   0.00   21.4
2173 184211.000    281409.8115  -5147273.8766   3743528.9894   1   6   0.0052   0.0117   0.0102   0.0004  -0.0093  -0.0041   0.00   21.4
2173 184212.000    281409.8118  -5147273.8754   3743528.9904   1   6   0.0051   0.0118   0.0102  -0.0009  -0.0093  -0.0041   0.00   21.4
2173 184213.000    281409.8112  -5147273.8747   3743528.9898   1   6   0.0052   0.0117   0.0102   0.0002  -0.0093  -0.0040   0.00   21.3
2173 184214.000    281409.8110  -5147273.8793   3743528.9954   1   6   0.0052   0.0117   0.0102  -0.0009  -0.0093  -0.0040   0.00   21.3
2173 184215.000    281409.8097  -5147273.8778   3743528.9944   1   6   0.0050   0.0117   0.0102   0.0008  -0.0093  -0.0042   0.00   21.3
2173 184216.000    281409.8100  -5147273.8825   3743528.9972   1   6   0.0052   0.0117   0.0102  -0.0009  -0.0093  -0.0043   0.00   21.3
2173 184217.000    281409.8102  -5147273.8821   3743528.9978   1   6   0.0052   0.0117   0.0102  -0.0007  -0.0093  -0.0041   0.00   21.2
2173 184218.000    281409.8105  -5147273.8820   3743528.9969   1   6   0.0053   0.0116   0.0101   0.0008  -0.0094  -0.0038   0.00   21.2
2173 184219.000    281409.8113  -5147273.8820   3743528.9960   1   6   0.0051   0.0117   0.0102  -0.0004  -0.0092  -0.0042   0.00   21.2
2173 184220.000    281409.8088  -5147273.8752   3743528.9924   1   6   0.0050   0.0117   0.0102  -0.0001  -0.0093  -0.0041   0.00   21.2
2173 184221.000    281409.8105  -5147273.8805   3743528.9943   1   6   0.0051   0.0117   0.0101   0.0014  -0.0093  -0.0038   0.00   21.1
2173 184222.000    281409.8087  -5147273.8745   3743528.9909   1   6   0.0052   0.0117   0.0102  -0.0012  -0.0093  -0.0041   0.00   21.2
2173 184223.000    281409.8100  -5147273.8716   3743528.9899   1   6   0.0052   0.0117   0.0102  -0.0010  -0.0092  -0.0041   0.00   21.2
2173 184224.000    281409.8081  -5147273.8728   3743528.9919   1   6   0.0055   0.0116   0.0100   0.0012  -0.0093  -0.0038   0.00   21.3
2173 184225.000    281409.8083  -5147273.8781   3743528.9938   1   6   0.0052   0.0117   0.0102   0.0005  -0.0092  -0.0042   0.00   21.2
2173 184226.000    281409.8114  -5147273.8750   3743528.9894   1   6   0.0051   0.0117   0.0102   0.0009  -0.0093  -0.0038   0.00   21.2
2173 184227.000    281409.8109  -5147273.8735   3743528.9928   1   6   0.0055   0.0117   0.0101   0.0002  -0.0093  -0.0037   0.00   21.2
2173 184228.000    281409.8126  -5147273.8721   3743528.9908   1   6   0.0052   0.0117   0.0102  -0.0012  -0.0092  -0.0041   0.00   21.0
2173 184229.000    281409.8106  -5147273.8763   3743528.9946   1   6   0.0052   0.0117   0.0101  -0.0004  -0.0093  -0.0040   0.00   20.9
2173 184230.000    281409.8130  -5147273.8728   3743528.9927   1   6   0.0050   0.0117   0.0102  -0.0001  -0.0092  -0.0041   0.00   20.8
2173 184231.000    281409.8098  -5147273.8776   3743528.9977   1   6   0.0052   0.0116   0.0101  -0.0008  -0.0093  -0.0039   0.00   20.8
2173 184232.000    281409.8088  -5147273.8772   3743528.9987   1   6   0.0051   0.0117   0.0101  -0.0002  -0.0092  -0.0040   0.00   20.7
2173 184233.000    281409.8063  -5147273.8729   3743528.9991   1   6   0.0052   0.0117   0.0101   0.0006  -0.0093  -0.0039   0.00   20.7
2173 184234.000    281409.8093  -5147273.8779   3743528.9966   1   6   0.0052   0.0117   0.0102  -0.0008  -0.0092  -0.0041   0.00   20.7
2173 184235.000    281409.8067  -5147273.8715   3743528.9927   1   6   0.0052   0.0117   0.0102  -0.0008  -0.0092  -0.0039   0.00   20.6
2173 184236.000    281409.8092  -5147273.8734   3743528.9928   1   6   0.0053   0.0117   0.0102  -0.0007  -0.0092  -0.0040   0.00   20.7
2173 184237.000    281409.8089  -5147273.8723   3743528.9941   1   6   0.0051   0.0116   0.0101  -0.0004  -0.0093  -0.0040   0.00   20.7
2173 184238.000    281409.8077  -5147273.8809   3743529.0003   1   6   0.0052   0.0116   0.0100   0.0009  -0.0093  -0.0038   0.00   20.8
2173 184239.000    281409.8085  -5147273.8751   3743528.9966   1   6   0.0051   0.0117   0.0102  -0.0003  -0.0092  -0.0039   0.00   20.8
2173 184240.000    281409.8087  -5147273.8812   3743529.0004   1   6   0.0052   0.0116   0.0101   0.0013  -0.0093  -0.0038   0.00   20.9
2173 184241.000    281409.8080  -5147273.8845   3743529.0007   1   6   0.0053   0.0116   0.0101  -0.0002  -0.0092  -0.0038   0.00   20.9
2173 184242.000    281409.8099  -5147273.8778   3743528.9965   1   6   0.0049   0.0116   0.0101   0.0011  -0.0092  -0.0039   0.00   20.9
2173 184243.000    281409.8095  -5147273.8793   3743528.9956   1   6   0.0050   0.0115   0.0100  -0.0005  -0.0093  -0.0036   0.00   20.9
2173 184244.000    281409.8078  -5147273.8790   3743528.9973   1   6   0.0050   0.0116   0.0101  -0.0006  -0.0093  -0.0038   0.00   20.8
2173 184245.000    281409.8098  -5147273.8791   3743528.9962   1   6   0.0050   0.0116   0.0101  -0.0014  -0.0092  -0.0043   0.00   20.9
2173 184246.000    281409.8081  -5147273.8856   3743529.0033   1   6   0.0050   0.0116   0.0101   0.0004  -0.0093  -0.0041   0.00   20.8
2173 184247.000    281409.8105  -5147273.8823   3743528.9974   1   6   0.0051   0.0117   0.0100   0.0003  -0.0092  -0.0039   0.00   20.9
2173 184248.000    281409.8045  -5147273.8793   3743529.0019   1   6   0.0054   0.0116   0.0101  -0.0011  -0.0092  -0.0040   0.00   20.9
2173 184249.000    281409.8092  -5147273.8839   3743529.0040   1   6   0.0053   0.0116   0.0100  -0.0016  -0.0093  -0.0042   0.00   21.0
2173 184250.000    281409.8105  -5147273.8839   3743529.0018   1   6   0.0050   0.0117   0.0101  -0.0008  -0.0092  -0.0041   0.00   21.0
2173 184251.000    281409.8103  -5147273.8814   3743529.0007   1   6   0.0051   0.0116   0.0101  -0.0008  -0.0092  -0.0039   0.00   21.1
2173 184252.000    281409.8100  -5147273.8783   3743528.9982   1   6   0.0053   0.0116   0.0100  -0.0008  -0.0093  -0.0040   0.00   21.2
2173 184253.000    281409.8082  -5147273.8835   3743529.0018   1   6   0.0051   0.0116   0.0100  -0.0006  -0.0092  -0.0039   0.00   21.3
2173 184254.000    281409.8109  -5147273.8832   3743529.0018   1   6   0.0050   0.0117   0.0100  -0.0010  -0.0092  -0.0041   0.00   21.4
2173 184255.000    281409.8131  -5147273.8835   3743529.0007   1   6   0.0051   0.0116   0.0100  -0.0013  -0.0092  -0.0040   0.00   21.5
2173 184256.000    281409.8123  -5147273.8837   3743529.0016   1   6   0.0049   0.0116   0.0100   0.0010  -0.0093  -0.0040   0.00   21.6
2173 184257.000    281409.8117  -5147273.8901   3743529.0046   1   6   0.0049   0.0116   0.0100   0.0012  -0.0092  -0.0039   0.00   21.8
2173 184258.000    281409.8120  -5147273.8832   3743528.9992   1   6   0.0050   0.0116   0.0100   0.0012  -0.0092  -0.0039   0.00   21.9
2173 184259.000    281409.8088  -5147273.8809   3743529.0033   1   6   0.0053   0.0117   0.0101  -0.0011  -0.0091  -0.0039   0.00   22.0
2173 184260.000    281409.8110  -5147273.8848   3743529.0028   1   6   0.0050   0.0115   0.0100   0.0011  -0.0092  -0.0038   0.00   22.2
2173 184261.000    281409.8134  -5147273.8877   3743529.0023   1   6   0.0056   0.0117   0.0101  -0.0009  -0.0091  -0.0041   0.00   22.4
2173 184262.000    281409.8108  -5147273.8846   3743529.0029   1   6   0.0055   0.0117   0.0100  -0.0013  -0.0092  -0.0039   0.00   22.5
2173 184263.000    281409.8139  -5147273.8825   3743528.9976   1   6   0.0053   0.0117   0.0101  -0.0012  -0.0091  -0.0040   0.00   22.6
2173 184264.000    281409.8109  -5147273.8845   3743529.0028   1   6   0.0050   0.0117   0.0101  -0.0006  -0.0091  -0.0043   0.00   22.8
2173 184265.000    281409.8094  -5147273.8787   3743528.9986   1   6   0.0051   0.0116   0.0101  -0.0019  -0.0092  -0.0040   0.00   22.9
2173 184266.000    281409.8090  -5147273.8807   3743529.0025   1   6   0.0051   0.0116   0.0100  -0.0015  -0.0092  -0.0040   0.00   23.0
2173 184267.000    281409.8084  -5147273.8770   3743528.9995   1   6   0.0051   0.0117   0.0099   0.0007  -0.0091  -0.0041   0.00   23.2
2173 184268.000    281409.8066  -5147273.8794   3743529.0035   1   6   0.0051   0.0116   0.0100  -0.0011  -0.0091  -0.0042   0.00   23.3
2173 184269.000    281409.8092  -5147273.8829   3743529.0044   1   6   0.0054   0.0116   0.0101  -0.0015  -0.0091  -0.0039   0.00   23.5
2173 184270.000    281409.8101  -5147273.8881   3743529.0034   1   6   0.0051   0.0116   0.0100  -0.0005  -0.0092  -0.0037   0.00   23.8
2173 184271.000    281409.8096  -5147273.8786   3743529.0006   1   6   0.0050   0.0117   0.0100   0.0005  -0.0091  -0.0040   0.00   23.9
2173 184272.000    281409.8093  -5147273.8843   3743529.0002   1   6   0.0049   0.0116   0.0099   0.0007  -0.0092  -0.0037   0.00   24.1
2173 184273.000    281409.8110  -5147273.8815   3743529.0021   1   6   0.0050   0.0116   0.0099   0.0008  -0.0092  -0.0038   0.00   24.3
2173 184274.000    281409.8104  -5147273.8881   3743529.0047   1   6   0.0051   0.0117   0.0100  -0.0014  -0.0091  -0.0040   0.00   24.5
2173 184275.000    281409.8131  -5147273.8829   3743528.9973   1   6   0.0052   0.0116   0.0099   0.0013  -0.0092  -0.0038   0.00   24.6
2173 184276.000    281409.8121  -5147273.8849   3743529.0011   1   6   0.0050   0.0116   0.0100  -0.0010  -0.0091  -0.0039   0.00   24.7
2173 184277.000    281409.8095  -5147273.8849   3743529.0023   1   6   0.0052   0.0116   0.0100  -0.0014  -0.0091  -0.0040   0.00   24.9
2173 184278.000    281409.8114  -5147273.8821   3743528.9985   1   6   0.0053   0.0116   0.0099  -0.0017  -0.0091  -0.0040   0.00   25.2
2173 184279.000    281409.8078  -5147273.8805   3743528.9999   1   6   0.0053   0.0115   0.0100  -0.0015  -0.0092  -0.0040   0.00   25.3
2173 184280.000    281409.8080  -5147273.8800   3743529.0042   1   6   0.0052   0.0117   0.0101  -0.0014  -0.0091  -0.0042   0.00   25.5
2173 184281.000    281409.8099  -5147273.8860   3743529.0011   1   6   0.0051   0.0116   0.0099   0.0004  -0.0092  -0.0040   0.00   25.6
2173 184282.000    281409.8089  -5147273.8796   3743528.9988   1   6   0.0049   0.0116   0.0100  -0.0014  -0.0091  -0.0041   0.00   25.7
2173 184283.000    281409.8085  -5147273.8826   3743529.0000   1   6   0.0052   0.0116   0.0099  -0.0012  -0.0091  -0.0040   0.00   25.8
2173 184284.000    281409.8053  -5147273.8927   3743529.0106   1   6   0.0051   0.0117   0.0100   0.0009  -0.0090  -0.0038   0.00   25.9
2173 184285.000    281409.8100  -5147273.8871   3743529.0034   1   6   0.0054   0.0116   0.0100  -0.0013  -0.0091  -0.0039   0.00   26.1
2173 184286.000    281409.8105  -5147273.8830   3743528.9995   1   6   0.0054   0.0117   0.0100  -0.0006  -0.0090  -0.0039   0.00   26.2
2173 184287.000    281409.8092  -5147273.8845   3743529.0022   1   6   0.0054   0.0116   0.0100  -0.0005  -0.0091  -0.0039   0.00   26.4
2173 184288.000    281409.8081  -5147273.8839   3743529.0022   1   6   0.0051   0.0115   0.0099   0.0005  -0.0092  -0.0035   0.00   26.6
2173 184289.000    281409.8085  -5147273.8818   3743528.9989   1   6   0.0052   0.0116   0.0100  -0.0008  -0.0091  -0.0040   0.00   26.9
2173 184290.000    281409.8090  -5147273.8867   3743528.9986   1   6   0.0051   0.0116   0.0100  -0.0016  -0.0091  -0.0038   0.00   27.1
2173 184291.000    281409.8088  -5147273.8841   3743529.0002   1   6   0.0053   0.0115   0.0098  -0.0017  -0.0092  -0.0042   0.00   27.2
2173 184292.000    281409.8106  -5147273.8873   3743529.0010   1   6   0.0051   0.0115   0.0100   0.0004  -0.0092  -0.0038   0.00   27.5
2173 184293.000    281409.8109  -5147273.8817   3743528.9975   1   6   0.0054   0.0117   0.0100  -0.0012  -0.0090  -0.0038   0.00   27.7
2173 184294.000    281409.8085  -5147273.8852   3743528.9996   1   6   0.0053   0.0116   0.0099  -0.0020  -0.0091  -0.0042   0.00   27.8
2173 184295.000    281409.8106  -5147273.8838   3743528.9995   1   6   0.0051   0.0116   0.0099  -0.0003  -0.0091  -0.0040   0.00   28.2
2173 184296.000    281409.8084  -5147273.8809   3743528.9975   1   6   0.0051   0.0117   0.0100  -0.0014  -0.0091  -0.0042   0.00   28.4
