% program   : rnx2rtkp ver.2.4.3 b31
% inp file  : ngs/21_09_01_09_42_26_mami.obs
% inp file  : ngs/21_09_01_09_42_26_mami_VZ.obs
% inp file  : ngs/21_09_01_09_42_26_brdc.nav
% obs start : 2021/09/01 09:00:00.0 GPST (week2173 291600.0s)
% obs end   : 2021/09/01 09:59:59.0 GPST (week2173 295199.0s)
% ref pos   :  1539867.4900  -4473007.8162   4263693.9494
%
% (x/y/z-ecef=WGS84,Q=1:fix,2:float,3:sbas,4:dgps,5:single,6:ppp,ns=# of satellites)
%  GPST              x-ecef(m)      y-ecef(m)      z-ecef(m)   Q  ns   sdx(m)   sdy(m)   sdz(m)  sdxy(m)  sdyz(m)  sdzx(m) age(s)  ratio
2173 294124.000   1535068.6345  -4470499.2200   4268000.6722   1   9   0.0329   0.0663   0.0336  -0.0420  -0.0384   0.0253 -30.00   19.0
2173 294125.000   1535068.6377  -4470499.2223   4268000.6680   1   9   0.0318   0.0642   0.0325  -0.0406  -0.0372   0.0245 -29.00   15.8
2173 294126.000   1535068.6376  -4470499.2213   4268000.6739   1   9   0.0308   0.0621   0.0315  -0.0393  -0.0360   0.0237 -28.00   17.6
2173 294127.000   1535068.6381  -4470499.2211   4268000.6725   1   9   0.0298   0.0600   0.0304  -0.0380  -0.0347   0.0229 -27.00   18.7
2173 294128.000   1535068.6355  -4470499.2166   4268000.6738   1   9   0.0287   0.0579   0.0293  -0.0366  -0.0335   0.0221 -26.00   19.6
2173 294129.000   1535068.6339  -4470499.2141   4268000.6705   1   9   0.0277   0.0558   0.0283  -0.0353  -0.0323   0.0213 -25.00   19.0
2173 294130.000   1535068.6337  -4470499.2129   4268000.6734   1   9   0.0267   0.0537   0.0272  -0.0340  -0.0311   0.0205 -24.00   19.3
2173 294131.000   1535068.6360  -4470499.2153   4268000.6725   1   9   0.0256   0.0516   0.0262  -0.0327  -0.0299   0.0197 -23.00   19.3
2173 294132.000   1535068.6371  -4470499.2186   4268000.6746   1   9   0.0246   0.0495   0.0251  -0.0314  -0.0287   0.0189 -22.00   19.1
2173 294133.000   1535068.6380  -4470499.2189   4268000.6703   1   9   0.0236   0.0474   0.0241  -0.0300  -0.0275   0.0181 -21.00   18.7
2173 294134.000   1535068.6372  -4470499.2170   4268000.6707   1   9   0.0226   0.0453   0.0230  -0.0287  -0.0262   0.0173 -20.00   18.9
2173 294135.000   1535068.6365  -4470499.2150   4268000.6699   1   9   0.0215   0.0433   0.0220  -0.0274  -0.0250   0.0165 -19.00   18.6
2173 294136.000   1535068.6362  -4470499.2131   4268000.6728   1   9   0.0205   0.0412   0.0210  -0.0261  -0.0239   0.0157 -18.00   19.0
2173 294137.000   1535068.6389  -4470499.2187   4268000.6746   1   9   0.0195   0.0392   0.0199  -0.0248  -0.0227   0.0149 -17.00   19.4
2173 294138.000   1535068.6391  -4470499.2151   4268000.6723   1   9   0.0185   0.0371   0.0189  -0.0236  -0.0215   0.0141 -16.00   20.6
2173 294139.000   1535068.6393  -4470499.2131   4268000.6702   1   9   0.0175   0.0351   0.0179  -0.0223  -0.0203   0.0134 -15.00   22.1
2173 294140.000   1535068.6400  -4470499.2168   4268000.6729   1   9   0.0166   0.0331   0.0169  -0.0210  -0.0191   0.0126 -14.00   23.3
2173 294141.000   1535068.6415  -4470499.2180   4268000.6734   1   9   0.0156   0.0311   0.0159  -0.0198  -0.0180   0.0118 -13.00   25.0
2173 294142.000   1535068.6429  -4470499.2180   4268000.6745   1   9   0.0146   0.0291   0.0149  -0.0185  -0.0168   0.0111 -12.00   26.9
2173 294143.000   1535068.6433  -4470499.2204   4268000.6772   1   9   0.0137   0.0272   0.0140  -0.0173  -0.0157   0.0103 -11.00   29.4
2173 294144.000   1535068.6430  -4470499.2201   4268000.6745   1   9   0.0128   0.0252   0.0131  -0.0161  -0.0146   0.0095 -10.00   32.2
2173 294145.000   1535068.6415  -4470499.2178   4268000.6745   1   9   0.0118   0.0234   0.0121  -0.0149  -0.0135   0.0089  -9.00   34.3
2173 294146.000   1535068.6429  -4470499.2169   4268000.6786   1   9   0.0110   0.0216   0.0112  -0.0138  -0.0125   0.0082  -8.00   39.3
2173 294147.000   1535068.6452  -4470499.2197   4268000.6764   1   9   0.0101   0.0198   0.0104  -0.0127  -0.0115   0.0075  -7.00   42.5
2173 294148.000   1535068.6472  -4470499.2237   4268000.6785   1   9   0.0094   0.0181   0.0096  -0.0117  -0.0105   0.0069  -6.00   45.0
2173 294149.000   1535068.6491  -4470499.2251   4268000.6806   1   9   0.0086   0.0166   0.0089  -0.0107  -0.0096   0.0062  -5.00   48.5
2173 294150.000   1535068.6505  -4470499.2258   4268000.6808   1   9   0.0081   0.0152   0.0081  -0.0097  -0.0088   0.0057  -4.00   54.7
2173 294151.000   1535068.6526  -4470499.2275   4268000.6813   1   9   0.0072   0.0139   0.0076  -0.0091  -0.0081   0.0052  -3.00   60.8
2173 294152.000   1535068.6517  -4470499.2276   4268000.6799   1   9   0.0070   0.0130   0.0070  -0.0084  -0.0075   0.0049  -2.00   66.8
2173 294153.000   1535068.6545  -4470499.2319   4268000.6843   1   9   0.0062   0.0124   0.0065  -0.0081  -0.0070   0.0047  -1.00   73.5
2173 294154.000   1535068.6530  -4470499.2275   4268000.6825   1   9   0.0063   0.0122   0.0063  -0.0078  -0.0071   0.0046   0.00   79.9
2173 294155.000   1535068.6553  -4470499.2312   4268000.6836   1   9   0.0064   0.0122   0.0067  -0.0079  -0.0069   0.0045   0.00   86.7
2173 294156.000   1535068.6495  -4470499.2275   4268000.6854   1   9   0.0066   0.0121   0.0068  -0.0079  -0.0072   0.0045   0.00   85.0
2173 294157.000   1535068.6510  -4470499.2297   4268000.6822   1   9   0.0065   0.0121   0.0067  -0.0080  -0.0069   0.0045   0.00   82.1
2173 294158.000   1535068.6506  -4470499.2283   4268000.6847   1   9   0.0066   0.0122   0.0065  -0.0078  -0.0071   0.0042   0.00   77.1
2173 294159.000   1535068.6529  -4470499.2340   4268000.6848   1   9   0.0063   0.0121   0.0065  -0.0080  -0.0070   0.0047   0.00   71.6
2173 294160.000   1535068.6513  -4470499.2321   4268000.6825   1   9   0.0057   0.0121   0.0067  -0.0080  -0.0070   0.0046   0.00   69.6
2173 294161.000   1535068.6534  -4470499.2349   4268000.6864   1   9   0.0063   0.0122   0.0070  -0.0079  -0.0070   0.0043   0.00   68.4
2173 294162.000   1535068.6531  -4470499.2343   4268000.6873   1   9   0.0063   0.0121   0.0066  -0.0080  -0.0071   0.0048   0.00   65.2
2173 294163.000   1535068.6520  -4470499.2312   4268000.6857   1   9   0.0062   0.0121   0.0069  -0.0079  -0.0071   0.0045   0.00   62.0
2173 294164.000   1535068.6508  -4470499.2316   4268000.6846   1   9   0.0065   0.0122   0.0063  -0.0079  -0.0069   0.0049   0.00   59.7
2173 294165.000   1535068.6539  -4470499.2347   4268000.6861   1   9   0.0063   0.0121   0.0066  -0.0080  -0.0072   0.0046   0.00   58.4
2173 294166.000   1535068.6527  -4470499.2344   4268000.6860   1   9   0.0066   0.0121   0.0066  -0.0078  -0.0071   0.0046   0.00   57.9
2173 294167.000   1535068.6514  -4470499.2325   4268000.6862   1   9   0.0061   0.0121   0.0067  -0.0080  -0.0070   0.0046   0.00   55.8
2173 294168.000   1535068.6501  -4470499.2306   4268000.6856   1   9   0.0064   0.0122   0.0065  -0.0079  -0.0070   0.0046   0.00   53.3
2173 294169.000   1535068.6511  -4470499.2316   4268000.6836   1   9   0.0068   0.0122   0.0066  -0.0078  -0.0070   0.0044   0.00   51.5
2173 294170.000   1535068.6530  -4470499.2327   4268000.6818   1   9   0.0064   0.0121   0.0070  -0.0079  -0.0071   0.0044   0.00   50.9
2173 294171.000   1535068.6502  -4470499.2283   4268000.6832   1   9   0.0064   0.0121   0.0066  -0.0079  -0.0072   0.0047   0.00   49.8
2173 294172.000   1535068.6512  -4470499.2304   4268000.6833   1   9   0.0066   0.0122   0.0067  -0.0078  -0.0071   0.0046   0.00   49.1
2173 294173.000   1535068.6508  -4470499.2260   4268000.6821   1   9   0.0060   0.0121   0.0067  -0.0079  -0.0072   0.0046   0.00   48.6
2173 294174.000   1535068.6497  -4470499.2301   4268000.6844   1   9   0.0060   0.0121   0.0068  -0.0079  -0.0070   0.0047   0.00   48.2
2173 294175.000   1535068.6493  -4470499.2229   4268000.6813   1   9   0.0063   0.0122   0.0067  -0.0078  -0.0071   0.0045   0.00   47.8
2173 294176.000   1535068.6503  -4470499.2288   4268000.6830   1   9   0.0063   0.0121   0.0066  -0.0079  -0.0071   0.0043   0.00   47.5
2173 294177.000   1535068.6496  -4470499.2277   4268000.6853   1   9   0.0069   0.0122   0.0066  -0.0078  -0.0071   0.0043   0.00   46.7
2173 294178.000   1535068.6484  -4470499.2227   4268000.6807   1   9   0.0060   0.0122   0.0064  -0.0079  -0.0070   0.0047   0.00   46.6
2173 294179.000   1535068.6517  -4470499.2309   4268000.6861   1   9   0.0066   0.0122   0.0063  -0.0078  -0.0070   0.0049   0.00   46.4
2173 294180.000   1535068.6497  -4470499.2263   4268000.6845   1   9   0.0058   0.0121   0.0064  -0.0080  -0.0071   0.0052   0.00   45.5
2173 294181.000   1535068.6528  -4470499.2267   4268000.6807   1   9   0.0063   0.0122   0.0069  -0.0079  -0.0071   0.0045   0.00   45.0
2173 294182.000   1535068.6502  -4470499.2282   4268000.6835   1   9   0.0062   0.0121   0.0067  -0.0079  -0.0071   0.0046   0.00   44.8
2173 294183.000   1535068.6522  -4470499.2297   4268000.6843   1   9   0.0063   0.0121   0.0067  -0.0080  -0.0071   0.0045   0.00   44.5
2173 294184.000   1535068.6515  -4470499.2273   4268000.6847   1   9   0.0063   0.0121   0.0066  -0.0080  -0.0070   0.0048   0.00   44.2
2173 294185.000   1535068.6517  -4470499.2274   4268000.6841   1   9   0.0065   0.0121   0.0068  -0.0079  -0.0071   0.0046   0.00   44.4
2173 294186.000   1535068.6532  -4470499.2299   4268000.6848   1   9   0.0065   0.0122   0.0064  -0.0079  -0.0070   0.0047   0.00   43.9
2173 294187.000   1535068.6493  -4470499.2245   4268000.6837   1   9   0.0063   0.0122   0.0064  -0.0078  -0.0071   0.0046   0.00   43.2
2173 294188.000   1535068.6531  -4470499.2313   4268000.6873   1   9   0.0064   0.0122   0.0067  -0.0078  -0.0071   0.0046   0.00   42.8
2173 294189.000   1535068.6536  -4470499.2308   4268000.6864   1   9   0.0065   0.0121   0.0065  -0.0079  -0.0069   0.0045   0.00   42.9
2173 294190.000   1535068.6518  -4470499.2318   4268000.6842   1   9   0.0069   0.0122   0.0067  -0.0079  -0.0070   0.0046   0.00   43.0
2173 294191.000   1535068.6504  -4470499.2264   4268000.6836   1   9   0.0064   0.0122   0.0064  -0.0079  -0.0070   0.0045   0.00   42.7
2173 294192.000   1535068.6519  -4470499.2299   4268000.6834   1   9   0.0063   0.0121   0.0068  -0.0079  -0.0072   0.0044   0.00   42.8
2173 294193.000   1535068.6520  -4470499.2285   4268000.6822   1   9   0.0066   0.0122   0.0066  -0.0079  -0.0071   0.0046   0.00   42.9
2173 294194.000   1535068.6497  -4470499.2266   4268000.6821   1   9   0.0066   0.0121   0.0067  -0.0079  -0.0069   0.0045   0.00   43.0
2173 294195.000   1535068.6517  -4470499.2324   4268000.6847   1   9   0.0064   0.0121   0.0063  -0.0080  -0.0070   0.0048   0.00   42.4
2173 294196.000   1535068.6526  -4470499.2279   4268000.6809   1   9   0.0066   0.0122   0.0065  -0.0078  -0.0070   0.0042   0.00   42.2
2173 294197.000   1535068.6488  -4470499.2249   4268000.6823   1   9   0.0063   0.0121   0.0065  -0.0081  -0.0070   0.0046   0.00   42.0
2173 294198.000   1535068.6492  -4470499.2285   4268000.6844   1   9   0.0062   0.0121   0.0063  -0.0080  -0.0069   0.0048   0.00   42.2
2173 294199.000   1535068.6496  -4470499.2269   4268000.6844   1   9   0.0065   0.0122   0.0065  -0.0078  -0.0071   0.0047   0.00   41.7
2173 294200.000   1535068.6511  -4470499.2246   4268000.6818   1   9   0.0066   0.0121   0.0066  -0.0079  -0.0070   0.0044   0.00   41.8
2173 294201.000   1535068.6505  -4470499.2269   4268000.6838   1   9   0.0066   0.0122   0.0065  -0.0078  -0.0071   0.0045   0.00   42.0
2173 294202.000   1535068.6498  -4470499.2271   4268000.6825   1   9   0.0066   0.0122   0.0068  -0.0078  -0.0072   0.0043   0.00   42.3
2173 294203.000   1535068.6487  -4470499.2249   4268000.6825   1   9   0.0064   0.0122   0.0064  -0.0080  -0.0069   0.0049   0.00   42.0
2173 294204.000   1535068.6469  -4470499.2269   4268000.6832   1   9   0.0062   0.0121   0.0064  -0.0080  -0.0071   0.0047   0.00   42.3
2173 294205.000   1535068.6486  -4470499.2237   4268000.6799   1   9   0.0067   0.0122   0.0065  -0.0079  -0.0070   0.0045   0.00   42.1
2173 294206.000   1535068.6483  -4470499.2244   4268000.6819   1   9   0.0064   0.0122   0.0065  -0.0079  -0.0070   0.0042   0.00   42.0
2173 294207.000   1535068.6486  -4470499.2239   4268000.6822   1   9   0.0065   0.0122   0.0068  -0.0078  -0.0070   0.0043   0.00   42.0
2173 294208.000   1535068.6497  -4470499.2276   4268000.6842   1   9   0.0064   0.0122   0.0063  -0.0079  -0.0070   0.0046   0.00   41.9
2173 294209.000   1535068.6473  -4470499.2230   4268000.6824   1   9   0.0066   0.0121   0.0068  -0.0080  -0.0071   0.0044   0.00   42.0
2173 294210.000   1535068.6485  -4470499.2248   4268000.6778   1   9   0.0066   0.0122   0.0067  -0.0078  -0.0071   0.0046   0.00   42.3
2173 294211.000   1535068.6485  -4470499.2245   4268000.6795   1   9   0.0065   0.0122   0.0066  -0.0079  -0.0070   0.0046   0.00   42.5
2173 294212.000   1535068.6487  -4470499.2244   4268000.6796   1   9   0.0063   0.0121   0.0061  -0.0080  -0.0069   0.0050   0.00   42.5
2173 294213.000   1535068.6487  -4470499.2222   4268000.6790   1   9   0.0061   0.0121   0.0063  -0.0080  -0.0070   0.0047   0.00   42.4
2173 294214.000   1535068.6487  -4470499.2214   4268000.6783   1   9   0.0062   0.0121   0.0066  -0.0080  -0.0070   0.0048   0.00   42.2
2173 294215.000   1535068.6482  -4470499.2212   4268000.6802   1   9   0.0063   0.0121   0.0066  -0.0079  -0.0070   0.0047   0.00   41.9
2173 294216.000   1535068.6480  -4470499.2207   4268000.6801   1   9   0.0064   0.0122   0.0066  -0.0079  -0.0070   0.0046   0.00   41.5
2173 294217.000   1535068.6483  -4470499.2210   4268000.6790   1   9   0.0060   0.0121   0.0064  -0.0080  -0.0070   0.0049   0.00   41.2
2173 294218.000   1535068.6484  -4470499.2196   4268000.6793   1   9   0.0063   0.0121   0.0066  -0.0080  -0.0072   0.0047   0.00   41.2
2173 294219.000   1535068.6478  -4470499.2178   4268000.6758   1   9   0.0068   0.0121   0.0067  -0.0079  -0.0070   0.0042   0.00   41.2
2173 294220.000   1535068.6489  -4470499.2234   4268000.6794   1   9   0.0063   0.0122   0.0068  -0.0079  -0.0071   0.0044   0.00   41.3
2173 294221.000   1535068.6496  -4470499.2210   4268000.6790   1   9   0.0064   0.0122   0.0065  -0.0079  -0.0070   0.0045   0.00   41.3
2173 294222.000   1535068.6479  -4470499.2156   4268000.6764   1   9   0.0065   0.0121   0.0065  -0.0080  -0.0070   0.0046   0.00   41.4
2173 294223.000   1535068.6514  -4470499.2240   4268000.6792   1   9   0.0065   0.0122   0.0063  -0.0078  -0.0070   0.0045   0.00   41.1
2173 294224.000   1535068.6508  -4470499.2250   4268000.6804   1   9   0.0063   0.0122   0.0064  -0.0079  -0.0070   0.0046   0.00   41.2
2173 294225.000   1535068.6509  -4470499.2214   4268000.6789   1   9   0.0067   0.0122   0.0068  -0.0079  -0.0071   0.0044   0.00   41.2
2173 294226.000   1535068.6513  -4470499.2227   4268000.6789   1   9   0.0066   0.0122   0.0065  -0.0079  -0.0071   0.0044   0.00   41.2
2173 294227.000   1535068.6499  -4470499.2204   4268000.6803   1   9   0.0064   0.0122   0.0065  -0.0078  -0.0071   0.0046   0.00   41.0
2173 294228.000   1535068.6509  -4470499.2222   4268000.6792   1   9   0.0063   0.0122   0.0065  -0.0079  -0.0071   0.0048   0.00   41.0
2173 294229.000   1535068.6497  -4470499.2198   4268000.6783   1   9   0.0068   0.0122   0.0067  -0.0078  -0.0071   0.0043   0.00   41.1
2173 294230.000   1535068.6502  -4470499.2189   4268000.6764   1   9   0.0065   0.0121   0.0066  -0.0080  -0.0071   0.0047   0.00   41.4
2173 294231.000   1535068.6535  -4470499.2264   4268000.6812   1   9   0.0065   0.0121   0.0066  -0.0079  -0.0071   0.0045   0.00   41.4
2173 294232.000   1535068.6525  -4470499.2254   4268000.6797   1   9   0.0064   0.0122   0.0066  -0.0078  -0.0071   0.0045   0.00   41.6
2173 294233.000   1535068.6511  -4470499.2214   4268000.6811   1   9   0.0066   0.0121   0.0066  -0.0080  -0.0070   0.0048   0.00   41.9
2173 294234.000   1535068.6521  -4470499.2221   4268000.6793   1   9   0.0059   0.0121   0.0067  -0.0080  -0.0070   0.0047   0.00   42.3
2173 294235.000   1535068.6491  -4470499.2195   4268000.6789   1   9   0.0061   0.0121   0.0065  -0.0079  -0.0072   0.0044   0.00   42.5
2173 294236.000   1535068.6527  -4470499.2241   4268000.6778   1   9   0.0061   0.0122   0.0067  -0.0080  -0.0070   0.0048   0.00   42.6
2173 294237.000   1535068.6520  -4470499.2220   4268000.6793   1   9   0.0067   0.0122   0.0066  -0.0078  -0.0070   0.0042   0.00   42.8
2173 294238.000   1535068.6547  -4470499.2278   4268000.6815   1   9   0.0066   0.0122   0.0067  -0.0078  -0.0070   0.0044   0.00   42.9
2173 294239.000   1535068.6521  -4470499.2230   4268000.6804   1   9   0.0066   0.0121   0.0066  -0.0079  -0.0072   0.0044   0.00   43.0
2173 294240.000   1535068.6509  -4470499.2230   4268000.6795   1   9   0.0066   0.0121   0.0065  -0.0079  -0.0070   0.0043   0.00   43.4
2173 294241.000   1535068.6514  -4470499.2227   4268000.6833   1   9   0.0064   0.0121   0.0066  -0.0080  -0.0069   0.0046   0.00   43.6
2173 294242.000   1535068.6539  -4470499.2251   4268000.6802   1   9   0.0068   0.0122   0.0067  -0.0078  -0.0070   0.0044   0.00   43.7
2173 294243.000   1535068.6514  -4470499.2241   4268000.6820   1   9   0.0063   0.0122   0.0067  -0.0078  -0.0071   0.0045   0.00   43.9
2173 294244.000   1535068.6507  -4470499.2238   4268000.6824   1   9   0.0065   0.0121   0.0068  -0.0079  -0.0070   0.0044   0.00   44.0
2173 294245.000   1535068.6536  -4470499.2270   4268000.6827   1   9   0.0068   0.0122   0.0067  -0.0078  -0.0070   0.0043   0.00   44.1
2173 294246.000   1535068.6541  -4470499.2262   4268000.6811   1   9   0.0064   0.0121   0.0064  -0.0079  -0.0070   0.0045   0.00   44.3
2173 294247.000   1535068.6519  -4470499.2202   4268000.6785   1   9   0.0064   0.0122   0.0073  -0.0079  -0.0070   0.0040   0.00   44.6
2173 294248.000   1535068.6549  -4470499.2262   4268000.6805   1   9   0.0064   0.0122   0.0065  -0.0078  -0.0070   0.0045   0.00   45.1
2173 294249.000   1535068.6528  -4470499.2233   4268000.6800   1   9   0.0061   0.0121   0.0062  -0.0079  -0.0071   0.0046   0.00   45.2
2173 294250.000   1535068.6550  -4470499.2287   4268000.6848   1   9   0.0067   0.0121   0.0069  -0.0079  -0.0070   0.0046   0.00   45.2
2173 294251.000   1535068.6519  -4470499.2223   4268000.6808   1   9   0.0058   0.0121   0.0067  -0.0080  -0.0072   0.0047   0.00   45.5
2173 294252.000   1535068.6499  -4470499.2209   4268000.6830   1   9   0.0065   0.0121   0.0065  -0.0079  -0.0071   0.0047   0.00   45.8
2173 294253.000   1535068.6542  -4470499.2271   4268000.6839   1   9   0.0061   0.0122   0.0066  -0.0079  -0.0070   0.0045   0.00   46.2
2173 294254.000   1535068.6532  -4470499.2241   4268000.6807   1   9   0.0068   0.0122   0.0067  -0.0078  -0.0070   0.0043   0.00   46.7
2173 294255.000   1535068.6535  -4470499.2271   4268000.6819   1   9   0.0067   0.0121   0.0066  -0.0079  -0.0071   0.0041   0.00   47.1
2173 294256.000   1535068.6545  -4470499.2266   4268000.6817   1   9   0.0062   0.0121   0.0065  -0.0080  -0.0071   0.0047   0.00   47.7
2173 294257.000   1535068.6562  -4470499.2285   4268000.6812   1   9   0.0064   0.0122   0.0066  -0.0078  -0.0071   0.0046   0.00   48.2
2173 294258.000   1535068.6534  -4470499.2287   4268000.6825   1   9   0.0063   0.0121   0.0069  -0.0080  -0.0070   0.0046   0.00   48.9
2173 294259.000   1535068.6547  -4470499.2290   4268000.6827   1   9   0.0066   0.0121   0.0068  -0.0079  -0.0071   0.0045   0.00   49.5
2173 294260.000   1535068.6538  -4470499.2291   4268000.6823   1   9   0.0064   0.0122   0.0065  -0.0079  -0.0070   0.0047   0.00   49.6
2173 294261.000   1535068.6520  -4470499.2262   4268000.6807   1   9   0.0068   0.0122   0.0068  -0.0077  -0.0070   0.0043   0.00   50.1
2173 294262.000   1535068.6527  -4470499.2240   4268000.6804   1   9   0.0065   0.0121   0.0069  -0.0080  -0.0070   0.0044   0.00   50.4
2173 294263.000   1535068.6552  -4470499.2255   4268000.6834   1   9   0.0062   0.0122   0.0066  -0.0079  -0.0070   0.0046   0.00   50.5
2173 294264.000   1535068.6505  -4470499.2230   4268000.6814   1   9   0.0061   0.0121   0.0066  -0.0079  -0.0071   0.0044   0.00   50.8
2173 294265.000   1535068.6524  -4470499.2222   4268000.6833   1   9   0.0064   0.0121   0.0064  -0.0080  -0.0071   0.0047   0.00   50.8
2173 294266.000   1535068.6558  -4470499.2281   4268000.6851   1   9   0.0064   0.0123   0.0066  -0.0081  -0.0072   0.0049   1.00   51.2
2173 294267.000   1535068.6546  -4470499.2254   4268000.6852   1   9   0.0064   0.0122   0.0063  -0.0078  -0.0071   0.0047   0.00   51.3
2173 294268.000   1535068.6538  -4470499.2233   4268000.6858   1   9   0.0066   0.0121   0.0063  -0.0079  -0.0070   0.0046   0.00   51.4
2173 294269.000   1535068.6511  -4470499.2197   4268000.6820   1   9   0.0065   0.0121   0.0066  -0.0079  -0.0070   0.0045   0.00   51.7
2173 294270.000   1535068.6536  -4470499.2261   4268000.6823   1   9   0.0061   0.0121   0.0065  -0.0079  -0.0071   0.0050   0.00   51.9
2173 294271.000   1535068.6523  -4470499.2223   4268000.6836   1   9   0.0066   0.0121   0.0066  -0.0079  -0.0071   0.0043   0.00   52.1
2173 294272.000   1535068.6538  -4470499.2254   4268000.6810   1   9   0.0067   0.0122   0.0067  -0.0079  -0.0069   0.0042   0.00   52.4
2173 294273.000   1535068.6535  -4470499.2284   4268000.6825   1   9   0.0062   0.0122   0.0066  -0.0079  -0.0070   0.0046   0.00   53.0
2173 294274.000   1535068.6523  -4470499.2227   4268000.6817   1   9   0.0063   0.0121   0.0066  -0.0080  -0.0071   0.0047   0.00   53.1
2173 294275.000   1535068.6520  -4470499.2224   4268000.6834   1   9   0.0063   0.0122   0.0065  -0.0079  -0.0070   0.0047   0.00   53.3
2173 294276.000   1535068.6518  -4470499.2217   4268000.6820   1   9   0.0068   0.0122   0.0067  -0.0079  -0.0070   0.0043   0.00   53.5
2173 294277.000   1535068.6540  -4470499.2249   4268000.6843   1   9   0.0066   0.0121   0.0066  -0.0080  -0.0069   0.0047   0.00   53.7
2173 294278.000   1535068.6536  -4470499.2230   4268000.6842   1   9   0.0066   0.0122   0.0067  -0.0079  -0.0070   0.0042   0.00   53.8
2173 294279.000   1535068.6532  -4470499.2259   4268000.6795   1   9   0.0062   0.0121   0.0064  -0.0080  -0.0070   0.0045   0.00   54.3
2173 294280.000   1535068.6514  -4470499.2227   4268000.6844   1   9   0.0065   0.0121   0.0067  -0.0079  -0.0072   0.0043   0.00   54.3
2173 294281.000   1535068.6522  -4470499.2200   4268000.6798   1   9   0.0066   0.0122   0.0065  -0.0078  -0.0069   0.0043   0.00   54.4
2173 294282.000   1535068.6521  -4470499.2248   4268000.6833   1   9   0.0066   0.0122   0.0068  -0.0078  -0.0071   0.0040   0.00   54.6
2173 294283.000   1535068.6519  -4470499.2231   4268000.6822   1   9   0.0062   0.0121   0.0067  -0.0080  -0.0070   0.0047   0.00   55.0
2173 294284.000   1535068.6490  -4470499.2181   4268000.6831   1   9   0.0065   0.0121   0.0067  -0.0080  -0.0071   0.0047   0.00   55.0
2173 294285.000   1535068.6496  -4470499.2220   4268000.6811   1   9   0.0067   0.0121   0.0064  -0.0079  -0.0070   0.0045   0.00   55.4
2173 294286.000   1535068.6538  -4470499.2254   4268000.6858   1   9   0.0064   0.0120   0.0066  -0.0080  -0.0071   0.0047   0.00   55.3
2173 294287.000   1535068.6522  -4470499.2232   4268000.6832   1   9   0.0061   0.0121   0.0065  -0.0081  -0.0070   0.0048   0.00   55.5
2173 294288.000   1535068.6505  -4470499.2203   4268000.6843   1   9   0.0064   0.0121   0.0068  -0.0080  -0.0070   0.0046   0.00   55.4
2173 294289.000   1535068.6537  -4470499.2249   4268000.6842   1   9   0.0061   0.0121   0.0066  -0.0080  -0.0070   0.0051   0.00   55.8
2173 294290.000   1535068.6499  -4470499.2202   4268000.6840   1   9   0.0064   0.0122   0.0065  -0.0079  -0.0070   0.0046   0.00   55.8
2173 294291.000   1535068.6536  -4470499.2254   4268000.6836   1   9   0.0066   0.0122   0.0067  -0.0079  -0.0070   0.0043   0.00   55.9
2173 294292.000   1535068.6538  -4470499.2243   4268000.6837   1   9   0.0065   0.0121   0.0067  -0.0080  -0.0070   0.0044   0.00   56.1
2173 294293.000   1535068.6529  -4470499.2281   4268000.6844   1   9   0.0065   0.0122   0.0066  -0.0078  -0.0069   0.0046   0.00   56.3
2173 294294.000   1535068.6534  -4470499.2255   4268000.6870   1   9   0.0066   0.0121   0.0065  -0.0080  -0.0070   0.0045   0.00   56.3
2173 294295.000   1535068.6545  -4470499.2300   4268000.6843   1   9   0.0062   0.0121   0.0066  -0.0079  -0.0071   0.0049   0.00   56.7
2173 294296.000   1535068.6518  -4470499.2210   4268000.6844   1   9   0.0066   0.0122   0.0070  -0.0079  -0.0069   0.0043   0.00   57.1
2173 294297.000   1535068.6529  -4470499.2247   4268000.6871   1   9   0.0066   0.0122   0.0065  -0.0078  -0.0070   0.0043   0.00   57.4
2173 294298.000   1535068.6545  -4470499.2251   4268000.6843   1   9   0.0065   0.0121   0.0066  -0.0080  -0.0072   0.0046   0.00   58.0
2173 294299.000   1535068.6525  -4470499.2235   4268000.6854   1   9   0.0068   0.0122   0.0065  -0.0079  -0.0070   0.0044   0.00   58.3
2173 294300.000   1535068.6565  -4470499.2267   4268000.6856   1   9   0.0064   0.0121   0.0065  -0.0080  -0.0069   0.0046   0.00   58.7
2173 294301.000   1535068.6551  -4470499.2290   4268000.6866   1   9   0.0064   0.0121   0.0065  -0.0079  -0.0070   0.0047   0.00   58.9
2173 294302.000   1535068.6538  -4470499.2250   4268000.6850   1   9   0.0063   0.0122   0.0067  -0.0079  -0.0069   0.0049   0.00   59.2
2173 294303.000   1535068.6553  -4470499.2273   4268000.6866   1   9   0.0064   0.0122   0.0067  -0.0079  -0.0069   0.0044   0.00   59.5
2173 294304.000   1535068.6523  -4470499.2234   4268000.6843   1   9   0.0064   0.0121   0.0066  -0.0080  -0.0070   0.0046   0.00   59.7
2173 294305.000   1535068.6522  -4470499.2263   4268000.6875   1   9   0.0062   0.0121   0.0064  -0.0080  -0.0070   0.0050   0.00   60.0
2173 294306.000   1535068.6541  -4470499.2224   4268000.6844   1   9   0.0065   0.0121   0.0068  -0.0080  -0.0071   0.0044   0.00   60.3
2173 294307.000   1535068.6533  -4470499.2271   4268000.6851   1   9   0.0061   0.0120   0.0066  -0.0081  -0.0070   0.0048   0.00   60.6
2173 294308.000   1535068.6527  -4470499.2261   4268000.6852   1   9   0.0064   0.0121   0.0067  -0.0079  -0.0071   0.0046   0.00   61.2
2173 294309.000   1535068.6522  -4470499.2237   4268000.6882   1   9   0.0064   0.0121   0.0064  -0.0080  -0.0068   0.0047   0.00   61.4
2173 294310.000   1535068.6558  -4470499.2281   4268000.6881   1   9   0.0063   0.0121   0.0064  -0.0080  -0.0070   0.0046   0.00   61.5
2173 294311.000   1535068.6546  -4470499.2276   4268000.6875   1   9   0.0064   0.0121   0.0066  -0.0079  -0.0070   0.0046   0.00   61.8
2173 294312.000   1535068.6545  -4470499.2291   4268000.6876   1   9   0.0069   0.0122   0.0066  -0.0078  -0.0070   0.0042   0.00   62.0
2173 294313.000   1535068.6574  -4470499.2324   4268000.6864   1   9   0.0063   0.0121   0.0066  -0.0079  -0.0071   0.0049   0.00   62.7
2173 294314.000   1535068.6544  -4470499.2262   4268000.6886   1   9   0.0067   0.0121   0.0070  -0.0080  -0.0070   0.0044   0.00   63.1
2173 294315.000   1535068.6560  -4470499.2287   4268000.6877   1   9   0.0062   0.0122   0.0065  -0.0079  -0.0070   0.0045   0.00   63.5
2173 294316.000   1535068.6529  -4470499.2216   4268000.6878   1   9   0.0064   0.0121   0.0065  -0.0079  -0.0070   0.0047   0.00   63.9
2173 294317.000   1535068.6542  -4470499.2262   4268000.6858   1   9   0.0060   0.0121   0.0066  -0.0079  -0.0070   0.0047   0.00   64.3
2173 294318.000   1535068.6540  -4470499.2259   4268000.6862   1   9   0.0065   0.0122   0.0065  -0.0079  -0.0070   0.0045   0.00   64.6
2173 294319.000   1535068.6514  -4470499.2187   4268000.6843   1   9   0.0064   0.0122   0.0068  -0.0079  -0.0071   0.0042   0.00   65.0
2173 294320.000   1535068.6558  -4470499.2253   4268000.6859   1   9   0.0062   0.0121   0.0068  -0.0080  -0.0070   0.0045   0.00   65.3
2173 294321.000   1535068.6552  -4470499.2287   4268000.6859   1   9   0.0067   0.0121   0.0069  -0.0079  -0.0070   0.0043   0.00   65.9
2173 294322.000   1535068.6540  -4470499.2247   4268000.6862   1   9   0.0064   0.0121   0.0069  -0.0080  -0.0070   0.0044   0.00   66.1
2173 294323.000   1535068.6551  -4470499.2223   4268000.6864   1   9   0.0064   0.0121   0.0065  -0.0080  -0.0070   0.0044   0.00   66.2
2173 294324.000   1535068.6557  -4470499.2265   4268000.6878   1   9   0.0065   0.0121   0.0065  -0.0080  -0.0070   0.0046   0.00   66.5
2173 294325.000   1535068.6541  -4470499.2260   4268000.6868   1   9   0.0064   0.0121   0.0066  -0.0080  -0.0070   0.0047   0.00   66.9
2173 294326.000   1535068.6555  -4470499.2256   4268000.6847   1   9   0.0063   0.0121   0.0065  -0.0080  -0.0071   0.0047   0.00   67.2
2173 294327.000   1535068.6575  -4470499.2273   4268000.6856   1   9   0.0067   0.0121   0.0065  -0.0079  -0.0070   0.0043   0.00   67.3
2173 294328.000   1535068.6570  -4470499.2269   4268000.6864   1   9   0.0064   0.0121   0.0065  -0.0081  -0.0070   0.0045   0.00   67.7
2173 294329.000   1535068.6535  -4470499.2207   4268000.6835   1   9   0.0064   0.0122   0.0067  -0.0079  -0.0070   0.0043   0.00   68.0
2173 294330.000   1535068.6566  -4470499.2261   4268000.6869   1   9   0.0068   0.0122   0.0066  -0.0078  -0.0068   0.0043   0.00   68.0
2173 294331.000   1535068.6541  -4470499.2265   4268000.6839   1   9   0.0064   0.0121   0.0067  -0.0080  -0.0070   0.0044   0.00   68.4
2173 294332.000   1535068.6544  -4470499.2225   4268000.6862   1   9   0.0070   0.0122   0.0067  -0.0078  -0.0070   0.0045   0.00   68.5
2173 294333.000   1535068.6551  -4470499.2255   4268000.6857   1   9   0.0063   0.0121   0.0068  -0.0080  -0.0070   0.0043   0.00   68.9
2173 294334.000   1535068.6543  -4470499.2212   4268000.6812   1   9   0.0065   0.0121   0.0065  -0.0080  -0.0070   0.0045   0.00   69.2
2173 294335.000   1535068.6566  -4470499.2262   4268000.6858   1   9   0.0061   0.0121   0.0067  -0.0079  -0.0070   0.0044   0.00   69.6
2173 294336.000   1535068.6588  -4470499.2298   4268000.6873   1   9   0.0064   0.0122   0.0067  -0.0079  -0.0069   0.0044   0.00   69.9
2173 294337.000   1535068.6573  -4470499.2288   4268000.6877   1   9   0.0064   0.0122   0.0065  -0.0079  -0.0069   0.0045   0.00   70.0
2173 294338.000   1535068.6552  -4470499.2242   4268000.6854   1   9   0.0063   0.0121   0.0063  -0.0080  -0.0071   0.0047   0.00   70.1
2173 294339.000   1535068.6551  -4470499.2245   4268000.6855   1   9   0.0064   0.0121   0.0067  -0.0080  -0.0069   0.0045   0.00   70.3
2173 294340.000   1535068.6598  -4470499.2347   4268000.6882   1   9   0.0064   0.0122   0.0065  -0.0079  -0.0070   0.0046   0.00   70.6
2173 294341.000   1535068.6593  -4470499.2326   4268000.6863   1   9   0.0066   0.0121   0.0067  -0.0079  -0.0070   0.0044   0.00   70.7
2173 294342.000   1535068.6576  -4470499.2309   4268000.6865   1   9   0.0063   0.0121   0.0065  -0.0080  -0.0071   0.0047   0.00   70.7
2173 294343.000   1535068.6569  -4470499.2295   4268000.6879   1   9   0.0068   0.0121   0.0067  -0.0079  -0.0070   0.0042   0.00   70.9
2173 294344.000   1535068.6560  -4470499.2263   4268000.6869   1   9   0.0063   0.0121   0.0065  -0.0080  -0.0071   0.0048   0.00   71.3
2173 294345.000   1535068.6562  -4470499.2301   4268000.6858   1   9   0.0061   0.0121   0.0065  -0.0080  -0.0070   0.0045   0.00   71.7
2173 294346.000   1535068.6555  -4470499.2247   4268000.6841   1   9   0.0064   0.0121   0.0064  -0.0079  -0.0071   0.0049   0.00   72.1
2173 294347.000   1535068.6544  -4470499.2245   4268000.6856   1   9   0.0065   0.0122   0.0067  -0.0079  -0.0069   0.0046   0.00   72.6
2173 294348.000   1535068.6558  -4470499.2251   4268000.6833   1   9   0.0065   0.0121   0.0064  -0.0080  -0.0069   0.0050   0.00   72.9
2173 294349.000   1535068.6551  -4470499.2241   4268000.6837   1   9   0.0066   0.0122   0.0066  -0.0078  -0.0070   0.0044   0.00   73.5
2173 294350.000   1535068.6548  -4470499.2238   4268000.6849   1   9   0.0068   0.0121   0.0066  -0.0079  -0.0070   0.0046   0.00   73.9
2173 294351.000   1535068.6562  -4470499.2266   4268000.6868   1   9   0.0068   0.0121   0.0067  -0.0079  -0.0070   0.0045   0.00   74.2
2173 294352.000   1535068.6583  -4470499.2330   4268000.6877   1   9   0.0067   0.0122   0.0063  -0.0078  -0.0070   0.0044   0.00   74.8
2173 294353.000   1535068.6556  -4470499.2247   4268000.6863   1   9   0.0063   0.0121   0.0067  -0.0079  -0.0071   0.0046   0.00   75.0
2173 294354.000   1535068.6539  -4470499.2238   4268000.6834   1   9   0.0065   0.0121   0.0065  -0.0079  -0.0070   0.0048   0.00   75.2
2173 294355.000   1535068.6580  -4470499.2270   4268000.6854   1   9   0.0066   0.0122   0.0063  -0.0079  -0.0070   0.0045   0.00   75.4
2173 294356.000   1535068.6548  -4470499.2246   4268000.6850   1   9   0.0069   0.0122   0.0066  -0.0079  -0.0070   0.0042   0.00   75.7
2173 294357.000   1535068.6550  -4470499.2237   4268000.6829   1   9   0.0067   0.0121   0.0066  -0.0079  -0.0070   0.0045   0.00   75.9
2173 294358.000   1535068.6547  -4470499.2244   4268000.6844   1   9   0.0065   0.0121   0.0065  -0.0079  -0.0070   0.0046   0.00   75.9
2173 294359.000   1535068.6549  -4470499.2236   4268000.6840   1   9   0.0064   0.0121   0.0066  -0.0080  -0.0070   0.0045   0.00   76.0
2173 294360.000   1535068.6552  -4470499.2230   4268000.6840   1   9   0.0064   0.0121   0.0067  -0.0080  -0.0071   0.0045   0.00   76.3
2173 294361.000   1535068.6532  -4470499.2220   4268000.6825   1   9   0.0067   0.0121   0.0065  -0.0081  -0.0070   0.0047   0.00   76.4
2173 294362.000   1535068.6546  -4470499.2225   4268000.6805   1   9   0.0065   0.0121   0.0064  -0.0080  -0.0069   0.0046   0.00   76.6
2173 294363.000   1535068.6518  -4470499.2192   4268000.6809   1   9   0.0065   0.0121   0.0066  -0.0079  -0.0071   0.0044   0.00   76.7
2173 294364.000   1535068.6575  -4470499.2268   4268000.6864   1   9   0.0061   0.0120   0.0066  -0.0081  -0.0070   0.0047   0.00   76.6
2173 294365.000   1535068.6526  -4470499.2217   4268000.6842   1   9   0.0063   0.0121   0.0065  -0.0079  -0.0070   0.0048   0.00   76.6
2173 294366.000   1535068.6542  -4470499.2242   4268000.6840   1   9   0.0065   0.0121   0.0066  -0.0079  -0.0069   0.0046   0.00   76.3
2173 294367.000   1535068.6555  -4470499.2239   4268000.6860   1   9   0.0068   0.0121   0.0066  -0.0080  -0.0070   0.0046   0.00   76.3
2173 294368.000   1535068.6534  -4470499.2231   4268000.6837   1   9   0.0064   0.0121   0.0066  -0.0080  -0.0069   0.0048   0.00   76.0
2173 294369.000   1535068.6525  -4470499.2191   4268000.6824   1   9   0.0061   0.0121   0.0067  -0.0080  -0.0070   0.0045   0.00   76.0
2173 294370.000   1535068.6514  -4470499.2197   4268000.6813   1   9   0.0061   0.0121   0.0062  -0.0080  -0.0070   0.0051   0.00   76.1
2173 294371.000   1535068.6523  -4470499.2185   4268000.6806   1   9   0.0063   0.0121   0.0068  -0.0080  -0.0071   0.0044   0.00   76.2
2173 294372.000   1535068.6526  -4470499.2182   4268000.6825   1   9   0.0064   0.0121   0.0065  -0.0079  -0.0070   0.0046   0.00   76.2
2173 294373.000   1535068.6527  -4470499.2180   4268000.6816   1   9   0.0068   0.0121   0.0067  -0.0079  -0.0069   0.0044   0.00   76.3
2173 294374.000   1535068.6508  -4470499.2149   4268000.6804   1   9   0.0064   0.0121   0.0066  -0.0079  -0.0071   0.0046   0.00   76.4
2173 294375.000   1535068.6504  -4470499.2165   4268000.6787   1   9   0.0065   0.0121   0.0067  -0.0081  -0.0070   0.0045   0.00   76.5
2173 294376.000   1535068.6500  -4470499.2152   4268000.6814   1   9   0.0062   0.0122   0.0066  -0.0079  -0.0069   0.0046   0.00   76.5
2173 294377.000   1535068.6487  -4470499.2161   4268000.6807   1   9   0.0067   0.0121   0.0066  -0.0079  -0.0070   0.0042   0.00   76.5
2173 294378.000   1535068.6508  -4470499.2169   4268000.6827   1   9   0.0067   0.0121   0.0068  -0.0079  -0.0071   0.0043   0.00   76.5
2173 294379.000   1535068.6499  -4470499.2166   4268000.6817   1   9   0.0064   0.0122   0.0065  -0.0079  -0.0069   0.0049   0.00   76.6
2173 294380.000   1535068.6510  -4470499.2186   4268000.6823   1   9   0.0065   0.0121   0.0066  -0.0079  -0.0070   0.0047   0.00   76.5
2173 294381.000   1535068.6506  -4470499.2168   4268000.6781   1   9   0.0065   0.0121   0.0067  -0.0079  -0.0070   0.0045   0.00   76.7
2173 294382.000   1535068.6525  -4470499.2251   4268000.6821   1   9   0.0067   0.0122   0.0067  -0.0078  -0.0069   0.0043   0.00   76.8
2173 294383.000   1535068.6490  -4470499.2144   4268000.6799   1   9   0.0065   0.0121   0.0065  -0.0080  -0.0070   0.0049   0.00   76.8
2173 294384.000   1535068.6507  -4470499.2182   4268000.6816   1   9   0.0064   0.0121   0.0064  -0.0080  -0.0070   0.0049   0.00   76.8
2173 294385.000   1535068.6485  -4470499.2161   4268000.6808   1   9   0.0068   0.0122   0.0065  -0.0078  -0.0070   0.0043   0.00   76.9
2173 294386.000   1535068.6478  -4470499.2161   4268000.6828   1   9   0.0065   0.0121   0.0066  -0.0079  -0.0071   0.0045   0.00   76.8
2173 294387.000   1535068.6516  -4470499.2216   4268000.6829   1   9   0.0066   0.0121   0.0065  -0.0080  -0.0070   0.0045   0.00   76.9
2173 294388.000   1535068.6470  -4470499.2135   4268000.6828   1   9   0.0066   0.0121   0.0066  -0.0080  -0.0070   0.0046   0.00   77.2
2173 294389.000   1535068.6495  -4470499.2192   4268000.6830   1   9   0.0067   0.0121   0.0066  -0.0079  -0.0071   0.0046   0.00   77.2
2173 294390.000   1535068.6490  -4470499.2175   4268000.6817   1   9   0.0063   0.0122   0.0066  -0.0078  -0.0070   0.0045   0.00   77.3
2173 294391.000   1535068.6514  -4470499.2245   4268000.6842   1   9   0.0066   0.0121   0.0064  -0.0079  -0.0069   0.0046   0.00   77.3
2173 294392.000   1535068.6488  -4470499.2178   4268000.6790   1   9   0.0066   0.0121   0.0065  -0.0079  -0.0069   0.0046   0.00   77.7
2173 294393.000   1535068.6497  -4470499.2186   4268000.6829   1   9   0.0065   0.0121   0.0065  -0.0080  -0.0070   0.0045   0.00   77.8
2173 294394.000   1535068.6499  -4470499.2191   4268000.6821   1   9   0.0068   0.0121   0.0066  -0.0079  -0.0070   0.0044   0.00   78.1
2173 294395.000   1535068.6466  -4470499.2136   4268000.6816   1   9   0.0065   0.0121   0.0065  -0.0081  -0.0070   0.0047   0.00   78.3
2173 294396.000   1535068.6483  -4470499.2170   4268000.6808   1   9   0.0065   0.0121   0.0067  -0.0079  -0.0071   0.0043   0.00   78.5
2173 294397.000   1535068.6500  -4470499.2202   4268000.6834   1   9   0.0064   0.0121   0.0065  -0.0079  -0.0070   0.0046   0.00   78.7
2173 294398.000   1535068.6506  -4470499.2212   4268000.6822   1   9   0.0066   0.0121   0.0068  -0.0079  -0.0069   0.0044   0.00   78.8
2173 294399.000   1535068.6483  -4470499.2183   4268000.6830   1   9   0.0068   0.0121   0.0066  -0.0079  -0.0071   0.0043   0.00   79.1
2173 294400.000   1535068.6510  -4470499.2195   4268000.6808   1   9   0.0066   0.0121   0.0067  -0.0079  -0.0070   0.0044   0.00   79.5
2173 294401.000   1535068.6507  -4470499.2206   4268000.6834   1   9   0.0065   0.0121   0.0063  -0.0079  -0.0070   0.0047   0.00   79.8
2173 294402.000   1535068.6454  -4470499.2131   4268000.6823   1   9   0.0066   0.0121   0.0067  -0.0080  -0.0070   0.0046   0.00   80.0
2173 294403.000   1535068.6480  -4470499.2167   4268000.6822   1   9   0.0064   0.0121   0.0067  -0.0079  -0.0070   0.0043   0.00   80.5
2173 294404.000   1535068.6494  -4470499.2193   4268000.6833   1   9   0.0068   0.0121   0.0065  -0.0079  -0.0070   0.0044   0.00   81.0
2173 294405.000   1535068.6486  -4470499.2177   4268000.6852   1   9   0.0064   0.0121   0.0065  -0.0079  -0.0070   0.0048   0.00   81.4
2173 294406.000   1535068.6475  -4470499.2179   4268000.6845   1   9   0.0062   0.0121   0.0066  -0.0080  -0.0069   0.0045   0.00   81.6
2173 294407.000   1535068.6498  -4470499.2214   4268000.6845   1   9   0.0065   0.0121   0.0067  -0.0079  -0.0070   0.0045   0.00   82.2
2173 294408.000   1535068.6477  -4470499.2185   4268000.6858   1   9   0.0065   0.0121   0.0066  -0.0080  -0.0072   0.0046   0.00   82.3
2173 294409.000   1535068.6448  -4470499.2123   4268000.6844   1   9   0.0066   0.0121   0.0066  -0.0079  -0.0071   0.0046   0.00   82.6
2173 294410.000   1535068.6503  -4470499.2212   4268000.6836   1   9   0.0062   0.0121   0.0063  -0.0080  -0.0070   0.0048   0.00   83.1
2173 294411.000   1535068.6496  -4470499.2189   4268000.6838   1   9   0.0063   0.0121   0.0065  -0.0080  -0.0071   0.0047   0.00   83.5
2173 294412.000   1535068.6517  -4470499.2243   4268000.6862   1   9   0.0066   0.0121   0.0065  -0.0079  -0.0069   0.0047   0.00   84.2
2173 294413.000   1535068.6473  -4470499.2195   4268000.6868   1   9   0.0067   0.0121   0.0068  -0.0079  -0.0071   0.0044   0.00   84.8
2173 294414.000   1535068.6499  -4470499.2193   4268000.6847   1   9   0.0067   0.0121   0.0065  -0.0079  -0.0070   0.0045   0.00   85.5
2173 294415.000   1535068.6491  -4470499.2162   4268000.6841   1   9   0.0067   0.0121   0.0069  -0.0079  -0.0070   0.0042   0.00   86.0
2173 294416.000   1535068.6477  -4470499.2186   4268000.6834   1   9   0.0068   0.0121   0.0066  -0.0079  -0.0069   0.0044   0.00   86.7
2173 294417.000   1535068.6471  -4470499.2149   4268000.6818   1   9   0.0059   0.0121   0.0066  -0.0080  -0.0070   0.0046   0.00   87.4
2173 294418.000   1535068.6477  -4470499.2150   4268000.6827   1   9   0.0067   0.0121   0.0067  -0.0080  -0.0069   0.0044   0.00   88.0
2173 294419.000   1535068.6465  -4470499.2119   4268000.6811   1   9   0.0063   0.0121   0.0064  -0.0081  -0.0069   0.0049   0.00   88.7
2173 294420.000   1535068.6474  -4470499.2188   4268000.6846   1   9   0.0063   0.0121   0.0068  -0.0080  -0.0070   0.0042   0.00   89.3
2173 294421.000   1535068.6491  -4470499.2189   4268000.6859   1   9   0.0067   0.0121   0.0065  -0.0078  -0.0070   0.0047   0.00   90.1
2173 294422.000   1535068.6482  -4470499.2174   4268000.6837   1   9   0.0067   0.0122   0.0063  -0.0078  -0.0069   0.0046   0.00   91.0
2173 294423.000   1535068.6474  -4470499.2149   4268000.6836   1   9   0.0066   0.0121   0.0068  -0.0079  -0.0068   0.0046   0.00   91.9
2173 294424.000   1535068.6452  -4470499.2127   4268000.6837   1   9   0.0064   0.0121   0.0068  -0.0080  -0.0070   0.0043   0.00   92.5
2173 294425.000   1535068.6468  -4470499.2171   4268000.6859   1   9   0.0066   0.0121   0.0064  -0.0079  -0.0070   0.0048   0.00   93.4
2173 294426.000   1535068.6484  -4470499.2203   4268000.6826   1   9   0.0064   0.0120   0.0066  -0.0081  -0.0069   0.0047   0.00   94.3
2173 294427.000   1535068.6461  -4470499.2158   4268000.6817   1   9   0.0065   0.0122   0.0068  -0.0079  -0.0069   0.0045   0.00   95.4
2173 294428.000   1535068.6485  -4470499.2172   4268000.6833   1   9   0.0066   0.0121   0.0064  -0.0080  -0.0070   0.0047   0.00   96.5
2173 294429.000   1535068.6510  -4470499.2215   4268000.6839   1   9   0.0064   0.0121   0.0067  -0.0079  -0.0069   0.0044   0.00   97.3
2173 294430.000   1535068.6466  -4470499.2149   4268000.6844   1   9   0.0067   0.0121   0.0065  -0.0080  -0.0069   0.0046   0.00   98.3
2173 294431.000   1535068.6474  -4470499.2157   4268000.6816   1   9   0.0063   0.0121   0.0067  -0.0079  -0.0069   0.0044   0.00   99.0
2173 294432.000   1535068.6486  -4470499.2205   4268000.6823   1   9   0.0063   0.0121   0.0068  -0.0080  -0.0069   0.0045   0.00  100.0
2173 294433.000   1535068.6482  -4470499.2173   4268000.6822   1   9   0.0063   0.0121   0.0064  -0.0080  -0.0069   0.0047   0.00  100.8
2173 294434.000   1535068.6485  -4470499.2188   4268000.6829   1   9   0.0067   0.0121   0.0066  -0.0079  -0.0070   0.0047   0.00  101.5
2173 294435.000   1535068.6487  -4470499.2165   4268000.6818   1   9   0.0059   0.0120   0.0064  -0.0081  -0.0069   0.0049   0.00  102.0
2173 294436.000   1535068.6447  -4470499.2118   4268000.6811   1   9   0.0066   0.0121   0.0062  -0.0079  -0.0069   0.0048   0.00  102.9
2173 294437.000   1535068.6486  -4470499.2191   4268000.6831   1   9   0.0059   0.0120   0.0067  -0.0081  -0.0070   0.0046   0.00  103.7
2173 294438.000   1535068.6487  -4470499.2178   4268000.6836   1   9   0.0065   0.0121   0.0064  -0.0079  -0.0070   0.0048   0.00  104.5
2173 294439.000   1535068.6491  -4470499.2186   4268000.6833   1   9   0.0066   0.0121   0.0065  -0.0080  -0.0070   0.0047   0.00  105.3
2173 294440.000   1535068.6468  -4470499.2162   4268000.6824   1   9   0.0067   0.0121   0.0066  -0.0079  -0.0070   0.0048   0.00  106.1
2173 294441.000   1535068.6493  -4470499.2188   4268000.6825   1   9   0.0067   0.0121   0.0066  -0.0079  -0.0071   0.0042   0.00  106.8
2173 294442.000   1535068.6468  -4470499.2120   4268000.6802   1   9   0.0068   0.0121   0.0066  -0.0079  -0.0069   0.0044   0.00  107.6
2173 294443.000   1535068.6468  -4470499.2155   4268000.6809   1   9   0.0062   0.0120   0.0065  -0.0081  -0.0069   0.0048   0.00  108.5
2173 294444.000   1535068.6524  -4470499.2251   4268000.6854   1   9   0.0065   0.0120   0.0065  -0.0080  -0.0070   0.0048   0.00  109.1
2173 294445.000   1535068.6494  -4470499.2186   4268000.6805   1   9   0.0067   0.0121   0.0068  -0.0079  -0.0069   0.0040   0.00  109.6
2173 294446.000   1535068.6490  -4470499.2198   4268000.6807   1   9   0.0065   0.0121   0.0064  -0.0079  -0.0069   0.0045   0.00  110.4
2173 294447.000   1535068.6490  -4470499.2189   4268000.6806   1   9   0.0067   0.0121   0.0069  -0.0079  -0.0069   0.0043   0.00  111.2
2173 294448.000   1535068.6473  -4470499.2151   4268000.6784   1   9   0.0066   0.0121   0.0064  -0.0080  -0.0070   0.0044   0.00  112.1
2173 294449.000   1535068.6498  -4470499.2224   4268000.6822   1   9   0.0064   0.0120   0.0067  -0.0081  -0.0069   0.0047   0.00  112.6
2173 294450.000   1535068.6484  -4470499.2178   4268000.6793   1   9   0.0065   0.0121   0.0065  -0.0080  -0.0070   0.0045   0.00  113.1
2173 294451.000   1535068.6478  -4470499.2171   4268000.6782   1   9   0.0066   0.0121   0.0065  -0.0079  -0.0069   0.0047   0.00  113.8
2173 294452.000   1535068.6482  -4470499.2167   4268000.6810   1   9   0.0068   0.0121   0.0069  -0.0080  -0.0070   0.0043   0.00  114.1
2173 294453.000   1535068.6500  -4470499.2175   4268000.6797   1   9   0.0065   0.0120   0.0065  -0.0081  -0.0070   0.0048   0.00  114.8
2173 294454.000   1535068.6484  -4470499.2172   4268000.6787   1   9   0.0066   0.0121   0.0067  -0.0080  -0.0070   0.0044   0.00  115.3
2173 294455.000   1535068.6491  -4470499.2163   4268000.6801   1   9   0.0066   0.0121   0.0066  -0.0080  -0.0069   0.0044   0.00  115.6
2173 294456.000   1535068.6497  -4470499.2193   4268000.6802   1   9   0.0061   0.0121   0.0063  -0.0081  -0.0069   0.0046   0.00  115.9
2173 294457.000   1535068.6491  -4470499.2160   4268000.6806   1   9   0.0065   0.0121   0.0062  -0.0079  -0.0069   0.0049   0.00  116.3
2173 294458.000   1535068.6495  -4470499.2172   4268000.6805   1   9   0.0062   0.0122   0.0067  -0.0078  -0.0070   0.0042   0.00  116.8
2173 294459.000   1535068.6492  -4470499.2154   4268000.6784   1   9   0.0064   0.0121   0.0063  -0.0080  -0.0070   0.0048   0.00  117.0
2173 294460.000   1535068.6462  -4470499.2118   4268000.6776   1   9   0.0066   0.0121   0.0067  -0.0080  -0.0069   0.0046   0.00  117.3
2173 294461.000   1535068.6479  -4470499.2158   4268000.6805   1   9   0.0065   0.0120   0.0063  -0.0081  -0.0070   0.0048   0.00  117.8
2173 294462.000   1535068.6480  -4470499.2161   4268000.6806   1   9   0.0069   0.0120   0.0068  -0.0080  -0.0070   0.0043   0.00  118.4
2173 294463.000   1535068.6468  -4470499.2164   4268000.6792   1   9   0.0061   0.0121   0.0064  -0.0080  -0.0070   0.0049   0.00  118.9
2173 294464.000   1535068.6481  -4470499.2183   4268000.6816   1   9   0.0064   0.0121   0.0065  -0.0079  -0.0070   0.0047   0.00  119.4
2173 294465.000   1535068.6459  -4470499.2149   4268000.6806   1   9   0.0070   0.0121   0.0066  -0.0079  -0.0070   0.0042   0.00  120.2
2173 294466.000   1535068.6502  -4470499.2210   4268000.6812   1   9   0.0067   0.0121   0.0068  -0.0080  -0.0070   0.0044   0.00  120.8
2173 294467.000   1535068.6489  -4470499.2196   4268000.6832   1   9   0.0065   0.0120   0.0064  -0.0080  -0.0070   0.0048   0.00  121.6
2173 294468.000   1535068.6479  -4470499.2132   4268000.6796   1   9   0.0066   0.0121   0.0065  -0.0079  -0.0069   0.0046   0.00  122.1
2173 294469.000   1535068.6489  -4470499.2125   4268000.6794   1   9   0.0060   0.0120   0.0064  -0.0080  -0.0070   0.0046   0.00  123.0
2173 294470.000   1535068.6479  -4470499.2147   4268000.6792   1   9   0.0069   0.0121   0.0065  -0.0079  -0.0070   0.0042   0.00  124.0
2173 294471.000   1535068.6503  -4470499.2183   4268000.6799   1   9   0.0064   0.0121   0.0064  -0.0080  -0.0068   0.0045   0.00  124.6
2173 294472.000   1535068.6481  -4470499.2122   4268000.6780   1   9   0.0066   0.0121   0.0067  -0.0079  -0.0070   0.0046   0.00  125.4
2173 294473.000   1535068.6473  -4470499.2117   4268000.6775   1   9   0.0066   0.0121   0.0067  -0.0080  -0.0069   0.0044   0.00  125.7
2173 294474.000   1535068.6472  -4470499.2116   4268000.6784   1   9   0.0064   0.0121   0.0065  -0.0079  -0.0071   0.0045   0.00  126.1
2173 294475.000   1535068.6462  -4470499.2114   4268000.6792   1   9   0.0065   0.0121   0.0064  -0.0080  -0.0069   0.0044   0.00  127.0
2173 294476.000   1535068.6484  -4470499.2128   4268000.6797   1   9   0.0065   0.0121   0.0066  -0.0079  -0.0069   0.0046   0.00  127.8
2173 294477.000   1535068.6484  -4470499.2128   4268000.6796   1   9   0.0065   0.0121   0.0065  -0.0080  -0.0069   0.0044   0.00  128.0
2173 294478.000   1535068.6489  -4470499.2118   4268000.6783   1   9   0.0067   0.0121   0.0064  -0.0080  -0.0069   0.0048   0.00  128.6
2173 294479.000   1535068.6470  -4470499.2083   4268000.6750   1   9   0.0063   0.0120   0.0065  -0.0080  -0.0070   0.0045   0.00  129.0
2173 294480.000   1535068.6475  -4470499.2097   4268000.6773   1   9   0.0068   0.0121   0.0067  -0.0079  -0.0069   0.0044   0.00  129.3
2173 294481.000   1535068.6472  -4470499.2135   4268000.6781   1   9   0.0063   0.0120   0.0063  -0.0081  -0.0069   0.0046   0.00  129.8
2173 294482.000   1535068.6474  -4470499.2121   4268000.6788   1   9   0.0066   0.0120   0.0067  -0.0079  -0.0071   0.0045   0.00  130.2
2173 294483.000   1535068.6478  -4470499.2148   4268000.6774   1   9   0.0066   0.0121   0.0064  -0.0079  -0.0070   0.0048   0.00  130.5
2173 294484.000   1535068.6489  -4470499.2129   4268000.6772   1   9   0.0064   0.0121   0.0064  -0.0080  -0.0069   0.0045   0.00  130.6
2173 294485.000   1535068.6490  -4470499.2096   4268000.6778   1   9   0.0066   0.0121   0.0065  -0.0079  -0.0070   0.0047   0.00  131.1
2173 294486.000   1535068.6465  -4470499.2121   4268000.6779   1   9   0.0062   0.0121   0.0065  -0.0080  -0.0069   0.0047   0.00  131.2
2173 294487.000   1535068.6467  -4470499.2120   4268000.6763   1   9   0.0066   0.0121   0.0065  -0.0079  -0.0070   0.0047   0.00  131.8
2173 294488.000   1535068.6461  -4470499.2099   4268000.6770   1   9   0.0066   0.0121   0.0066  -0.0080  -0.0069   0.0043   0.00  132.1
2173 294489.000   1535068.6470  -4470499.2097   4268000.6770   1   9   0.0066   0.0121   0.0066  -0.0079  -0.0070   0.0046   0.00  132.5
2173 294490.000   1535068.6490  -4470499.2140   4268000.6776   1   9   0.0065   0.0120   0.0069  -0.0081  -0.0070   0.0045   0.00  132.4
2173 294491.000   1535068.6475  -4470499.2087   4268000.6769   1   9   0.0065   0.0120   0.0066  -0.0080  -0.0070   0.0043   0.00  132.9
2173 294492.000   1535068.6468  -4470499.2085   4268000.6745   1   9   0.0063   0.0121   0.0067  -0.0080  -0.0070   0.0044   0.00  133.0
2173 294493.000   1535068.6503  -4470499.2149   4268000.6790   1   9   0.0066   0.0121   0.0065  -0.0079  -0.0069   0.0046   0.00  132.9
2173 294494.000   1535068.6477  -4470499.2070   4268000.6768   1   9   0.0068   0.0121   0.0066  -0.0079  -0.0070   0.0047   0.00  132.9
2173 294495.000   1535068.6458  -4470499.2065   4268000.6738   1   9   0.0065   0.0120   0.0065  -0.0080  -0.0070   0.0047   0.00  132.5
2173 294496.000   1535068.6489  -4470499.2089   4268000.6766   1   9   0.0065   0.0121   0.0066  -0.0080  -0.0069   0.0044   0.00  132.5
2173 294497.000   1535068.6463  -4470499.2058   4268000.6749   1   9   0.0064   0.0120   0.0066  -0.0080  -0.0070   0.0047   0.00  132.4
2173 294498.000   1535068.6490  -4470499.2081   4268000.6757   1   9   0.0067   0.0121   0.0067  -0.0079  -0.0069   0.0045   0.00  132.1
2173 294499.000   1535068.6471  -4470499.2075   4268000.6751   1   9   0.0065   0.0120   0.0065  -0.0080  -0.0069   0.0046   0.00  132.0
2173 294500.000   1535068.6474  -4470499.2063   4268000.6750   1   9   0.0065   0.0120   0.0068  -0.0080  -0.0070   0.0046   0.00  131.8
2173 294501.000   1535068.6487  -4470499.2077   4268000.6763   1   9   0.0066   0.0121   0.0066  -0.0079  -0.0071   0.0044   0.00  131.6
2173 294502.000   1535068.6482  -4470499.2076   4268000.6743   1   9   0.0062   0.0120   0.0067  -0.0081  -0.0070   0.0043   0.00  131.7
2173 294503.000   1535068.6479  -4470499.2090   4268000.6756   1   9   0.0064   0.0121   0.0065  -0.0080  -0.0068   0.0047   0.00  131.0
2173 294504.000   1535068.6472  -4470499.2081   4268000.6761   1   9   0.0069   0.0121   0.0067  -0.0079  -0.0070   0.0043   0.00  130.6
2173 294505.000   1535068.6483  -4470499.2076   4268000.6793   1   9   0.0065   0.0120   0.0064  -0.0080  -0.0070   0.0050   0.00  130.2
2173 294506.000   1535068.6506  -4470499.2131   4268000.6798   1   9   0.0064   0.0120   0.0063  -0.0080  -0.0070   0.0047   0.00  129.8
2173 294507.000   1535068.6516  -4470499.2159   4268000.6798   1   9   0.0063   0.0121   0.0065  -0.0079  -0.0069   0.0046   0.00  129.9
2173 294508.000   1535068.6499  -4470499.2146   4268000.6786   1   9   0.0065   0.0120   0.0065  -0.0080  -0.0069   0.0044   0.00  129.7
2173 294509.000   1535068.6495  -4470499.2113   4268000.6776   1   9   0.0064   0.0121   0.0067  -0.0079  -0.0069   0.0044   0.00  129.7
2173 294510.000   1535068.6483  -4470499.2113   4268000.6783   1   9   0.0062   0.0120   0.0067  -0.0080  -0.0070   0.0045   0.00  129.8
2173 294511.000   1535068.6527  -4470499.2184   4268000.6795   1   9   0.0063   0.0121   0.0066  -0.0079  -0.0069   0.0046   0.00  129.8
2173 294512.000   1535068.6470  -4470499.2109   4268000.6767   1   9   0.0066   0.0121   0.0064  -0.0079  -0.0069   0.0047   0.00  129.8
2173 294513.000   1535068.6477  -4470499.2096   4268000.6764   1   9   0.0068   0.0121   0.0068  -0.0079  -0.0069   0.0045   0.00  130.0
2173 294514.000   1535068.6483  -4470499.2128   4268000.6786   1   9   0.0065   0.0121   0.0063  -0.0079  -0.0070   0.0045   0.00  129.9
2173 294515.000   1535068.6509  -4470499.2125   4268000.6798   1   9   0.0067   0.0120   0.0064  -0.0079  -0.0071   0.0044   0.00  129.7
2173 294516.000   1535068.6487  -4470499.2133   4268000.6780   1   9   0.0066   0.0120   0.0067  -0.0080  -0.0069   0.0046   0.00  129.3
2173 294517.000   1535068.6495  -4470499.2153   4268000.6819   1   9   0.0067   0.0121   0.0062  -0.0079  -0.0070   0.0045   0.00  129.0
2173 294518.000   1535068.6479  -4470499.2109   4268000.6774   1   9   0.0065   0.0120   0.0067  -0.0080  -0.0070   0.0048   0.00  128.8
2173 294519.000   1535068.6497  -4470499.2134   4268000.6837   1   9   0.0065   0.0120   0.0064  -0.0080  -0.0069   0.0048   0.00  128.4
2173 294520.000   1535068.6518  -4470499.2160   4268000.6800   1   9   0.0064   0.0120   0.0066  -0.0080  -0.0070   0.0043   0.00  128.4
2173 294521.000   1535068.6529  -4470499.2184   4268000.6811   1   9   0.0065   0.0120   0.0066  -0.0080  -0.0070   0.0049   0.00  128.4
2173 294522.000   1535068.6544  -4470499.2223   4268000.6825   1   9   0.0069   0.0121   0.0067  -0.0079  -0.0070   0.0040   0.00  127.9
2173 294523.000   1535068.6529  -4470499.2197   4268000.6804   1   9   0.0064   0.0121   0.0064  -0.0079  -0.0070   0.0045   0.00  127.9
2173 294524.000   1535068.6516  -4470499.2186   4268000.6806   1   9   0.0066   0.0120   0.0065  -0.0080  -0.0069   0.0047   0.00  127.5
2173 294525.000   1535068.6525  -4470499.2190   4268000.6816   1   9   0.0066   0.0121   0.0066  -0.0079  -0.0069   0.0045   0.00  127.0
2173 294526.000   1535068.6527  -4470499.2167   4268000.6790   1   9   0.0066   0.0120   0.0064  -0.0080  -0.0071   0.0047   0.00  126.5
2173 294527.000   1535068.6533  -4470499.2170   4268000.6795   1   9   0.0070   0.0120   0.0068  -0.0079  -0.0070   0.0043   0.00  126.1
2173 294528.000   1535068.6530  -4470499.2215   4268000.6822   1   9   0.0065   0.0120   0.0064  -0.0080  -0.0068   0.0048   0.00  125.8
2173 294529.000   1535068.6505  -4470499.2165   4268000.6817   1   9   0.0066   0.0121   0.0063  -0.0079  -0.0069   0.0047   0.00  125.4
2173 294530.000   1535068.6538  -4470499.2194   4268000.6826   1   9   0.0063   0.0120   0.0061  -0.0080  -0.0069   0.0049   0.00  125.0
2173 294531.000   1535068.6546  -4470499.2230   4268000.6810   1   9   0.0064   0.0120   0.0065  -0.0080  -0.0069   0.0045   0.00  124.9
2173 294532.000   1535068.6551  -4470499.2211   4268000.6802   1   9   0.0064   0.0120   0.0066  -0.0080  -0.0071   0.0046   0.00  124.4
2173 294533.000   1535068.6504  -4470499.2116   4268000.6761   1   9   0.0068   0.0121   0.0064  -0.0080  -0.0069   0.0045   0.00  124.2
2173 294534.000   1535068.6517  -4470499.2138   4268000.6781   1   9   0.0066   0.0121   0.0070  -0.0079  -0.0069   0.0045   0.00  123.9
2173 294535.000   1535068.6540  -4470499.2169   4268000.6787   1   9   0.0064   0.0121   0.0065  -0.0079  -0.0069   0.0044   0.00  123.4
2173 294536.000   1535068.6550  -4470499.2176   4268000.6750   1   9   0.0066   0.0120   0.0065  -0.0079  -0.0069   0.0043   0.00  123.2
2173 294537.000   1535068.6549  -4470499.2191   4268000.6784   1   9   0.0066   0.0120   0.0066  -0.0080  -0.0070   0.0044   0.00  123.0
2173 294538.000   1535068.6537  -4470499.2179   4268000.6797   1   9   0.0065   0.0120   0.0063  -0.0080  -0.0069   0.0047   0.00  122.5
2173 294539.000   1535068.6543  -4470499.2189   4268000.6748   1   9   0.0066   0.0120   0.0068  -0.0079  -0.0070   0.0044   0.00  122.3
2173 294540.000   1535068.6524  -4470499.2155   4268000.6773   1   9   0.0067   0.0120   0.0067  -0.0080  -0.0069   0.0044   0.00  122.2
2173 294541.000   1535068.6559  -4470499.2186   4268000.6782   1   9   0.0065   0.0120   0.0065  -0.0079  -0.0070   0.0046   0.00  122.0
2173 294542.000   1535068.6563  -4470499.2199   4268000.6803   1   9   0.0066   0.0120   0.0066  -0.0079  -0.0070   0.0043   0.00  121.7
2173 294543.000   1535068.6564  -4470499.2220   4268000.6787   1   9   0.0066   0.0121   0.0065  -0.0079  -0.0070   0.0049   0.00  121.3
2173 294544.000   1535068.6558  -4470499.2206   4268000.6779   1   9   0.0063   0.0121   0.0065  -0.0080  -0.0068   0.0048   0.00  121.1
2173 294545.000   1535068.6542  -4470499.2168   4268000.6785   1   9   0.0067   0.0121   0.0068  -0.0080  -0.0069   0.0045   0.00  121.0
2173 294546.000   1535068.6560  -4470499.2216   4268000.6778   1   9   0.0066   0.0121   0.0067  -0.0079  -0.0070   0.0046   0.00  120.8
2173 294547.000   1535068.6566  -4470499.2224   4268000.6791   1   9   0.0066   0.0120   0.0067  -0.0080  -0.0068   0.0044   0.00  120.4
2173 294548.000   1535068.6547  -4470499.2188   4268000.6780   1   9   0.0064   0.0120   0.0065  -0.0080  -0.0069   0.0043   0.00  120.4
2173 294549.000   1535068.6561  -4470499.2218   4268000.6773   1   9   0.0065   0.0120   0.0067  -0.0080  -0.0069   0.0046   0.00  119.9
2173 294550.000   1535068.6574  -4470499.2231   4268000.6783   1   9   0.0066   0.0121   0.0061  -0.0079  -0.0069   0.0046   0.00  119.7
2173 294551.000   1535068.6561  -4470499.2244   4268000.6807   1   9   0.0067   0.0121   0.0065  -0.0079  -0.0069   0.0046   0.00  119.4
2173 294552.000   1535068.6550  -4470499.2220   4268000.6790   1   9   0.0066   0.0120   0.0065  -0.0079  -0.0070   0.0047   0.00  119.2
2173 294553.000   1535068.6583  -4470499.2262   4268000.6811   1   9   0.0064   0.0120   0.0067  -0.0081  -0.0070   0.0040   0.00  118.6
2173 294554.000   1535068.6566  -4470499.2220   4268000.6783   1   9   0.0069   0.0121   0.0067  -0.0079  -0.0070   0.0044   0.00  118.3
2173 294555.000   1535068.6558  -4470499.2223   4268000.6803   1   9   0.0066   0.0120   0.0062  -0.0080  -0.0069   0.0046   0.00  118.2
2173 294556.000   1535068.6559  -4470499.2235   4268000.6798   1   9   0.0068   0.0121   0.0065  -0.0079  -0.0069   0.0046   0.00  118.2
