% program   : rnx2rtkp ver.2.4.3 b31
% inp file  : ngs/21_09_02_07_16_56_scwt.obs
% inp file  : ngs/21_09_02_07_16_56_scwt_VZ.obs
% inp file  : ngs/21_09_02_07_16_56_brdc.nav
% obs start : 2021/09/02 07:00:00.0 GPST (week2173 370800.0s)
% obs end   : 2021/09/02 07:59:59.0 GPST (week2173 374399.0s)
% ref pos   :   861394.5452  -5290252.0636   3445541.4149
%
% (x/y/z-ecef=WGS84,Q=1:fix,2:float,3:sbas,4:dgps,5:single,6:ppp,ns=# of satellites)
%  GPST              x-ecef(m)      y-ecef(m)      z-ecef(m)   Q  ns   sdx(m)   sdy(m)   sdz(m)  sdxy(m)  sdyz(m)  sdzx(m) age(s)  ratio
2173 371805.000    869159.9955  -5289360.5182   3444970.4575   2   8   0.4392   1.0033   0.5834  -0.2647  -0.6039   0.2426 -30.00    1.2
2173 371806.000    869159.9493  -5289360.5711   3444970.4299   2   8   0.3127   0.7139   0.4148  -0.1884  -0.4293   0.1729 -29.00    1.2
2173 371807.000    869159.9813  -5289360.5749   3444970.4171   2   8   0.2560   0.5845   0.3396  -0.1543  -0.3514   0.1416 -28.00    1.3
2173 371808.000    869160.0006  -5289360.5059   3444970.3989   2   8   0.2221   0.5070   0.2946  -0.1339  -0.3049   0.1228 -27.00    1.3
2173 371809.000    869160.0162  -5289360.4585   3444970.4272   2   8   0.1989   0.4540   0.2639  -0.1199  -0.2730   0.1100 -26.00    1.2
2173 371810.000    869160.0113  -5289360.4685   3444970.4328   2   8   0.1818   0.4148   0.2411  -0.1095  -0.2495   0.1005 -25.00    1.3
2173 371811.000    869160.0352  -5289360.4947   3444970.4583   2   8   0.1684   0.3843   0.2234  -0.1015  -0.2311   0.0931 -24.00    1.3
2173 371812.000    869160.0431  -5289360.5054   3444970.4741   2   8   0.1576   0.3596   0.2091  -0.0950  -0.2163   0.0871 -23.00    1.3
2173 371813.000    869160.0342  -5289360.5139   3444970.4849   2   8   0.1486   0.3392   0.1972  -0.0896  -0.2040   0.0822 -22.00    1.3
2173 371814.000    869160.0465  -5289360.5246   3444970.5033   2   8   0.1411   0.3218   0.1872  -0.0850  -0.1936   0.0780 -21.00    1.4
2173 371815.000    869160.0527  -5289360.5322   3444970.5126   2   8   0.1345   0.3069   0.1785  -0.0810  -0.1846   0.0744 -20.00    1.4
2173 371816.000    869160.0728  -5289360.5668   3444970.5338   2   8   0.1288   0.2938   0.1709  -0.0776  -0.1767   0.0712 -19.00    1.5
2173 371817.000    869160.0911  -5289360.5719   3444970.5393   2   8   0.1238   0.2822   0.1642  -0.0745  -0.1697   0.0684 -18.00    1.6
2173 371818.000    869160.0952  -5289360.6020   3444970.5475   2   8   0.1192   0.2719   0.1582  -0.0718  -0.1635   0.0659 -17.00    1.7
2173 371819.000    869160.0973  -5289360.6086   3444970.5511   2   8   0.1152   0.2625   0.1528  -0.0694  -0.1579   0.0637 -16.00    1.7
2173 371820.000    869160.1076  -5289360.6115   3444970.5553   2   8   0.1115   0.2541   0.1479  -0.0671  -0.1528   0.0616 -15.00    1.9
2173 371821.000    869160.1138  -5289360.6173   3444970.5568   2   8   0.1082   0.2464   0.1434  -0.0651  -0.1481   0.0598 -14.00    2.0
2173 371822.000    869160.1318  -5289360.6239   3444970.5661   2   8   0.1051   0.2393   0.1393  -0.0633  -0.1439   0.0581 -13.00    2.2
2173 371823.000    869160.1439  -5289360.6255   3444970.5680   2   8   0.1023   0.2328   0.1355  -0.0615  -0.1399   0.0565 -12.00    2.5
2173 371824.000    869160.1562  -5289360.6261   3444970.5712   2   8   0.0996   0.2267   0.1320  -0.0599  -0.1363   0.0551 -11.00    2.8
2173 371825.000    869160.1672  -5289360.6399   3444970.5765   2   8   0.0972   0.2211   0.1287  -0.0585  -0.1329   0.0537 -10.00    3.0
2173 371826.000    869160.4760  -5289361.3652   3444970.5394   1   8   0.0078   0.0187   0.0116  -0.0047  -0.0122   0.0040  -9.00    3.2
2173 371827.000    869160.4766  -5289361.3649   3444970.5386   1   8   0.0072   0.0173   0.0106  -0.0043  -0.0112   0.0039  -8.00    3.3
2173 371828.000    869160.4777  -5289361.3671   3444970.5420   1   8   0.0067   0.0160   0.0098  -0.0040  -0.0103   0.0034  -7.00    3.5
2173 371829.000    869160.4778  -5289361.3680   3444970.5411   1   8   0.0062   0.0147   0.0089  -0.0038  -0.0094   0.0033  -6.00    3.7
2173 371830.000    869160.4774  -5289361.3664   3444970.5421   1   8   0.0057   0.0136   0.0081  -0.0034  -0.0085   0.0032  -5.00    3.8
2173 371831.000    869160.4769  -5289361.3654   3444970.5425   1   8   0.0053   0.0125   0.0071  -0.0032  -0.0078   0.0031  -4.00    4.0
2173 371832.000    869160.4788  -5289361.3658   3444970.5439   1   8   0.0051   0.0115   0.0068  -0.0031  -0.0072   0.0028  -3.00    4.2
2173 371833.000    869160.4782  -5289361.3652   3444970.5446   1   8   0.0046   0.0108   0.0063  -0.0026  -0.0066   0.0030  -2.00    4.3
2173 371834.000    869160.4761  -5289361.3676   3444970.5434   1   8   0.0044   0.0103   0.0059  -0.0025  -0.0062   0.0027  -1.00    4.5
2173 371835.000    869160.4765  -5289361.3621   3444970.5426   1   8   0.0046   0.0101   0.0061  -0.0028  -0.0060   0.0025   0.00    4.6
2173 371836.000    869160.4747  -5289361.3596   3444970.5406   1   8   0.0043   0.0101   0.0059  -0.0027  -0.0061   0.0023   0.00    4.7
2173 371837.000    869160.4754  -5289361.3604   3444970.5410   1   8   0.0045   0.0101   0.0055  -0.0025  -0.0061   0.0030   0.00    4.7
2173 371838.000    869160.4742  -5289361.3590   3444970.5408   1   8   0.0048   0.0101   0.0060  -0.0026  -0.0061   0.0025   0.00    4.8
2173 371839.000    869160.4748  -5289361.3579   3444970.5397   1   8   0.0046   0.0101   0.0061  -0.0023  -0.0060   0.0024   0.00    4.9
2173 371840.000    869160.4751  -5289361.3597   3444970.5403   1   8   0.0044   0.0101   0.0057  -0.0025  -0.0060   0.0024   0.00    4.9
2173 371841.000    869160.4746  -5289361.3566   3444970.5403   1   8   0.0040   0.0101   0.0060  -0.0027  -0.0060   0.0020   0.00    5.0
2173 371842.000    869160.4742  -5289361.3591   3444970.5408   1   8   0.0045   0.0101   0.0062  -0.0024  -0.0061   0.0018   0.00    5.1
2173 371843.000    869160.4753  -5289361.3581   3444970.5399   1   8   0.0046   0.0101   0.0062  -0.0025  -0.0059   0.0020   0.00    5.1
2173 371844.000    869160.4753  -5289361.3599   3444970.5402   1   8   0.0042   0.0101   0.0058  -0.0024  -0.0061   0.0024   0.00    5.1
2173 371845.000    869160.4739  -5289361.3597   3444970.5404   1   8   0.0043   0.0101   0.0060  -0.0027  -0.0060   0.0027   0.00    5.2
2173 371846.000    869160.4751  -5289361.3591   3444970.5406   1   8   0.0043   0.0102   0.0059  -0.0024  -0.0060   0.0027   0.00    5.2
2173 371847.000    869160.4743  -5289361.3595   3444970.5417   1   8   0.0044   0.0102   0.0056  -0.0028  -0.0060   0.0032   0.00    5.2
2173 371848.000    869160.4754  -5289361.3586   3444970.5403   1   8   0.0045   0.0101   0.0059  -0.0029  -0.0061   0.0024   0.00    5.2
2173 371849.000    869160.4759  -5289361.3584   3444970.5388   1   8   0.0041   0.0101   0.0060  -0.0027  -0.0060   0.0021   0.00    5.2
2173 371850.000    869160.4768  -5289361.3620   3444970.5424   1   8   0.0039   0.0100   0.0058  -0.0028  -0.0062   0.0025   0.00    5.2
2173 371851.000    869160.4750  -5289361.3624   3444970.5420   1   8   0.0045   0.0101   0.0062  -0.0028  -0.0060   0.0023   0.00    5.2
2173 371852.000    869160.4766  -5289361.3622   3444970.5417   1   8   0.0046   0.0101   0.0059  -0.0027  -0.0061   0.0027   0.00    5.2
2173 371853.000    869160.4760  -5289361.3609   3444970.5400   1   8   0.0046   0.0101   0.0064  -0.0031  -0.0060   0.0020   0.00    5.1
2173 371854.000    869160.4761  -5289361.3591   3444970.5401   1   8   0.0045   0.0101   0.0062  -0.0029  -0.0060   0.0017   0.00    5.1
2173 371855.000    869160.4760  -5289361.3657   3444970.5439   1   8   0.0045   0.0101   0.0056  -0.0026  -0.0060   0.0030   0.00    5.1
2173 371856.000    869160.4762  -5289361.3625   3444970.5412   1   8   0.0042   0.0101   0.0061  -0.0026  -0.0059   0.0026   0.00    5.0
2173 371857.000    869160.4784  -5289361.3635   3444970.5427   1   8   0.0041   0.0100   0.0057  -0.0030  -0.0060   0.0024   0.00    5.0
2173 371858.000    869160.4777  -5289361.3632   3444970.5432   1   8   0.0046   0.0101   0.0062  -0.0024  -0.0061   0.0020   0.00    5.0
2173 371859.000    869160.4781  -5289361.3590   3444970.5419   1   8   0.0041   0.0101   0.0059  -0.0025  -0.0061   0.0024   0.00    4.9
2173 371860.000    869160.4769  -5289361.3617   3444970.5415   1   8   0.0044   0.0101   0.0060  -0.0030  -0.0061   0.0022   0.00    4.9
2173 371861.000    869160.4777  -5289361.3638   3444970.5423   1   8   0.0045   0.0100   0.0058  -0.0030  -0.0062   0.0006   0.00    4.8
2173 371862.000    869160.4781  -5289361.3629   3444970.5419   1   8   0.0044   0.0101   0.0061  -0.0027  -0.0062   0.0020   0.00    4.8
2173 371863.000    869160.4774  -5289361.3636   3444970.5423   1   8   0.0045   0.0101   0.0055  -0.0028  -0.0062   0.0031   0.00    4.7
2173 371864.000    869160.4769  -5289361.3664   3444970.5425   1   8   0.0045   0.0101   0.0057  -0.0025  -0.0061   0.0029   0.00    4.6
2173 371865.000    869160.4775  -5289361.3663   3444970.5422   1   8   0.0044   0.0101   0.0060  -0.0024  -0.0061   0.0022   0.00    4.6
2173 371866.000    869160.4761  -5289361.3683   3444970.5443   1   8   0.0045   0.0101   0.0056  -0.0027  -0.0061   0.0024   0.00    4.6
2173 371867.000    869160.4780  -5289361.3671   3444970.5443   1   8   0.0041   0.0101   0.0055  -0.0028  -0.0060   0.0032   0.00    4.5
2173 371868.000    869160.4782  -5289361.3657   3444970.5429   1   8   0.0046   0.0102   0.0062  -0.0024  -0.0059   0.0020   0.00    4.5
2173 371869.000    869160.4756  -5289361.3662   3444970.5429   1   8   0.0044   0.0101   0.0060  -0.0028  -0.0062   0.0027   0.00    4.5
2173 371870.000    869160.4771  -5289361.3665   3444970.5441   1   8   0.0046   0.0101   0.0060  -0.0028  -0.0062   0.0016   0.00    4.5
2173 371871.000    869160.4766  -5289361.3693   3444970.5434   1   8   0.0046   0.0101   0.0060  -0.0026  -0.0060   0.0031   0.00    4.4
2173 371872.000    869160.4783  -5289361.3678   3444970.5448   1   8   0.0045   0.0101   0.0054  -0.0023  -0.0060   0.0030   0.00    4.4
2173 371873.000    869160.4783  -5289361.3674   3444970.5443   1   8   0.0045   0.0101   0.0055  -0.0026  -0.0062   0.0029   0.00    4.4
2173 371874.000    869160.4771  -5289361.3677   3444970.5438   1   8   0.0041   0.0102   0.0054  -0.0026  -0.0060   0.0031   0.00    4.3
2173 371875.000    869160.4781  -5289361.3640   3444970.5430   1   8   0.0045   0.0101   0.0059  -0.0030  -0.0061   0.0020   0.00    4.3
2173 371876.000    869160.4776  -5289361.3672   3444970.5420   1   8   0.0045   0.0102   0.0061  -0.0020  -0.0060   0.0025   0.00    4.3
2173 371877.000    869160.4783  -5289361.3650   3444970.5432   1   8   0.0045   0.0101   0.0059  -0.0024  -0.0060   0.0025   0.00    4.2
2173 371878.000    869160.4771  -5289361.3663   3444970.5430   1   8   0.0042   0.0101   0.0058  -0.0029  -0.0060   0.0029   0.00    4.2
2173 371879.000    869160.4784  -5289361.3675   3444970.5420   1   8   0.0043   0.0101   0.0061  -0.0026  -0.0061   0.0021   0.00    4.2
2173 371880.000    869160.4770  -5289361.3644   3444970.5422   1   8   0.0042   0.0101   0.0060  -0.0027  -0.0061   0.0026   0.00    4.2
2173 371881.000    869160.4756  -5289361.3656   3444970.5426   1   8   0.0046   0.0101   0.0063  -0.0025  -0.0060   0.0015   0.00    4.2
2173 371882.000    869160.4783  -5289361.3647   3444970.5409   1   8   0.0045   0.0101   0.0059  -0.0024  -0.0061   0.0027   0.00    4.2
2173 371883.000    869160.4787  -5289361.3620   3444970.5394   1   8   0.0043   0.0101   0.0055  -0.0025  -0.0060   0.0032   0.00    4.2
2173 371884.000    869160.4786  -5289361.3628   3444970.5401   1   8   0.0045   0.0101   0.0058  -0.0029  -0.0061   0.0021   0.00    4.1
2173 371885.000    869160.4777  -5289361.3627   3444970.5407   1   8   0.0042   0.0101   0.0058  -0.0026  -0.0062   0.0023   0.00    4.1
2173 371886.000    869160.4784  -5289361.3619   3444970.5394   1   8   0.0045   0.0101   0.0058  -0.0023  -0.0060   0.0034   0.00    4.1
2173 371887.000    869160.4785  -5289361.3619   3444970.5389   1   8   0.0046   0.0101   0.0059  -0.0025  -0.0060   0.0025   0.00    4.1
2173 371888.000    869160.4792  -5289361.3642   3444970.5402   1   8   0.0042   0.0100   0.0058  -0.0028  -0.0061   0.0023   0.00    4.1
2173 371889.000    869160.4775  -5289361.3637   3444970.5428   1   8   0.0043   0.0101   0.0057  -0.0024  -0.0062   0.0024   0.00    4.1
2173 371890.000    869160.4803  -5289361.3627   3444970.5406   1   8   0.0046   0.0101   0.0059  -0.0026  -0.0061   0.0026   0.00    4.1
2173 371891.000    869160.4790  -5289361.3660   3444970.5424   1   8   0.0045   0.0101   0.0059  -0.0027  -0.0062   0.0021   0.00    4.1
2173 371892.000    869160.4798  -5289361.3683   3444970.5434   1   8   0.0046   0.0101   0.0056  -0.0027  -0.0061   0.0031   0.00    4.1
2173 371893.000    869160.4811  -5289361.3666   3444970.5431   1   8   0.0045   0.0101   0.0060  -0.0027  -0.0061   0.0026   0.00    4.1
2173 371894.000    869160.4784  -5289361.3648   3444970.5437   1   8   0.0046   0.0100   0.0060  -0.0028  -0.0061   0.0022   0.00    4.1
2173 371895.000    869160.4820  -5289361.3665   3444970.5439   1   8   0.0044   0.0101   0.0058  -0.0027  -0.0059   0.0025   0.00    4.1
2173 371896.000    869160.4788  -5289361.3651   3444970.5432   1   8   0.0041   0.0100   0.0058  -0.0027  -0.0060   0.0022   0.00    4.1
2173 371897.000    869160.4783  -5289361.3648   3444970.5431   1   8   0.0043   0.0100   0.0059  -0.0029  -0.0062   0.0022   0.00    4.1
2173 371898.000    869160.4795  -5289361.3648   3444970.5439   1   8   0.0046   0.0101   0.0058  -0.0022  -0.0060   0.0032   0.00    4.1
2173 371899.000    869160.4792  -5289361.3666   3444970.5452   1   8   0.0043   0.0101   0.0060  -0.0019  -0.0061   0.0026   0.00    4.1
2173 371900.000    869160.4801  -5289361.3662   3444970.5458   1   8   0.0044   0.0102   0.0058  -0.0025  -0.0061   0.0026   0.00    4.1
2173 371901.000    869160.4802  -5289361.3669   3444970.5443   1   8   0.0048   0.0101   0.0059  -0.0023  -0.0062   0.0024   0.00    4.1
2173 371902.000    869160.4788  -5289361.3660   3444970.5454   1   8   0.0044   0.0101   0.0057  -0.0025  -0.0060   0.0032   0.00    4.1
2173 371903.000    869160.4792  -5289361.3652   3444970.5429   1   8   0.0045   0.0101   0.0063  -0.0023  -0.0061   0.0026   0.00    4.1
2173 371904.000    869160.4792  -5289361.3648   3444970.5438   1   8   0.0046   0.0101   0.0063  -0.0023  -0.0060   0.0015   0.00    4.2
2173 371905.000    869160.4804  -5289361.3645   3444970.5446   1   8   0.0043   0.0100   0.0060  -0.0029  -0.0061   0.0012   0.00    4.2
2173 371906.000    869160.4798  -5289361.3618   3444970.5434   1   8   0.0042   0.0101   0.0060  -0.0028  -0.0059   0.0021   0.00    4.2
2173 371907.000    869160.4803  -5289361.3670   3444970.5442   1   8   0.0046   0.0101   0.0059  -0.0026  -0.0060   0.0020   0.00    4.2
2173 371908.000    869160.4801  -5289361.3659   3444970.5441   1   8   0.0043   0.0100   0.0059  -0.0029  -0.0060   0.0019   0.00    4.2
2173 371909.000    869160.4805  -5289361.3686   3444970.5462   1   8   0.0047   0.0101   0.0062  -0.0026  -0.0060   0.0023   0.00    4.2
2173 371910.000    869160.4799  -5289361.3678   3444970.5460   1   8   0.0043   0.0101   0.0056  -0.0030  -0.0061   0.0030   0.00    4.2
2173 371911.000    869160.4797  -5289361.3659   3444970.5430   1   8   0.0046   0.0101   0.0059  -0.0023  -0.0060   0.0026   0.00    4.3
2173 371912.000    869160.4804  -5289361.3674   3444970.5474   1   8   0.0044   0.0101   0.0056  -0.0027  -0.0061   0.0027   0.00    4.3
2173 371913.000    869160.4800  -5289361.3636   3444970.5446   1   8   0.0044   0.0100   0.0059  -0.0029  -0.0062   0.0019   0.00    4.3
2173 371914.000    869160.4806  -5289361.3655   3444970.5471   1   8   0.0045   0.0101   0.0058  -0.0024  -0.0060   0.0023   0.00    4.3
2173 371915.000    869160.4785  -5289361.3672   3444970.5452   1   8   0.0044   0.0101   0.0057  -0.0028  -0.0059   0.0025   0.00    4.3
2173 371916.000    869160.4794  -5289361.3658   3444970.5469   1   8   0.0045   0.0102   0.0056  -0.0025  -0.0060   0.0030   0.00    4.3
2173 371917.000    869160.4810  -5289361.3665   3444970.5455   1   8   0.0045   0.0101   0.0056  -0.0024  -0.0060   0.0029   0.00    4.4
2173 371918.000    869160.4810  -5289361.3681   3444970.5462   1   8   0.0045   0.0101   0.0058  -0.0023  -0.0060   0.0028   0.00    4.4
2173 371919.000    869160.4809  -5289361.3666   3444970.5472   1   8   0.0046   0.0101   0.0057  -0.0026  -0.0060   0.0027   0.00    4.4
2173 371920.000    869160.4821  -5289361.3665   3444970.5487   1   8   0.0043   0.0101   0.0059  -0.0026  -0.0061   0.0028   0.00    4.4
2173 371921.000    869160.4820  -5289361.3650   3444970.5461   1   8   0.0043   0.0101   0.0055  -0.0028  -0.0061   0.0028   0.00    4.4
2173 371922.000    869160.4799  -5289361.3667   3444970.5458   1   8   0.0048   0.0101   0.0063  -0.0027  -0.0061   0.0021   0.00    4.5
2173 371923.000    869160.4792  -5289361.3660   3444970.5460   1   8   0.0044   0.0101   0.0056  -0.0028  -0.0061   0.0033   0.00    4.5
2173 371924.000    869160.4803  -5289361.3694   3444970.5475   1   8   0.0046   0.0101   0.0058  -0.0028  -0.0060   0.0025   0.00    4.5
2173 371925.000    869160.4831  -5289361.3699   3444970.5487   1   8   0.0043   0.0100   0.0057  -0.0025  -0.0061   0.0026   0.00    4.6
2173 371926.000    869160.4815  -5289361.3708   3444970.5483   1   8   0.0046   0.0101   0.0059  -0.0023  -0.0060   0.0027   0.00    4.6
2173 371927.000    869160.4821  -5289361.3701   3444970.5466   1   8   0.0042   0.0100   0.0058  -0.0029  -0.0060   0.0024   0.00    4.7
2173 371928.000    869160.4791  -5289361.3676   3444970.5466   1   8   0.0042   0.0101   0.0060  -0.0023  -0.0060   0.0025   0.00    4.7
2173 371929.000    869160.4819  -5289361.3725   3444970.5476   1   8   0.0048   0.0101   0.0061  -0.0026  -0.0060   0.0022   0.00    4.8
2173 371930.000    869160.4796  -5289361.3690   3444970.5466   1   8   0.0040   0.0100   0.0056  -0.0026  -0.0061   0.0027   0.00    4.8
2173 371931.000    869160.4804  -5289361.3719   3444970.5481   1   8   0.0041   0.0099   0.0064  -0.0029  -0.0060   0.0021   0.00    4.9
2173 371932.000    869160.4804  -5289361.3699   3444970.5469   1   8   0.0048   0.0101   0.0058  -0.0024  -0.0060   0.0025   0.00    4.9
2173 371933.000    869160.4796  -5289361.3696   3444970.5468   1   8   0.0044   0.0100   0.0057  -0.0025  -0.0060   0.0023   0.00    5.0
2173 371934.000    869160.4802  -5289361.3712   3444970.5478   1   8   0.0045   0.0101   0.0059  -0.0024  -0.0060   0.0027   0.00    5.0
2173 371935.000    869160.4793  -5289361.3720   3444970.5473   1   8   0.0044   0.0100   0.0056  -0.0027  -0.0061   0.0031   0.00    5.1
2173 371936.000    869160.4801  -5289361.3675   3444970.5462   1   8   0.0044   0.0100   0.0059  -0.0026  -0.0061   0.0032   0.00    5.1
2173 371937.000    869160.4798  -5289361.3688   3444970.5481   1   8   0.0043   0.0100   0.0061  -0.0030  -0.0061   0.0016   0.00    5.2
2173 371938.000    869160.4803  -5289361.3713   3444970.5463   1   8   0.0041   0.0100   0.0057  -0.0028  -0.0060   0.0025   0.00    5.2
2173 371939.000    869160.4796  -5289361.3653   3444970.5446   1   8   0.0043   0.0100   0.0058  -0.0028  -0.0061   0.0024   0.00    5.3
2173 371940.000    869160.4799  -5289361.3698   3444970.5476   1   8   0.0043   0.0100   0.0061  -0.0026  -0.0061   0.0023   0.00    5.3
2173 371941.000    869160.4813  -5289361.3687   3444970.5444   1   8   0.0042   0.0100   0.0060  -0.0027  -0.0061   0.0019   0.00    5.4
2173 371942.000    869160.4813  -5289361.3714   3444970.5481   1   8   0.0044   0.0100   0.0060  -0.0028  -0.0062   0.0023   0.00    5.4
2173 371943.000    869160.4802  -5289361.3698   3444970.5454   1   8   0.0046   0.0100   0.0059  -0.0026  -0.0061   0.0018   0.00    5.4
2173 371944.000    869160.4824  -5289361.3716   3444970.5493   1   8   0.0044   0.0101   0.0058  -0.0026  -0.0059   0.0025   0.00    5.5
2173 371945.000    869160.4807  -5289361.3732   3444970.5515   1   8   0.0043   0.0102   0.0058  -0.0026  -0.0060   0.0029   0.00    5.5
2173 371946.000    869160.4803  -5289361.3703   3444970.5464   1   8   0.0048   0.0101   0.0062  -0.0022  -0.0060   0.0018   0.00    5.6
2173 371947.000    869160.4799  -5289361.3700   3444970.5465   1   8   0.0049   0.0101   0.0061  -0.0024  -0.0061   0.0029   0.00    5.6
2173 371948.000    869160.4801  -5289361.3669   3444970.5461   1   8   0.0043   0.0100   0.0061  -0.0026  -0.0061   0.0024   0.00    5.7
2173 371949.000    869160.4809  -5289361.3711   3444970.5478   1   8   0.0044   0.0101   0.0061  -0.0024  -0.0061   0.0028   0.00    5.7
2173 371950.000    869160.4776  -5289361.3729   3444970.5479   1   8   0.0044   0.0100   0.0060  -0.0027  -0.0062   0.0021   0.00    5.8
2173 371951.000    869160.4831  -5289361.3774   3444970.5490   1   8   0.0045   0.0101   0.0054  -0.0022  -0.0060   0.0031   0.00    5.8
2173 371952.000    869160.4810  -5289361.3716   3444970.5465   1   8   0.0042   0.0100   0.0060  -0.0028  -0.0061   0.0018   0.00    5.9
2173 371953.000    869160.4827  -5289361.3752   3444970.5478   1   8   0.0042   0.0100   0.0059  -0.0029  -0.0059   0.0021   0.00    5.9
2173 371954.000    869160.4812  -5289361.3717   3444970.5465   1   8   0.0047   0.0100   0.0061  -0.0025  -0.0061   0.0020   0.00    6.0
2173 371955.000    869160.4804  -5289361.3766   3444970.5496   1   8   0.0044   0.0100   0.0057  -0.0024  -0.0061   0.0028   0.00    6.0
2173 371956.000    869160.4819  -5289361.3766   3444970.5484   1   8   0.0047   0.0102   0.0057  -0.0021  -0.0062   0.0033   0.00    6.1
2173 371957.000    869160.4806  -5289361.3748   3444970.5491   1   8   0.0044   0.0100   0.0062  -0.0029  -0.0060   0.0019   0.00    6.2
2173 371958.000    869160.4829  -5289361.3746   3444970.5486   1   8   0.0043   0.0100   0.0057  -0.0030  -0.0060   0.0018   0.00    6.2
2173 371959.000    869160.4823  -5289361.3772   3444970.5480   1   8   0.0043   0.0101   0.0056  -0.0026  -0.0060   0.0023   0.00    6.3
2173 371960.000    869160.4807  -5289361.3770   3444970.5479   1   8   0.0045   0.0101   0.0059  -0.0026  -0.0061   0.0024   0.00    6.4
2173 371961.000    869160.4801  -5289361.3745   3444970.5475   1   8   0.0040   0.0100   0.0059  -0.0027  -0.0060   0.0026   0.00    6.4
2173 371962.000    869160.4824  -5289361.3773   3444970.5469   1   8   0.0045   0.0101   0.0058  -0.0022  -0.0060   0.0030   0.00    6.5
2173 371963.000    869160.4815  -5289361.3762   3444970.5469   1   8   0.0043   0.0100   0.0060  -0.0030  -0.0061   0.0022   0.00    6.6
2173 371964.000    869160.4817  -5289361.3793   3444970.5492   1   8   0.0045   0.0101   0.0057  -0.0023  -0.0062   0.0031   0.00    6.6
2173 371965.000    869160.4809  -5289361.3735   3444970.5485   1   8   0.0043   0.0100   0.0061  -0.0030  -0.0060   0.0022   0.00    6.7
2173 371966.000    869160.4814  -5289361.3754   3444970.5479   1   8   0.0046   0.0101   0.0060  -0.0025  -0.0060   0.0023   0.00    6.8
2173 371967.000    869160.4821  -5289361.3728   3444970.5481   1   8   0.0040   0.0100   0.0060  -0.0028  -0.0060   0.0020   0.00    6.9
2173 371968.000    869160.4844  -5289361.3780   3444970.5492   1   8   0.0046   0.0101   0.0060  -0.0028  -0.0059   0.0022   0.00    6.9
2173 371969.000    869160.4828  -5289361.3753   3444970.5503   1   8   0.0047   0.0101   0.0061  -0.0022  -0.0061   0.0019   0.00    7.0
2173 371970.000    869160.4821  -5289361.3762   3444970.5508   1   8   0.0042   0.0100   0.0060  -0.0031  -0.0061   0.0014   0.00    7.1
2173 371971.000    869160.4807  -5289361.3746   3444970.5495   1   8   0.0044   0.0100   0.0056  -0.0025  -0.0061   0.0026   0.00    7.2
2173 371972.000    869160.4837  -5289361.3743   3444970.5504   1   8   0.0044   0.0100   0.0060  -0.0024  -0.0062   0.0017   0.00    7.2
2173 371973.000    869160.4806  -5289361.3745   3444970.5493   1   8   0.0042   0.0101   0.0061  -0.0026  -0.0060   0.0026   0.00    7.3
2173 371974.000    869160.4822  -5289361.3738   3444970.5483   1   8   0.0047   0.0101   0.0062  -0.0024  -0.0060   0.0024   0.00    7.4
2173 371975.000    869160.4807  -5289361.3755   3444970.5494   1   8   0.0044   0.0100   0.0060  -0.0029  -0.0060   0.0018   0.00    7.5
2173 371976.000    869160.4819  -5289361.3743   3444970.5508   1   8   0.0048   0.0101   0.0062  -0.0023  -0.0060   0.0024   0.00    7.6
2173 371977.000    869160.4797  -5289361.3690   3444970.5477   1   8   0.0040   0.0100   0.0056  -0.0024  -0.0060   0.0031   0.00    7.7
2173 371978.000    869160.4804  -5289361.3717   3444970.5454   1   8   0.0044   0.0100   0.0061  -0.0026  -0.0061   0.0024   0.00    7.8
2173 371979.000    869160.4800  -5289361.3718   3444970.5468   1   8   0.0043   0.0100   0.0060  -0.0027  -0.0060   0.0020   0.00    7.9
2173 371980.000    869160.4801  -5289361.3747   3444970.5474   1   8   0.0045   0.0101   0.0060  -0.0024  -0.0059   0.0028   0.00    8.0
2173 371981.000    869160.4807  -5289361.3713   3444970.5466   1   8   0.0045   0.0100   0.0059  -0.0027  -0.0060   0.0021   0.00    8.1
2173 371982.000    869160.4815  -5289361.3738   3444970.5464   1   8   0.0042   0.0099   0.0055  -0.0028  -0.0059   0.0025   0.00    8.2
2173 371983.000    869160.4810  -5289361.3740   3444970.5466   1   8   0.0043   0.0100   0.0059  -0.0029  -0.0061   0.0017   0.00    8.3
2173 371984.000    869160.4807  -5289361.3712   3444970.5462   1   8   0.0044   0.0100   0.0058  -0.0025  -0.0059   0.0027   0.00    8.4
2173 371985.000    869160.4788  -5289361.3725   3444970.5460   1   8   0.0044   0.0101   0.0058  -0.0025  -0.0060   0.0027   0.00    8.5
2173 371986.000    869160.4805  -5289361.3722   3444970.5464   1   8   0.0044   0.0101   0.0058  -0.0026  -0.0061   0.0026   0.00    8.7
2173 371987.000    869160.4803  -5289361.3716   3444970.5464   1   8   0.0043   0.0101   0.0060  -0.0022  -0.0061   0.0026   0.00    8.8
2173 371988.000    869160.4805  -5289361.3728   3444970.5471   1   8   0.0042   0.0100   0.0059  -0.0033  -0.0061   0.0025   0.00    8.9
2173 371989.000    869160.4800  -5289361.3660   3444970.5441   1   8   0.0045   0.0100   0.0056  -0.0028  -0.0062   0.0023   0.00    9.0
2173 371990.000    869160.4792  -5289361.3694   3444970.5433   1   8   0.0046   0.0100   0.0061  -0.0027  -0.0060   0.0020   0.00    9.1
2173 371991.000    869160.4805  -5289361.3676   3444970.5436   1   8   0.0044   0.0100   0.0058  -0.0026  -0.0061   0.0027   0.00    9.2
2173 371992.000    869160.4809  -5289361.3688   3444970.5439   1   8   0.0044   0.0100   0.0057  -0.0029  -0.0061   0.0025   0.00    9.3
2173 371993.000    869160.4808  -5289361.3705   3444970.5447   1   8   0.0045   0.0100   0.0061  -0.0027  -0.0059   0.0025   0.00    9.4
2173 371994.000    869160.4811  -5289361.3710   3444970.5444   1   8   0.0041   0.0100   0.0055  -0.0030  -0.0060   0.0025   0.00    9.5
2173 371995.000    869160.4795  -5289361.3732   3444970.5441   1   8   0.0045   0.0101   0.0057  -0.0023  -0.0059   0.0028   0.00    9.6
2173 371996.000    869160.4815  -5289361.3731   3444970.5430   1   8   0.0045   0.0100   0.0059  -0.0026  -0.0060   0.0023   0.00    9.7
2173 371997.000    869160.4804  -5289361.3722   3444970.5460   1   8   0.0047   0.0101   0.0060  -0.0025  -0.0059   0.0025   0.00    9.8
2173 371998.000    869160.4791  -5289361.3701   3444970.5438   1   8   0.0043   0.0099   0.0061  -0.0029  -0.0062   0.0025   0.00    9.9
2173 371999.000    869160.4798  -5289361.3715   3444970.5449   1   8   0.0043   0.0100   0.0060  -0.0028  -0.0061   0.0027   0.00    9.9
2173 372000.000    869160.4800  -5289361.3697   3444970.5429   1   8   0.0040   0.0100   0.0058  -0.0025  -0.0062   0.0027   0.00   10.1
2173 372001.000    869160.4785  -5289361.3679   3444970.5437   1   8   0.0045   0.0100   0.0060  -0.0026  -0.0062   0.0023   0.00   10.1
2173 372002.000    869160.4810  -5289361.3712   3444970.5449   1   8   0.0044   0.0100   0.0058  -0.0023  -0.0059   0.0022   0.00   10.2
2173 372003.000    869160.4812  -5289361.3725   3444970.5451   1   8   0.0048   0.0100   0.0061  -0.0030  -0.0062   0.0014   0.00   10.3
2173 372004.000    869160.4789  -5289361.3701   3444970.5449   1   8   0.0046   0.0100   0.0064  -0.0025  -0.0059   0.0019   0.00   10.4
2173 372005.000    869160.4782  -5289361.3711   3444970.5455   1   8   0.0045   0.0100   0.0060  -0.0030  -0.0060   0.0014   0.00   10.5
2173 372006.000    869160.4792  -5289361.3743   3444970.5475   1   8   0.0044   0.0100   0.0058  -0.0028  -0.0059   0.0025   0.00   10.6
2173 372007.000    869160.4790  -5289361.3675   3444970.5455   1   8   0.0043   0.0100   0.0058  -0.0027  -0.0061   0.0026   0.00   10.7
2173 372008.000    869160.4780  -5289361.3707   3444970.5456   1   8   0.0046   0.0100   0.0060  -0.0024  -0.0060   0.0025   0.00   10.9
2173 372009.000    869160.4788  -5289361.3726   3444970.5455   1   8   0.0044   0.0102   0.0059  -0.0026  -0.0060   0.0027   0.00   11.0
2173 372010.000    869160.4798  -5289361.3737   3444970.5466   1   8   0.0047   0.0100   0.0062  -0.0025  -0.0059   0.0024   0.00   11.2
2173 372011.000    869160.4790  -5289361.3744   3444970.5471   1   8   0.0045   0.0100   0.0064  -0.0024  -0.0060   0.0020   0.00   11.3
2173 372012.000    869160.4798  -5289361.3747   3444970.5467   1   8   0.0044   0.0100   0.0059  -0.0026  -0.0059   0.0026   0.00   11.4
2173 372013.000    869160.4802  -5289361.3735   3444970.5466   1   8   0.0044   0.0100   0.0060  -0.0024  -0.0059   0.0019   0.00   11.5
2173 372014.000    869160.4790  -5289361.3719   3444970.5459   1   8   0.0046   0.0101   0.0057  -0.0025  -0.0060   0.0029   0.00   11.6
2173 372015.000    869160.4793  -5289361.3716   3444970.5460   1   8   0.0043   0.0100   0.0057  -0.0027  -0.0060   0.0029   0.00   11.8
2173 372016.000    869160.4786  -5289361.3749   3444970.5472   1   8   0.0043   0.0100   0.0057  -0.0029  -0.0061   0.0030   0.00   11.9
2173 372017.000    869160.4788  -5289361.3735   3444970.5459   1   8   0.0045   0.0100   0.0060  -0.0026  -0.0058   0.0022   0.00   12.0
2173 372018.000    869160.4787  -5289361.3739   3444970.5468   1   8   0.0043   0.0100   0.0059  -0.0026  -0.0060   0.0021   0.00   12.2
2173 372019.000    869160.4795  -5289361.3755   3444970.5472   1   8   0.0045   0.0099   0.0062  -0.0026  -0.0063   0.0022   0.00   12.3
2173 372020.000    869160.4813  -5289361.3766   3444970.5473   1   8   0.0043   0.0099   0.0057  -0.0028  -0.0062   0.0024   0.00   12.4
2173 372021.000    869160.4807  -5289361.3784   3444970.5484   1   8   0.0044   0.0100   0.0058  -0.0026  -0.0061   0.0028   0.00   12.6
2173 372022.000    869160.4798  -5289361.3772   3444970.5486   1   8   0.0048   0.0100   0.0061  -0.0020  -0.0061   0.0022   0.00   12.7
2173 372023.000    869160.4802  -5289361.3787   3444970.5499   1   8   0.0043   0.0101   0.0058  -0.0022  -0.0060   0.0028   0.00   12.8
2173 372024.000    869160.4802  -5289361.3791   3444970.5475   1   8   0.0045   0.0100   0.0061  -0.0024  -0.0062   0.0022   0.00   12.9
2173 372025.000    869160.4807  -5289361.3789   3444970.5477   1   8   0.0047   0.0100   0.0063  -0.0028  -0.0061   0.0025   0.00   13.1
2173 372026.000    869160.4823  -5289361.3776   3444970.5487   1   8   0.0043   0.0100   0.0059  -0.0023  -0.0059   0.0025   0.00   13.2
2173 372027.000    869160.4826  -5289361.3803   3444970.5497   1   8   0.0045   0.0100   0.0060  -0.0027  -0.0060   0.0026   0.00   13.4
2173 372028.000    869160.4816  -5289361.3835   3444970.5497   1   8   0.0041   0.0100   0.0061  -0.0025  -0.0061   0.0029   0.00   13.5
2173 372029.000    869160.4828  -5289361.3778   3444970.5491   1   8   0.0043   0.0101   0.0060  -0.0027  -0.0061   0.0022   0.00   13.6
2173 372030.000    869160.4838  -5289361.3814   3444970.5488   1   8   0.0043   0.0099   0.0059  -0.0027  -0.0061   0.0026   0.00   13.8
2173 372031.000    869160.4842  -5289361.3813   3444970.5501   1   8   0.0045   0.0100   0.0062  -0.0026  -0.0060   0.0023   0.00   13.9
2173 372032.000    869160.4833  -5289361.3817   3444970.5482   1   8   0.0043   0.0100   0.0059  -0.0025  -0.0061   0.0023   0.00   14.0
2173 372033.000    869160.4835  -5289361.3791   3444970.5475   1   8   0.0044   0.0100   0.0056  -0.0024  -0.0060   0.0030   0.00   14.1
2173 372034.000    869160.4830  -5289361.3817   3444970.5471   1   8   0.0044   0.0100   0.0063  -0.0026  -0.0061   0.0008   0.00   14.2
2173 372035.000    869160.4833  -5289361.3816   3444970.5471   1   8   0.0047   0.0100   0.0060  -0.0027  -0.0060   0.0021   0.00   14.4
2173 372036.000    869160.4823  -5289361.3824   3444970.5472   1   8   0.0045   0.0101   0.0059  -0.0026  -0.0061   0.0026   0.00   14.5
2173 372037.000    869160.4829  -5289361.3819   3444970.5475   1   8   0.0045   0.0100   0.0062  -0.0022  -0.0061   0.0025   0.00   14.6
2173 372038.000    869160.4830  -5289361.3816   3444970.5475   1   8   0.0043   0.0100   0.0060  -0.0027  -0.0060   0.0027   0.00   14.7
2173 372039.000    869160.4824  -5289361.3822   3444970.5469   1   8   0.0042   0.0100   0.0057  -0.0025  -0.0059   0.0030   0.00   14.9
2173 372040.000    869160.4844  -5289361.3828   3444970.5475   1   8   0.0045   0.0101   0.0061  -0.0025  -0.0059   0.0028   0.00   15.0
2173 372041.000    869160.4851  -5289361.3822   3444970.5456   1   8   0.0046   0.0099   0.0059  -0.0027  -0.0061   0.0020   0.00   15.1
2173 372042.000    869160.4850  -5289361.3824   3444970.5460   1   8   0.0041   0.0100   0.0056  -0.0028  -0.0060   0.0029   0.00   15.3
2173 372043.000    869160.4829  -5289361.3824   3444970.5464   1   8   0.0045   0.0100   0.0058  -0.0026  -0.0061   0.0027   0.00   15.4
2173 372044.000    869160.4847  -5289361.3828   3444970.5471   1   8   0.0041   0.0100   0.0056  -0.0027  -0.0061   0.0029   0.00   15.5
2173 372045.000    869160.4848  -5289361.3809   3444970.5447   1   8   0.0045   0.0100   0.0063  -0.0027  -0.0060   0.0021   0.00   15.7
2173 372046.000    869160.4834  -5289361.3806   3444970.5460   1   8   0.0045   0.0101   0.0060  -0.0021  -0.0058   0.0022   0.00   15.7
2173 372047.000    869160.4825  -5289361.3803   3444970.5459   1   8   0.0043   0.0101   0.0061  -0.0027  -0.0061   0.0022   0.00   15.9
2173 372048.000    869160.4833  -5289361.3780   3444970.5455   1   8   0.0041   0.0099   0.0059  -0.0028  -0.0062   0.0022   0.00   16.0
2173 372049.000    869160.4830  -5289361.3777   3444970.5454   1   8   0.0043   0.0100   0.0058  -0.0025  -0.0060   0.0020   0.00   16.1
2173 372050.000    869160.4829  -5289361.3762   3444970.5445   1   8   0.0042   0.0100   0.0059  -0.0023  -0.0060   0.0027   0.00   16.3
2173 372051.000    869160.4838  -5289361.3799   3444970.5472   1   8   0.0042   0.0099   0.0059  -0.0030  -0.0060   0.0022   0.00   16.4
2173 372052.000    869160.4831  -5289361.3757   3444970.5430   1   8   0.0041   0.0100   0.0055  -0.0026  -0.0060   0.0025   0.00   16.5
2173 372053.000    869160.4834  -5289361.3793   3444970.5448   1   8   0.0048   0.0100   0.0061  -0.0027  -0.0062   0.0022   0.00   16.6
2173 372054.000    869160.4834  -5289361.3799   3444970.5453   1   8   0.0045   0.0100   0.0061  -0.0025  -0.0061   0.0021   0.00   16.8
2173 372055.000    869160.4832  -5289361.3783   3444970.5457   1   8   0.0043   0.0099   0.0056  -0.0026  -0.0060   0.0030   0.00   16.9
2173 372056.000    869160.4822  -5289361.3768   3444970.5451   1   8   0.0044   0.0100   0.0061  -0.0027  -0.0060   0.0029   0.00   17.0
2173 372057.000    869160.4814  -5289361.3761   3444970.5447   1   8   0.0047   0.0100   0.0065  -0.0027  -0.0060   0.0012   0.00   17.2
2173 372058.000    869160.4836  -5289361.3775   3444970.5443   1   8   0.0041   0.0099   0.0055  -0.0028  -0.0062   0.0029   0.00   17.3
2173 372059.000    869160.4824  -5289361.3765   3444970.5458   1   8   0.0046   0.0100   0.0059  -0.0025  -0.0060   0.0027   0.00   17.5
2173 372060.000    869160.4843  -5289361.3749   3444970.5430   1   8   0.0043   0.0099   0.0056  -0.0029  -0.0061   0.0025   0.00   17.6
2173 372061.000    869160.4821  -5289361.3764   3444970.5445   1   8   0.0042   0.0100   0.0061  -0.0023  -0.0062   0.0024   0.00   17.8
2173 372062.000    869160.4825  -5289361.3763   3444970.5443   1   8   0.0044   0.0100   0.0058  -0.0020  -0.0060   0.0029   0.00   17.9
2173 372063.000    869160.4814  -5289361.3787   3444970.5441   1   8   0.0042   0.0099   0.0057  -0.0028  -0.0061   0.0031   0.00   18.0
2173 372064.000    869160.4839  -5289361.3750   3444970.5415   1   8   0.0042   0.0100   0.0058  -0.0026  -0.0061   0.0023   0.00   18.2
2173 372065.000    869160.4820  -5289361.3754   3444970.5417   1   8   0.0044   0.0101   0.0058  -0.0024  -0.0060   0.0029   0.00   18.3
2173 372066.000    869160.4821  -5289361.3752   3444970.5416   1   8   0.0044   0.0100   0.0057  -0.0026  -0.0060   0.0031   0.00   18.4
2173 372067.000    869160.4823  -5289361.3741   3444970.5415   1   8   0.0043   0.0100   0.0060  -0.0025  -0.0060   0.0018   0.00   18.5
2173 372068.000    869160.4834  -5289361.3728   3444970.5432   1   8   0.0044   0.0100   0.0056  -0.0025  -0.0062   0.0029   0.00   18.7
2173 372069.000    869160.4838  -5289361.3741   3444970.5426   1   8   0.0047   0.0100   0.0062  -0.0023  -0.0060   0.0022   0.00   18.9
2173 372070.000    869160.4828  -5289361.3730   3444970.5434   1   8   0.0046   0.0101   0.0057  -0.0021  -0.0060   0.0033   0.00   19.0
2173 372071.000    869160.4824  -5289361.3731   3444970.5427   1   8   0.0043   0.0100   0.0057  -0.0029  -0.0060   0.0025   0.00   19.2
2173 372072.000    869160.4831  -5289361.3733   3444970.5428   1   8   0.0047   0.0100   0.0063  -0.0025  -0.0060   0.0023   0.00   19.3
2173 372073.000    869160.4818  -5289361.3690   3444970.5400   1   8   0.0045   0.0100   0.0061  -0.0026  -0.0060   0.0024   0.00   19.4
2173 372074.000    869160.4820  -5289361.3736   3444970.5421   1   8   0.0043   0.0100   0.0059  -0.0026  -0.0060   0.0022   0.00   19.5
2173 372075.000    869160.4842  -5289361.3732   3444970.5427   1   8   0.0045   0.0100   0.0060  -0.0022  -0.0061   0.0027   0.00   19.7
2173 372076.000    869160.4830  -5289361.3717   3444970.5427   1   8   0.0042   0.0099   0.0062  -0.0029  -0.0061   0.0021   0.00   19.8
2173 372077.000    869160.4842  -5289361.3682   3444970.5406   1   8   0.0049   0.0100   0.0065  -0.0026  -0.0060   0.0016   0.00   19.9
2173 372078.000    869160.4825  -5289361.3725   3444970.5435   1   8   0.0041   0.0099   0.0057  -0.0028  -0.0060   0.0024   0.00   20.1
2173 372079.000    869160.4842  -5289361.3727   3444970.5450   1   8   0.0048   0.0099   0.0061  -0.0029  -0.0060   0.0019   0.00   20.2
2173 372080.000    869160.4827  -5289361.3710   3444970.5419   1   8   0.0042   0.0100   0.0061  -0.0025  -0.0061   0.0023   0.00   20.3
2173 372081.000    869160.4823  -5289361.3718   3444970.5430   1   8   0.0047   0.0100   0.0060  -0.0028  -0.0060   0.0030   0.00   20.4
2173 372082.000    869160.4840  -5289361.3713   3444970.5439   1   8   0.0044   0.0099   0.0056  -0.0027  -0.0060   0.0029   0.00   20.6
2173 372083.000    869160.4832  -5289361.3693   3444970.5423   1   8   0.0046   0.0100   0.0058  -0.0022  -0.0060   0.0030   0.00   20.7
2173 372084.000    869160.4844  -5289361.3703   3444970.5433   1   8   0.0046   0.0099   0.0060  -0.0026  -0.0061   0.0020   0.00   20.9
2173 372085.000    869160.4837  -5289361.3720   3444970.5438   1   8   0.0046   0.0101   0.0058  -0.0024  -0.0058   0.0024   0.00   21.0
2173 372086.000    869160.4827  -5289361.3722   3444970.5442   1   8   0.0045   0.0100   0.0058  -0.0023  -0.0060   0.0026   0.00   21.2
2173 372087.000    869160.4837  -5289361.3724   3444970.5453   1   8   0.0044   0.0100   0.0058  -0.0020  -0.0060   0.0029   0.00   21.3
2173 372088.000    869160.4839  -5289361.3676   3444970.5437   1   8   0.0043   0.0099   0.0056  -0.0028  -0.0060   0.0026   0.00   21.5
2173 372089.000    869160.4829  -5289361.3690   3444970.5419   1   8   0.0047   0.0100   0.0062  -0.0029  -0.0060   0.0023   0.00   21.6
2173 372090.000    869160.4829  -5289361.3700   3444970.5434   1   8   0.0043   0.0099   0.0059  -0.0025  -0.0061   0.0026   0.00   21.8
2173 372091.000    869160.4854  -5289361.3698   3444970.5441   1   8   0.0044   0.0100   0.0058  -0.0024  -0.0059   0.0023   0.00   22.0
2173 372092.000    869160.4825  -5289361.3714   3444970.5441   1   8   0.0047   0.0099   0.0059  -0.0023  -0.0060   0.0027   0.00   22.1
2173 372093.000    869160.4835  -5289361.3676   3444970.5437   1   8   0.0045   0.0099   0.0058  -0.0027  -0.0061   0.0028   0.00   22.2
2173 372094.000    869160.4834  -5289361.3675   3444970.5440   1   8   0.0046   0.0100   0.0061  -0.0026  -0.0060   0.0022   0.00   22.4
2173 372095.000    869160.4847  -5289361.3704   3444970.5435   1   8   0.0043   0.0100   0.0061  -0.0020  -0.0061   0.0026   0.00   22.5
2173 372096.000    869160.4835  -5289361.3691   3444970.5440   1   8   0.0041   0.0100   0.0058  -0.0027  -0.0059   0.0028   0.00   22.6
2173 372097.000    869160.4835  -5289361.3647   3444970.5406   1   8   0.0045   0.0099   0.0061  -0.0025  -0.0060   0.0017   0.00   22.8
2173 372098.000    869160.4850  -5289361.3671   3444970.5433   1   8   0.0043   0.0100   0.0060  -0.0024  -0.0061   0.0026   0.00   22.9
2173 372099.000    869160.4829  -5289361.3683   3444970.5440   1   8   0.0045   0.0100   0.0058  -0.0021  -0.0060   0.0026   0.00   23.0
2173 372100.000    869160.4834  -5289361.3668   3444970.5435   1   8   0.0045   0.0101   0.0059  -0.0024  -0.0059   0.0023   0.00   23.0
2173 372101.000    869160.4820  -5289361.3701   3444970.5459   1   8   0.0049   0.0099   0.0063  -0.0025  -0.0061   0.0017   0.00   23.1
2173 372102.000    869160.4822  -5289361.3700   3444970.5448   1   8   0.0042   0.0099   0.0059  -0.0027  -0.0059   0.0022   0.00   23.2
2173 372103.000    869160.4827  -5289361.3663   3444970.5446   1   8   0.0039   0.0099   0.0056  -0.0022  -0.0062   0.0030   0.00   23.3
2173 372104.000    869160.4818  -5289361.3654   3444970.5434   1   8   0.0044   0.0099   0.0062  -0.0027  -0.0062   0.0015   0.00   23.3
2173 372105.000    869160.4834  -5289361.3671   3444970.5448   1   8   0.0046   0.0100   0.0055  -0.0020  -0.0059   0.0029   0.00   23.4
2173 372106.000    869160.4816  -5289361.3675   3444970.5456   1   8   0.0045   0.0100   0.0059  -0.0027  -0.0061   0.0031   0.00   23.5
2173 372107.000    869160.4826  -5289361.3673   3444970.5452   1   8   0.0045   0.0100   0.0053  -0.0027  -0.0060   0.0027   0.00   23.6
2173 372108.000    869160.4824  -5289361.3680   3444970.5455   1   8   0.0043   0.0100   0.0060  -0.0022  -0.0060   0.0030   0.00   23.6
2173 372109.000    869160.4830  -5289361.3699   3444970.5460   1   8   0.0047   0.0100   0.0060  -0.0021  -0.0059   0.0022   0.00   23.7
2173 372110.000    869160.4830  -5289361.3678   3444970.5438   1   8   0.0043   0.0099   0.0060  -0.0027  -0.0060   0.0019   0.00   23.7
2173 372111.000    869160.4834  -5289361.3675   3444970.5437   1   8   0.0043   0.0100   0.0059  -0.0025  -0.0059   0.0017   0.00   23.8
2173 372112.000    869160.4823  -5289361.3686   3444970.5448   1   8   0.0045   0.0099   0.0060  -0.0027  -0.0061   0.0027   0.00   23.8
2173 372113.000    869160.4836  -5289361.3692   3444970.5455   1   8   0.0041   0.0100   0.0057  -0.0026  -0.0059   0.0024   0.00   23.9
2173 372114.000    869160.4826  -5289361.3669   3444970.5445   1   8   0.0046   0.0099   0.0062  -0.0023  -0.0060   0.0028   0.00   23.9
2173 372115.000    869160.4830  -5289361.3687   3444970.5454   1   8   0.0045   0.0099   0.0061  -0.0026  -0.0061   0.0022   0.00   23.9
2173 372116.000    869160.4827  -5289361.3665   3444970.5441   1   8   0.0043   0.0098   0.0063  -0.0029  -0.0062   0.0017   0.00   23.9
2173 372117.000    869160.4825  -5289361.3667   3444970.5448   1   8   0.0046   0.0101   0.0059  -0.0023  -0.0059   0.0028   0.00   23.9
2173 372118.000    869160.4823  -5289361.3655   3444970.5423   1   8   0.0045   0.0099   0.0058  -0.0024  -0.0061   0.0025   0.00   24.0
2173 372119.000    869160.4816  -5289361.3631   3444970.5432   1   8   0.0044   0.0099   0.0062  -0.0027  -0.0060   0.0019   0.00   24.0
2173 372120.000    869160.4826  -5289361.3625   3444970.5453   1   8   0.0043   0.0100   0.0060  -0.0023  -0.0060   0.0019   0.00   24.0
2173 372121.000    869160.4825  -5289361.3638   3444970.5433   1   8   0.0043   0.0099   0.0059  -0.0027  -0.0062   0.0024   0.00   24.0
2173 372122.000    869160.4827  -5289361.3660   3444970.5439   1   8   0.0042   0.0098   0.0059  -0.0030  -0.0062   0.0027   0.00   24.0
2173 372123.000    869160.4818  -5289361.3633   3444970.5439   1   8   0.0042   0.0099   0.0060  -0.0023  -0.0061   0.0023   0.00   24.0
2173 372124.000    869160.4802  -5289361.3625   3444970.5431   1   8   0.0042   0.0099   0.0063  -0.0028  -0.0060   0.0017   0.00   24.0
2173 372125.000    869160.4803  -5289361.3646   3444970.5442   1   8   0.0043   0.0099   0.0061  -0.0027  -0.0060   0.0023   0.00   24.0
2173 372126.000    869160.4805  -5289361.3647   3444970.5422   1   8   0.0044   0.0099   0.0058  -0.0025  -0.0058   0.0025   0.00   24.0
2173 372127.000    869160.4826  -5289361.3627   3444970.5408   1   8   0.0046   0.0100   0.0056  -0.0025  -0.0061   0.0031   0.00   24.0
2173 372128.000    869160.4805  -5289361.3627   3444970.5428   1   8   0.0046   0.0100   0.0060  -0.0023  -0.0060   0.0025   0.00   24.0
2173 372129.000    869160.4818  -5289361.3645   3444970.5421   1   8   0.0046   0.0100   0.0064  -0.0023  -0.0060   0.0021   0.00   24.0
2173 372130.000    869160.4831  -5289361.3641   3444970.5411   1   8   0.0047   0.0100   0.0059  -0.0020  -0.0060   0.0025   0.00   23.9
2173 372131.000    869160.4836  -5289361.3642   3444970.5410   1   8   0.0046   0.0100   0.0055  -0.0020  -0.0060   0.0034   0.00   23.9
2173 372132.000    869160.4833  -5289361.3662   3444970.5411   1   8   0.0045   0.0100   0.0060  -0.0024  -0.0061   0.0024   0.00   23.9
2173 372133.000    869160.4836  -5289361.3625   3444970.5395   1   8   0.0040   0.0099   0.0057  -0.0022  -0.0061   0.0030   0.00   23.9
2173 372134.000    869160.4831  -5289361.3668   3444970.5426   1   8   0.0046   0.0101   0.0064  -0.0024  -0.0061   0.0019   0.00   23.9
2173 372135.000    869160.4831  -5289361.3667   3444970.5407   1   8   0.0047   0.0100   0.0058  -0.0022  -0.0060   0.0028   0.00   23.9
2173 372136.000    869160.4835  -5289361.3660   3444970.5419   1   8   0.0043   0.0099   0.0058  -0.0025  -0.0060   0.0026   0.00   23.9
2173 372137.000    869160.4817  -5289361.3630   3444970.5377   1   8   0.0043   0.0099   0.0058  -0.0027  -0.0061   0.0024   0.00   23.9
2173 372138.000    869160.4827  -5289361.3649   3444970.5414   1   8   0.0043   0.0099   0.0058  -0.0025  -0.0060   0.0027   0.00   23.9
2173 372139.000    869160.4818  -5289361.3663   3444970.5410   1   8   0.0045   0.0099   0.0055  -0.0029  -0.0061   0.0028   0.00   23.9
2173 372140.000    869160.4821  -5289361.3676   3444970.5402   1   8   0.0042   0.0098   0.0060  -0.0027  -0.0058   0.0022   0.00   23.9
2173 372141.000    869160.4827  -5289361.3678   3444970.5412   1   8   0.0042   0.0099   0.0057  -0.0023  -0.0060   0.0025   0.00   23.9
2173 372142.000    869160.4825  -5289361.3650   3444970.5405   1   8   0.0043   0.0099   0.0060  -0.0023  -0.0059   0.0026   0.00   23.8
2173 372143.000    869160.4821  -5289361.3678   3444970.5417   1   8   0.0047   0.0100   0.0063  -0.0023  -0.0060   0.0022   0.00   23.7
2173 372144.000    869160.4818  -5289361.3618   3444970.5391   1   8   0.0046   0.0100   0.0060  -0.0025  -0.0060   0.0024   0.00   23.7
2173 372145.000    869160.4823  -5289361.3687   3444970.5435   1   8   0.0047   0.0100   0.0060  -0.0026  -0.0060   0.0030   0.00   23.7
2173 372146.000    869160.4833  -5289361.3673   3444970.5423   1   8   0.0045   0.0099   0.0058  -0.0023  -0.0059   0.0028   0.00   23.6
2173 372147.000    869160.4837  -5289361.3685   3444970.5433   1   8   0.0045   0.0100   0.0059  -0.0020  -0.0061   0.0025   0.00   23.5
2173 372148.000    869160.4832  -5289361.3651   3444970.5417   1   8   0.0043   0.0099   0.0063  -0.0026  -0.0060   0.0023   0.00   23.5
2173 372149.000    869160.4838  -5289361.3653   3444970.5410   1   8   0.0042   0.0099   0.0058  -0.0026  -0.0061   0.0019   0.00   23.4
2173 372150.000    869160.4845  -5289361.3638   3444970.5398   1   8   0.0042   0.0099   0.0058  -0.0028  -0.0061   0.0025   0.00   23.4
2173 372151.000    869160.4827  -5289361.3632   3444970.5416   1   8   0.0044   0.0099   0.0062  -0.0026  -0.0059   0.0017   0.00   23.3
2173 372152.000    869160.4830  -5289361.3639   3444970.5407   1   8   0.0045   0.0100   0.0062  -0.0019  -0.0060   0.0031   0.00   23.3
2173 372153.000    869160.4826  -5289361.3680   3444970.5426   1   8   0.0042   0.0100   0.0056  -0.0020  -0.0060   0.0031   0.00   23.2
2173 372154.000    869160.4826  -5289361.3645   3444970.5429   1   8   0.0046   0.0099   0.0059  -0.0026  -0.0061   0.0027   0.00   23.1
2173 372155.000    869160.4829  -5289361.3619   3444970.5402   1   8   0.0039   0.0099   0.0057  -0.0023  -0.0060   0.0030   0.00   23.1
2173 372156.000    869160.4838  -5289361.3621   3444970.5422   1   8   0.0045   0.0100   0.0060  -0.0026  -0.0061   0.0027   0.00   23.1
2173 372157.000    869160.4831  -5289361.3640   3444970.5404   1   8   0.0046   0.0100   0.0062  -0.0021  -0.0060   0.0026   0.00   23.0
2173 372158.000    869160.4809  -5289361.3630   3444970.5409   1   8   0.0045   0.0099   0.0061  -0.0025  -0.0059   0.0023   0.00   23.0
2173 372159.000    869160.4816  -5289361.3624   3444970.5400   1   8   0.0045   0.0099   0.0061  -0.0024  -0.0060   0.0021   0.00   23.0
2173 372160.000    869160.4812  -5289361.3621   3444970.5383   1   8   0.0045   0.0100   0.0060  -0.0026  -0.0058   0.0022   0.00   22.9
2173 372161.000    869160.4800  -5289361.3583   3444970.5370   1   8   0.0047   0.0100   0.0064  -0.0021  -0.0060   0.0025   0.00   22.8
2173 372162.000    869160.4800  -5289361.3595   3444970.5379   1   8   0.0043   0.0099   0.0061  -0.0025  -0.0061   0.0022   0.00   22.8
2173 372163.000    869160.4823  -5289361.3634   3444970.5394   1   8   0.0044   0.0099   0.0061  -0.0024  -0.0060   0.0019   0.00   22.7
2173 372164.000    869160.4827  -5289361.3599   3444970.5384   1   8   0.0043   0.0099   0.0057  -0.0028  -0.0061   0.0028   0.00   22.7
2173 372165.000    869160.4799  -5289361.3598   3444970.5367   1   8   0.0041   0.0099   0.0060  -0.0029  -0.0060   0.0021   0.00   22.6
2173 372166.000    869160.4791  -5289361.3615   3444970.5365   1   8   0.0045   0.0099   0.0061  -0.0023  -0.0060   0.0021   0.00   22.5
2173 372167.000    869160.4811  -5289361.3614   3444970.5379   1   8   0.0046   0.0100   0.0062  -0.0025  -0.0060   0.0023   0.00   22.4
2173 372168.000    869160.4806  -5289361.3614   3444970.5379   1   8   0.0046   0.0100   0.0063  -0.0023  -0.0061   0.0024   0.00   22.3
2173 372169.000    869160.4812  -5289361.3606   3444970.5378   1   8   0.0042   0.0100   0.0060  -0.0023  -0.0061   0.0028   0.00   22.3
2173 372170.000    869160.4816  -5289361.3614   3444970.5388   1   8   0.0046   0.0099   0.0061  -0.0023  -0.0060   0.0021   0.00   22.2
2173 372171.000    869160.4825  -5289361.3614   3444970.5366   1   8   0.0044   0.0099   0.0058  -0.0027  -0.0060   0.0026   0.00   22.1
2173 372172.000    869160.4822  -5289361.3595   3444970.5368   1   8   0.0045   0.0099   0.0061  -0.0030  -0.0060   0.0027   0.00   22.0
2173 372173.000    869160.4824  -5289361.3613   3444970.5387   1   8   0.0046   0.0099   0.0063  -0.0027  -0.0060   0.0022   0.00   21.9
2173 372174.000    869160.4821  -5289361.3588   3444970.5374   1   8   0.0044   0.0099   0.0063  -0.0027  -0.0061   0.0023   0.00   21.8
2173 372175.000    869160.4818  -5289361.3600   3444970.5387   1   8   0.0045   0.0099   0.0061  -0.0027  -0.0060   0.0023   0.00   21.8
2173 372176.000    869160.4827  -5289361.3593   3444970.5394   1   8   0.0041   0.0099   0.0056  -0.0028  -0.0060   0.0031   0.00   21.7
2173 372177.000    869160.4816  -5289361.3587   3444970.5372   1   8   0.0043   0.0099   0.0057  -0.0026  -0.0060   0.0031   0.00   21.6
2173 372178.000    869160.4811  -5289361.3587   3444970.5375   1   8   0.0042   0.0099   0.0057  -0.0026  -0.0062   0.0027   0.00   21.5
2173 372179.000    869160.4814  -5289361.3577   3444970.5375   1   8   0.0042   0.0099   0.0059  -0.0027  -0.0059   0.0022   0.00   21.4
2173 372180.000    869160.4832  -5289361.3549   3444970.5370   1   8   0.0044   0.0099   0.0063  -0.0025  -0.0060   0.0025   0.00   21.3
2173 372181.000    869160.4827  -5289361.3584   3444970.5376   1   8   0.0044   0.0099   0.0058  -0.0026  -0.0061   0.0027   0.00   21.2
2173 372182.000    869160.4835  -5289361.3607   3444970.5390   1   8   0.0044   0.0099   0.0060  -0.0028  -0.0061   0.0028   0.00   21.1
2173 372183.000    869160.4814  -5289361.3592   3444970.5365   1   8   0.0044   0.0099   0.0062  -0.0027  -0.0061   0.0025   0.00   21.0
2173 372184.000    869160.4823  -5289361.3571   3444970.5367   1   8   0.0043   0.0099   0.0054  -0.0030  -0.0060   0.0028   0.00   20.9
2173 372185.000    869160.4827  -5289361.3590   3444970.5379   1   8   0.0044   0.0100   0.0060  -0.0026  -0.0060   0.0029   0.00   20.8
2173 372186.000    869160.4828  -5289361.3555   3444970.5379   1   8   0.0045   0.0099   0.0058  -0.0028  -0.0061   0.0023   0.00   20.7
2173 372187.000    869160.4823  -5289361.3594   3444970.5396   1   8   0.0043   0.0099   0.0061  -0.0026  -0.0060   0.0017   0.00   20.6
2173 372188.000    869160.4823  -5289361.3566   3444970.5373   1   8   0.0044   0.0100   0.0061  -0.0024  -0.0058   0.0023   0.00   20.6
2173 372189.000    869160.4838  -5289361.3593   3444970.5393   1   8   0.0046   0.0100   0.0056  -0.0025  -0.0060   0.0025   0.00   20.5
2173 372190.000    869160.4824  -5289361.3574   3444970.5390   1   8   0.0045   0.0099   0.0060  -0.0022  -0.0060   0.0023   0.00   20.4
2173 372191.000    869160.4828  -5289361.3544   3444970.5377   1   8   0.0045   0.0099   0.0062  -0.0029  -0.0059   0.0025   0.00   20.3
2173 372192.000    869160.4826  -5289361.3541   3444970.5362   1   8   0.0044   0.0099   0.0061  -0.0024  -0.0061   0.0026   0.00   20.2
2173 372193.000    869160.4835  -5289361.3568   3444970.5378   1   8   0.0041   0.0099   0.0058  -0.0022  -0.0059   0.0022   0.00   20.1
2173 372194.000    869160.4824  -5289361.3587   3444970.5409   1   8   0.0042   0.0098   0.0058  -0.0027  -0.0061   0.0023   0.00   20.1
2173 372195.000    869160.4817  -5289361.3564   3444970.5375   1   8   0.0045   0.0099   0.0061  -0.0026  -0.0060   0.0026   0.00   20.0
2173 372196.000    869160.4821  -5289361.3559   3444970.5384   1   8   0.0043   0.0099   0.0057  -0.0027  -0.0061   0.0031   0.00   19.9
2173 372197.000    869160.4808  -5289361.3551   3444970.5381   1   8   0.0045   0.0098   0.0059  -0.0027  -0.0060   0.0020   0.00   19.8
2173 372198.000    869160.4800  -5289361.3561   3444970.5375   1   8   0.0046   0.0099   0.0061  -0.0022  -0.0061   0.0026   0.00   19.7
2173 372199.000    869160.4809  -5289361.3569   3444970.5395   1   8   0.0044   0.0100   0.0060  -0.0026  -0.0059   0.0023   0.00   19.6
2173 372200.000    869160.4796  -5289361.3564   3444970.5375   1   8   0.0047   0.0099   0.0061  -0.0024  -0.0060   0.0028   0.00   19.6
2173 372201.000    869160.4806  -5289361.3581   3444970.5390   1   8   0.0045   0.0100   0.0059  -0.0025  -0.0060   0.0030   0.00   19.5
2173 372202.000    869160.4805  -5289361.3561   3444970.5362   1   8   0.0044   0.0100   0.0059  -0.0022  -0.0061   0.0030   0.00   19.4
2173 372203.000    869160.4808  -5289361.3575   3444970.5396   1   8   0.0046   0.0099   0.0062  -0.0022  -0.0062   0.0030   0.00   19.3
2173 372204.000    869160.4826  -5289361.3588   3444970.5384   1   8   0.0048   0.0099   0.0064  -0.0023  -0.0062   0.0022   0.00   19.2
2173 372205.000    869160.4819  -5289361.3609   3444970.5405   1   8   0.0045   0.0099   0.0061  -0.0022  -0.0061   0.0019   0.00   19.2
2173 372206.000    869160.4813  -5289361.3619   3444970.5403   1   8   0.0046   0.0099   0.0060  -0.0022  -0.0060   0.0028   0.00   19.1
2173 372207.000    869160.4800  -5289361.3588   3444970.5393   1   8   0.0042   0.0099   0.0060  -0.0025  -0.0059   0.0025   0.00   19.0
2173 372208.000    869160.4805  -5289361.3605   3444970.5374   1   8   0.0040   0.0098   0.0056  -0.0025  -0.0060   0.0029   0.00   18.9
2173 372209.000    869160.4808  -5289361.3642   3444970.5422   1   8   0.0044   0.0100   0.0061  -0.0026  -0.0060   0.0027   0.00   18.8
2173 372210.000    869160.4814  -5289361.3649   3444970.5418   1   8   0.0044   0.0098   0.0059  -0.0027  -0.0061   0.0021   0.00   18.7
2173 372211.000    869160.4815  -5289361.3614   3444970.5389   1   8   0.0047   0.0099   0.0063  -0.0022  -0.0059   0.0023   0.00   18.7
2173 372212.000    869160.4820  -5289361.3595   3444970.5385   1   8   0.0046   0.0100   0.0060  -0.0025  -0.0059   0.0026   0.00   18.6
2173 372213.000    869160.4815  -5289361.3604   3444970.5392   1   8   0.0044   0.0099   0.0057  -0.0022  -0.0061   0.0030   0.00   18.5
2173 372214.000    869160.4816  -5289361.3610   3444970.5394   1   8   0.0044   0.0099   0.0061  -0.0026  -0.0059   0.0025   0.00   18.5
2173 372215.000    869160.4809  -5289361.3631   3444970.5407   1   8   0.0045   0.0100   0.0061  -0.0023  -0.0060   0.0032   0.00   18.5
2173 372216.000    869160.4799  -5289361.3602   3444970.5392   1   8   0.0042   0.0099   0.0063  -0.0023  -0.0059   0.0024   0.00   18.4
2173 372217.000    869160.4817  -5289361.3605   3444970.5397   1   8   0.0041   0.0099   0.0058  -0.0028  -0.0062   0.0023   0.00   18.4
2173 372218.000    869160.4816  -5289361.3613   3444970.5397   1   8   0.0047   0.0100   0.0062  -0.0026  -0.0060   0.0023   0.00   18.3
2173 372219.000    869160.4829  -5289361.3613   3444970.5396   1   8   0.0044   0.0099   0.0060  -0.0026  -0.0061   0.0024   0.00   18.3
2173 372220.000    869160.4820  -5289361.3577   3444970.5405   1   8   0.0042   0.0098   0.0058  -0.0027  -0.0061   0.0026   0.00   18.2
2173 372221.000    869160.4839  -5289361.3624   3444970.5403   1   8   0.0047   0.0100   0.0061  -0.0022  -0.0062   0.0021   0.00   18.2
2173 372222.000    869160.4822  -5289361.3597   3444970.5379   1   8   0.0045   0.0099   0.0065  -0.0022  -0.0059   0.0022   0.00   18.1
2173 372223.000    869160.4819  -5289361.3574   3444970.5382   1   8   0.0044   0.0099   0.0060  -0.0028  -0.0062   0.0020   0.00   18.1
2173 372224.000    869160.4825  -5289361.3584   3444970.5371   1   8   0.0044   0.0099   0.0060  -0.0020  -0.0060   0.0027   0.00   18.0
2173 372225.000    869160.4819  -5289361.3554   3444970.5359   1   8   0.0045   0.0099   0.0058  -0.0023  -0.0061   0.0026   0.00   17.9
2173 372226.000    869160.4812  -5289361.3594   3444970.5380   1   8   0.0043   0.0099   0.0057  -0.0026  -0.0061   0.0022   0.00   17.9
2173 372227.000    869160.4825  -5289361.3595   3444970.5385   1   8   0.0047   0.0099   0.0059  -0.0023  -0.0061   0.0026   0.00   17.8
2173 372228.000    869160.4809  -5289361.3604   3444970.5386   1   8   0.0044   0.0098   0.0060  -0.0028  -0.0060   0.0028   0.00   17.8
2173 372229.000    869160.4812  -5289361.3626   3444970.5406   1   8   0.0046   0.0099   0.0059  -0.0021  -0.0061   0.0024   0.00   17.8
2173 372230.000    869160.4803  -5289361.3579   3444970.5381   1   8   0.0043   0.0099   0.0058  -0.0021  -0.0060   0.0026   0.00   17.7
2173 372231.000    869160.4804  -5289361.3619   3444970.5391   1   8   0.0043   0.0098   0.0059  -0.0025  -0.0060   0.0024   0.00   17.7
2173 372232.000    869160.4814  -5289361.3594   3444970.5389   1   8   0.0046   0.0100   0.0062  -0.0021  -0.0059   0.0024   0.00   17.7
2173 372233.000    869160.4809  -5289361.3616   3444970.5394   1   8   0.0047   0.0100   0.0063  -0.0022  -0.0058   0.0019   0.00   17.6
2173 372234.000    869160.4806  -5289361.3591   3444970.5377   1   8   0.0040   0.0098   0.0058  -0.0027  -0.0061   0.0026   0.00   17.6
2173 372235.000    869160.4791  -5289361.3604   3444970.5386   1   8   0.0045   0.0099   0.0058  -0.0022  -0.0059   0.0027   0.00   17.6
2173 372236.000    869160.4812  -5289361.3609   3444970.5398   1   8   0.0043   0.0099   0.0060  -0.0025  -0.0060   0.0027   0.00   17.6
2173 372237.000    869160.4815  -5289361.3624   3444970.5382   1   8   0.0043   0.0099   0.0057  -0.0025  -0.0060   0.0028   0.00   17.5
