% program   : rnx2rtkp ver.2.4.3 b31
% inp file  : ngs/21_08_31_20_49_03_mada.obs
% inp file  : ngs/21_08_31_20_49_03_mada_VZ.obs
% inp file  : ngs/21_08_31_20_49_03_brdc.nav
% obs start : 2021/08/31 20:00:00.0 GPST (week2173 244800.0s)
% obs end   : 2021/08/31 20:59:59.0 GPST (week2173 248399.0s)
% ref pos   :  1518334.5958  -4512851.7454   4229505.7673
%
% (x/y/z-ecef=WGS84,Q=1:fix,2:float,3:sbas,4:dgps,5:single,6:ppp,ns=# of satellites)
%  GPST              x-ecef(m)      y-ecef(m)      z-ecef(m)   Q  ns   sdx(m)   sdy(m)   sdz(m)  sdxy(m)  sdyz(m)  sdzx(m) age(s)  ratio
2173 247722.000   1551941.4341  -4514373.8103   4215782.9358   2   6   0.4980   1.0279   0.9928  -0.4019  -0.8428   0.3096 -30.00    3.0
2173 247723.000   1551941.4153  -4514373.8632   4215783.0268   1   6   0.0261   0.0572   0.0540  -0.0186  -0.0445  -0.0102 -29.00    3.3
2173 247724.000   1551941.4172  -4514373.8603   4215783.0263   1   6   0.0252   0.0553   0.0522  -0.0180  -0.0431  -0.0098 -28.00    3.6
2173 247725.000   1551941.4189  -4514373.8626   4215783.0300   1   6   0.0244   0.0534   0.0504  -0.0174  -0.0416  -0.0094 -27.00    3.9
2173 247726.000   1551941.4191  -4514373.8589   4215783.0258   1   6   0.0235   0.0515   0.0487  -0.0168  -0.0401  -0.0089 -26.00    4.1
2173 247727.000   1551941.4215  -4514373.8534   4215783.0233   1   6   0.0226   0.0496   0.0469  -0.0162  -0.0387  -0.0085 -25.00    4.4
2173 247728.000   1551941.4220  -4514373.8567   4215783.0242   1   6   0.0218   0.0477   0.0451  -0.0156  -0.0372  -0.0081 -24.00    4.5
2173 247729.000   1551941.4233  -4514373.8607   4215783.0261   1   6   0.0209   0.0458   0.0434  -0.0151  -0.0358  -0.0076 -23.00    4.6
2173 247730.000   1551941.4239  -4514373.8545   4215783.0227   1   6   0.0201   0.0440   0.0416  -0.0145  -0.0343  -0.0072 -22.00    4.9
2173 247731.000   1551941.4252  -4514373.8526   4215783.0221   1   6   0.0193   0.0421   0.0398  -0.0139  -0.0329  -0.0067 -21.00    5.3
2173 247732.000   1551941.4267  -4514373.8527   4215783.0222   1   6   0.0184   0.0402   0.0381  -0.0133  -0.0314  -0.0063 -20.00    5.6
2173 247733.000   1551941.4304  -4514373.8550   4215783.0235   1   6   0.0176   0.0384   0.0364  -0.0127  -0.0300  -0.0058 -19.00    6.1
2173 247734.000   1551941.4313  -4514373.8517   4215783.0218   1   6   0.0167   0.0365   0.0346  -0.0122  -0.0286  -0.0053 -18.00    6.7
2173 247735.000   1551941.4307  -4514373.8489   4215783.0194   1   6   0.0159   0.0347   0.0329  -0.0116  -0.0272  -0.0049 -17.00    7.3
2173 247736.000   1551941.4337  -4514373.8490   4215783.0200   1   6   0.0151   0.0328   0.0312  -0.0110  -0.0257  -0.0043 -16.00    7.9
2173 247737.000   1551941.4342  -4514373.8502   4215783.0196   1   6   0.0143   0.0310   0.0295  -0.0104  -0.0243  -0.0038 -15.00    8.6
2173 247738.000   1551941.4333  -4514373.8456   4215783.0163   1   6   0.0134   0.0292   0.0278  -0.0099  -0.0230  -0.0032 -14.00    9.3
2173 247739.000   1551941.4382  -4514373.8460   4215783.0173   1   6   0.0127   0.0274   0.0261  -0.0093  -0.0216  -0.0026 -13.00   10.2
2173 247740.000   1551941.4363  -4514373.8457   4215783.0195   1   6   0.0119   0.0256   0.0244  -0.0088  -0.0202  -0.0018 -12.00   11.3
2173 247741.000   1551941.4366  -4514373.8460   4215783.0173   1   6   0.0111   0.0239   0.0228  -0.0083  -0.0189  -0.0005 -11.00   12.4
2173 247742.000   1551941.4382  -4514373.8410   4215783.0131   1   6   0.0103   0.0221   0.0212  -0.0078  -0.0176   0.0016 -10.00   13.7
2173 247743.000   1551941.4397  -4514373.8417   4215783.0124   1   6   0.0095   0.0205   0.0196  -0.0072  -0.0163   0.0021  -9.00   15.8
2173 247744.000   1551941.4408  -4514373.8397   4215783.0136   1   6   0.0088   0.0188   0.0181  -0.0067  -0.0150   0.0026  -8.00   18.7
2173 247745.000   1551941.4410  -4514373.8388   4215783.0128   1   6   0.0081   0.0172   0.0166  -0.0062  -0.0138   0.0030  -7.00   21.8
2173 247746.000   1551941.4421  -4514373.8347   4215783.0102   1   6   0.0075   0.0158   0.0152  -0.0058  -0.0127   0.0030  -6.00   25.3
2173 247747.000   1551941.4422  -4514373.8333   4215783.0077   1   6   0.0069   0.0143   0.0139  -0.0054  -0.0116   0.0032  -5.00   28.3
2173 247748.000   1551941.4439  -4514373.8325   4215783.0078   1   6   0.0063   0.0131   0.0127  -0.0049  -0.0106   0.0033  -4.00   31.9
2173 247749.000   1551941.4450  -4514373.8281   4215783.0051   1   6   0.0056   0.0119   0.0116  -0.0046  -0.0097   0.0030  -3.00   33.7
2173 247750.000   1551941.4465  -4514373.8250   4215783.0024   1   6   0.0054   0.0111   0.0107  -0.0044  -0.0091   0.0032  -2.00   31.9
2173 247751.000   1551941.4483  -4514373.8272   4215783.0046   1   6   0.0049   0.0107   0.0101  -0.0039  -0.0086   0.0029  -1.00   28.7
2173 247752.000   1551941.4486  -4514373.8250   4215783.0018   1   6   0.0050   0.0103   0.0100  -0.0041  -0.0084   0.0033   0.00   25.9
2173 247753.000   1551941.4475  -4514373.8247   4215783.0007   1   6   0.0050   0.0103   0.0100  -0.0041  -0.0085   0.0032   0.00   23.3
2173 247754.000   1551941.4480  -4514373.8204   4215782.9990   1   6   0.0051   0.0103   0.0101  -0.0043  -0.0085   0.0032   0.00   21.4
2173 247755.000   1551941.4470  -4514373.8207   4215783.0010   1   6   0.0050   0.0104   0.0101  -0.0040  -0.0085   0.0032   0.00   20.5
2173 247756.000   1551941.4487  -4514373.8219   4215783.0002   1   6   0.0048   0.0103   0.0100  -0.0041  -0.0085   0.0030   0.00   19.6
2173 247757.000   1551941.4499  -4514373.8241   4215783.0016   1   6   0.0049   0.0102   0.0101  -0.0042  -0.0086   0.0032   0.00   18.8
2173 247758.000   1551941.4495  -4514373.8215   4215783.0007   1   6   0.0050   0.0103   0.0100  -0.0041  -0.0085   0.0032   0.00   18.0
2173 247759.000   1551941.4488  -4514373.8206   4215782.9998   1   6   0.0051   0.0103   0.0099  -0.0042  -0.0084   0.0034   0.00   17.0
2173 247760.000   1551941.4488  -4514373.8230   4215783.0013   1   6   0.0051   0.0103   0.0098  -0.0039  -0.0084   0.0030   0.00   16.7
2173 247761.000   1551941.4489  -4514373.8205   4215782.9989   1   6   0.0051   0.0104   0.0099  -0.0039  -0.0085   0.0032   0.00   16.0
2173 247762.000   1551941.4494  -4514373.8163   4215782.9954   1   6   0.0051   0.0104   0.0098  -0.0041  -0.0084   0.0031   0.00   15.5
2173 247763.000   1551941.4468  -4514373.8203   4215782.9985   1   6   0.0049   0.0102   0.0101  -0.0041  -0.0086   0.0031   0.00   15.2
2173 247764.000   1551941.4486  -4514373.8187   4215782.9967   1   6   0.0051   0.0103   0.0099  -0.0041  -0.0084   0.0033   0.00   14.8
2173 247765.000   1551941.4495  -4514373.8217   4215782.9994   1   6   0.0052   0.0104   0.0099  -0.0040  -0.0085   0.0031   0.00   14.6
2173 247766.000   1551941.4479  -4514373.8214   4215783.0001   1   6   0.0051   0.0103   0.0098  -0.0042  -0.0084   0.0031   0.00   14.4
2173 247767.000   1551941.4481  -4514373.8212   4215783.0006   1   6   0.0050   0.0102   0.0100  -0.0043  -0.0085   0.0033   0.00   14.5
2173 247768.000   1551941.4493  -4514373.8193   4215783.0003   1   6   0.0049   0.0104   0.0099  -0.0041  -0.0084   0.0033   0.00   14.2
2173 247769.000   1551941.4467  -4514373.8148   4215782.9957   1   6   0.0050   0.0104   0.0099  -0.0041  -0.0084   0.0032   0.00   13.8
2173 247770.000   1551941.4473  -4514373.8141   4215782.9977   1   6   0.0049   0.0104   0.0096  -0.0041  -0.0083   0.0032   0.00   13.5
2173 247771.000   1551941.4478  -4514373.8149   4215782.9976   1   6   0.0049   0.0103   0.0098  -0.0039  -0.0085   0.0032   0.00   13.4
2173 247772.000   1551941.4488  -4514373.8187   4215782.9988   1   6   0.0049   0.0103   0.0100  -0.0040  -0.0085   0.0033   0.00   13.4
2173 247773.000   1551941.4503  -4514373.8251   4215783.0040   1   6   0.0050   0.0103   0.0100  -0.0041  -0.0084   0.0028   0.00   13.4
2173 247774.000   1551941.4476  -4514373.8159   4215782.9998   1   6   0.0048   0.0103   0.0100  -0.0042  -0.0085   0.0033   0.00   13.5
2173 247775.000   1551941.4479  -4514373.8141   4215782.9980   1   6   0.0050   0.0103   0.0098  -0.0043  -0.0084   0.0032   0.00   13.3
2173 247776.000   1551941.4478  -4514373.8166   4215782.9979   1   6   0.0050   0.0103   0.0100  -0.0042  -0.0084   0.0034   0.00   13.1
2173 247777.000   1551941.4467  -4514373.8171   4215782.9990   1   6   0.0051   0.0104   0.0100  -0.0040  -0.0084   0.0029   0.00   13.1
2173 247778.000   1551941.4479  -4514373.8139   4215782.9991   1   6   0.0051   0.0103   0.0098  -0.0039  -0.0085   0.0029   0.00   12.9
2173 247779.000   1551941.4488  -4514373.8156   4215782.9981   1   6   0.0049   0.0104   0.0098  -0.0039  -0.0083   0.0031   0.00   12.8
2173 247780.000   1551941.4473  -4514373.8137   4215782.9976   1   6   0.0050   0.0104   0.0099  -0.0040  -0.0084   0.0033   0.00   12.8
2173 247781.000   1551941.4463  -4514373.8099   4215782.9945   1   6   0.0049   0.0104   0.0100  -0.0039  -0.0084   0.0032   0.00   12.7
2173 247782.000   1551941.4480  -4514373.8210   4215783.0017   1   6   0.0050   0.0104   0.0097  -0.0039  -0.0084   0.0032   0.00   12.9
2173 247783.000   1551941.4484  -4514373.8169   4215783.0028   1   6   0.0050   0.0104   0.0099  -0.0040  -0.0084   0.0029   0.00   13.0
2173 247784.000   1551941.4485  -4514373.8135   4215782.9988   1   6   0.0053   0.0104   0.0098  -0.0041  -0.0084   0.0031   0.00   13.1
2173 247785.000   1551941.4490  -4514373.8135   4215782.9986   1   6   0.0050   0.0102   0.0099  -0.0043  -0.0085   0.0031   0.00   13.1
2173 247786.000   1551941.4484  -4514373.8141   4215782.9980   1   6   0.0050   0.0103   0.0101  -0.0041  -0.0085   0.0031   0.00   13.0
2173 247787.000   1551941.4492  -4514373.8167   4215783.0000   1   6   0.0049   0.0103   0.0100  -0.0040  -0.0085   0.0031   0.00   12.9
2173 247788.000   1551941.4496  -4514373.8147   4215782.9989   1   6   0.0049   0.0103   0.0098  -0.0040  -0.0084   0.0030   0.00   12.9
2173 247789.000   1551941.4481  -4514373.8129   4215782.9993   1   6   0.0047   0.0103   0.0099  -0.0042  -0.0085   0.0032   0.00   12.9
2173 247790.000   1551941.4490  -4514373.8155   4215782.9986   1   6   0.0052   0.0104   0.0098  -0.0040  -0.0084   0.0033   0.00   12.9
2173 247791.000   1551941.4492  -4514373.8120   4215782.9973   1   6   0.0052   0.0103   0.0099  -0.0042  -0.0084   0.0031   0.00   13.0
2173 247792.000   1551941.4478  -4514373.8159   4215783.0004   1   6   0.0049   0.0103   0.0101  -0.0040  -0.0085   0.0031   0.00   13.1
2173 247793.000   1551941.4478  -4514373.8146   4215782.9990   1   6   0.0051   0.0102   0.0101  -0.0042  -0.0086   0.0030   0.00   13.3
2173 247794.000   1551941.4478  -4514373.8154   4215782.9981   1   6   0.0049   0.0103   0.0099  -0.0041  -0.0084   0.0031   0.00   13.3
2173 247795.000   1551941.4495  -4514373.8127   4215782.9955   1   6   0.0051   0.0104   0.0099  -0.0040  -0.0085   0.0032   0.00   13.2
2173 247796.000   1551941.4481  -4514373.8167   4215782.9974   1   6   0.0052   0.0102   0.0099  -0.0044  -0.0084   0.0032   0.00   13.4
2173 247797.000   1551941.4505  -4514373.8111   4215782.9946   1   6   0.0051   0.0103   0.0099  -0.0041  -0.0084   0.0030   0.00   13.6
2173 247798.000   1551941.4491  -4514373.8145   4215782.9940   1   6   0.0049   0.0104   0.0098  -0.0040  -0.0083   0.0030   0.00   13.8
2173 247799.000   1551941.4479  -4514373.8132   4215782.9956   1   6   0.0050   0.0104   0.0100  -0.0037  -0.0085   0.0029   0.00   14.1
2173 247800.000   1551941.4488  -4514373.8113   4215782.9952   1   6   0.0051   0.0103   0.0101  -0.0042  -0.0085   0.0031   0.00   14.3
2173 247801.000   1551941.4489  -4514373.8167   4215782.9999   1   6   0.0052   0.0103   0.0099  -0.0044  -0.0084   0.0032   0.00   14.5
2173 247802.000   1551941.4478  -4514373.8164   4215782.9994   1   6   0.0051   0.0103   0.0099  -0.0042  -0.0083   0.0031   0.00   14.7
2173 247803.000   1551941.4494  -4514373.8144   4215782.9972   1   6   0.0049   0.0103   0.0099  -0.0041  -0.0084   0.0031   0.00   14.9
2173 247804.000   1551941.4498  -4514373.8159   4215782.9986   1   6   0.0051   0.0103   0.0098  -0.0041  -0.0084   0.0030   0.00   15.1
2173 247805.000   1551941.4488  -4514373.8151   4215782.9984   1   6   0.0051   0.0103   0.0101  -0.0041  -0.0085   0.0032   0.00   15.4
2173 247806.000   1551941.4495  -4514373.8154   4215782.9980   1   6   0.0048   0.0104   0.0099  -0.0038  -0.0084   0.0030   0.00   15.7
2173 247807.000   1551941.4485  -4514373.8135   4215782.9986   1   6   0.0052   0.0104   0.0098  -0.0041  -0.0083   0.0031   0.00   16.0
2173 247808.000   1551941.4499  -4514373.8144   4215782.9987   1   6   0.0049   0.0103   0.0099  -0.0041  -0.0084   0.0032   0.00   16.2
2173 247809.000   1551941.4495  -4514373.8154   4215783.0008   1   6   0.0050   0.0103   0.0099  -0.0039  -0.0085   0.0029   0.00   16.6
2173 247810.000   1551941.4496  -4514373.8124   4215782.9978   1   6   0.0050   0.0103   0.0100  -0.0041  -0.0084   0.0033   0.00   16.9
2173 247811.000   1551941.4497  -4514373.8108   4215782.9979   1   6   0.0049   0.0103   0.0099  -0.0041  -0.0083   0.0031   0.00   17.1
2173 247812.000   1551941.4498  -4514373.8132   4215782.9969   1   6   0.0049   0.0104   0.0099  -0.0039  -0.0084   0.0029   0.00   17.3
2173 247813.000   1551941.4496  -4514373.8147   4215782.9980   1   6   0.0051   0.0103   0.0099  -0.0041  -0.0083   0.0030   0.00   17.7
2173 247814.000   1551941.4484  -4514373.8127   4215782.9962   1   6   0.0049   0.0103   0.0099  -0.0043  -0.0084   0.0032   0.00   17.9
2173 247815.000   1551941.4505  -4514373.8124   4215782.9953   1   6   0.0050   0.0103   0.0099  -0.0040  -0.0085   0.0033   0.00   18.2
2173 247816.000   1551941.4488  -4514373.8124   4215782.9969   1   6   0.0050   0.0103   0.0099  -0.0040  -0.0084   0.0031   0.00   18.5
2173 247817.000   1551941.4510  -4514373.8146   4215782.9975   1   6   0.0051   0.0104   0.0097  -0.0042  -0.0082   0.0032   0.00   18.9
2173 247818.000   1551941.4499  -4514373.8101   4215782.9951   1   6   0.0050   0.0103   0.0098  -0.0042  -0.0083   0.0031   0.00   19.2
2173 247819.000   1551941.4503  -4514373.8092   4215782.9959   1   6   0.0052   0.0104   0.0098  -0.0041  -0.0083   0.0032   0.00   19.5
2173 247820.000   1551941.4482  -4514373.8096   4215782.9940   1   6   0.0051   0.0103   0.0098  -0.0043  -0.0084   0.0032   0.00   20.0
2173 247821.000   1551941.4500  -4514373.8113   4215782.9945   1   6   0.0052   0.0103   0.0098  -0.0044  -0.0083   0.0033   0.00   20.4
2173 247822.000   1551941.4487  -4514373.8073   4215782.9934   1   6   0.0051   0.0103   0.0097  -0.0044  -0.0082   0.0031   0.00   20.7
2173 247823.000   1551941.4479  -4514373.8075   4215782.9954   1   6   0.0048   0.0103   0.0097  -0.0041  -0.0083   0.0030   0.00   21.1
2173 247824.000   1551941.4487  -4514373.8075   4215782.9934   1   6   0.0052   0.0103   0.0098  -0.0040  -0.0084   0.0031   0.00   21.4
2173 247825.000   1551941.4491  -4514373.8094   4215782.9957   1   6   0.0052   0.0103   0.0099  -0.0042  -0.0084   0.0032   0.00   21.9
2173 247826.000   1551941.4500  -4514373.8119   4215782.9997   1   6   0.0049   0.0102   0.0099  -0.0042  -0.0084   0.0033   0.00   22.4
2173 247827.000   1551941.4502  -4514373.8085   4215782.9959   1   6   0.0050   0.0104   0.0099  -0.0041  -0.0083   0.0031   0.00   22.9
2173 247828.000   1551941.4495  -4514373.8095   4215782.9979   1   6   0.0051   0.0103   0.0099  -0.0044  -0.0084   0.0033   0.00   23.4
2173 247829.000   1551941.4502  -4514373.8114   4215782.9980   1   6   0.0050   0.0103   0.0098  -0.0041  -0.0083   0.0030   0.00   23.9
2173 247830.000   1551941.4496  -4514373.8083   4215782.9989   1   6   0.0053   0.0103   0.0099  -0.0044  -0.0083   0.0035   0.00   24.2
2173 247831.000   1551941.4497  -4514373.8080   4215782.9961   1   6   0.0050   0.0102   0.0097  -0.0042  -0.0083   0.0030   0.00   24.6
2173 247832.000   1551941.4501  -4514373.8096   4215782.9984   1   6   0.0052   0.0103   0.0099  -0.0041  -0.0084   0.0032   0.00   25.1
2173 247833.000   1551941.4491  -4514373.8089   4215782.9950   1   6   0.0053   0.0103   0.0098  -0.0044  -0.0083   0.0033   0.00   25.4
2173 247834.000   1551941.4497  -4514373.8085   4215782.9985   1   6   0.0050   0.0103   0.0098  -0.0041  -0.0084   0.0030   0.00   25.8
2173 247835.000   1551941.4504  -4514373.8072   4215782.9974   1   6   0.0050   0.0103   0.0097  -0.0042  -0.0083   0.0030   0.00   26.1
2173 247836.000   1551941.4487  -4514373.8069   4215782.9961   1   6   0.0051   0.0103   0.0099  -0.0039  -0.0084   0.0031   0.00   26.6
2173 247837.000   1551941.4482  -4514373.8082   4215782.9959   1   6   0.0052   0.0103   0.0100  -0.0041  -0.0084   0.0033   0.00   27.0
2173 247838.000   1551941.4482  -4514373.8086   4215782.9983   1   6   0.0052   0.0103   0.0098  -0.0042  -0.0084   0.0031   0.00   27.5
2173 247839.000   1551941.4480  -4514373.8053   4215782.9939   1   6   0.0050   0.0103   0.0099  -0.0041  -0.0083   0.0032   0.00   27.8
2173 247840.000   1551941.4495  -4514373.8032   4215782.9955   1   6   0.0049   0.0103   0.0098  -0.0040  -0.0084   0.0028   0.00   28.0
2173 247841.000   1551941.4483  -4514373.8080   4215782.9971   1   6   0.0053   0.0105   0.0098  -0.0039  -0.0084   0.0034   0.00   28.0
2173 247842.000   1551941.4490  -4514373.8066   4215782.9953   1   6   0.0051   0.0103   0.0098  -0.0043  -0.0083   0.0031   0.00   28.2
2173 247843.000   1551941.4490  -4514373.8063   4215782.9953   1   6   0.0051   0.0104   0.0096  -0.0040  -0.0083   0.0031   0.00   28.4
2173 247844.000   1551941.4497  -4514373.8073   4215782.9963   1   6   0.0049   0.0103   0.0098  -0.0039  -0.0083   0.0029   0.00   28.6
2173 247845.000   1551941.4501  -4514373.8066   4215782.9962   1   6   0.0049   0.0102   0.0098  -0.0041  -0.0084   0.0029   0.00   28.7
2173 247846.000   1551941.4505  -4514373.8061   4215782.9954   1   6   0.0050   0.0103   0.0099  -0.0042  -0.0084   0.0033   0.00   28.8
2173 247847.000   1551941.4494  -4514373.8067   4215782.9935   1   6   0.0051   0.0104   0.0098  -0.0039  -0.0084   0.0031   0.00   29.1
2173 247848.000   1551941.4499  -4514373.8069   4215782.9958   1   6   0.0048   0.0104   0.0097  -0.0039  -0.0083   0.0030   0.00   29.2
2173 247849.000   1551941.4493  -4514373.8064   4215782.9958   1   6   0.0049   0.0104   0.0097  -0.0041  -0.0083   0.0028   0.00   29.4
2173 247850.000   1551941.4496  -4514373.8068   4215782.9946   1   6   0.0052   0.0103   0.0098  -0.0043  -0.0083   0.0033   0.00   29.5
2173 247851.000   1551941.4496  -4514373.8061   4215782.9946   1   6   0.0051   0.0104   0.0097  -0.0042  -0.0083   0.0031   0.00   29.8
2173 247852.000   1551941.4487  -4514373.8057   4215782.9926   1   6   0.0052   0.0103   0.0098  -0.0041  -0.0084   0.0032   0.00   30.0
2173 247853.000   1551941.4498  -4514373.8051   4215782.9937   1   6   0.0051   0.0104   0.0100  -0.0039  -0.0084   0.0031   0.00   30.2
2173 247854.000   1551941.4506  -4514373.8056   4215782.9945   1   6   0.0051   0.0103   0.0098  -0.0041  -0.0084   0.0031   0.00   30.4
2173 247855.000   1551941.4494  -4514373.8028   4215782.9921   1   6   0.0053   0.0103   0.0096  -0.0043  -0.0083   0.0030   0.00   30.5
2173 247856.000   1551941.4494  -4514373.8034   4215782.9942   1   6   0.0048   0.0104   0.0096  -0.0039  -0.0082   0.0030   0.00   30.7
2173 247857.000   1551941.4493  -4514373.8028   4215782.9919   1   6   0.0050   0.0103   0.0099  -0.0041  -0.0084   0.0030   0.00   30.9
2173 247858.000   1551941.4499  -4514373.8049   4215782.9931   1   6   0.0051   0.0103   0.0098  -0.0042  -0.0083   0.0032   0.00   31.0
2173 247859.000   1551941.4490  -4514373.8014   4215782.9928   1   6   0.0051   0.0103   0.0098  -0.0042  -0.0084   0.0028   0.00   31.2
2173 247860.000   1551941.4491  -4514373.8051   4215782.9941   1   6   0.0049   0.0104   0.0099  -0.0040  -0.0084   0.0033   0.00   31.4
2173 247861.000   1551941.4498  -4514373.8026   4215782.9922   1   6   0.0048   0.0103   0.0099  -0.0042  -0.0084   0.0031   0.00   31.4
2173 247862.000   1551941.4493  -4514373.8059   4215782.9929   1   6   0.0050   0.0103   0.0100  -0.0040  -0.0084   0.0030   0.00   31.6
2173 247863.000   1551941.4494  -4514373.8028   4215782.9928   1   6   0.0050   0.0103   0.0098  -0.0040  -0.0083   0.0028   0.00   31.8
2173 247864.000   1551941.4488  -4514373.8021   4215782.9909   1   6   0.0050   0.0103   0.0098  -0.0040  -0.0084   0.0031   0.00   31.9
2173 247865.000   1551941.4491  -4514373.8041   4215782.9928   1   6   0.0050   0.0103   0.0096  -0.0041  -0.0083   0.0032   0.00   32.0
2173 247866.000   1551941.4487  -4514373.8037   4215782.9937   1   6   0.0049   0.0104   0.0097  -0.0039  -0.0083   0.0031   0.00   32.2
2173 247867.000   1551941.4486  -4514373.8056   4215782.9939   1   6   0.0049   0.0103   0.0098  -0.0040  -0.0083   0.0029   0.00   32.3
2173 247868.000   1551941.4485  -4514373.8047   4215782.9931   1   6   0.0049   0.0103   0.0100  -0.0041  -0.0084   0.0032   0.00   32.5
2173 247869.000   1551941.4457  -4514373.8036   4215782.9910   1   6   0.0048   0.0102   0.0098  -0.0042  -0.0083   0.0031   0.00   32.5
2173 247870.000   1551941.4482  -4514373.8035   4215782.9929   1   6   0.0051   0.0103   0.0098  -0.0041  -0.0083   0.0030   0.00   32.7
2173 247871.000   1551941.4473  -4514373.8033   4215782.9924   1   6   0.0049   0.0103   0.0097  -0.0039  -0.0084   0.0028   0.00   32.8
2173 247872.000   1551941.4469  -4514373.8062   4215782.9921   1   6   0.0051   0.0103   0.0099  -0.0040  -0.0084   0.0030   0.00   33.0
2173 247873.000   1551941.4469  -4514373.8053   4215782.9924   1   6   0.0049   0.0104   0.0095  -0.0039  -0.0082   0.0029   0.00   33.2
2173 247874.000   1551941.4465  -4514373.8022   4215782.9914   1   6   0.0053   0.0102   0.0100  -0.0043  -0.0085   0.0032   0.00   33.5
2173 247875.000   1551941.4464  -4514373.8021   4215782.9916   1   6   0.0048   0.0103   0.0097  -0.0041  -0.0083   0.0025   0.00   33.7
2173 247876.000   1551941.4481  -4514373.8063   4215782.9951   1   6   0.0050   0.0103   0.0098  -0.0041  -0.0082   0.0029   0.00   33.8
2173 247877.000   1551941.4482  -4514373.8061   4215782.9931   1   6   0.0049   0.0103   0.0098  -0.0040  -0.0084   0.0030   0.00   34.0
2173 247878.000   1551941.4466  -4514373.8012   4215782.9871   1   6   0.0051   0.0103   0.0099  -0.0042  -0.0083   0.0033   0.00   34.2
2173 247879.000   1551941.4482  -4514373.8034   4215782.9894   1   6   0.0053   0.0103   0.0096  -0.0043  -0.0082   0.0033   0.00   34.3
2173 247880.000   1551941.4487  -4514373.8018   4215782.9895   1   6   0.0050   0.0102   0.0099  -0.0042  -0.0084   0.0029   0.00   34.4
2173 247881.000   1551941.4463  -4514373.8001   4215782.9845   1   6   0.0052   0.0102   0.0099  -0.0042  -0.0084   0.0033   0.00   34.5
2173 247882.000   1551941.4449  -4514373.8009   4215782.9867   1   6   0.0051   0.0103   0.0096  -0.0041  -0.0082   0.0031   0.00   34.7
2173 247883.000   1551941.4474  -4514373.8020   4215782.9866   1   6   0.0052   0.0103   0.0097  -0.0041  -0.0083   0.0031   0.00   34.8
2173 247884.000   1551941.4489  -4514373.8016   4215782.9893   1   6   0.0051   0.0103   0.0097  -0.0042  -0.0082   0.0030   0.00   35.0
2173 247885.000   1551941.4461  -4514373.7980   4215782.9845   1   6   0.0048   0.0103   0.0098  -0.0040  -0.0084   0.0029   0.00   35.3
2173 247886.000   1551941.4466  -4514373.8000   4215782.9857   1   6   0.0053   0.0103   0.0097  -0.0043  -0.0083   0.0033   0.00   35.5
2173 247887.000   1551941.4467  -4514373.7989   4215782.9886   1   6   0.0050   0.0102   0.0098  -0.0043  -0.0083   0.0033   0.00   35.6
2173 247888.000   1551941.4463  -4514373.7976   4215782.9843   1   6   0.0050   0.0104   0.0096  -0.0042  -0.0083   0.0033   0.00   35.9
2173 247889.000   1551941.4464  -4514373.7988   4215782.9856   1   6   0.0052   0.0103   0.0097  -0.0041  -0.0083   0.0028   0.00   36.1
2173 247890.000   1551941.4462  -4514373.8004   4215782.9867   1   6   0.0048   0.0103   0.0097  -0.0041  -0.0083   0.0032   0.00   36.3
2173 247891.000   1551941.4459  -4514373.7988   4215782.9875   1   6   0.0053   0.0103   0.0097  -0.0043  -0.0082   0.0033   0.00   36.5
2173 247892.000   1551941.4481  -4514373.8002   4215782.9870   1   6   0.0051   0.0102   0.0096  -0.0044  -0.0082   0.0029   0.00   36.7
2173 247893.000   1551941.4472  -4514373.7955   4215782.9840   1   6   0.0052   0.0103   0.0096  -0.0043  -0.0082   0.0032   0.00   37.0
2173 247894.000   1551941.4468  -4514373.7998   4215782.9858   1   6   0.0050   0.0104   0.0096  -0.0041  -0.0083   0.0030   0.00   37.2
2173 247895.000   1551941.4464  -4514373.7985   4215782.9850   1   6   0.0053   0.0103   0.0096  -0.0042  -0.0082   0.0031   0.00   37.3
2173 247896.000   1551941.4471  -4514373.7982   4215782.9835   1   6   0.0050   0.0103   0.0097  -0.0042  -0.0083   0.0031   0.00   37.5
2173 247897.000   1551941.4462  -4514373.7978   4215782.9829   1   6   0.0051   0.0102   0.0098  -0.0042  -0.0083   0.0032   0.00   37.6
2173 247898.000   1551941.4458  -4514373.7985   4215782.9837   1   6   0.0050   0.0104   0.0098  -0.0039  -0.0083   0.0028   0.00   37.7
2173 247899.000   1551941.4451  -4514373.7980   4215782.9853   1   6   0.0051   0.0103   0.0097  -0.0041  -0.0083   0.0028   0.00   37.8
2173 247900.000   1551941.4450  -4514373.7969   4215782.9846   1   6   0.0050   0.0103   0.0096  -0.0043  -0.0081   0.0029   0.00   38.0
2173 247901.000   1551941.4459  -4514373.7968   4215782.9842   1   6   0.0051   0.0104   0.0098  -0.0041  -0.0083   0.0031   0.00   38.1
2173 247902.000   1551941.4451  -4514373.7953   4215782.9824   1   6   0.0048   0.0102   0.0098  -0.0042  -0.0083   0.0034   0.00   38.2
2173 247903.000   1551941.4456  -4514373.7956   4215782.9830   1   6   0.0052   0.0104   0.0097  -0.0040  -0.0082   0.0030   0.00   38.4
2173 247904.000   1551941.4451  -4514373.7935   4215782.9817   1   6   0.0052   0.0103   0.0097  -0.0041  -0.0082   0.0030   0.00   38.4
2173 247905.000   1551941.4462  -4514373.7961   4215782.9848   1   6   0.0047   0.0103   0.0097  -0.0041  -0.0083   0.0030   0.00   38.5
2173 247906.000   1551941.4463  -4514373.7936   4215782.9848   1   6   0.0049   0.0103   0.0095  -0.0041  -0.0082   0.0033   0.00   38.6
2173 247907.000   1551941.4465  -4514373.7938   4215782.9830   1   6   0.0049   0.0104   0.0097  -0.0039  -0.0083   0.0030   0.00   38.6
2173 247908.000   1551941.4456  -4514373.7933   4215782.9807   1   6   0.0052   0.0102   0.0097  -0.0042  -0.0083   0.0033   0.00   38.7
2173 247909.000   1551941.4457  -4514373.7951   4215782.9834   1   6   0.0052   0.0103   0.0097  -0.0044  -0.0083   0.0032   0.00   38.7
2173 247910.000   1551941.4451  -4514373.7934   4215782.9813   1   6   0.0051   0.0103   0.0098  -0.0039  -0.0083   0.0031   0.00   38.7
2173 247911.000   1551941.4456  -4514373.7961   4215782.9845   1   6   0.0050   0.0103   0.0097  -0.0042  -0.0082   0.0032   0.00   38.7
2173 247912.000   1551941.4461  -4514373.7947   4215782.9843   1   6   0.0052   0.0103   0.0097  -0.0043  -0.0082   0.0034   0.00   38.7
2173 247913.000   1551941.4463  -4514373.7968   4215782.9837   1   6   0.0049   0.0103   0.0097  -0.0040  -0.0083   0.0030   0.00   38.7
2173 247914.000   1551941.4456  -4514373.7959   4215782.9829   1   6   0.0050   0.0102   0.0097  -0.0043  -0.0083   0.0032   0.00   38.7
2173 247915.000   1551941.4464  -4514373.7947   4215782.9844   1   6   0.0053   0.0102   0.0097  -0.0042  -0.0083   0.0032   0.00   38.6
2173 247916.000   1551941.4467  -4514373.7936   4215782.9844   1   6   0.0050   0.0103   0.0098  -0.0042  -0.0083   0.0030   0.00   38.5
2173 247917.000   1551941.4447  -4514373.7936   4215782.9825   1   6   0.0052   0.0103   0.0097  -0.0043  -0.0082   0.0032   0.00   38.4
2173 247918.000   1551941.4442  -4514373.7922   4215782.9804   1   6   0.0052   0.0103   0.0097  -0.0042  -0.0083   0.0031   0.00   38.3
2173 247919.000   1551941.4445  -4514373.7934   4215782.9822   1   6   0.0050   0.0103   0.0097  -0.0041  -0.0082   0.0028   0.00   38.2
2173 247920.000   1551941.4457  -4514373.7961   4215782.9850   1   6   0.0050   0.0103   0.0098  -0.0042  -0.0083   0.0032   0.00   38.2
2173 247921.000   1551941.4458  -4514373.7943   4215782.9841   1   6   0.0050   0.0102   0.0096  -0.0041  -0.0082   0.0028   0.00   38.2
2173 247922.000   1551941.4457  -4514373.7925   4215782.9829   1   6   0.0050   0.0103   0.0097  -0.0039  -0.0083   0.0030   0.00   38.1
2173 247923.000   1551941.4453  -4514373.7943   4215782.9847   1   6   0.0052   0.0102   0.0098  -0.0043  -0.0083   0.0033   0.00   38.1
2173 247924.000   1551941.4452  -4514373.7937   4215782.9823   1   6   0.0050   0.0103   0.0097  -0.0042  -0.0082   0.0034   0.00   38.1
2173 247925.000   1551941.4460  -4514373.7974   4215782.9836   1   6   0.0050   0.0102   0.0097  -0.0042  -0.0083   0.0032   0.00   38.0
2173 247926.000   1551941.4449  -4514373.7935   4215782.9839   1   6   0.0052   0.0103   0.0094  -0.0043  -0.0082   0.0029   0.00   38.0
2173 247927.000   1551941.4445  -4514373.7937   4215782.9829   1   6   0.0050   0.0103   0.0096  -0.0041  -0.0083   0.0029   0.00   37.9
2173 247928.000   1551941.4443  -4514373.7954   4215782.9815   1   6   0.0050   0.0103   0.0098  -0.0040  -0.0083   0.0030   0.00   37.9
2173 247929.000   1551941.4436  -4514373.7953   4215782.9826   1   6   0.0052   0.0103   0.0098  -0.0043  -0.0083   0.0032   0.00   37.8
2173 247930.000   1551941.4442  -4514373.7916   4215782.9793   1   6   0.0048   0.0103   0.0095  -0.0039  -0.0082   0.0030   0.00   37.8
2173 247931.000   1551941.4464  -4514373.7980   4215782.9856   1   6   0.0051   0.0104   0.0095  -0.0040  -0.0082   0.0027   0.00   37.8
2173 247932.000   1551941.4450  -4514373.7947   4215782.9843   1   6   0.0054   0.0103   0.0096  -0.0044  -0.0081   0.0032   0.00   37.7
2173 247933.000   1551941.4448  -4514373.7964   4215782.9846   1   6   0.0052   0.0103   0.0096  -0.0041  -0.0082   0.0033   0.00   37.7
2173 247934.000   1551941.4447  -4514373.7939   4215782.9829   1   6   0.0049   0.0103   0.0096  -0.0041  -0.0082   0.0030   0.00   37.6
2173 247935.000   1551941.4441  -4514373.7974   4215782.9847   1   6   0.0050   0.0103   0.0096  -0.0041  -0.0082   0.0031   0.00   37.6
2173 247936.000   1551941.4449  -4514373.7946   4215782.9840   1   6   0.0052   0.0102   0.0096  -0.0043  -0.0082   0.0031   0.00   37.6
2173 247937.000   1551941.4432  -4514373.7939   4215782.9816   1   6   0.0051   0.0102   0.0096  -0.0041  -0.0083   0.0028   0.00   37.5
2173 247938.000   1551941.4437  -4514373.7938   4215782.9826   1   6   0.0050   0.0102   0.0097  -0.0043  -0.0082   0.0031   0.00   37.5
2173 247939.000   1551941.4433  -4514373.7929   4215782.9836   1   6   0.0050   0.0103   0.0095  -0.0043  -0.0081   0.0031   0.00   37.4
2173 247940.000   1551941.4437  -4514373.7955   4215782.9849   1   6   0.0051   0.0103   0.0097  -0.0040  -0.0083   0.0032   0.00   37.4
2173 247941.000   1551941.4445  -4514373.7936   4215782.9846   1   6   0.0053   0.0103   0.0096  -0.0043  -0.0083   0.0033   0.00   37.3
2173 247942.000   1551941.4447  -4514373.7956   4215782.9840   1   6   0.0046   0.0103   0.0098  -0.0040  -0.0083   0.0028   0.00   37.3
2173 247943.000   1551941.4437  -4514373.7935   4215782.9838   1   6   0.0050   0.0103   0.0096  -0.0039  -0.0083   0.0028   0.00   37.1
2173 247944.000   1551941.4446  -4514373.7926   4215782.9815   1   6   0.0048   0.0103   0.0096  -0.0039  -0.0083   0.0027   0.00   37.1
2173 247945.000   1551941.4436  -4514373.7964   4215782.9847   1   6   0.0053   0.0103   0.0096  -0.0044  -0.0081   0.0032   0.00   37.1
2173 247946.000   1551941.4439  -4514373.7949   4215782.9835   1   6   0.0049   0.0103   0.0097  -0.0040  -0.0083   0.0029   0.00   37.1
2173 247947.000   1551941.4443  -4514373.7964   4215782.9844   1   6   0.0051   0.0103   0.0097  -0.0041  -0.0082   0.0030   0.00   37.1
2173 247948.000   1551941.4429  -4514373.7950   4215782.9831   1   6   0.0052   0.0102   0.0096  -0.0041  -0.0083   0.0030   0.00   37.1
2173 247949.000   1551941.4439  -4514373.7980   4215782.9857   1   6   0.0050   0.0104   0.0097  -0.0041  -0.0082   0.0032   0.00   37.0
2173 247950.000   1551941.4453  -4514373.7964   4215782.9845   1   6   0.0051   0.0103   0.0096  -0.0041  -0.0082   0.0030   0.00   36.9
2173 247951.000   1551941.4445  -4514373.7965   4215782.9862   1   6   0.0049   0.0103   0.0097  -0.0041  -0.0082   0.0029   0.00   36.8
2173 247952.000   1551941.4439  -4514373.7973   4215782.9826   1   6   0.0052   0.0102   0.0097  -0.0043  -0.0082   0.0033   0.00   36.7
2173 247953.000   1551941.4435  -4514373.7972   4215782.9846   1   6   0.0049   0.0103   0.0096  -0.0040  -0.0082   0.0028   0.00   36.6
2173 247954.000   1551941.4441  -4514373.8006   4215782.9861   1   6   0.0051   0.0103   0.0098  -0.0042  -0.0083   0.0031   0.00   36.5
2173 247955.000   1551941.4433  -4514373.7959   4215782.9837   1   6   0.0051   0.0103   0.0096  -0.0042  -0.0082   0.0029   0.00   36.5
2173 247956.000   1551941.4451  -4514373.7986   4215782.9831   1   6   0.0051   0.0103   0.0097  -0.0042  -0.0081   0.0031   0.00   36.4
2173 247957.000   1551941.4464  -4514373.8025   4215782.9844   1   6   0.0050   0.0103   0.0096  -0.0041  -0.0082   0.0029   0.00   36.4
2173 247958.000   1551941.4445  -4514373.8008   4215782.9862   1   6   0.0049   0.0103   0.0097  -0.0040  -0.0083   0.0030   0.00   36.4
2173 247959.000   1551941.4451  -4514373.8022   4215782.9864   1   6   0.0052   0.0103   0.0096  -0.0041  -0.0083   0.0033   0.00   36.3
2173 247960.000   1551941.4440  -4514373.8008   4215782.9859   1   6   0.0051   0.0103   0.0097  -0.0040  -0.0084   0.0029   0.00   36.2
2173 247961.000   1551941.4458  -4514373.8007   4215782.9832   1   6   0.0047   0.0103   0.0095  -0.0040  -0.0081   0.0029   0.00   36.2
2173 247962.000   1551941.4454  -4514373.8006   4215782.9844   1   6   0.0053   0.0103   0.0096  -0.0042  -0.0083   0.0032   0.00   36.2
2173 247963.000   1551941.4453  -4514373.7980   4215782.9840   1   6   0.0054   0.0103   0.0095  -0.0043  -0.0081   0.0030   0.00   36.2
2173 247964.000   1551941.4451  -4514373.8004   4215782.9847   1   6   0.0048   0.0103   0.0096  -0.0041  -0.0082   0.0029   0.00   36.1
2173 247965.000   1551941.4454  -4514373.8015   4215782.9843   1   6   0.0050   0.0104   0.0096  -0.0039  -0.0082   0.0031   0.00   36.1
2173 247966.000   1551941.4440  -4514373.7989   4215782.9837   1   6   0.0046   0.0102   0.0098  -0.0042  -0.0083   0.0031   0.00   36.0
2173 247967.000   1551941.4443  -4514373.7985   4215782.9843   1   6   0.0052   0.0102   0.0096  -0.0043  -0.0083   0.0032   0.00   35.9
2173 247968.000   1551941.4442  -4514373.7989   4215782.9839   1   6   0.0049   0.0104   0.0095  -0.0038  -0.0082   0.0027   0.00   35.8
2173 247969.000   1551941.4442  -4514373.8015   4215782.9860   1   6   0.0050   0.0103   0.0096  -0.0041  -0.0083   0.0031   0.00   35.6
2173 247970.000   1551941.4434  -4514373.7976   4215782.9826   1   6   0.0049   0.0103   0.0097  -0.0040  -0.0083   0.0030   0.00   35.5
2173 247971.000   1551941.4434  -4514373.8002   4215782.9850   1   6   0.0051   0.0102   0.0097  -0.0043  -0.0082   0.0032   0.00   35.4
2173 247972.000   1551941.4438  -4514373.8005   4215782.9849   1   6   0.0048   0.0102   0.0095  -0.0043  -0.0082   0.0030   0.00   35.3
2173 247973.000   1551941.4442  -4514373.7971   4215782.9832   1   6   0.0051   0.0103   0.0097  -0.0041  -0.0083   0.0032   0.00   35.2
2173 247974.000   1551941.4421  -4514373.7972   4215782.9818   1   6   0.0052   0.0102   0.0094  -0.0044  -0.0082   0.0031   0.00   35.1
2173 247975.000   1551941.4438  -4514373.7974   4215782.9856   1   6   0.0050   0.0103   0.0098  -0.0040  -0.0082   0.0031   0.00   35.1
2173 247976.000   1551941.4424  -4514373.7990   4215782.9844   1   6   0.0050   0.0102   0.0096  -0.0041  -0.0082   0.0032   0.00   35.0
2173 247977.000   1551941.4423  -4514373.7981   4215782.9831   1   6   0.0051   0.0102   0.0096  -0.0044  -0.0082   0.0030   0.00   35.0
2173 247978.000   1551941.4432  -4514373.7980   4215782.9839   1   6   0.0052   0.0103   0.0097  -0.0042  -0.0082   0.0031   0.00   34.9
2173 247979.000   1551941.4430  -4514373.7993   4215782.9840   1   6   0.0050   0.0103   0.0094  -0.0040  -0.0082   0.0030   0.00   34.8
2173 247980.000   1551941.4422  -4514373.7935   4215782.9831   1   6   0.0051   0.0103   0.0096  -0.0041  -0.0082   0.0031   0.00   34.9
2173 247981.000   1551941.4419  -4514373.7935   4215782.9797   1   6   0.0049   0.0103   0.0094  -0.0040  -0.0081   0.0029   0.00   34.8
2173 247982.000   1551941.4427  -4514373.7967   4215782.9834   1   6   0.0051   0.0102   0.0095  -0.0044  -0.0081   0.0032   0.00   34.9
2173 247983.000   1551941.4428  -4514373.7991   4215782.9860   1   6   0.0051   0.0103   0.0095  -0.0041  -0.0082   0.0029   0.00   34.9
2173 247984.000   1551941.4417  -4514373.7979   4215782.9827   1   6   0.0051   0.0103   0.0094  -0.0040  -0.0082   0.0030   0.00   34.9
2173 247985.000   1551941.4416  -4514373.7959   4215782.9841   1   6   0.0049   0.0103   0.0097  -0.0041  -0.0083   0.0030   0.00   34.9
2173 247986.000   1551941.4422  -4514373.7945   4215782.9832   1   6   0.0050   0.0103   0.0096  -0.0041  -0.0082   0.0031   0.00   34.9
2173 247987.000   1551941.4410  -4514373.7961   4215782.9830   1   6   0.0051   0.0102   0.0095  -0.0043  -0.0082   0.0032   0.00   34.9
2173 247988.000   1551941.4424  -4514373.7934   4215782.9815   1   6   0.0049   0.0103   0.0093  -0.0041  -0.0080   0.0028   0.00   34.9
2173 247989.000   1551941.4410  -4514373.7945   4215782.9829   1   6   0.0050   0.0103   0.0095  -0.0042  -0.0082   0.0031   0.00   34.9
2173 247990.000   1551941.4409  -4514373.7942   4215782.9785   1   6   0.0051   0.0103   0.0095  -0.0044  -0.0081   0.0030   0.00   34.9
2173 247991.000   1551941.4419  -4514373.7955   4215782.9808   1   6   0.0052   0.0103   0.0095  -0.0041  -0.0082   0.0029   0.00   34.9
2173 247992.000   1551941.4418  -4514373.7975   4215782.9808   1   6   0.0051   0.0103   0.0095  -0.0041  -0.0082   0.0029   0.00   34.9
2173 247993.000   1551941.4416  -4514373.7958   4215782.9829   1   6   0.0053   0.0103   0.0095  -0.0042  -0.0081   0.0028   0.00   34.9
2173 247994.000   1551941.4398  -4514373.7947   4215782.9803   1   6   0.0051   0.0101   0.0097  -0.0044  -0.0083   0.0030   0.00   35.0
2173 247995.000   1551941.4400  -4514373.7926   4215782.9773   1   6   0.0053   0.0103   0.0096  -0.0041  -0.0082   0.0032   0.00   35.0
2173 247996.000   1551941.4411  -4514373.7937   4215782.9792   1   6   0.0051   0.0103   0.0095  -0.0041  -0.0082   0.0032   0.00   35.0
2173 247997.000   1551941.4420  -4514373.7997   4215782.9819   1   6   0.0051   0.0103   0.0095  -0.0042  -0.0082   0.0030   0.00   35.0
2173 247998.000   1551941.4399  -4514373.7963   4215782.9812   1   6   0.0049   0.0103   0.0095  -0.0041  -0.0082   0.0029   0.00   35.0
2173 247999.000   1551941.4409  -4514373.7975   4215782.9829   1   6   0.0051   0.0102   0.0095  -0.0044  -0.0080   0.0029   0.00   35.0
2173 248000.000   1551941.4414  -4514373.7970   4215782.9810   1   6   0.0050   0.0103   0.0095  -0.0042  -0.0082   0.0032   0.00   35.0
2173 248001.000   1551941.4417  -4514373.7995   4215782.9842   1   6   0.0051   0.0101   0.0097  -0.0045  -0.0082   0.0030   0.00   35.0
2173 248002.000   1551941.4408  -4514373.7995   4215782.9815   1   6   0.0050   0.0102   0.0097  -0.0042  -0.0082   0.0029   0.00   34.9
2173 248003.000   1551941.4408  -4514373.7957   4215782.9787   1   6   0.0050   0.0102   0.0096  -0.0043  -0.0082   0.0029   0.00   34.9
2173 248004.000   1551941.4406  -4514373.7963   4215782.9801   1   6   0.0050   0.0103   0.0097  -0.0040  -0.0082   0.0030   0.00   34.9
2173 248005.000   1551941.4408  -4514373.7994   4215782.9813   1   6   0.0052   0.0103   0.0095  -0.0042  -0.0081   0.0031   0.00   34.9
2173 248006.000   1551941.4397  -4514373.7971   4215782.9821   1   6   0.0050   0.0103   0.0094  -0.0043  -0.0081   0.0031   0.00   34.9
2173 248007.000   1551941.4394  -4514373.7990   4215782.9824   1   6   0.0051   0.0102   0.0095  -0.0044  -0.0081   0.0030   0.00   34.9
2173 248008.000   1551941.4399  -4514373.7996   4215782.9817   1   6   0.0048   0.0103   0.0096  -0.0042  -0.0082   0.0028   0.00   34.8
2173 248009.000   1551941.4394  -4514373.7965   4215782.9787   1   6   0.0053   0.0102   0.0096  -0.0044  -0.0082   0.0032   0.00   34.8
2173 248010.000   1551941.4410  -4514373.8006   4215782.9806   1   6   0.0051   0.0102   0.0095  -0.0043  -0.0082   0.0029   0.00   34.8
2173 248011.000   1551941.4409  -4514373.7998   4215782.9830   1   6   0.0052   0.0103   0.0094  -0.0042  -0.0082   0.0032   0.00   34.9
2173 248012.000   1551941.4402  -4514373.8003   4215782.9840   1   6   0.0050   0.0103   0.0095  -0.0040  -0.0082   0.0030   0.00   34.9
2173 248013.000   1551941.4410  -4514373.7986   4215782.9831   1   6   0.0049   0.0104   0.0095  -0.0040  -0.0081   0.0031   0.00   34.8
2173 248014.000   1551941.4374  -4514373.7978   4215782.9811   1   6   0.0051   0.0102   0.0097  -0.0042  -0.0082   0.0029   0.00   34.8
2173 248015.000   1551941.4385  -4514373.7945   4215782.9789   1   6   0.0049   0.0102   0.0096  -0.0042  -0.0081   0.0030   0.00   34.8
2173 248016.000   1551941.4401  -4514373.8002   4215782.9818   1   6   0.0052   0.0102   0.0096  -0.0044  -0.0082   0.0032   0.00   34.7
2173 248017.000   1551941.4384  -4514373.7971   4215782.9799   1   6   0.0049   0.0103   0.0094  -0.0041  -0.0081   0.0028   0.00   34.7
2173 248018.000   1551941.4396  -4514373.7984   4215782.9803   1   6   0.0049   0.0103   0.0096  -0.0041  -0.0082   0.0027   0.00   34.7
2173 248019.000   1551941.4399  -4514373.7949   4215782.9797   1   6   0.0050   0.0103   0.0095  -0.0041  -0.0082   0.0031   0.00   34.8
2173 248020.000   1551941.4405  -4514373.7999   4215782.9840   1   6   0.0054   0.0103   0.0095  -0.0042  -0.0081   0.0029   0.00   34.8
2173 248021.000   1551941.4398  -4514373.7981   4215782.9835   1   6   0.0052   0.0103   0.0094  -0.0039  -0.0081   0.0030   0.00   34.9
2173 248022.000   1551941.4377  -4514373.7948   4215782.9793   1   6   0.0052   0.0104   0.0094  -0.0041  -0.0081   0.0028   0.00   35.0
2173 248023.000   1551941.4396  -4514373.7977   4215782.9815   1   6   0.0050   0.0103   0.0095  -0.0040  -0.0081   0.0028   0.00   35.0
2173 248024.000   1551941.4389  -4514373.7975   4215782.9812   1   6   0.0051   0.0103   0.0096  -0.0041  -0.0082   0.0030   0.00   35.1
2173 248025.000   1551941.4391  -4514373.7991   4215782.9806   1   6   0.0051   0.0103   0.0095  -0.0042  -0.0081   0.0031   0.00   35.2
2173 248026.000   1551941.4385  -4514373.7968   4215782.9821   1   6   0.0052   0.0102   0.0095  -0.0043  -0.0081   0.0030   0.00   35.2
2173 248027.000   1551941.4380  -4514373.7996   4215782.9840   1   6   0.0055   0.0103   0.0093  -0.0043  -0.0080   0.0032   0.00   35.2
2173 248028.000   1551941.4374  -4514373.7974   4215782.9825   1   6   0.0050   0.0103   0.0093  -0.0042  -0.0080   0.0026   0.00   35.1
2173 248029.000   1551941.4363  -4514373.7971   4215782.9803   1   6   0.0051   0.0104   0.0094  -0.0040  -0.0081   0.0030   0.00   35.1
2173 248030.000   1551941.4372  -4514373.7984   4215782.9845   1   6   0.0049   0.0103   0.0094  -0.0040  -0.0082   0.0029   0.00   35.0
2173 248031.000   1551941.4388  -4514373.7990   4215782.9856   1   6   0.0051   0.0103   0.0093  -0.0043  -0.0080   0.0029   0.00   35.0
2173 248032.000   1551941.4378  -4514373.7983   4215782.9838   1   6   0.0050   0.0103   0.0094  -0.0042  -0.0081   0.0031   0.00   35.0
2173 248033.000   1551941.4400  -4514373.7998   4215782.9851   1   6   0.0051   0.0103   0.0095  -0.0041  -0.0081   0.0029   0.00   35.0
2173 248034.000   1551941.4387  -4514373.8003   4215782.9835   1   6   0.0049   0.0102   0.0094  -0.0043  -0.0081   0.0030   0.00   35.0
2173 248035.000   1551941.4399  -4514373.7999   4215782.9845   1   6   0.0051   0.0104   0.0095  -0.0040  -0.0082   0.0031   0.00   35.1
2173 248036.000   1551941.4386  -4514373.7972   4215782.9792   1   6   0.0047   0.0103   0.0095  -0.0042  -0.0082   0.0030   0.00   35.1
2173 248037.000   1551941.4383  -4514373.7987   4215782.9817   1   6   0.0052   0.0103   0.0096  -0.0042  -0.0082   0.0029   0.00   35.1
2173 248038.000   1551941.4367  -4514373.7946   4215782.9784   1   6   0.0052   0.0104   0.0094  -0.0041  -0.0081   0.0030   0.00   35.1
2173 248039.000   1551941.4396  -4514373.7983   4215782.9839   1   6   0.0052   0.0103   0.0094  -0.0042  -0.0082   0.0031   0.00   35.1
2173 248040.000   1551941.4389  -4514373.8004   4215782.9859   1   6   0.0051   0.0103   0.0094  -0.0042  -0.0081   0.0030   0.00   35.0
2173 248041.000   1551941.4387  -4514373.7980   4215782.9829   1   6   0.0053   0.0103   0.0095  -0.0042  -0.0081   0.0030   0.00   35.1
2173 248042.000   1551941.4384  -4514373.8018   4215782.9860   1   6   0.0053   0.0103   0.0096  -0.0043  -0.0081   0.0032   0.00   35.1
2173 248043.000   1551941.4389  -4514373.7993   4215782.9834   1   6   0.0048   0.0103   0.0093  -0.0043  -0.0080   0.0029   0.00   35.1
2173 248044.000   1551941.4387  -4514373.7990   4215782.9843   1   6   0.0051   0.0103   0.0094  -0.0043  -0.0080   0.0028   0.00   35.1
2173 248045.000   1551941.4388  -4514373.7981   4215782.9810   1   6   0.0049   0.0103   0.0095  -0.0039  -0.0082   0.0027   0.00   35.2
2173 248046.000   1551941.4367  -4514373.7980   4215782.9801   1   6   0.0050   0.0102   0.0093  -0.0043  -0.0081   0.0029   0.00   35.2
2173 248047.000   1551941.4361  -4514373.7979   4215782.9803   1   6   0.0052   0.0103   0.0095  -0.0042  -0.0082   0.0030   0.00   35.1
2173 248048.000   1551941.4369  -4514373.7961   4215782.9834   1   6   0.0051   0.0102   0.0094  -0.0042  -0.0081   0.0031   0.00   35.2
2173 248049.000   1551941.4374  -4514373.8005   4215782.9848   1   6   0.0052   0.0102   0.0094  -0.0044  -0.0081   0.0031   0.00   35.2
2173 248050.000   1551941.4374  -4514373.8004   4215782.9824   1   6   0.0046   0.0103   0.0093  -0.0040  -0.0080   0.0028   0.00   35.2
2173 248051.000   1551941.4361  -4514373.8010   4215782.9847   1   6   0.0051   0.0103   0.0096  -0.0043  -0.0082   0.0031   0.00   35.2
2173 248052.000   1551941.4388  -4514373.8035   4215782.9840   1   6   0.0051   0.0103   0.0093  -0.0041  -0.0081   0.0031   0.00   35.3
2173 248053.000   1551941.4363  -4514373.8020   4215782.9850   1   6   0.0052   0.0103   0.0095  -0.0042  -0.0081   0.0031   0.00   35.4
2173 248054.000   1551941.4358  -4514373.8004   4215782.9876   1   6   0.0049   0.0103   0.0095  -0.0041  -0.0081   0.0029   0.00   35.4
2173 248055.000   1551941.4363  -4514373.8012   4215782.9852   1   6   0.0052   0.0103   0.0095  -0.0041  -0.0081   0.0027   0.00   35.5
2173 248056.000   1551941.4368  -4514373.7981   4215782.9826   1   6   0.0051   0.0103   0.0094  -0.0044  -0.0081   0.0032   0.00   35.6
2173 248057.000   1551941.4356  -4514373.8000   4215782.9839   1   6   0.0051   0.0102   0.0094  -0.0044  -0.0081   0.0032   0.00   35.7
2173 248058.000   1551941.4349  -4514373.7990   4215782.9841   1   6   0.0052   0.0102   0.0094  -0.0044  -0.0080   0.0032   0.00   35.8
2173 248059.000   1551941.4363  -4514373.8018   4215782.9843   1   6   0.0049   0.0103   0.0096  -0.0041  -0.0081   0.0031   0.00   35.9
2173 248060.000   1551941.4338  -4514373.7957   4215782.9810   1   6   0.0049   0.0103   0.0094  -0.0041  -0.0081   0.0031   0.00   36.0
2173 248061.000   1551941.4333  -4514373.7998   4215782.9844   1   6   0.0052   0.0102   0.0095  -0.0043  -0.0081   0.0031   0.00   36.0
2173 248062.000   1551941.4363  -4514373.8000   4215782.9849   1   6   0.0052   0.0103   0.0094  -0.0045  -0.0079   0.0030   0.00   36.1
2173 248063.000   1551941.4343  -4514373.7968   4215782.9835   1   6   0.0053   0.0102   0.0095  -0.0044  -0.0082   0.0028   0.00   36.1
2173 248064.000   1551941.4336  -4514373.7978   4215782.9853   1   6   0.0050   0.0102   0.0096  -0.0041  -0.0081   0.0029   0.00   36.1
2173 248065.000   1551941.4355  -4514373.8009   4215782.9855   1   6   0.0050   0.0102   0.0095  -0.0042  -0.0081   0.0030   0.00   36.2
2173 248066.000   1551941.4331  -4514373.7962   4215782.9841   1   6   0.0050   0.0102   0.0096  -0.0042  -0.0081   0.0030   0.00   36.2
2173 248067.000   1551941.4346  -4514373.8007   4215782.9820   1   6   0.0052   0.0103   0.0094  -0.0041  -0.0082   0.0028   0.00   36.2
2173 248068.000   1551941.4359  -4514373.8037   4215782.9897   1   6   0.0050   0.0102   0.0094  -0.0043  -0.0080   0.0029   0.00   36.3
2173 248069.000   1551941.4355  -4514373.8009   4215782.9858   1   6   0.0049   0.0102   0.0095  -0.0042  -0.0081   0.0027   0.00   36.4
2173 248070.000   1551941.4366  -4514373.8003   4215782.9870   1   6   0.0048   0.0103   0.0095  -0.0041  -0.0081   0.0027   0.00   36.4
2173 248071.000   1551941.4347  -4514373.8000   4215782.9890   1   6   0.0053   0.0102   0.0094  -0.0043  -0.0082   0.0031   0.00   36.5
2173 248072.000   1551941.4360  -4514373.7996   4215782.9835   1   6   0.0051   0.0103   0.0095  -0.0042  -0.0081   0.0030   0.00   36.5
2173 248073.000   1551941.4354  -4514373.8024   4215782.9869   1   6   0.0047   0.0103   0.0094  -0.0040  -0.0081   0.0027   0.00   36.5
2173 248074.000   1551941.4357  -4514373.8015   4215782.9849   1   6   0.0049   0.0103   0.0095  -0.0040  -0.0081   0.0029   0.00   36.5
2173 248075.000   1551941.4361  -4514373.7969   4215782.9848   1   6   0.0052   0.0103   0.0095  -0.0042  -0.0080   0.0031   0.00   36.5
2173 248076.000   1551941.4354  -4514373.7980   4215782.9837   1   6   0.0050   0.0103   0.0096  -0.0042  -0.0081   0.0032   0.00   36.6
2173 248077.000   1551941.4343  -4514373.7993   4215782.9858   1   6   0.0052   0.0102   0.0097  -0.0044  -0.0082   0.0031   0.00   36.6
2173 248078.000   1551941.4344  -4514373.7981   4215782.9845   1   6   0.0050   0.0102   0.0097  -0.0043  -0.0081   0.0030   0.00   36.7
2173 248079.000   1551941.4339  -4514373.7991   4215782.9887   1   6   0.0051   0.0102   0.0094  -0.0044  -0.0081   0.0029   0.00   36.8
2173 248080.000   1551941.4349  -4514373.7990   4215782.9850   1   6   0.0050   0.0103   0.0094  -0.0040  -0.0081   0.0028   0.00   36.9
2173 248081.000   1551941.4339  -4514373.7999   4215782.9854   1   6   0.0050   0.0103   0.0096  -0.0041  -0.0082   0.0029   0.00   37.0
2173 248082.000   1551941.4350  -4514373.7989   4215782.9853   1   6   0.0054   0.0102   0.0095  -0.0044  -0.0081   0.0033   0.00   37.1
2173 248083.000   1551941.4357  -4514373.8007   4215782.9860   1   6   0.0052   0.0102   0.0094  -0.0044  -0.0081   0.0031   0.00   37.2
2173 248084.000   1551941.4353  -4514373.8013   4215782.9828   1   6   0.0052   0.0103   0.0093  -0.0043  -0.0080   0.0028   0.00   37.4
2173 248085.000   1551941.4349  -4514373.8011   4215782.9845   1   6   0.0051   0.0103   0.0094  -0.0043  -0.0081   0.0029   0.00   37.5
2173 248086.000   1551941.4358  -4514373.8019   4215782.9873   1   6   0.0053   0.0102   0.0095  -0.0045  -0.0080   0.0034   0.00   37.5
2173 248087.000   1551941.4354  -4514373.8024   4215782.9887   1   6   0.0052   0.0104   0.0094  -0.0041  -0.0081   0.0031   0.00   37.7
2173 248088.000   1551941.4352  -4514373.8008   4215782.9832   1   6   0.0053   0.0102   0.0096  -0.0044  -0.0081   0.0031   0.00   37.8
2173 248089.000   1551941.4342  -4514373.8004   4215782.9864   1   6   0.0050   0.0102   0.0094  -0.0044  -0.0080   0.0028   0.00   37.9
2173 248090.000   1551941.4356  -4514373.8018   4215782.9874   1   6   0.0051   0.0103   0.0093  -0.0043  -0.0080   0.0030   0.00   38.0
2173 248091.000   1551941.4366  -4514373.8009   4215782.9841   1   6   0.0053   0.0102   0.0095  -0.0044  -0.0081   0.0029   0.00   38.0
2173 248092.000   1551941.4374  -4514373.8039   4215782.9879   1   6   0.0049   0.0104   0.0093  -0.0040  -0.0080   0.0030   0.00   38.2
2173 248093.000   1551941.4364  -4514373.8036   4215782.9865   1   6   0.0051   0.0103   0.0093  -0.0041  -0.0080   0.0030   0.00   38.3
2173 248094.000   1551941.4364  -4514373.8031   4215782.9861   1   6   0.0052   0.0103   0.0094  -0.0042  -0.0081   0.0029   0.00   38.4
2173 248095.000   1551941.4367  -4514373.8036   4215782.9863   1   6   0.0053   0.0101   0.0095  -0.0045  -0.0081   0.0029   0.00   38.5
2173 248096.000   1551941.4347  -4514373.7990   4215782.9856   1   6   0.0050   0.0103   0.0093  -0.0043  -0.0080   0.0029   0.00   38.5
2173 248097.000   1551941.4363  -4514373.7986   4215782.9872   1   6   0.0050   0.0102   0.0095  -0.0043  -0.0081   0.0031   0.00   38.6
2173 248098.000   1551941.4363  -4514373.7969   4215782.9866   1   6   0.0050   0.0103   0.0094  -0.0042  -0.0080   0.0027   0.00   38.6
2173 248099.000   1551941.4384  -4514373.8040   4215782.9907   1   6   0.0053   0.0103   0.0094  -0.0042  -0.0081   0.0032   0.00   38.7
2173 248100.000   1551941.4375  -4514373.8029   4215782.9850   1   6   0.0050   0.0103   0.0095  -0.0042  -0.0080   0.0029   0.00   38.9
2173 248101.000   1551941.4384  -4514373.8001   4215782.9840   1   6   0.0049   0.0103   0.0094  -0.0041  -0.0081   0.0029   0.00   38.9
2173 248102.000   1551941.4369  -4514373.8031   4215782.9898   1   6   0.0052   0.0102   0.0094  -0.0043  -0.0081   0.0028   0.00   39.0
2173 248103.000   1551941.4374  -4514373.8027   4215782.9876   1   6   0.0052   0.0102   0.0095  -0.0043  -0.0081   0.0029   0.00   39.1
2173 248104.000   1551941.4380  -4514373.8055   4215782.9890   1   6   0.0050   0.0102   0.0092  -0.0043  -0.0080   0.0030   0.00   39.2
2173 248105.000   1551941.4389  -4514373.8020   4215782.9872   1   6   0.0051   0.0103   0.0094  -0.0042  -0.0080   0.0029   0.00   39.4
2173 248106.000   1551941.4379  -4514373.8044   4215782.9864   1   6   0.0050   0.0103   0.0093  -0.0041  -0.0081   0.0030   0.00   39.4
2173 248107.000   1551941.4375  -4514373.8004   4215782.9866   1   6   0.0046   0.0103   0.0093  -0.0041  -0.0081   0.0030   0.00   39.5
2173 248108.000   1551941.4388  -4514373.8021   4215782.9856   1   6   0.0050   0.0103   0.0094  -0.0041  -0.0080   0.0029   0.00   39.7
2173 248109.000   1551941.4366  -4514373.8011   4215782.9877   1   6   0.0052   0.0103   0.0093  -0.0042  -0.0081   0.0028   0.00   39.8
2173 248110.000   1551941.4390  -4514373.8041   4215782.9883   1   6   0.0049   0.0102   0.0095  -0.0043  -0.0081   0.0030   0.00   39.9
2173 248111.000   1551941.4383  -4514373.8036   4215782.9897   1   6   0.0051   0.0103   0.0095  -0.0041  -0.0080   0.0030   0.00   40.1
2173 248112.000   1551941.4371  -4514373.8032   4215782.9893   1   6   0.0052   0.0103   0.0092  -0.0042  -0.0079   0.0031   0.00   40.2
2173 248113.000   1551941.4382  -4514373.8038   4215782.9867   1   6   0.0051   0.0102   0.0094  -0.0041  -0.0081   0.0030   0.00   40.3
2173 248114.000   1551941.4383  -4514373.8027   4215782.9857   1   6   0.0050   0.0102   0.0095  -0.0041  -0.0081   0.0028   0.00   40.5
2173 248115.000   1551941.4371  -4514373.8028   4215782.9853   1   6   0.0053   0.0103   0.0095  -0.0043  -0.0080   0.0031   0.00   40.6
2173 248116.000   1551941.4391  -4514373.8044   4215782.9906   1   6   0.0051   0.0102   0.0095  -0.0044  -0.0081   0.0030   0.00   40.7
2173 248117.000   1551941.4387  -4514373.8040   4215782.9884   1   6   0.0049   0.0103   0.0093  -0.0043  -0.0080   0.0031   0.00   40.8
2173 248118.000   1551941.4403  -4514373.8032   4215782.9897   1   6   0.0050   0.0103   0.0092  -0.0043  -0.0079   0.0029   0.00   40.9
2173 248119.000   1551941.4385  -4514373.8034   4215782.9891   1   6   0.0050   0.0103   0.0093  -0.0042  -0.0080   0.0029   0.00   41.1
2173 248120.000   1551941.4396  -4514373.8042   4215782.9896   1   6   0.0051   0.0103   0.0095  -0.0043  -0.0080   0.0032   0.00   41.2
2173 248121.000   1551941.4399  -4514373.8057   4215782.9860   1   6   0.0053   0.0104   0.0094  -0.0042  -0.0081   0.0031   0.00   41.3
2173 248122.000   1551941.4381  -4514373.8033   4215782.9900   1   6   0.0050   0.0102   0.0095  -0.0042  -0.0081   0.0029   0.00   41.3
2173 248123.000   1551941.4392  -4514373.8046   4215782.9904   1   6   0.0052   0.0103   0.0094  -0.0041  -0.0081   0.0032   0.00   41.4
2173 248124.000   1551941.4381  -4514373.8018   4215782.9873   1   6   0.0050   0.0102   0.0095  -0.0044  -0.0081   0.0028   0.00   41.6
2173 248125.000   1551941.4395  -4514373.8033   4215782.9886   1   6   0.0051   0.0101   0.0093  -0.0045  -0.0081   0.0028   0.00   41.7
2173 248126.000   1551941.4380  -4514373.8048   4215782.9931   1   6   0.0050   0.0102   0.0093  -0.0043  -0.0080   0.0030   0.00   41.8
2173 248127.000   1551941.4386  -4514373.8037   4215782.9906   1   6   0.0050   0.0102   0.0092  -0.0044  -0.0079   0.0029   0.00   42.0
2173 248128.000   1551941.4391  -4514373.8060   4215782.9887   1   6   0.0050   0.0103   0.0093  -0.0041  -0.0080   0.0029   0.00   42.1
2173 248129.000   1551941.4383  -4514373.8039   4215782.9887   1   6   0.0052   0.0103   0.0094  -0.0042  -0.0082   0.0031   0.00   42.1
2173 248130.000   1551941.4379  -4514373.8019   4215782.9888   1   6   0.0051   0.0102   0.0093  -0.0042  -0.0081   0.0028   0.00   42.2
2173 248131.000   1551941.4388  -4514373.8044   4215782.9908   1   6   0.0051   0.0104   0.0093  -0.0041  -0.0079   0.0029   0.00   42.3
2173 248132.000   1551941.4392  -4514373.8022   4215782.9900   1   6   0.0053   0.0103   0.0094  -0.0043  -0.0081   0.0029   0.00   42.5
2173 248133.000   1551941.4386  -4514373.8015   4215782.9911   1   6   0.0052   0.0103   0.0093  -0.0042  -0.0081   0.0028   0.00   42.6
2173 248134.000   1551941.4394  -4514373.8022   4215782.9882   1   6   0.0052   0.0102   0.0093  -0.0044  -0.0080   0.0030   0.00   42.7
2173 248135.000   1551941.4407  -4514373.8055   4215782.9899   1   6   0.0049   0.0102   0.0094  -0.0042  -0.0081   0.0032   0.00   42.8
2173 248136.000   1551941.4383  -4514373.8006   4215782.9914   1   6   0.0052   0.0104   0.0094  -0.0042  -0.0081   0.0032   0.00   42.8
2173 248137.000   1551941.4381  -4514373.8070   4215782.9941   1   6   0.0051   0.0103   0.0094  -0.0043  -0.0080   0.0029   0.00   42.9
2173 248138.000   1551941.4409  -4514373.8094   4215782.9939   1   6   0.0050   0.0103   0.0096  -0.0041  -0.0080   0.0030   0.00   43.0
2173 248139.000   1551941.4398  -4514373.8090   4215782.9934   1   6   0.0053   0.0103   0.0093  -0.0042  -0.0080   0.0030   0.00   43.1
2173 248140.000   1551941.4398  -4514373.8066   4215782.9936   1   6   0.0051   0.0103   0.0095  -0.0042  -0.0080   0.0029   0.00   43.1
2173 248141.000   1551941.4404  -4514373.8069   4215782.9938   1   6   0.0050   0.0102   0.0092  -0.0044  -0.0080   0.0028   0.00   43.1
2173 248142.000   1551941.4418  -4514373.8087   4215782.9940   1   6   0.0048   0.0103   0.0093  -0.0041  -0.0081   0.0030   0.00   43.2
2173 248143.000   1551941.4399  -4514373.8097   4215782.9959   1   6   0.0054   0.0103   0.0091  -0.0044  -0.0080   0.0033   0.00   43.3
2173 248144.000   1551941.4392  -4514373.8077   4215782.9948   1   6   0.0049   0.0102   0.0094  -0.0043  -0.0080   0.0029   0.00   43.3
2173 248145.000   1551941.4409  -4514373.8101   4215782.9961   1   6   0.0051   0.0103   0.0093  -0.0042  -0.0080   0.0027   0.00   43.4
2173 248146.000   1551941.4408  -4514373.8082   4215782.9935   1   6   0.0049   0.0103   0.0095  -0.0043  -0.0080   0.0030   0.00   43.4
2173 248147.000   1551941.4399  -4514373.8079   4215782.9917   1   6   0.0051   0.0103   0.0093  -0.0044  -0.0080   0.0030   0.00   43.5
2173 248148.000   1551941.4404  -4514373.8077   4215782.9917   1   6   0.0054   0.0105   0.0096  -0.0045  -0.0082   0.0029   1.00   43.6
2173 248149.000   1551941.4392  -4514373.8084   4215782.9905   1   6   0.0050   0.0103   0.0093  -0.0042  -0.0080   0.0028   0.00   43.7
2173 248150.000   1551941.4395  -4514373.8075   4215782.9916   1   6   0.0053   0.0103   0.0095  -0.0043  -0.0081   0.0031   0.00   43.7
2173 248151.000   1551941.4389  -4514373.8055   4215782.9906   1   6   0.0048   0.0103   0.0093  -0.0041  -0.0080   0.0026   0.00   43.8
2173 248152.000   1551941.4407  -4514373.8106   4215782.9925   1   6   0.0049   0.0103   0.0093  -0.0042  -0.0080   0.0026   0.00   43.9
2173 248153.000   1551941.4378  -4514373.8056   4215782.9961   1   6   0.0051   0.0103   0.0095  -0.0043  -0.0080   0.0032   0.00   43.9
2173 248154.000   1551941.4379  -4514373.8057   4215782.9934   1   6   0.0051   0.0102   0.0095  -0.0042  -0.0081   0.0029   0.00   44.0
