% program   : rnx2rtkp ver.2.4.3 b31
% inp file  : ngs/21_09_01_06_41_37_sacr.obs
% inp file  : ngs/21_09_01_06_41_37_sacr_SNCA.obs
% inp file  : ngs/21_09_01_06_41_37_brdc.nav
% obs start : 2021/09/01 06:00:00.0 GPST (week2173 280800.0s)
% obs end   : 2021/09/01 06:59:59.0 GPST (week2173 284399.0s)
% ref pos   : -2595050.3350  -4259023.3722   3962479.8753
%
% (x/y/z-ecef=WGS84,Q=1:fix,2:float,3:sbas,4:dgps,5:single,6:ppp,ns=# of satellites)
%  GPST              x-ecef(m)      y-ecef(m)      z-ecef(m)   Q  ns   sdx(m)   sdy(m)   sdz(m)  sdxy(m)  sdyz(m)  sdzx(m) age(s)  ratio
2173 283274.000  -2595053.4189  -4259028.3189   3962484.8204   2   8   0.6145   0.8012   0.7893   0.5627  -0.6186  -0.5447 -30.00    2.1
2173 283275.000  -2595053.5221  -4259028.2951   3962484.7895   2   8   0.4378   0.5717   0.5614   0.4013  -0.4410  -0.3878 -29.00    2.3
2173 283276.000  -2595053.5302  -4259028.3407   3962484.7635   2   8   0.3585   0.4684   0.4596   0.3288  -0.3612  -0.3176 -28.00    2.3
2173 283277.000  -2595053.5557  -4259028.4224   3962484.7731   2   8   0.3110   0.4064   0.3988   0.2853  -0.3134  -0.2755 -27.00    2.3
2173 283278.000  -2595053.5823  -4259028.4805   3962484.8500   2   8   0.2785   0.3640   0.3572   0.2555  -0.2807  -0.2468 -26.00    2.3
2173 283279.000  -2595053.5899  -4259028.5034   3962484.8883   2   8   0.2545   0.3326   0.3264   0.2334  -0.2564  -0.2255 -25.00    2.3
2173 283280.000  -2595053.6219  -4259028.5500   3962484.9352   2   8   0.2358   0.3082   0.3024   0.2162  -0.2376  -0.2089 -24.00    2.3
2173 283281.000  -2595053.6474  -4259028.5709   3962484.9878   2   8   0.2207   0.2884   0.2830   0.2024  -0.2223  -0.1955 -23.00    2.3
2173 283282.000  -2595053.6360  -4259028.5634   3962484.9934   2   8   0.2081   0.2720   0.2670   0.1909  -0.2097  -0.1844 -22.00    2.3
2173 283283.000  -2595053.6223  -4259028.5291   3962484.9868   2   8   0.1975   0.2582   0.2533   0.1811  -0.1990  -0.1750 -21.00    2.4
2173 283284.000  -2595053.6094  -4259028.5265   3962484.9510   2   8   0.1883   0.2462   0.2415   0.1727  -0.1897  -0.1668 -20.00    2.4
2173 283285.000  -2595053.6157  -4259028.5209   3962484.9224   2   8   0.1803   0.2357   0.2312   0.1654  -0.1817  -0.1597 -19.00    2.4
2173 283286.000  -2595053.6168  -4259028.5244   3962484.9204   2   8   0.1732   0.2265   0.2221   0.1589  -0.1745  -0.1534 -18.00    2.5
2173 283287.000  -2595053.6256  -4259028.5048   3962484.9061   2   8   0.1669   0.2183   0.2140   0.1531  -0.1681  -0.1478 -17.00    2.5
2173 283288.000  -2595053.6265  -4259028.5031   3962484.9146   2   8   0.1612   0.2109   0.2066   0.1479  -0.1624  -0.1428 -16.00    2.5
2173 283289.000  -2595053.6301  -4259028.4895   3962484.8979   2   8   0.1561   0.2042   0.2000   0.1432  -0.1572  -0.1382 -15.00    2.6
2173 283290.000  -2595053.6255  -4259028.4883   3962484.8829   2   8   0.1514   0.1980   0.1939   0.1388  -0.1525  -0.1340 -14.00    2.6
2173 283291.000  -2595053.6241  -4259028.4962   3962484.8789   2   8   0.1471   0.1924   0.1883   0.1349  -0.1481  -0.1301 -13.00    2.6
2173 283292.000  -2595053.6247  -4259028.4951   3962484.8760   2   8   0.1431   0.1873   0.1832   0.1313  -0.1441  -0.1266 -12.00    2.6
2173 283293.000  -2595053.6265  -4259028.4942   3962484.8631   2   8   0.1394   0.1825   0.1784   0.1279  -0.1404  -0.1233 -11.00    2.7
2173 283294.000  -2595053.6429  -4259028.5168   3962484.8719   2   8   0.1360   0.1781   0.1740   0.1248  -0.1370  -0.1203 -10.00    2.7
2173 283295.000  -2595053.6417  -4259028.5170   3962484.8693   2   8   0.1328   0.1739   0.1698   0.1219  -0.1337  -0.1174  -9.00    2.8
2173 283296.000  -2595053.6376  -4259028.5137   3962484.8559   2   8   0.1299   0.1701   0.1660   0.1191  -0.1307  -0.1148  -8.00    2.9
2173 283297.000  -2595053.4633  -4259028.3081   3962484.6673   1   8   0.0093   0.0113   0.0136   0.0080  -0.0092  -0.0089  -7.00    3.1
2173 283298.000  -2595053.4624  -4259028.3059   3962484.6653   1   8   0.0087   0.0105   0.0124   0.0075  -0.0086  -0.0080  -6.00    3.3
2173 283299.000  -2595053.4593  -4259028.3024   3962484.6625   1   8   0.0080   0.0100   0.0112   0.0070  -0.0079  -0.0074  -5.00    3.5
2173 283300.000  -2595053.4582  -4259028.3010   3962484.6627   1   8   0.0074   0.0094   0.0101   0.0065  -0.0074  -0.0069  -4.00    3.9
2173 283301.000  -2595053.4578  -4259028.2983   3962484.6579   1   8   0.0069   0.0089   0.0092   0.0062  -0.0069  -0.0061  -3.00    4.0
2173 283302.000  -2595053.4558  -4259028.2946   3962484.6548   1   8   0.0066   0.0084   0.0085   0.0059  -0.0067  -0.0059  -2.00    4.2
2173 283303.000  -2595053.4543  -4259028.2942   3962484.6564   1   8   0.0063   0.0083   0.0081   0.0057  -0.0064  -0.0055  -1.00    4.5
2173 283304.000  -2595053.4521  -4259028.2934   3962484.6547   1   8   0.0062   0.0081   0.0081   0.0057  -0.0064  -0.0053   0.00    4.9
2173 283305.000  -2595053.4518  -4259028.2934   3962484.6539   1   8   0.0063   0.0082   0.0080   0.0056  -0.0062  -0.0055   0.00    5.2
2173 283306.000  -2595053.4530  -4259028.2919   3962484.6561   1   8   0.0062   0.0081   0.0080   0.0059  -0.0062  -0.0053   0.00    5.4
2173 283307.000  -2595053.4519  -4259028.2913   3962484.6575   1   8   0.0062   0.0081   0.0078   0.0058  -0.0063  -0.0055   0.00    5.8
2173 283308.000  -2595053.4522  -4259028.2900   3962484.6540   1   8   0.0063   0.0081   0.0080   0.0056  -0.0064  -0.0056   0.00    5.9
2173 283309.000  -2595053.4518  -4259028.2917   3962484.6522   1   8   0.0063   0.0082   0.0079   0.0055  -0.0064  -0.0057   0.00    6.2
2173 283310.000  -2595053.4555  -4259028.2942   3962484.6573   1   8   0.0062   0.0081   0.0077   0.0057  -0.0063  -0.0056   0.00    6.3
2173 283311.000  -2595053.4532  -4259028.2902   3962484.6558   1   8   0.0060   0.0082   0.0080   0.0058  -0.0062  -0.0054   0.00    6.5
2173 283312.000  -2595053.4545  -4259028.2932   3962484.6553   1   8   0.0062   0.0082   0.0079   0.0055  -0.0065  -0.0054   0.00    6.7
2173 283313.000  -2595053.4531  -4259028.2903   3962484.6550   1   8   0.0061   0.0082   0.0079   0.0056  -0.0063  -0.0056   0.00    6.8
2173 283314.000  -2595053.4532  -4259028.2893   3962484.6542   1   8   0.0060   0.0082   0.0082   0.0057  -0.0061  -0.0054   0.00    7.0
2173 283315.000  -2595053.4538  -4259028.2905   3962484.6544   1   8   0.0063   0.0082   0.0081   0.0058  -0.0063  -0.0055   0.00    7.1
2173 283316.000  -2595053.4549  -4259028.2898   3962484.6560   1   8   0.0060   0.0082   0.0080   0.0057  -0.0063  -0.0055   0.00    7.2
2173 283317.000  -2595053.4548  -4259028.2919   3962484.6546   1   8   0.0062   0.0082   0.0078   0.0057  -0.0064  -0.0056   0.00    7.3
2173 283318.000  -2595053.4547  -4259028.2940   3962484.6564   1   8   0.0062   0.0083   0.0082   0.0057  -0.0062  -0.0054   0.00    7.4
2173 283319.000  -2595053.4537  -4259028.2931   3962484.6530   1   8   0.0064   0.0082   0.0080   0.0056  -0.0064  -0.0053   0.00    7.5
2173 283320.000  -2595053.4522  -4259028.2925   3962484.6531   1   8   0.0065   0.0082   0.0080   0.0056  -0.0063  -0.0054   0.00    7.6
2173 283321.000  -2595053.4545  -4259028.2920   3962484.6565   1   8   0.0062   0.0082   0.0078   0.0057  -0.0065  -0.0056   0.00    7.7
2173 283322.000  -2595053.4504  -4259028.2901   3962484.6532   1   8   0.0064   0.0082   0.0080   0.0059  -0.0061  -0.0055   0.00    7.8
2173 283323.000  -2595053.4530  -4259028.2924   3962484.6558   1   8   0.0060   0.0082   0.0079   0.0057  -0.0063  -0.0055   0.00    7.9
2173 283324.000  -2595053.4543  -4259028.2933   3962484.6574   1   8   0.0062   0.0081   0.0080   0.0057  -0.0062  -0.0054   0.00    8.1
2173 283325.000  -2595053.4541  -4259028.2943   3962484.6564   1   8   0.0063   0.0083   0.0081   0.0056  -0.0062  -0.0053   0.00    8.2
2173 283326.000  -2595053.4551  -4259028.2958   3962484.6580   1   8   0.0065   0.0082   0.0078   0.0057  -0.0063  -0.0056   0.00    8.2
2173 283327.000  -2595053.4544  -4259028.2957   3962484.6591   1   8   0.0062   0.0082   0.0080   0.0056  -0.0062  -0.0052   0.00    8.3
2173 283328.000  -2595053.4532  -4259028.2920   3962484.6525   1   8   0.0062   0.0084   0.0079   0.0054  -0.0064  -0.0057   0.00    8.4
2173 283329.000  -2595053.4518  -4259028.2885   3962484.6524   1   8   0.0062   0.0081   0.0080   0.0057  -0.0062  -0.0056   0.00    8.4
2173 283330.000  -2595053.4529  -4259028.2895   3962484.6542   1   8   0.0063   0.0082   0.0077   0.0057  -0.0064  -0.0057   0.00    8.5
2173 283331.000  -2595053.4521  -4259028.2887   3962484.6514   1   8   0.0063   0.0081   0.0080   0.0058  -0.0062  -0.0053   0.00    8.5
2173 283332.000  -2595053.4520  -4259028.2906   3962484.6514   1   8   0.0062   0.0083   0.0081   0.0057  -0.0062  -0.0053   0.00    8.6
2173 283333.000  -2595053.4534  -4259028.2909   3962484.6545   1   8   0.0061   0.0081   0.0079   0.0057  -0.0064  -0.0056   0.00    8.7
2173 283334.000  -2595053.4514  -4259028.2884   3962484.6517   1   8   0.0064   0.0082   0.0081   0.0056  -0.0063  -0.0054   0.00    8.8
2173 283335.000  -2595053.4537  -4259028.2918   3962484.6536   1   8   0.0066   0.0081   0.0080   0.0059  -0.0063  -0.0055   0.00    8.9
2173 283336.000  -2595053.4486  -4259028.2900   3962484.6518   1   8   0.0062   0.0083   0.0080   0.0058  -0.0060  -0.0055   0.00    9.0
2173 283337.000  -2595053.4532  -4259028.2906   3962484.6534   1   8   0.0062   0.0081   0.0078   0.0058  -0.0063  -0.0056   0.00    9.1
2173 283338.000  -2595053.4510  -4259028.2890   3962484.6523   1   8   0.0061   0.0082   0.0081   0.0058  -0.0061  -0.0054   0.00    9.2
2173 283339.000  -2595053.4529  -4259028.2920   3962484.6533   1   8   0.0062   0.0081   0.0080   0.0057  -0.0063  -0.0055   0.00    9.3
2173 283340.000  -2595053.4521  -4259028.2891   3962484.6530   1   8   0.0063   0.0081   0.0077   0.0057  -0.0064  -0.0056   0.00    9.4
2173 283341.000  -2595053.4522  -4259028.2919   3962484.6531   1   8   0.0060   0.0079   0.0078   0.0059  -0.0063  -0.0057   0.00    9.4
2173 283342.000  -2595053.4547  -4259028.2909   3962484.6546   1   8   0.0064   0.0082   0.0079   0.0056  -0.0063  -0.0055   0.00    9.5
2173 283343.000  -2595053.4521  -4259028.2904   3962484.6533   1   8   0.0063   0.0082   0.0079   0.0057  -0.0063  -0.0055   0.00    9.6
2173 283344.000  -2595053.4506  -4259028.2902   3962484.6502   1   8   0.0063   0.0081   0.0079   0.0057  -0.0062  -0.0054   0.00    9.7
2173 283345.000  -2595053.4497  -4259028.2919   3962484.6504   1   8   0.0062   0.0083   0.0080   0.0057  -0.0061  -0.0055   0.00    9.8
2173 283346.000  -2595053.4500  -4259028.2911   3962484.6502   1   8   0.0064   0.0083   0.0080   0.0056  -0.0063  -0.0055   0.00    9.8
2173 283347.000  -2595053.4508  -4259028.2917   3962484.6524   1   8   0.0061   0.0082   0.0078   0.0057  -0.0062  -0.0056   0.00    9.9
2173 283348.000  -2595053.4493  -4259028.2915   3962484.6534   1   8   0.0063   0.0081   0.0079   0.0058  -0.0061  -0.0056   0.00   10.0
2173 283349.000  -2595053.4516  -4259028.2940   3962484.6530   1   8   0.0064   0.0081   0.0080   0.0057  -0.0063  -0.0055   0.00   10.1
2173 283350.000  -2595053.4512  -4259028.2923   3962484.6514   1   8   0.0064   0.0082   0.0081   0.0057  -0.0061  -0.0054   0.00   10.2
2173 283351.000  -2595053.4510  -4259028.2937   3962484.6537   1   8   0.0062   0.0082   0.0077   0.0056  -0.0064  -0.0056   0.00   10.3
2173 283352.000  -2595053.4511  -4259028.2902   3962484.6525   1   8   0.0061   0.0081   0.0079   0.0058  -0.0062  -0.0057   0.00   10.4
2173 283353.000  -2595053.4519  -4259028.2926   3962484.6521   1   8   0.0065   0.0082   0.0079   0.0056  -0.0064  -0.0055   0.00   10.4
2173 283354.000  -2595053.4475  -4259028.2877   3962484.6492   1   8   0.0067   0.0083   0.0081   0.0057  -0.0062  -0.0053   0.00   10.5
2173 283355.000  -2595053.4488  -4259028.2902   3962484.6510   1   8   0.0061   0.0082   0.0080   0.0058  -0.0062  -0.0051   0.00   10.6
2173 283356.000  -2595053.4509  -4259028.2920   3962484.6519   1   8   0.0063   0.0083   0.0082   0.0055  -0.0062  -0.0053   0.00   10.6
2173 283357.000  -2595053.4507  -4259028.2916   3962484.6513   1   8   0.0061   0.0081   0.0077   0.0057  -0.0064  -0.0055   0.00   10.7
2173 283358.000  -2595053.4476  -4259028.2912   3962484.6480   1   8   0.0062   0.0081   0.0081   0.0058  -0.0063  -0.0056   0.00   10.7
2173 283359.000  -2595053.4495  -4259028.2929   3962484.6513   1   8   0.0063   0.0082   0.0079   0.0058  -0.0061  -0.0055   0.00   10.8
2173 283360.000  -2595053.4497  -4259028.2918   3962484.6470   1   8   0.0065   0.0083   0.0082   0.0057  -0.0062  -0.0053   0.00   10.8
2173 283361.000  -2595053.4496  -4259028.2930   3962484.6515   1   8   0.0061   0.0081   0.0079   0.0059  -0.0060  -0.0057   0.00   10.8
2173 283362.000  -2595053.4476  -4259028.2923   3962484.6494   1   8   0.0061   0.0083   0.0080   0.0056  -0.0063  -0.0056   0.00   10.8
2173 283363.000  -2595053.4482  -4259028.2925   3962484.6472   1   8   0.0064   0.0083   0.0080   0.0058  -0.0062  -0.0054   0.00   10.9
2173 283364.000  -2595053.4520  -4259028.2966   3962484.6554   1   8   0.0062   0.0080   0.0079   0.0059  -0.0061  -0.0056   0.00   10.9
2173 283365.000  -2595053.4512  -4259028.2956   3962484.6531   1   8   0.0063   0.0083   0.0078   0.0055  -0.0063  -0.0056   0.00   10.9
2173 283366.000  -2595053.4513  -4259028.2945   3962484.6541   1   8   0.0063   0.0083   0.0078   0.0054  -0.0064  -0.0056   0.00   10.9
2173 283367.000  -2595053.4502  -4259028.2932   3962484.6531   1   8   0.0060   0.0082   0.0080   0.0057  -0.0063  -0.0055   0.00   10.8
2173 283368.000  -2595053.4509  -4259028.2937   3962484.6535   1   8   0.0062   0.0082   0.0080   0.0056  -0.0064  -0.0055   0.00   10.9
2173 283369.000  -2595053.4497  -4259028.2928   3962484.6512   1   8   0.0064   0.0082   0.0080   0.0058  -0.0062  -0.0055   0.00   10.9
2173 283370.000  -2595053.4508  -4259028.2941   3962484.6522   1   8   0.0062   0.0081   0.0077   0.0057  -0.0063  -0.0056   0.00   10.9
2173 283371.000  -2595053.4493  -4259028.2919   3962484.6506   1   8   0.0062   0.0082   0.0079   0.0057  -0.0064  -0.0055   0.00   10.9
2173 283372.000  -2595053.4516  -4259028.2953   3962484.6544   1   8   0.0064   0.0083   0.0080   0.0057  -0.0061  -0.0053   0.00   10.9
2173 283373.000  -2595053.4499  -4259028.2928   3962484.6532   1   8   0.0061   0.0083   0.0080   0.0056  -0.0064  -0.0054   0.00   10.9
2173 283374.000  -2595053.4476  -4259028.2883   3962484.6486   1   8   0.0063   0.0081   0.0077   0.0058  -0.0062  -0.0057   0.00   10.9
2173 283375.000  -2595053.4500  -4259028.2908   3962484.6506   1   8   0.0062   0.0083   0.0079   0.0055  -0.0063  -0.0055   0.00   10.9
2173 283376.000  -2595053.4473  -4259028.2898   3962484.6489   1   8   0.0060   0.0082   0.0081   0.0057  -0.0062  -0.0055   0.00   10.8
2173 283377.000  -2595053.4499  -4259028.2911   3962484.6514   1   8   0.0063   0.0082   0.0079   0.0058  -0.0062  -0.0055   0.00   10.8
2173 283378.000  -2595053.4503  -4259028.2951   3962484.6519   1   8   0.0061   0.0081   0.0078   0.0058  -0.0063  -0.0056   0.00   10.8
2173 283379.000  -2595053.4503  -4259028.2933   3962484.6510   1   8   0.0063   0.0082   0.0080   0.0058  -0.0062  -0.0055   0.00   10.9
2173 283380.000  -2595053.4508  -4259028.2918   3962484.6502   1   8   0.0062   0.0082   0.0078   0.0057  -0.0063  -0.0052   0.00   10.8
2173 283381.000  -2595053.4482  -4259028.2908   3962484.6516   1   8   0.0061   0.0082   0.0078   0.0058  -0.0062  -0.0056   0.00   10.8
2173 283382.000  -2595053.4488  -4259028.2896   3962484.6513   1   8   0.0063   0.0081   0.0079   0.0058  -0.0063  -0.0055   0.00   10.8
2173 283383.000  -2595053.4487  -4259028.2910   3962484.6518   1   8   0.0064   0.0081   0.0080   0.0058  -0.0062  -0.0055   0.00   10.8
2173 283384.000  -2595053.4515  -4259028.2942   3962484.6530   1   8   0.0061   0.0081   0.0080   0.0057  -0.0062  -0.0054   0.00   10.8
2173 283385.000  -2595053.4512  -4259028.2945   3962484.6553   1   8   0.0062   0.0083   0.0078   0.0056  -0.0064  -0.0056   0.00   10.8
2173 283386.000  -2595053.4483  -4259028.2915   3962484.6496   1   8   0.0063   0.0083   0.0078   0.0055  -0.0063  -0.0056   0.00   10.8
2173 283387.000  -2595053.4504  -4259028.2944   3962484.6518   1   8   0.0062   0.0084   0.0076   0.0055  -0.0063  -0.0055   0.00   10.8
2173 283388.000  -2595053.4501  -4259028.2924   3962484.6517   1   8   0.0062   0.0082   0.0080   0.0056  -0.0063  -0.0053   0.00   10.8
2173 283389.000  -2595053.4496  -4259028.2902   3962484.6492   1   8   0.0062   0.0082   0.0077   0.0057  -0.0062  -0.0056   0.00   10.8
2173 283390.000  -2595053.4501  -4259028.2937   3962484.6494   1   8   0.0062   0.0082   0.0081   0.0057  -0.0062  -0.0055   0.00   10.8
2173 283391.000  -2595053.4487  -4259028.2882   3962484.6499   1   8   0.0062   0.0081   0.0080   0.0059  -0.0061  -0.0054   0.00   10.9
2173 283392.000  -2595053.4486  -4259028.2891   3962484.6498   1   8   0.0064   0.0083   0.0081   0.0057  -0.0063  -0.0055   0.00   10.9
2173 283393.000  -2595053.4469  -4259028.2895   3962484.6461   1   8   0.0063   0.0082   0.0079   0.0055  -0.0064  -0.0055   0.00   10.9
2173 283394.000  -2595053.4508  -4259028.2921   3962484.6518   1   8   0.0059   0.0082   0.0078   0.0056  -0.0062  -0.0057   0.00   11.0
2173 283395.000  -2595053.4485  -4259028.2916   3962484.6486   1   8   0.0062   0.0081   0.0079   0.0057  -0.0064  -0.0053   0.00   11.0
2173 283396.000  -2595053.4511  -4259028.2912   3962484.6517   1   8   0.0061   0.0081   0.0077   0.0056  -0.0063  -0.0057   0.00   11.0
2173 283397.000  -2595053.4495  -4259028.2928   3962484.6523   1   8   0.0063   0.0080   0.0080   0.0058  -0.0063  -0.0055   0.00   11.1
2173 283398.000  -2595053.4482  -4259028.2896   3962484.6477   1   8   0.0062   0.0082   0.0079   0.0058  -0.0061  -0.0054   0.00   11.1
2173 283399.000  -2595053.4518  -4259028.2928   3962484.6539   1   8   0.0063   0.0081   0.0079   0.0056  -0.0064  -0.0057   0.00   11.1
2173 283400.000  -2595053.4486  -4259028.2899   3962484.6467   1   8   0.0063   0.0083   0.0080   0.0056  -0.0063  -0.0052   0.00   11.1
2173 283401.000  -2595053.4465  -4259028.2888   3962484.6494   1   8   0.0061   0.0081   0.0080   0.0059  -0.0063  -0.0054   0.00   11.1
2173 283402.000  -2595053.4454  -4259028.2876   3962484.6477   1   8   0.0063   0.0082   0.0080   0.0057  -0.0064  -0.0053   0.00   11.2
2173 283403.000  -2595053.4473  -4259028.2898   3962484.6503   1   8   0.0064   0.0081   0.0078   0.0057  -0.0065  -0.0053   0.00   11.2
2173 283404.000  -2595053.4467  -4259028.2871   3962484.6457   1   8   0.0063   0.0083   0.0080   0.0056  -0.0062  -0.0055   0.00   11.2
2173 283405.000  -2595053.4466  -4259028.2858   3962484.6481   1   8   0.0063   0.0081   0.0079   0.0058  -0.0063  -0.0055   0.00   11.2
2173 283406.000  -2595053.4478  -4259028.2886   3962484.6505   1   8   0.0064   0.0085   0.0078   0.0053  -0.0064  -0.0053   0.00   11.2
2173 283407.000  -2595053.4487  -4259028.2905   3962484.6525   1   8   0.0062   0.0083   0.0080   0.0059  -0.0060  -0.0055   0.00   11.2
2173 283408.000  -2595053.4482  -4259028.2889   3962484.6506   1   8   0.0060   0.0083   0.0078   0.0056  -0.0063  -0.0056   0.00   11.2
2173 283409.000  -2595053.4503  -4259028.2931   3962484.6531   1   8   0.0064   0.0082   0.0079   0.0058  -0.0063  -0.0055   0.00   11.2
2173 283410.000  -2595053.4494  -4259028.2925   3962484.6521   1   8   0.0064   0.0082   0.0081   0.0058  -0.0061  -0.0055   0.00   11.2
2173 283411.000  -2595053.4498  -4259028.2882   3962484.6520   1   8   0.0059   0.0082   0.0078   0.0056  -0.0063  -0.0055   0.00   11.3
2173 283412.000  -2595053.4492  -4259028.2865   3962484.6484   1   8   0.0061   0.0082   0.0078   0.0057  -0.0063  -0.0057   0.00   11.2
2173 283413.000  -2595053.4488  -4259028.2900   3962484.6518   1   8   0.0060   0.0082   0.0080   0.0059  -0.0061  -0.0054   0.00   11.2
2173 283414.000  -2595053.4496  -4259028.2913   3962484.6510   1   8   0.0060   0.0082   0.0079   0.0056  -0.0063  -0.0055   0.00   11.2
2173 283415.000  -2595053.4496  -4259028.2885   3962484.6489   1   8   0.0060   0.0083   0.0080   0.0055  -0.0063  -0.0052   0.00   11.3
2173 283416.000  -2595053.4485  -4259028.2910   3962484.6489   1   8   0.0062   0.0082   0.0079   0.0057  -0.0062  -0.0055   0.00   11.3
2173 283417.000  -2595053.4501  -4259028.2905   3962484.6494   1   8   0.0063   0.0082   0.0080   0.0058  -0.0062  -0.0055   0.00   11.3
2173 283418.000  -2595053.4473  -4259028.2882   3962484.6470   1   8   0.0061   0.0082   0.0078   0.0057  -0.0062  -0.0054   0.00   11.3
2173 283419.000  -2595053.4445  -4259028.2879   3962484.6475   1   8   0.0064   0.0082   0.0080   0.0058  -0.0061  -0.0056   0.00   11.3
2173 283420.000  -2595053.4487  -4259028.2897   3962484.6499   1   8   0.0064   0.0082   0.0079   0.0057  -0.0062  -0.0055   0.00   11.3
2173 283421.000  -2595053.4457  -4259028.2868   3962484.6469   1   8   0.0060   0.0082   0.0078   0.0056  -0.0064  -0.0056   0.00   11.3
2173 283422.000  -2595053.4469  -4259028.2905   3962484.6485   1   8   0.0064   0.0083   0.0079   0.0054  -0.0063  -0.0053   0.00   11.3
2173 283423.000  -2595053.4472  -4259028.2882   3962484.6490   1   8   0.0062   0.0083   0.0077   0.0055  -0.0064  -0.0057   0.00   11.3
2173 283424.000  -2595053.4478  -4259028.2879   3962484.6515   1   8   0.0062   0.0083   0.0077   0.0055  -0.0063  -0.0055   0.00   11.3
2173 283425.000  -2595053.4462  -4259028.2881   3962484.6472   1   8   0.0060   0.0081   0.0081   0.0058  -0.0063  -0.0051   0.00   11.3
2173 283426.000  -2595053.4490  -4259028.2896   3962484.6509   1   8   0.0062   0.0081   0.0079   0.0058  -0.0062  -0.0056   0.00   11.4
2173 283427.000  -2595053.4458  -4259028.2870   3962484.6464   1   8   0.0060   0.0082   0.0079   0.0057  -0.0063  -0.0056   0.00   11.4
2173 283428.000  -2595053.4462  -4259028.2881   3962484.6479   1   8   0.0062   0.0083   0.0082   0.0057  -0.0062  -0.0055   0.00   11.4
2173 283429.000  -2595053.4468  -4259028.2879   3962484.6486   1   8   0.0063   0.0082   0.0079   0.0056  -0.0064  -0.0055   0.00   11.4
2173 283430.000  -2595053.4473  -4259028.2891   3962484.6508   1   8   0.0063   0.0082   0.0079   0.0057  -0.0062  -0.0056   0.00   11.4
2173 283431.000  -2595053.4476  -4259028.2888   3962484.6482   1   8   0.0060   0.0081   0.0079   0.0060  -0.0062  -0.0054   0.00   11.4
2173 283432.000  -2595053.4491  -4259028.2874   3962484.6529   1   8   0.0063   0.0083   0.0080   0.0058  -0.0061  -0.0055   0.00   11.4
2173 283433.000  -2595053.4464  -4259028.2886   3962484.6494   1   8   0.0062   0.0084   0.0079   0.0055  -0.0064  -0.0055   0.00   11.4
2173 283434.000  -2595053.4486  -4259028.2890   3962484.6496   1   8   0.0061   0.0082   0.0079   0.0058  -0.0061  -0.0056   0.00   11.4
2173 283435.000  -2595053.4478  -4259028.2908   3962484.6503   1   8   0.0061   0.0082   0.0076   0.0057  -0.0064  -0.0055   0.00   11.4
2173 283436.000  -2595053.4458  -4259028.2875   3962484.6495   1   8   0.0061   0.0082   0.0080   0.0057  -0.0064  -0.0052   0.00   11.4
2173 283437.000  -2595053.4465  -4259028.2855   3962484.6487   1   8   0.0061   0.0082   0.0079   0.0057  -0.0063  -0.0056   0.00   11.4
2173 283438.000  -2595053.4466  -4259028.2871   3962484.6473   1   8   0.0061   0.0082   0.0078   0.0057  -0.0063  -0.0055   0.00   11.3
2173 283439.000  -2595053.4486  -4259028.2915   3962484.6506   1   8   0.0063   0.0081   0.0078   0.0058  -0.0063  -0.0056   0.00   11.3
2173 283440.000  -2595053.4484  -4259028.2916   3962484.6528   1   8   0.0063   0.0079   0.0080   0.0060  -0.0063  -0.0055   0.00   11.3
2173 283441.000  -2595053.4480  -4259028.2895   3962484.6491   1   8   0.0061   0.0083   0.0074   0.0056  -0.0064  -0.0057   0.00   11.3
2173 283442.000  -2595053.4491  -4259028.2890   3962484.6509   1   8   0.0063   0.0081   0.0079   0.0058  -0.0063  -0.0055   0.00   11.3
2173 283443.000  -2595053.4480  -4259028.2871   3962484.6473   1   8   0.0061   0.0084   0.0079   0.0056  -0.0062  -0.0054   0.00   11.3
2173 283444.000  -2595053.4475  -4259028.2873   3962484.6484   1   8   0.0063   0.0081   0.0078   0.0057  -0.0063  -0.0055   0.00   11.3
2173 283445.000  -2595053.4478  -4259028.2870   3962484.6477   1   8   0.0061   0.0082   0.0078   0.0057  -0.0064  -0.0053   0.00   11.2
2173 283446.000  -2595053.4474  -4259028.2862   3962484.6465   1   8   0.0063   0.0081   0.0077   0.0059  -0.0063  -0.0057   0.00   11.2
2173 283447.000  -2595053.4476  -4259028.2853   3962484.6481   1   8   0.0060   0.0082   0.0079   0.0059  -0.0061  -0.0056   0.00   11.1
2173 283448.000  -2595053.4486  -4259028.2888   3962484.6481   1   8   0.0060   0.0081   0.0080   0.0058  -0.0062  -0.0055   0.00   11.1
2173 283449.000  -2595053.4495  -4259028.2895   3962484.6513   1   8   0.0061   0.0082   0.0080   0.0058  -0.0060  -0.0053   0.00   11.1
2173 283450.000  -2595053.4480  -4259028.2877   3962484.6480   1   8   0.0061   0.0083   0.0081   0.0056  -0.0061  -0.0054   0.00   11.1
2173 283451.000  -2595053.4473  -4259028.2869   3962484.6497   1   8   0.0060   0.0083   0.0078   0.0057  -0.0063  -0.0054   0.00   11.0
2173 283452.000  -2595053.4471  -4259028.2843   3962484.6475   1   8   0.0063   0.0082   0.0081   0.0059  -0.0061  -0.0053   0.00   11.0
2173 283453.000  -2595053.4463  -4259028.2860   3962484.6475   1   8   0.0063   0.0081   0.0082   0.0058  -0.0061  -0.0053   0.00   11.0
2173 283454.000  -2595053.4480  -4259028.2900   3962484.6495   1   8   0.0061   0.0083   0.0078   0.0056  -0.0064  -0.0058   0.00   11.0
2173 283455.000  -2595053.4495  -4259028.2909   3962484.6487   1   8   0.0062   0.0081   0.0079   0.0058  -0.0062  -0.0054   0.00   10.9
2173 283456.000  -2595053.4478  -4259028.2881   3962484.6484   1   8   0.0063   0.0081   0.0079   0.0058  -0.0063  -0.0054   0.00   10.9
2173 283457.000  -2595053.4475  -4259028.2854   3962484.6456   1   8   0.0061   0.0082   0.0080   0.0056  -0.0063  -0.0054   0.00   10.9
2173 283458.000  -2595053.4481  -4259028.2875   3962484.6474   1   8   0.0063   0.0082   0.0079   0.0057  -0.0063  -0.0055   0.00   10.9
2173 283459.000  -2595053.4487  -4259028.2870   3962484.6490   1   8   0.0062   0.0082   0.0079   0.0057  -0.0063  -0.0055   0.00   10.9
2173 283460.000  -2595053.4487  -4259028.2873   3962484.6459   1   8   0.0063   0.0081   0.0078   0.0058  -0.0063  -0.0057   0.00   10.8
2173 283461.000  -2595053.4496  -4259028.2872   3962484.6447   1   8   0.0063   0.0082   0.0081   0.0058  -0.0061  -0.0054   0.00   10.8
2173 283462.000  -2595053.4486  -4259028.2861   3962484.6467   1   8   0.0062   0.0082   0.0077   0.0057  -0.0063  -0.0057   0.00   10.8
2173 283463.000  -2595053.4509  -4259028.2906   3962484.6510   1   8   0.0060   0.0083   0.0081   0.0057  -0.0060  -0.0052   0.00   10.8
2173 283464.000  -2595053.4518  -4259028.2930   3962484.6511   1   8   0.0061   0.0082   0.0078   0.0058  -0.0063  -0.0056   0.00   10.8
2173 283465.000  -2595053.4487  -4259028.2865   3962484.6477   1   8   0.0060   0.0080   0.0076   0.0058  -0.0064  -0.0057   0.00   10.8
2173 283466.000  -2595053.4510  -4259028.2894   3962484.6488   1   8   0.0061   0.0082   0.0078   0.0058  -0.0063  -0.0056   0.00   10.8
2173 283467.000  -2595053.4507  -4259028.2895   3962484.6486   1   8   0.0061   0.0082   0.0077   0.0058  -0.0061  -0.0053   0.00   10.8
2173 283468.000  -2595053.4486  -4259028.2885   3962484.6499   1   8   0.0063   0.0081   0.0077   0.0057  -0.0064  -0.0057   0.00   10.7
2173 283469.000  -2595053.4495  -4259028.2879   3962484.6486   1   8   0.0063   0.0083   0.0080   0.0057  -0.0062  -0.0054   0.00   10.7
2173 283470.000  -2595053.4492  -4259028.2835   3962484.6467   1   8   0.0061   0.0083   0.0080   0.0059  -0.0060  -0.0054   0.00   10.7
2173 283471.000  -2595053.4505  -4259028.2895   3962484.6494   1   8   0.0059   0.0081   0.0078   0.0058  -0.0061  -0.0055   0.00   10.7
2173 283472.000  -2595053.4494  -4259028.2887   3962484.6467   1   8   0.0062   0.0081   0.0076   0.0057  -0.0063  -0.0056   0.00   10.7
2173 283473.000  -2595053.4493  -4259028.2908   3962484.6499   1   8   0.0059   0.0082   0.0080   0.0058  -0.0063  -0.0055   0.00   10.7
2173 283474.000  -2595053.4513  -4259028.2904   3962484.6488   1   8   0.0061   0.0083   0.0080   0.0055  -0.0062  -0.0056   0.00   10.7
2173 283475.000  -2595053.4500  -4259028.2904   3962484.6474   1   8   0.0061   0.0083   0.0080   0.0056  -0.0062  -0.0055   0.00   10.7
2173 283476.000  -2595053.4531  -4259028.2924   3962484.6507   1   8   0.0063   0.0082   0.0083   0.0056  -0.0063  -0.0053   0.00   10.7
2173 283477.000  -2595053.4513  -4259028.2909   3962484.6461   1   8   0.0063   0.0082   0.0077   0.0056  -0.0064  -0.0057   0.00   10.8
2173 283478.000  -2595053.4503  -4259028.2909   3962484.6478   1   8   0.0063   0.0081   0.0074   0.0058  -0.0064  -0.0058   0.00   10.7
2173 283479.000  -2595053.4519  -4259028.2928   3962484.6504   1   8   0.0062   0.0082   0.0080   0.0058  -0.0062  -0.0056   0.00   10.7
2173 283480.000  -2595053.4502  -4259028.2887   3962484.6462   1   8   0.0062   0.0083   0.0077   0.0056  -0.0064  -0.0051   0.00   10.7
2173 283481.000  -2595053.4485  -4259028.2870   3962484.6467   1   8   0.0060   0.0083   0.0079   0.0056  -0.0063  -0.0055   0.00   10.7
2173 283482.000  -2595053.4509  -4259028.2870   3962484.6501   1   8   0.0064   0.0082   0.0078   0.0057  -0.0062  -0.0054   0.00   10.7
2173 283483.000  -2595053.4512  -4259028.2908   3962484.6513   1   8   0.0062   0.0082   0.0076   0.0057  -0.0063  -0.0056   0.00   10.7
2173 283484.000  -2595053.4524  -4259028.2935   3962484.6523   1   8   0.0059   0.0082   0.0077   0.0056  -0.0063  -0.0055   0.00   10.7
2173 283485.000  -2595053.4531  -4259028.2928   3962484.6525   1   8   0.0060   0.0081   0.0078   0.0056  -0.0064  -0.0052   0.00   10.7
2173 283486.000  -2595053.4523  -4259028.2913   3962484.6519   1   8   0.0063   0.0081   0.0075   0.0058  -0.0064  -0.0055   0.00   10.7
2173 283487.000  -2595053.4498  -4259028.2897   3962484.6493   1   8   0.0061   0.0082   0.0081   0.0058  -0.0061  -0.0051   0.00   10.7
2173 283488.000  -2595053.4502  -4259028.2882   3962484.6483   1   8   0.0062   0.0082   0.0079   0.0058  -0.0061  -0.0054   0.00   10.7
2173 283489.000  -2595053.4525  -4259028.2884   3962484.6502   1   8   0.0062   0.0082   0.0079   0.0057  -0.0061  -0.0054   0.00   10.7
2173 283490.000  -2595053.4511  -4259028.2894   3962484.6497   1   8   0.0062   0.0084   0.0079   0.0057  -0.0063  -0.0055   0.00   10.7
2173 283491.000  -2595053.4513  -4259028.2914   3962484.6506   1   8   0.0061   0.0082   0.0079   0.0057  -0.0061  -0.0056   0.00   10.7
2173 283492.000  -2595053.4530  -4259028.2899   3962484.6495   1   8   0.0063   0.0083   0.0077   0.0055  -0.0064  -0.0055   0.00   10.7
2173 283493.000  -2595053.4523  -4259028.2899   3962484.6511   1   8   0.0064   0.0081   0.0076   0.0060  -0.0061  -0.0055   0.00   10.7
2173 283494.000  -2595053.4479  -4259028.2873   3962484.6487   1   8   0.0061   0.0083   0.0080   0.0058  -0.0061  -0.0054   0.00   10.7
2173 283495.000  -2595053.4518  -4259028.2919   3962484.6518   1   8   0.0061   0.0083   0.0080   0.0058  -0.0061  -0.0055   0.00   10.7
2173 283496.000  -2595053.4516  -4259028.2925   3962484.6521   1   8   0.0063   0.0081   0.0082   0.0059  -0.0061  -0.0052   0.00   10.7
2173 283497.000  -2595053.4512  -4259028.2906   3962484.6513   1   8   0.0062   0.0082   0.0080   0.0058  -0.0061  -0.0054   0.00   10.7
2173 283498.000  -2595053.4510  -4259028.2916   3962484.6516   1   8   0.0061   0.0083   0.0079   0.0057  -0.0063  -0.0055   0.00   10.7
2173 283499.000  -2595053.4498  -4259028.2918   3962484.6517   1   8   0.0062   0.0081   0.0077   0.0058  -0.0063  -0.0055   0.00   10.7
2173 283500.000  -2595053.4517  -4259028.2957   3962484.6542   1   8   0.0061   0.0082   0.0078   0.0057  -0.0062  -0.0057   0.00   10.7
2173 283501.000  -2595053.4514  -4259028.2931   3962484.6512   1   8   0.0063   0.0082   0.0080   0.0058  -0.0061  -0.0054   0.00   10.7
2173 283502.000  -2595053.4493  -4259028.2925   3962484.6507   1   8   0.0064   0.0082   0.0078   0.0057  -0.0063  -0.0054   0.00   10.7
2173 283503.000  -2595053.4510  -4259028.2945   3962484.6541   1   8   0.0063   0.0082   0.0080   0.0056  -0.0063  -0.0055   0.00   10.7
2173 283504.000  -2595053.4520  -4259028.2935   3962484.6503   1   8   0.0063   0.0083   0.0081   0.0057  -0.0062  -0.0053   0.00   10.7
2173 283505.000  -2595053.4492  -4259028.2896   3962484.6500   1   8   0.0064   0.0083   0.0078   0.0055  -0.0064  -0.0055   0.00   10.8
2173 283506.000  -2595053.4494  -4259028.2904   3962484.6512   1   8   0.0062   0.0084   0.0081   0.0056  -0.0061  -0.0052   0.00   10.7
2173 283507.000  -2595053.4504  -4259028.2922   3962484.6502   1   8   0.0064   0.0083   0.0077   0.0055  -0.0065  -0.0055   0.00   10.7
2173 283508.000  -2595053.4516  -4259028.2927   3962484.6534   1   8   0.0064   0.0082   0.0076   0.0057  -0.0064  -0.0053   0.00   10.7
2173 283509.000  -2595053.4512  -4259028.2951   3962484.6544   1   8   0.0062   0.0082   0.0079   0.0056  -0.0060  -0.0055   0.00   10.7
2173 283510.000  -2595053.4489  -4259028.2908   3962484.6495   1   8   0.0064   0.0083   0.0081   0.0057  -0.0061  -0.0053   0.00   10.7
2173 283511.000  -2595053.4483  -4259028.2938   3962484.6530   1   8   0.0061   0.0082   0.0077   0.0059  -0.0061  -0.0056   0.00   10.7
2173 283512.000  -2595053.4483  -4259028.2911   3962484.6520   1   8   0.0063   0.0082   0.0080   0.0060  -0.0060  -0.0052   0.00   10.7
2173 283513.000  -2595053.4496  -4259028.2936   3962484.6535   1   8   0.0060   0.0081   0.0078   0.0059  -0.0062  -0.0055   0.00   10.7
2173 283514.000  -2595053.4518  -4259028.2917   3962484.6519   1   8   0.0064   0.0081   0.0078   0.0057  -0.0064  -0.0053   0.00   10.7
2173 283515.000  -2595053.4511  -4259028.2910   3962484.6543   1   8   0.0061   0.0082   0.0074   0.0055  -0.0064  -0.0057   0.00   10.7
2173 283516.000  -2595053.4527  -4259028.2933   3962484.6542   1   8   0.0061   0.0082   0.0076   0.0056  -0.0063  -0.0056   0.00   10.7
2173 283517.000  -2595053.4515  -4259028.2926   3962484.6528   1   8   0.0063   0.0083   0.0081   0.0057  -0.0061  -0.0053   0.00   10.7
2173 283518.000  -2595053.4535  -4259028.2941   3962484.6545   1   8   0.0063   0.0082   0.0077   0.0057  -0.0062  -0.0057   0.00   10.7
2173 283519.000  -2595053.4536  -4259028.2979   3962484.6553   1   8   0.0063   0.0082   0.0076   0.0055  -0.0065  -0.0056   0.00   10.7
2173 283520.000  -2595053.4522  -4259028.2935   3962484.6551   1   8   0.0059   0.0082   0.0079   0.0056  -0.0061  -0.0055   0.00   10.7
2173 283521.000  -2595053.4541  -4259028.2935   3962484.6531   1   8   0.0064   0.0082   0.0079   0.0057  -0.0062  -0.0053   0.00   10.7
2173 283522.000  -2595053.4518  -4259028.2928   3962484.6545   1   8   0.0065   0.0082   0.0078   0.0056  -0.0063  -0.0057   0.00   10.7
2173 283523.000  -2595053.4526  -4259028.2927   3962484.6549   1   8   0.0058   0.0084   0.0078   0.0055  -0.0063  -0.0056   0.00   10.7
2173 283524.000  -2595053.4528  -4259028.2945   3962484.6546   1   8   0.0062   0.0083   0.0075   0.0058  -0.0062  -0.0058   0.00   10.7
2173 283525.000  -2595053.4523  -4259028.2933   3962484.6543   1   8   0.0062   0.0082   0.0080   0.0058  -0.0061  -0.0051   0.00   10.7
2173 283526.000  -2595053.4536  -4259028.2938   3962484.6541   1   8   0.0062   0.0082   0.0079   0.0056  -0.0064  -0.0056   0.00   10.7
2173 283527.000  -2595053.4539  -4259028.2920   3962484.6527   1   8   0.0060   0.0082   0.0081   0.0058  -0.0063  -0.0052   0.00   10.8
2173 283528.000  -2595053.4524  -4259028.2963   3962484.6545   1   8   0.0062   0.0082   0.0079   0.0057  -0.0062  -0.0055   0.00   10.8
2173 283529.000  -2595053.4542  -4259028.2945   3962484.6574   1   8   0.0061   0.0083   0.0080   0.0057  -0.0061  -0.0054   0.00   10.8
2173 283530.000  -2595053.4521  -4259028.2925   3962484.6558   1   8   0.0061   0.0082   0.0077   0.0055  -0.0064  -0.0054   0.00   10.8
2173 283531.000  -2595053.4503  -4259028.2922   3962484.6526   1   8   0.0064   0.0082   0.0077   0.0057  -0.0063  -0.0058   0.00   10.8
2173 283532.000  -2595053.4529  -4259028.2917   3962484.6523   1   8   0.0064   0.0082   0.0078   0.0057  -0.0062  -0.0054   0.00   10.8
2173 283533.000  -2595053.4540  -4259028.2942   3962484.6533   1   8   0.0063   0.0082   0.0081   0.0059  -0.0060  -0.0055   0.00   10.8
2173 283534.000  -2595053.4509  -4259028.2916   3962484.6512   1   8   0.0061   0.0083   0.0077   0.0055  -0.0064  -0.0055   0.00   10.8
2173 283535.000  -2595053.4514  -4259028.2907   3962484.6502   1   8   0.0064   0.0082   0.0080   0.0058  -0.0062  -0.0052   0.00   10.8
2173 283536.000  -2595053.4531  -4259028.2934   3962484.6514   1   8   0.0060   0.0082   0.0075   0.0057  -0.0062  -0.0057   0.00   10.8
2173 283537.000  -2595053.4521  -4259028.2915   3962484.6516   1   8   0.0062   0.0083   0.0080   0.0057  -0.0062  -0.0052   0.00   10.8
2173 283538.000  -2595053.4509  -4259028.2938   3962484.6518   1   8   0.0064   0.0081   0.0080   0.0059  -0.0062  -0.0054   0.00   10.9
2173 283539.000  -2595053.4506  -4259028.2917   3962484.6522   1   8   0.0061   0.0082   0.0076   0.0056  -0.0064  -0.0056   0.00   10.9
2173 283540.000  -2595053.4535  -4259028.2949   3962484.6547   1   8   0.0059   0.0082   0.0079   0.0057  -0.0062  -0.0053   0.00   10.9
2173 283541.000  -2595053.4536  -4259028.2971   3962484.6532   1   8   0.0062   0.0081   0.0076   0.0057  -0.0064  -0.0055   0.00   10.9
2173 283542.000  -2595053.4533  -4259028.2956   3962484.6539   1   8   0.0062   0.0082   0.0078   0.0057  -0.0063  -0.0054   0.00   10.9
2173 283543.000  -2595053.4539  -4259028.2942   3962484.6538   1   8   0.0060   0.0083   0.0079   0.0057  -0.0062  -0.0055   0.00   10.9
2173 283544.000  -2595053.4527  -4259028.2940   3962484.6541   1   8   0.0063   0.0083   0.0079   0.0056  -0.0063  -0.0054   0.00   10.9
2173 283545.000  -2595053.4534  -4259028.2962   3962484.6533   1   8   0.0062   0.0083   0.0077   0.0057  -0.0061  -0.0057   0.00   11.0
2173 283546.000  -2595053.4529  -4259028.2930   3962484.6514   1   8   0.0061   0.0083   0.0078   0.0058  -0.0061  -0.0053   0.00   11.0
2173 283547.000  -2595053.4536  -4259028.2977   3962484.6565   1   8   0.0061   0.0082   0.0077   0.0058  -0.0063  -0.0056   0.00   11.0
2173 283548.000  -2595053.4515  -4259028.2937   3962484.6513   1   8   0.0063   0.0081   0.0080   0.0057  -0.0063  -0.0053   0.00   11.0
2173 283549.000  -2595053.4542  -4259028.2957   3962484.6564   1   8   0.0060   0.0083   0.0080   0.0057  -0.0061  -0.0054   0.00   11.0
2173 283550.000  -2595053.4540  -4259028.2952   3962484.6538   1   8   0.0063   0.0083   0.0079   0.0056  -0.0063  -0.0052   0.00   11.0
2173 283551.000  -2595053.4554  -4259028.2987   3962484.6568   1   8   0.0062   0.0081   0.0076   0.0057  -0.0063  -0.0055   0.00   11.0
2173 283552.000  -2595053.4535  -4259028.2951   3962484.6551   1   8   0.0061   0.0083   0.0077   0.0057  -0.0063  -0.0055   0.00   11.0
2173 283553.000  -2595053.4543  -4259028.2979   3962484.6569   1   8   0.0063   0.0080   0.0075   0.0058  -0.0064  -0.0055   0.00   11.0
2173 283554.000  -2595053.4543  -4259028.2952   3962484.6536   1   8   0.0061   0.0084   0.0077   0.0053  -0.0064  -0.0055   0.00   11.1
2173 283555.000  -2595053.4531  -4259028.2968   3962484.6521   1   8   0.0062   0.0081   0.0076   0.0058  -0.0063  -0.0055   0.00   11.1
2173 283556.000  -2595053.4530  -4259028.2982   3962484.6534   1   8   0.0063   0.0083   0.0079   0.0056  -0.0062  -0.0053   0.00   11.1
2173 283557.000  -2595053.4538  -4259028.2992   3962484.6533   1   8   0.0062   0.0083   0.0079   0.0057  -0.0062  -0.0054   0.00   11.1
2173 283558.000  -2595053.4557  -4259028.3032   3962484.6577   1   8   0.0061   0.0083   0.0077   0.0055  -0.0064  -0.0056   0.00   11.1
2173 283559.000  -2595053.4538  -4259028.3013   3962484.6554   1   8   0.0062   0.0082   0.0078   0.0057  -0.0063  -0.0054   0.00   11.1
2173 283560.000  -2595053.4531  -4259028.2983   3962484.6542   1   8   0.0063   0.0082   0.0081   0.0060  -0.0059  -0.0051   0.00   11.1
2173 283561.000  -2595053.4543  -4259028.2986   3962484.6541   1   8   0.0062   0.0083   0.0081   0.0058  -0.0061  -0.0054   0.00   11.1
2173 283562.000  -2595053.4547  -4259028.2995   3962484.6544   1   8   0.0062   0.0082   0.0077   0.0056  -0.0064  -0.0053   0.00   11.1
2173 283563.000  -2595053.4541  -4259028.3009   3962484.6550   1   8   0.0065   0.0084   0.0078   0.0053  -0.0065  -0.0057   0.00   11.1
2173 283564.000  -2595053.4538  -4259028.3011   3962484.6532   1   8   0.0061   0.0083   0.0077   0.0056  -0.0063  -0.0056   0.00   11.2
2173 283565.000  -2595053.4554  -4259028.3004   3962484.6538   1   8   0.0061   0.0083   0.0080   0.0057  -0.0061  -0.0054   0.00   11.2
2173 283566.000  -2595053.4546  -4259028.3003   3962484.6516   1   8   0.0061   0.0083   0.0076   0.0057  -0.0064  -0.0056   0.00   11.2
2173 283567.000  -2595053.4550  -4259028.2977   3962484.6515   1   8   0.0064   0.0082   0.0079   0.0058  -0.0061  -0.0054   0.00   11.2
2173 283568.000  -2595053.4536  -4259028.2986   3962484.6501   1   8   0.0062   0.0084   0.0078   0.0056  -0.0063  -0.0055   0.00   11.2
2173 283569.000  -2595053.4554  -4259028.3013   3962484.6529   1   8   0.0060   0.0084   0.0079   0.0057  -0.0061  -0.0054   0.00   11.2
2173 283570.000  -2595053.4569  -4259028.3041   3962484.6557   1   8   0.0064   0.0083   0.0078   0.0056  -0.0062  -0.0052   0.00   11.2
2173 283571.000  -2595053.4545  -4259028.2966   3962484.6525   1   8   0.0061   0.0082   0.0081   0.0059  -0.0062  -0.0053   0.00   11.2
2173 283572.000  -2595053.4555  -4259028.2990   3962484.6531   1   8   0.0062   0.0081   0.0075   0.0057  -0.0065  -0.0054   0.00   11.2
2173 283573.000  -2595053.4530  -4259028.2978   3962484.6527   1   8   0.0063   0.0084   0.0079   0.0056  -0.0063  -0.0055   0.00   11.2
2173 283574.000  -2595053.4550  -4259028.2986   3962484.6523   1   8   0.0059   0.0082   0.0078   0.0059  -0.0062  -0.0054   0.00   11.2
2173 283575.000  -2595053.4544  -4259028.2988   3962484.6537   1   8   0.0063   0.0083   0.0078   0.0055  -0.0063  -0.0054   0.00   11.2
2173 283576.000  -2595053.4553  -4259028.2971   3962484.6519   1   8   0.0062   0.0082   0.0077   0.0056  -0.0063  -0.0056   0.00   11.2
2173 283577.000  -2595053.4517  -4259028.2946   3962484.6482   1   8   0.0062   0.0083   0.0080   0.0057  -0.0062  -0.0054   0.00   11.2
2173 283578.000  -2595053.4572  -4259028.3012   3962484.6544   1   8   0.0062   0.0083   0.0077   0.0056  -0.0062  -0.0058   0.00   11.2
2173 283579.000  -2595053.4562  -4259028.2984   3962484.6504   1   8   0.0059   0.0082   0.0080   0.0057  -0.0062  -0.0051   0.00   11.2
2173 283580.000  -2595053.4537  -4259028.2955   3962484.6490   1   8   0.0061   0.0082   0.0076   0.0057  -0.0061  -0.0055   0.00   11.2
2173 283581.000  -2595053.4543  -4259028.2970   3962484.6516   1   8   0.0061   0.0082   0.0076   0.0057  -0.0063  -0.0055   0.00   11.2
2173 283582.000  -2595053.4532  -4259028.2958   3962484.6493   1   8   0.0062   0.0084   0.0082   0.0056  -0.0062  -0.0053   0.00   11.2
2173 283583.000  -2595053.4539  -4259028.2949   3962484.6478   1   8   0.0063   0.0083   0.0077   0.0057  -0.0062  -0.0054   0.00   11.2
2173 283584.000  -2595053.4546  -4259028.2962   3962484.6534   1   8   0.0063   0.0082   0.0080   0.0057  -0.0062  -0.0053   0.00   11.2
2173 283585.000  -2595053.4526  -4259028.2959   3962484.6541   1   8   0.0063   0.0084   0.0079   0.0056  -0.0062  -0.0051   0.00   11.2
2173 283586.000  -2595053.4538  -4259028.2968   3962484.6529   1   8   0.0059   0.0083   0.0077   0.0056  -0.0063  -0.0053   0.00   11.2
2173 283587.000  -2595053.4516  -4259028.2954   3962484.6520   1   8   0.0060   0.0082   0.0080   0.0057  -0.0061  -0.0052   0.00   11.2
2173 283588.000  -2595053.4550  -4259028.2979   3962484.6533   1   8   0.0063   0.0082   0.0081   0.0058  -0.0061  -0.0053   0.00   11.2
2173 283589.000  -2595053.4521  -4259028.2957   3962484.6523   1   8   0.0062   0.0082   0.0079   0.0056  -0.0063  -0.0053   0.00   11.2
2173 283590.000  -2595053.4531  -4259028.2952   3962484.6511   1   8   0.0062   0.0084   0.0077   0.0055  -0.0063  -0.0056   0.00   11.2
2173 283591.000  -2595053.4507  -4259028.2920   3962484.6494   1   8   0.0060   0.0084   0.0078   0.0055  -0.0062  -0.0054   0.00   11.2
2173 283592.000  -2595053.4515  -4259028.2920   3962484.6500   1   8   0.0062   0.0082   0.0079   0.0056  -0.0062  -0.0056   0.00   11.1
2173 283593.000  -2595053.4529  -4259028.2941   3962484.6516   1   8   0.0062   0.0083   0.0079   0.0057  -0.0062  -0.0053   0.00   11.2
2173 283594.000  -2595053.4499  -4259028.2934   3962484.6504   1   8   0.0062   0.0082   0.0080   0.0058  -0.0062  -0.0053   0.00   11.1
2173 283595.000  -2595053.4545  -4259028.2984   3962484.6537   1   8   0.0060   0.0083   0.0077   0.0057  -0.0062  -0.0055   0.00   11.2
2173 283596.000  -2595053.4552  -4259028.2930   3962484.6531   1   8   0.0063   0.0083   0.0077   0.0055  -0.0063  -0.0056   0.00   11.1
2173 283597.000  -2595053.4522  -4259028.2932   3962484.6522   1   8   0.0061   0.0081   0.0077   0.0059  -0.0061  -0.0055   0.00   11.1
2173 283598.000  -2595053.4540  -4259028.2973   3962484.6523   1   8   0.0062   0.0083   0.0078   0.0057  -0.0062  -0.0056   0.00   11.1
2173 283599.000  -2595053.4523  -4259028.2947   3962484.6493   1   8   0.0064   0.0083   0.0079   0.0056  -0.0062  -0.0052   0.00   11.1
2173 283600.000  -2595053.4535  -4259028.2961   3962484.6539   1   8   0.0062   0.0082   0.0079   0.0057  -0.0063  -0.0053   0.00   11.1
2173 283601.000  -2595053.4535  -4259028.2942   3962484.6515   1   8   0.0064   0.0084   0.0078   0.0055  -0.0065  -0.0053   0.00   11.1
2173 283602.000  -2595053.4528  -4259028.2943   3962484.6527   1   8   0.0063   0.0085   0.0078   0.0053  -0.0063  -0.0053   0.00   11.1
2173 283603.000  -2595053.4551  -4259028.2962   3962484.6540   1   8   0.0063   0.0083   0.0076   0.0056  -0.0063  -0.0055   0.00   11.1
2173 283604.000  -2595053.4541  -4259028.2984   3962484.6535   1   8   0.0061   0.0083   0.0078   0.0057  -0.0062  -0.0053   0.00   11.1
2173 283605.000  -2595053.4547  -4259028.2952   3962484.6515   1   8   0.0060   0.0083   0.0081   0.0058  -0.0060  -0.0053   0.00   11.1
2173 283606.000  -2595053.4548  -4259028.2946   3962484.6525   1   8   0.0064   0.0084   0.0078   0.0055  -0.0064  -0.0054   0.00   11.1
2173 283607.000  -2595053.4547  -4259028.2944   3962484.6529   1   8   0.0062   0.0082   0.0080   0.0057  -0.0063  -0.0054   0.00   11.1
2173 283608.000  -2595053.4542  -4259028.2968   3962484.6543   1   8   0.0063   0.0084   0.0079   0.0056  -0.0063  -0.0050   0.00   11.1
2173 283609.000  -2595053.4540  -4259028.2985   3962484.6548   1   8   0.0061   0.0081   0.0078   0.0059  -0.0063  -0.0056   0.00   11.2
2173 283610.000  -2595053.4551  -4259028.2976   3962484.6546   1   8   0.0061   0.0082   0.0078   0.0057  -0.0062  -0.0054   0.00   11.2
2173 283611.000  -2595053.4548  -4259028.2983   3962484.6557   1   8   0.0062   0.0082   0.0076   0.0057  -0.0062  -0.0055   0.00   11.2
2173 283612.000  -2595053.4544  -4259028.2981   3962484.6543   1   8   0.0061   0.0083   0.0077   0.0055  -0.0064  -0.0053   0.00   11.2
2173 283613.000  -2595053.4540  -4259028.2964   3962484.6552   1   8   0.0063   0.0083   0.0078   0.0057  -0.0062  -0.0057   0.00   11.2
2173 283614.000  -2595053.4566  -4259028.2992   3962484.6584   1   8   0.0061   0.0084   0.0077   0.0055  -0.0063  -0.0057   0.00   11.2
2173 283615.000  -2595053.4561  -4259028.2986   3962484.6552   1   8   0.0061   0.0084   0.0076   0.0057  -0.0062  -0.0055   0.00   11.2
2173 283616.000  -2595053.4571  -4259028.3003   3962484.6595   1   8   0.0060   0.0082   0.0080   0.0058  -0.0062  -0.0052   0.00   11.2
2173 283617.000  -2595053.4549  -4259028.2969   3962484.6555   1   8   0.0060   0.0081   0.0079   0.0059  -0.0061  -0.0052   0.00   11.2
2173 283618.000  -2595053.4545  -4259028.2969   3962484.6542   1   8   0.0064   0.0083   0.0076   0.0055  -0.0065  -0.0056   0.00   11.2
2173 283619.000  -2595053.4557  -4259028.2985   3962484.6561   1   8   0.0061   0.0083   0.0079   0.0055  -0.0062  -0.0055   0.00   11.2
2173 283620.000  -2595053.4541  -4259028.2980   3962484.6532   1   8   0.0062   0.0084   0.0079   0.0056  -0.0063  -0.0055   0.00   11.2
2173 283621.000  -2595053.4545  -4259028.2957   3962484.6536   1   8   0.0061   0.0083   0.0080   0.0056  -0.0062  -0.0052   0.00   11.2
2173 283622.000  -2595053.4542  -4259028.2978   3962484.6531   1   8   0.0064   0.0084   0.0076   0.0057  -0.0062  -0.0056   0.00   11.2
2173 283623.000  -2595053.4538  -4259028.2973   3962484.6512   1   8   0.0060   0.0082   0.0075   0.0058  -0.0063  -0.0055   0.00   11.2
2173 283624.000  -2595053.4560  -4259028.2992   3962484.6535   1   8   0.0060   0.0081   0.0078   0.0058  -0.0063  -0.0055   0.00   11.2
2173 283625.000  -2595053.4555  -4259028.2980   3962484.6525   1   8   0.0064   0.0083   0.0078   0.0058  -0.0061  -0.0055   0.00   11.2
2173 283626.000  -2595053.4595  -4259028.2994   3962484.6557   1   8   0.0061   0.0082   0.0080   0.0057  -0.0062  -0.0053   0.00   11.2
2173 283627.000  -2595053.4557  -4259028.2951   3962484.6544   1   8   0.0060   0.0082   0.0080   0.0057  -0.0062  -0.0051   0.00   11.2
2173 283628.000  -2595053.4561  -4259028.2974   3962484.6523   1   8   0.0061   0.0083   0.0076   0.0056  -0.0063  -0.0054   0.00   11.2
2173 283629.000  -2595053.4546  -4259028.2943   3962484.6508   1   8   0.0063   0.0083   0.0079   0.0057  -0.0062  -0.0054   0.00   11.2
2173 283630.000  -2595053.4565  -4259028.2978   3962484.6536   1   8   0.0064   0.0084   0.0078   0.0056  -0.0063  -0.0056   0.00   11.1
2173 283631.000  -2595053.4551  -4259028.2985   3962484.6547   1   8   0.0062   0.0084   0.0078   0.0056  -0.0062  -0.0055   0.00   11.1
2173 283632.000  -2595053.4535  -4259028.2935   3962484.6514   1   8   0.0064   0.0082   0.0079   0.0058  -0.0061  -0.0054   0.00   11.1
2173 283633.000  -2595053.4538  -4259028.2953   3962484.6495   1   8   0.0059   0.0083   0.0078   0.0056  -0.0062  -0.0054   0.00   11.1
2173 283634.000  -2595053.4558  -4259028.2968   3962484.6504   1   8   0.0061   0.0084   0.0075   0.0055  -0.0063  -0.0056   0.00   11.1
2173 283635.000  -2595053.4552  -4259028.2937   3962484.6491   1   8   0.0061   0.0083   0.0080   0.0057  -0.0062  -0.0052   0.00   11.1
2173 283636.000  -2595053.4555  -4259028.2965   3962484.6502   1   8   0.0063   0.0083   0.0081   0.0057  -0.0061  -0.0050   0.00   11.1
2173 283637.000  -2595053.4525  -4259028.2947   3962484.6490   1   8   0.0063   0.0083   0.0077   0.0057  -0.0063  -0.0054   0.00   11.1
2173 283638.000  -2595053.4542  -4259028.2967   3962484.6506   1   8   0.0061   0.0084   0.0079   0.0055  -0.0062  -0.0056   0.00   11.1
2173 283639.000  -2595053.4534  -4259028.2943   3962484.6483   1   8   0.0062   0.0083   0.0079   0.0056  -0.0062  -0.0056   0.00   11.1
2173 283640.000  -2595053.4538  -4259028.2961   3962484.6501   1   8   0.0060   0.0083   0.0079   0.0058  -0.0060  -0.0054   0.00   11.1
2173 283641.000  -2595053.4519  -4259028.2930   3962484.6475   1   8   0.0062   0.0085   0.0077   0.0054  -0.0063  -0.0054   0.00   11.1
2173 283642.000  -2595053.4541  -4259028.2938   3962484.6491   1   8   0.0062   0.0082   0.0077   0.0059  -0.0062  -0.0052   0.00   11.1
2173 283643.000  -2595053.4549  -4259028.2971   3962484.6494   1   8   0.0063   0.0084   0.0080   0.0056  -0.0062  -0.0053   0.00   11.1
2173 283644.000  -2595053.4553  -4259028.2935   3962484.6492   1   8   0.0062   0.0083   0.0078   0.0057  -0.0062  -0.0054   0.00   11.1
2173 283645.000  -2595053.4554  -4259028.2949   3962484.6482   1   8   0.0062   0.0084   0.0080   0.0057  -0.0061  -0.0053   0.00   11.1
2173 283646.000  -2595053.4574  -4259028.2963   3962484.6521   1   8   0.0060   0.0083   0.0075   0.0056  -0.0061  -0.0056   0.00   11.1
2173 283647.000  -2595053.4573  -4259028.2970   3962484.6509   1   8   0.0061   0.0083   0.0079   0.0057  -0.0063  -0.0054   0.00   11.0
2173 283648.000  -2595053.4542  -4259028.2919   3962484.6474   1   8   0.0059   0.0082   0.0079   0.0056  -0.0063  -0.0054   0.00   11.0
2173 283649.000  -2595053.4556  -4259028.2927   3962484.6514   1   8   0.0064   0.0083   0.0079   0.0058  -0.0062  -0.0057   0.00   11.0
2173 283650.000  -2595053.4559  -4259028.2945   3962484.6521   1   8   0.0065   0.0084   0.0079   0.0057  -0.0062  -0.0052   0.00   11.0
2173 283651.000  -2595053.4537  -4259028.2922   3962484.6473   1   8   0.0061   0.0082   0.0080   0.0058  -0.0063  -0.0053   0.00   11.0
2173 283652.000  -2595053.4541  -4259028.2930   3962484.6487   1   8   0.0062   0.0083   0.0080   0.0057  -0.0062  -0.0052   0.00   11.0
2173 283653.000  -2595053.4569  -4259028.2967   3962484.6541   1   8   0.0061   0.0084   0.0080   0.0058  -0.0060  -0.0054   0.00   10.9
2173 283654.000  -2595053.4564  -4259028.2940   3962484.6492   1   8   0.0062   0.0082   0.0077   0.0057  -0.0062  -0.0054   0.00   10.9
2173 283655.000  -2595053.4558  -4259028.2936   3962484.6500   1   8   0.0062   0.0083   0.0077   0.0058  -0.0060  -0.0056   0.00   10.9
2173 283656.000  -2595053.4554  -4259028.2920   3962484.6485   1   8   0.0061   0.0083   0.0079   0.0057  -0.0062  -0.0053   0.00   10.9
2173 283657.000  -2595053.4561  -4259028.2949   3962484.6515   1   8   0.0063   0.0084   0.0080   0.0057  -0.0061  -0.0053   0.00   10.9
2173 283658.000  -2595053.4581  -4259028.2964   3962484.6506   1   8   0.0060   0.0084   0.0079   0.0056  -0.0062  -0.0055   0.00   10.8
2173 283659.000  -2595053.4548  -4259028.2939   3962484.6489   1   8   0.0061   0.0082   0.0077   0.0057  -0.0062  -0.0055   0.00   10.8
2173 283660.000  -2595053.4546  -4259028.2918   3962484.6489   1   8   0.0062   0.0082   0.0078   0.0058  -0.0062  -0.0053   0.00   10.8
2173 283661.000  -2595053.4569  -4259028.2956   3962484.6512   1   8   0.0062   0.0082   0.0078   0.0057  -0.0063  -0.0055   0.00   10.8
2173 283662.000  -2595053.4547  -4259028.2948   3962484.6477   1   8   0.0060   0.0084   0.0078   0.0056  -0.0062  -0.0054   0.00   10.8
2173 283663.000  -2595053.4574  -4259028.2975   3962484.6507   1   8   0.0061   0.0081   0.0080   0.0058  -0.0061  -0.0052   0.00   10.8
2173 283664.000  -2595053.4544  -4259028.2892   3962484.6490   1   8   0.0061   0.0083   0.0079   0.0057  -0.0061  -0.0053   0.00   10.7
2173 283665.000  -2595053.4520  -4259028.2923   3962484.6472   1   8   0.0061   0.0084   0.0078   0.0056  -0.0063  -0.0056   0.00   10.7
2173 283666.000  -2595053.4553  -4259028.2938   3962484.6486   1   8   0.0063   0.0083   0.0077   0.0056  -0.0062  -0.0054   0.00   10.7
2173 283667.000  -2595053.4545  -4259028.2919   3962484.6498   1   8   0.0062   0.0083   0.0077   0.0058  -0.0061  -0.0055   0.00   10.7
2173 283668.000  -2595053.4540  -4259028.2931   3962484.6476   1   8   0.0062   0.0083   0.0076   0.0056  -0.0062  -0.0056   0.00   10.7
2173 283669.000  -2595053.4523  -4259028.2884   3962484.6439   1   8   0.0063   0.0083   0.0077   0.0055  -0.0063  -0.0055   0.00   10.7
2173 283670.000  -2595053.4539  -4259028.2928   3962484.6494   1   8   0.0061   0.0084   0.0078   0.0055  -0.0063  -0.0054   0.00   10.6
2173 283671.000  -2595053.4542  -4259028.2942   3962484.6488   1   8   0.0064   0.0084   0.0077   0.0055  -0.0063  -0.0055   0.00   10.6
2173 283672.000  -2595053.4541  -4259028.2902   3962484.6494   1   8   0.0062   0.0084   0.0078   0.0056  -0.0062  -0.0056   0.00   10.6
2173 283673.000  -2595053.4550  -4259028.2917   3962484.6506   1   8   0.0060   0.0084   0.0076   0.0055  -0.0064  -0.0056   0.00   10.6
2173 283674.000  -2595053.4533  -4259028.2920   3962484.6520   1   8   0.0063   0.0083   0.0079   0.0058  -0.0061  -0.0056   0.00   10.6
2173 283675.000  -2595053.4538  -4259028.2917   3962484.6490   1   8   0.0063   0.0083   0.0080   0.0056  -0.0063  -0.0053   0.00   10.6
2173 283676.000  -2595053.4536  -4259028.2919   3962484.6481   1   8   0.0061   0.0084   0.0077   0.0055  -0.0062  -0.0056   0.00   10.6
2173 283677.000  -2595053.4520  -4259028.2898   3962484.6465   1   8   0.0061   0.0082   0.0077   0.0057  -0.0063  -0.0055   0.00   10.5
2173 283678.000  -2595053.4539  -4259028.2914   3962484.6470   1   8   0.0061   0.0083   0.0080   0.0055  -0.0062  -0.0054   0.00   10.5
2173 283679.000  -2595053.4531  -4259028.2935   3962484.6446   1   8   0.0062   0.0082   0.0079   0.0058  -0.0060  -0.0054   0.00   10.5
2173 283680.000  -2595053.4530  -4259028.2924   3962484.6510   1   8   0.0060   0.0082   0.0078   0.0058  -0.0062  -0.0053   0.00   10.5
2173 283681.000  -2595053.4553  -4259028.2937   3962484.6507   1   8   0.0062   0.0084   0.0077   0.0054  -0.0064  -0.0055   0.00   10.5
2173 283682.000  -2595053.4561  -4259028.2970   3962484.6507   1   8   0.0062   0.0085   0.0078   0.0057  -0.0061  -0.0054   0.00   10.4
2173 283683.000  -2595053.4534  -4259028.2924   3962484.6482   1   8   0.0060   0.0082   0.0077   0.0058  -0.0061  -0.0055   0.00   10.4
2173 283684.000  -2595053.4520  -4259028.2930   3962484.6476   1   8   0.0061   0.0083   0.0077   0.0054  -0.0065  -0.0055   0.00   10.4
2173 283685.000  -2595053.4504  -4259028.2896   3962484.6456   1   8   0.0061   0.0083   0.0076   0.0057  -0.0062  -0.0053   0.00   10.4
2173 283686.000  -2595053.4509  -4259028.2909   3962484.6453   1   8   0.0061   0.0084   0.0077   0.0057  -0.0061  -0.0055   0.00   10.4
2173 283687.000  -2595053.4532  -4259028.2923   3962484.6466   1   8   0.0063   0.0083   0.0077   0.0057  -0.0062  -0.0054   0.00   10.4
2173 283688.000  -2595053.4536  -4259028.2930   3962484.6477   1   8   0.0065   0.0084   0.0079   0.0056  -0.0061  -0.0053   0.00   10.3
2173 283689.000  -2595053.4532  -4259028.2927   3962484.6481   1   8   0.0062   0.0084   0.0079   0.0057  -0.0061  -0.0052   0.00   10.3
2173 283690.000  -2595053.4533  -4259028.2947   3962484.6483   1   8   0.0063   0.0084   0.0079   0.0056  -0.0062  -0.0054   0.00   10.3
2173 283691.000  -2595053.4534  -4259028.2941   3962484.6472   1   8   0.0062   0.0084   0.0079   0.0058  -0.0060  -0.0053   0.00   10.3
2173 283692.000  -2595053.4534  -4259028.2923   3962484.6460   1   8   0.0062   0.0083   0.0078   0.0056  -0.0063  -0.0051   0.00   10.3
2173 283693.000  -2595053.4534  -4259028.2942   3962484.6455   1   8   0.0061   0.0083   0.0076   0.0057  -0.0063  -0.0054   0.00   10.3
2173 283694.000  -2595053.4538  -4259028.2968   3962484.6502   1   8   0.0063   0.0084   0.0075   0.0057  -0.0061  -0.0056   0.00   10.3
2173 283695.000  -2595053.4540  -4259028.2950   3962484.6466   1   8   0.0063   0.0084   0.0078   0.0058  -0.0061  -0.0054   0.00   10.3
2173 283696.000  -2595053.4540  -4259028.2951   3962484.6467   1   8   0.0060   0.0083   0.0079   0.0058  -0.0062  -0.0053   0.00   10.2
2173 283697.000  -2595053.4533  -4259028.2928   3962484.6499   1   8   0.0061   0.0082   0.0077   0.0058  -0.0061  -0.0056   0.00   10.2
2173 283698.000  -2595053.4539  -4259028.2932   3962484.6476   1   8   0.0062   0.0082   0.0080   0.0059  -0.0059  -0.0053   0.00   10.2
2173 283699.000  -2595053.4523  -4259028.2930   3962484.6449   1   8   0.0059   0.0084   0.0080   0.0057  -0.0061  -0.0050   0.00   10.2
2173 283700.000  -2595053.4547  -4259028.2950   3962484.6466   1   8   0.0060   0.0082   0.0078   0.0059  -0.0061  -0.0054   0.00   10.2
2173 283701.000  -2595053.4533  -4259028.2937   3962484.6456   1   8   0.0060   0.0082   0.0078   0.0058  -0.0062  -0.0054   0.00   10.2
2173 283702.000  -2595053.4521  -4259028.2914   3962484.6446   1   8   0.0062   0.0083   0.0080   0.0057  -0.0062  -0.0053   0.00   10.2
2173 283703.000  -2595053.4532  -4259028.2943   3962484.6482   1   8   0.0058   0.0081   0.0076   0.0059  -0.0061  -0.0056   0.00   10.1
2173 283704.000  -2595053.4510  -4259028.2906   3962484.6440   1   8   0.0062   0.0082   0.0078   0.0058  -0.0062  -0.0055   0.00   10.1
2173 283705.000  -2595053.4536  -4259028.2935   3962484.6453   1   8   0.0062   0.0082   0.0078   0.0060  -0.0060  -0.0052   0.00   10.1
2173 283706.000  -2595053.4526  -4259028.2931   3962484.6448   1   8   0.0062   0.0084   0.0078   0.0056  -0.0062  -0.0053   0.00   10.1
