     2.11           OBSERVATION DATA    M (MIXED)           RINEX VERSION / TYPE
CONVBIN 2.4.3                           20210902 201950 UTC PGM / RUN BY / DATE 
log: logs/21_09_02_06_46_49_talh_SW.rtcm                    COMMENT             
format: RTCM 3, station ID: 473                             COMMENT             
0473                                                        MARKER NAME         
                                                            MARKER NUMBER       
                                                            OBSERVER / AGENCY   
                    SWFT                                    REC # / TYPE / VERS 
                    NULL                                    ANT # / TYPE        
   546420.2590 -5528946.1897  3122095.9476                  APPROX POSITION XYZ 
        0.0000        0.0000        0.0000                  ANTENNA: DELTA H/E/N
     1     1                                                WAVELENGTH FACT L1/2
     5    C1    L1    P2    L2    C2                        # / TYPES OF OBSERV 
  2021     9     2     6    46   54.0000000     GPS         TIME OF FIRST OBS   
  2021     9     2     7    16   52.0000000     GPS         TIME OF LAST OBS    
                                                            END OF HEADER       
 21  9  2  6 46 54.0000000  0 22G 1G 4G 7G 8G 9G14G21G27G30C24C25C26
                                C33C34C35E 2E 3E 5E 8E24E25E36
  23625509.773   124152842.769    23625513.186    96742461.723                  
  23128830.094   121542816.876    23128831.416    94708688.425                  
  20929857.782   109987160.139    20929857.103    85704284.136                  
  20703399.454   108797058.368    20703401.795    84776918.773                  
  21700303.633   114035832.001    21700305.723    88859081.429                  
  24241592.175   127390424.712    24241593.140    99265267.578                  
  22212982.002   116730007.386    22212981.287    90958447.673                  
  22736136.371   119479174.165    22736138.158    93100648.969                  
  23267624.299   122272153.663    23267626.318    95276993.594                  
                 116448941.839                   116448941.839    22362789.422  
                 131227723.234                   131227723.234    25200902.198  
                 120572465.229                   120572465.229    23154673.633  
                 134773854.105                   134773854.105    25881936.426  
                 123266863.730                   123266863.730    23672105.984  
                 129596417.929                   129596417.929    24887629.153  
  24984838.067   131296186.095                                                  
  25198810.093   132420623.617                                                  
  27352070.353   143736085.900                                                  
  24347868.796   127948909.331                                                  
  27678467.106   145451364.755                                                  
  24411070.655   128281031.316                                                  
  25809624.653   135630438.386                                                  
 21  9  2  6 46 55.0000000  0 22G 1G 4G 7G 8G 9G14G21G27G30C24C25C26
                                C33C34C35E 2E 3E 5E 8E24E25E36
  23624881.551   124149541.470    23624884.982    96739889.280                  
  23129484.815   121546257.479    23129486.137    94711369.418                  
  20929490.734   109985231.323    20929490.055    85702781.164                  
  20703735.624   108798824.938    20703737.983    84778295.321                  
  21700711.815   114037977.001    21700713.906    88860752.859                  
  24241188.442   127388303.062    24241189.407    99263614.348                  
  22212622.888   116728120.192    22212622.155    90956977.128                  
  22736754.443   119482422.082    22736756.212    93103179.812                  
  23267055.617   122269165.183    23267057.636    95274664.906                  
                 116448326.633                   116448326.633    22362671.272  
                 131225448.761                   131225448.761    25200465.426  
                 120573787.686                   120573787.686    23154927.605  
                 134775784.004                   134775784.004    25882307.047  
                 123263993.699                   123263993.699    23671554.814  
                 129598973.712                   129598973.712    24888119.979  
  24984658.108   131295240.410                                                  
  25199163.435   132422480.480                                                  
  27352616.591   143738956.471                                                  
  24347777.914   127948431.753                                                  
  27678752.492   145452864.516                                                  
  24411152.656   128281462.169                                                  
  25809117.799   135627774.878                                                  
 21  9  2  6 46 56.0000000  0 22G 1G 4G 7G 8G 9G14G21G27G30C24C25C26
                                C33C34C35E 2E 3E 5E 8E24E25E36
  23624253.348   124146240.175    23624256.761    96737316.847                  
  23130139.572   121549698.243    23130140.894    94714050.531                  
  20929123.758   109983302.792    20929123.061    85701278.411                  
  20704071.884   108800592.016    20704074.242    84779672.265                  
  21701120.086   114040122.449    21701122.159    88862424.637                  
  24240784.727   127386181.523    24240785.674    99261961.199                  
  22212263.846   116726233.380    22212263.095    90955506.887                  
  22737372.532   119485670.253    22737374.337    93105710.856                  
  23266486.936   122266176.764    23266488.955    95272336.270                  
                 116447711.593                   116447711.593    22362553.157  
                 131223174.250                   131223174.250    25200028.617  
                 120575110.350                   120575110.350    23155181.596  
                 134777714.058                   134777714.058    25882677.704  
                 123261123.940                   123261123.940    23671003.715  
                 129601529.806                   129601529.806    24888610.841  
  24984478.131   131294294.743                                                  
  25199516.866   132424337.660                                                  
  27353162.847   143741826.972                                                  
  24347687.122   127947954.632                                                  
  27679037.878   145454364.266                                                  
  24411234.639   128281893.031                                                  
  25808610.979   135625111.532                                                  
 21  9  2  6 46 57.0000000  0 22G 1G 4G 7G 8G 9G14G21G27G30C24C25C26
                                C33C34C35E 2E 3E 5E 8E24E25E36
  23623625.127   124142938.882    23623628.540    96734744.411                  
  23130794.364   121553139.136    23130795.686    94716731.746                  
  20928756.818   109981374.546    20928756.138    85699775.878                  
  20704408.232   108802359.599    20704410.609    84781049.602                  
  21701528.447   114042268.358    21701530.520    88864096.772                  
  24240381.048   127384060.078    24240381.977    99260308.125                  
  22211904.857   116724346.958    22211904.142    90954036.950                  
  22737990.693   119488918.684    22737992.498    93108242.097                  
  23265918.272   122263188.401    23265920.309    95270007.675                  
                 116447096.727                   116447096.727    22362435.079  
                 131220899.703                   131220899.703    25199591.827  
                 120576433.227                   120576433.227    23155435.640  
                 134779644.277                   134779644.277    25883048.379  
                 123258254.458                   123258254.458    23670452.653  
                 129604086.208                   129604086.208    24889101.775  
  24984298.172   131293349.094                                                  
  25199870.316   132426195.122                                                  
  27353709.068   143744697.417                                                  
  24347596.419   127947477.957                                                  
  27679323.282   145455864.015                                                  
  24411316.640   128282323.917                                                  
  25808104.196   135622448.329                                                  
 21  9  2  6 46 58.0000000  0 22G 1G 4G 7G 8G 9G14G21G27G30C24C25C26
                                C33C34C35E 2E 3E 5E 8E24E25E36
  23622996.923   124139637.598    23623000.318    96732171.980                  
  23131449.157   121556580.176    23131450.497    94719413.074                  
  20928389.949   109979446.587    20928389.252    85698273.575                  
  20704744.706   108804127.671    20704747.047    84782427.321                  
  21701936.879   114044414.734    21701938.952    88865769.273                  
  24239977.351   127381938.733    24239978.298    99258655.134                  
  22211545.958   116722460.927    22211545.225    90952567.317                  
  22738608.908   119492167.362    22738610.695    93110773.534                  
  23265349.626   122260200.106    23265351.645    95267679.136                  
                 116446482.027                   116446482.027    22362317.036  
                 131218625.122                   131218625.122    25199155.019  
                 120577756.315                   120577756.315    23155689.719  
                 134781574.657                   134781574.657    25883419.072  
                 123255385.247                   123255385.247    23669901.661  
                 129606642.922                   129606642.922    24889592.762  
  24984118.231   131292403.462                                                  
  25200223.836   132428052.892                                                  
  27354255.288   143747567.780                                                  
  24347505.805   127947001.726                                                  
  27679608.686   145457363.747                                                  
  24411398.641   128282754.820                                                  
  25807597.449   135619785.276                                                  
 21  9  2  6 46 59.0000000  0 22G 1G 4G 7G 8G 9G14G21G27G30C24C25C26
                                C33C34C35E 2E 3E 5E 8E24E25E36
  23622368.702   124136336.329    23622372.115    96729599.562                  
  23132104.003   121560021.363    23132105.325    94722094.520                  
  20928023.115   109977518.915    20928022.436    85696771.491                  
  20705081.269   108805896.249    20705083.592    84783805.438                  
  21702345.419   114046561.559    21702347.474    88867442.126                  
  24239573.708   127379817.485    24239574.637    99257002.206                  
  22211187.148   116720575.282    22211186.397    90951097.979                  
  22739227.158   119495416.304    22739228.945    93113305.180                  
  23264780.980   122257211.860    23264782.999    95265350.628                  
                 116445867.501                   116445867.501    22362199.011  
                 131216350.501                   131216350.501    25198718.193  
                 120579079.613                   120579079.613    23155943.852  
                 134783505.196                   134783505.196    25883789.819  
                 123252516.311                   123252516.311    23669350.706  
                 129609199.946                   129609199.946    24890083.820  
  24983938.308   131291457.845                                                  
  25200577.429   132429910.964                                                  
  27354801.472   143750438.102                                                  
  24347415.263   127946525.946                                                  
  27679894.055   145458863.465                                                  
  24411480.642   128283185.753                                                  
  25807090.701   135617122.373                                                  
 21  9  2  6 47  0.0000000  0 22G 1G 4G 7G 8G 9G14G21G27G30C24C25C26
                                C33C34C35E 2E 3E 5E 8E24E25E36
  23621740.481   124133035.060    23621743.894    96727027.145                  
  23132758.867   121563462.687    23132760.207    94724776.070                  
  20927656.354   109975591.522    20927655.657    85695269.629                  
  20705417.903   108807665.343    20705420.244    84785183.948                  
  21702754.012   114048708.851    21702756.103    88869115.340                  
  24239170.046   127377696.336    24239170.994    99255349.368                  
  22210828.373   116718690.031    22210827.659    90949628.957                  
  22739845.462   119498665.499    22739847.231    93115837.019                  
  23264212.334   122254223.676    23264214.353    95263022.175                  
                 116445253.142                   116445253.142    22362081.040  
                 131214075.844                   131214075.844    25198281.366  
                 120580403.117                   120580403.117    23156198.021  
                 134785435.898                   134785435.898    25884160.601  
                 123249647.652                   123249647.652    23668799.822  
                 129611757.276                   129611757.276    24890574.915  
  24983758.367   131290512.233                                                  
  25200931.057   132431769.321                                                  
  27355347.675   143753308.351                                                  
  24347324.792   127946050.607                                                  
  27680179.441   145460363.188                                                  
  24411562.643   128283616.694                                                  
  25806584.007   135614459.622                                                  
 21  9  2  6 47  1.0000000  0 22G 1G 4G 7G 8G 9G14G21G27G30C24C25C26
                                C33C34C35E 2E 3E 5E 8E24E25E36
  23621112.278   124129733.800    23621115.708    96724454.739                  
  23133413.766   121566904.153    23133415.089    94727457.731                  
  20927289.646   109973664.417    20927288.949    85693767.989                  
  20705754.645   108809434.956    20705757.004    84786562.868                  
  21703162.748   114050856.606    21703164.803    88870788.913                  
  24238766.421   127375575.282    24238767.386    99253696.598                  
  22210469.706   116716805.168    22210468.974    90948160.230                  
  22740463.820   119501914.945    22740465.606    93118369.058                  
  23263643.724   122251235.562    23263645.743    95260693.777                  
                 116444638.950                   116444638.950    22361963.104  
                 131211801.149                   131211801.149    25197844.540  
                 120581726.836                   120581726.836    23156452.226  
                 134787366.758                   134787366.758    25884531.401  
                 123246779.266                   123246779.266    23668248.955  
                 129614314.917                   129614314.917    24891066.098  
  24983578.426   131289566.648                                                  
  25201284.738   132433628.001                                                  
  27355893.859   143756178.538                                                  
  24347234.446   127945575.710                                                  
  27680464.827   145461862.879                                                  
  24411644.662   128284047.659                                                  
  25806077.313   135611797.021                                                  
 21  9  2  6 47  2.0000000  0 22G 1G 4G 7G 8G 9G14G21G27G30C24C25C26
                                C33C34C35E 2E 3E 5E 8E24E25E36
  23620484.074   124126432.539    23620487.487    96721882.328                  
  23134068.666   121570345.750    23134070.006    94730139.495                  
  20926922.973   109971737.603    20926922.276    85692266.575                  
  20706091.476   108811205.086    20706093.835    84787942.187                  
  21703571.520   114053004.810    21703573.592    88872462.836                  
  24238362.813   127373454.321    24238363.778    99252043.901                  
  22210111.093   116714920.683    22210110.360    90946691.800                  
  22741082.195   119505164.653    22741084.000    93120901.294                  
  23263075.114   122248247.510    23263077.133    95258365.425                  
                 116444024.931                   116444024.931    22361845.187  
                 131209526.417                   131209526.417    25197407.696  
                 120583050.762                   120583050.762    23156706.485  
                 134789297.783                   134789297.783    25884902.219  
                 123243911.157                   123243911.157    23667698.178  
                 129616872.872                   129616872.872    24891557.318  
  24983398.485   131288621.075                                                  
  25201638.491   132435486.956                                                  
  27356440.026   143759048.660                                                  
  24347144.154   127945101.268                                                  
  27680750.213   145463362.582                                                  
  24411726.663   128284478.641                                                  
  25805570.655   135609134.566                                                  
 21  9  2  6 47  3.0000000  0 22G 1G 4G 7G 8G 9G14G21G27G30C24C25C26
                                C33C34C35E 2E 3E 5E 8E24E25E36
  23619855.853   124123131.285    23619859.284    96719309.922                  
  23134723.601   121573787.500    23134724.942    94732821.378                  
  20926556.372   109969811.070    20926555.676    85690765.382                  
  20706428.415   108812975.697    20706430.773    84789321.884                  
  21703980.399   114055153.483    21703982.471    88874137.129                  
  24237959.241   127371333.469    24237960.189    99250391.289                  
  22209752.569   116713036.594    22209751.836    90945223.683                  
  22741700.660   119508414.605    22741702.447    93123433.726                  
  23262506.521   122245259.505    23262508.541    95256037.109                  
                 116443411.077                   116443411.077    22361727.305  
                 131207251.647                   131207251.647    25196970.852  
                 120584374.897                   120584374.897    23156960.761  
                 134791228.962                   134791228.962    25885273.109  
                 123241043.317                   123241043.317    23667147.437  
                 129619431.133                   129619431.133    24892048.609  
  24983218.544   131287675.517                                                  
  25201992.298   132437346.214                                                  
  27356986.175   143761918.727                                                  
  24347053.969   127944627.273                                                  
  27681035.599   145464862.267                                                  
  24411808.681   128284909.647                                                  
  25805064.032   135606472.261                                                  
 21  9  2  6 47  4.0000000  0 22G 1G 4G 7G 8G 9G14G21G27G30C24C25C26
                                C33C34C35E 2E 3E 5E 8E24E25E36
  23619227.667   124119830.048    23619231.080    96716737.527                  
  23135378.573   121577229.382    23135379.895    94735503.364                  
  20926189.825   109967884.827    20926189.128    85689264.414                  
  20706765.460   108814746.809    20706767.801    84790701.972                  
  21704389.367   114057302.621    21704391.440    88875811.782                  
  24237555.652   127369212.711    24237556.617    99248738.753                  
  22209394.116   116711152.904    22209393.384    90943755.868                  
  22742319.142   119511664.821    22742320.947    93125966.359                  
  23261937.947   122242271.562    23261939.966    95253708.844                  
                 116442797.398                   116442797.398    22361609.441  
                 131204976.845                   131204976.845    25196534.008  
                 120585699.245                   120585699.245    23157215.073  
                 134793160.304                   134793160.304    25885643.980  
                 123238175.757                   123238175.757    23666596.768  
                 129621989.704                   129621989.704    24892539.953  
  24983038.621   131286729.973                                                  
  25202346.158   132439205.777                                                  
  27357532.324   143764788.720                                                  
  24346963.838   127944153.726                                                  
  27681320.985   145466361.940                                                  
  24411890.700   128285340.671                                                  
  25804557.463   135603810.101                                                  
 21  9  2  6 47  5.0000000  0 22G 1G 4G 7G 8G 9G14G21G27G30C24C25C26
                                C33C34C35E 2E 3E 5E 8E24E25E36
  23618599.464   124116528.802    23618602.859    96714165.128                  
  23136033.580   121580671.422    23136034.902    94738185.474                  
  20925823.314   109965958.870    20925822.617    85687763.668                  
  20707102.577   108816518.453    20707104.936    84792082.476                  
  21704798.425   114059452.218    21704800.497    88877486.793                  
  24237152.116   127367092.050    24237153.081    99247086.290                  
  22209035.717   116709269.589    22209035.002    90942288.351                  
  22742937.696   119514915.289    22742939.483    93128499.196                  
  23261369.355   122239283.668    23261371.374    95251380.613                  
                 116442183.887                   116442183.887    22361491.612  
                 131202701.999                   131202701.999    25196097.146  
                 120587023.805                   120587023.805    23157469.456  
                 134795091.805                   134795091.805    25886014.905  
                 123235308.468                   123235308.468    23666046.116  
                 129624548.587                   129624548.587    24893031.351  
  24982858.680   131285784.447                                                  
  25202700.072   132441065.645                                                  
  27358078.455   143767658.652                                                  
  24346873.813   127943680.620                                                  
  27681606.336   145467861.602                                                  
  24411972.737   128285771.712                                                  
  25804050.894   135601148.101                                                  
 21  9  2  6 47  6.0000000  0 22G 1G 4G 7G 8G 9G14G21G27G30C24C25C26
                                C33C34C35E 2E 3E 5E 8E24E25E36
  23617971.243   124113227.565    23617974.656    96711592.738                  
  23136688.604   121584113.586    23136689.927    94740867.675                  
  20925456.874   109964033.203    20925456.177    85686263.144                  
  20707439.819   108818290.602    20707442.160    84793463.371                  
  21705207.554   114061602.265    21705209.644    88879162.152                  
  24236748.597   127364971.491    24236749.544    99245433.911                  
  22208677.425   116707386.671    22208676.693    90940821.149                  
  22743556.286   119518166.012    22743558.073    93131032.222                  
  23260800.780   122236295.842    23260802.799    95249052.437                  
                 116441570.542                   116441570.542    22361373.838  
                 131200427.122                   131200427.122    25195660.284  
                 120588348.574                   120588348.574    23157723.857  
                 134797023.470                   134797023.470    25886385.866  
                 123232441.457                   123232441.457    23665495.535  
                 129627107.772                   129627107.772    24893522.821  
  24982678.756   131284838.929                                                  
  25203054.057   132442925.765                                                  
  27358624.586   143770528.560                                                  
  24346783.861   127943207.954                                                  
  27681891.722   145469361.257                                                  
  24412054.756   128286202.774                                                  
  25803544.361   135598486.245                                                  
 21  9  2  6 47  7.0000000  0 22G 1G 4G 7G 8G 9G14G21G27G30C24C25C26
                                C33C34C35E 2E 3E 5E 8E24E25E36
  23617343.039   124109926.343    23617346.452    96709020.359                  
  23137343.647   121587555.900    23137344.987    94743549.999                  
  20925090.505   109962107.811    20925089.808    85684762.841                  
  20707777.133   108820063.244    20707779.474    84794844.648                  
  21705616.808   114063752.785    21705618.881    88880837.884                  
  24236345.079   127362851.044    24236346.044    99243781.610                  
  22208319.205   116705504.155    22208318.455    90939354.251                  
  22744174.912   119521416.993    22744176.717    93133565.452                  
  23260232.242   122233308.090    23260234.261    95246724.320                  
                 116440957.371                   116440957.371    22361256.081  
                 131198152.203                   131198152.203    25195223.405  
                 120589673.555                   120589673.555    23157978.312  
                 134798955.289                   134798955.289    25886756.863  
                 123229574.720                   123229574.720    23664945.027  
                 129629667.274                   129629667.274    24894014.362  
  24982498.833   131283893.444                                                  
  25203408.078   132444786.188                                                  
  27359170.699   143773398.427                                                  
  24346693.997   127942735.730                                                  
  27682177.108   145470860.907                                                  
  24412136.792   128286633.853                                                  
  25803037.864   135595824.554                                                  
 21  9  2  6 47  8.0000000  0 22G 1G 4G 7G 8G 9G14G21G27G30C24C25C26
                                C33C34C35E 2E 3E 5E 8E24E25E36
  23616714.836   124106625.124    23616718.267    96706447.981                  
  23137998.725   121590998.325    23138000.066    94746232.410                  
  20924724.154   109960182.696    20924723.457    85683262.751                  
  20708114.553   108821836.375    20708116.894    84796226.309                  
  21706026.098   114065903.747    21706028.189    88882513.956                  
  24235941.579   127360730.661    24235942.544    99242129.368                  
  22207961.021   116703621.997    22207960.306    90937887.634                  
  22744793.627   119524668.221    22744795.396    93136098.883                  
  23259663.703   122230320.384    23259665.722    95244396.238                  
                 116440344.367                   116440344.367    22361138.360  
                 131195877.250                   131195877.250    25194786.525  
                 120590998.743                   120590998.743    23158232.803  
                 134800887.273                   134800887.273    25887127.860  
                 123226708.256                   123226708.256    23664394.536  
                 129632227.081                   129632227.081    24894505.939  
  24982318.928   131282947.962                                                  
  25203762.189   132446647.019                                                  
  27359716.758   143776268.042                                                  
  24346604.241   127942264.003                                                  
  27682462.459   145472360.537                                                  
  24412218.811   128287064.962                                                  
  25802531.384   135593162.980                                                  
 21  9  2  6 47  9.0000000  0 22G 1G 4G 7G 8G 9G14G21G27G30C24C25C26
                                C33C34C35E 2E 3E 5E 8E24E25E36
  23616086.633   124103323.922    23616090.064    96703875.614                  
  23138653.822   121594440.914    23138655.162    94748914.945                  
  20924357.875   109958257.876    20924357.178    85681762.890                  
  20708452.081   108823610.032    20708454.422    84797608.379                  
  21706435.513   114068055.185    21706437.586    88884190.399                  
  24235538.114   127358610.393    24235539.061    99240477.211                  
  22207602.943   116701740.258    22207602.228    90936421.344                  
  22745412.360   119527919.708    22745414.147    93138632.504                  
  23259095.164   122227332.743    23259097.183    95242068.204                  
                 116439731.536                   116439731.536    22361020.674  
                 131193602.262                   131193602.262    25194349.645  
                 120592324.140                   120592324.140    23158487.311  
                 134802819.415                   134802819.415    25887498.928  
                 123223842.072                   123223842.072    23663844.116  
                 129634787.200                   129634787.200    24894997.587  
  24982139.005   131282002.491                                                  
  25204116.335   132448508.055                                                  
  27360262.853   143779137.741                                                  
  24346514.539   127941792.681                                                  
  27682747.845   145473860.163                                                  
  24412300.866   128287496.085                                                  
  25802024.922   135590501.585                                                  
 21  9  2  6 47 10.0000000  0 22G 1G 4G 7G 8G 9G14G21G27G30C24C25C26
                                C33C34C35E 2E 3E 5E 8E24E25E36
  23615458.447   124100022.715    23615461.860    96701303.246                  
  23139308.954   121597883.644    23139310.276    94751597.590                  
  20923991.632   109956333.345    20923990.953    85680263.257                  
  20708789.681   108825384.197    20708792.040    84798990.847                  
  21706845.000   114070207.066    21706847.072    88885867.191                  
  24235134.667   127356490.222    24235135.596    99238825.130                  
  22207244.937   116699858.895    22207244.205    90934955.347                  
  22746031.146   119531171.446    22746032.915    93141166.329                  
  23258526.643   122224345.157    23258528.662    95239740.215                  
                 116439118.875                   116439118.875    22360903.025  
                 131191327.236                   131191327.236    25193912.748  
                 120593649.750                   120593649.750    23158741.891  
                 134804751.714                   134804751.714    25887869.996  
                 123220976.160                   123220976.160    23663293.768  
                 129637347.629                   129637347.629    24895489.271  
  24981959.082   131281057.056                                                  
  25204470.535   132450369.407                                                  
  27360808.913   143782007.350                                                  
  24346424.944   127941321.816                                                  
  27683033.195   145475359.786                                                  
  24412382.920   128287927.223                                                  
  25801518.496   135587840.327                                                  
 21  9  2  6 47 11.0000000  0 22G 1G 4G 7G 8G 9G14G21G27G30C24C25C26
                                C33C34C35E 2E 3E 5E 8E24E25E36
  23614830.262   124096721.525    23614833.657    96698730.886                  
  23139964.121   121601326.515    23139965.444    94754280.349                  
  20923625.477   109954409.098    20923624.781    85678763.844                  
  20709127.388   108827158.843    20709129.746    84800373.688                  
  21707254.575   114072359.419    21707256.666    88887544.352                  
  24234731.220   127354370.148    24234732.185    99237173.126                  
  22206887.003   116697977.929    22206886.252    90933489.661                  
  22746649.986   119534423.434    22746651.755    93143700.343                  
  23257958.140   122221357.639    23257960.160    95237412.281                  
                 116438506.382                   116438506.382    22360785.393  
                 131189052.172                   131189052.172    25193475.832  
                 120594975.571                   120594975.571    23158996.507  
                 134806684.175                   134806684.175    25888241.100  
                 123218110.522                   123218110.522    23662743.438  
                 129639908.364                   129639908.364    24895981.045  
  24981779.176   131280111.609                                                  
  25204824.806   132452231.054                                                  
  27361354.972   143784876.906                                                  
  24346335.420   127940851.395                                                  
  27683318.581   145476859.378                                                  
  24412464.957   128288358.378                                                  
  25801012.124   135585179.235                                                  
 21  9  2  6 47 12.0000000  0 22G 1G 4G 7G 8G 9G14G21G27G30C24C25C26
                                C33C34C35E 2E 3E 5E 8E24E25E36
  23614202.058   124093420.341    23614205.453    96696158.539                  
  23140619.307   121604769.524    23140620.611    94756963.210                  
  20923259.359   109952485.141    20923258.662    85677264.657                  
  20709465.184   108828933.973    20709467.542    84801756.906                  
  21707664.259   114074512.230    21707666.313    88889221.867                  
  24234327.791   127352250.185    24234328.756    99235521.202                  
  22206529.140   116696097.346    22206528.407    90932024.274                  
  22747268.862   119537675.675    22747270.649    93146234.559                  
  23257389.655   122218370.192    23257391.657    95235084.398                  
                 116437894.057                   116437894.057    22360667.815  
                 131186777.070                   131186777.070    25193038.917  
                 120596301.603                   120596301.603    23159251.158  
                 134808616.796                   134808616.796    25888612.239  
                 123215245.163                   123215245.163    23662193.179  
                 129642469.407                   129642469.407    24896472.854  
  24981599.289   131279166.194                                                  
  25205179.113   132454092.997                                                  
  27361901.014   143787746.383                                                  
  24346246.003   127940381.414                                                  
  27683603.932   145478358.980                                                  
  24412546.994   128288789.563                                                  
  25800505.751   135582518.274                                                  
 21  9  2  6 47 13.0000000  0 22G 1G 4G 7G 8G 9G14G21G27G30C24C25C26
                                C33C34C35E 2E 3E 5E 8E24E25E36
  23613573.855   124090119.157    23613577.286    96693586.188                  
  23141274.492   121608212.679    23141275.833    94759646.191                  
  20922893.294   109950561.470    20922892.597    85675765.692                  
  20709803.087   108830709.613    20709805.428    84803140.522                  
  21708073.995   114076665.496    21708076.086    88890899.735                  
  24233924.398   127350130.313    24233925.363    99233869.356                  
  22206171.349   116694217.169    22206170.616    90930559.199                  
  22747887.773   119540928.176    22747889.578    93148768.973                  
  23256821.152   122215382.794    23256823.171    95232756.558                  
                 116437281.907                   116437281.907    22360550.254  
                 131184501.934                   131184501.934    25192602.001  
                 120597627.843                   120597627.843    23159505.864  
                 134810549.577                   134810549.577    25888983.415  
                 123212380.078                   123212380.078    23661642.956  
                 129645030.762                   129645030.762    24896964.734  
  24981419.366   131278220.794                                                  
  25205533.474   132455955.247                                                  
  27362447.056   143790615.810                                                  
  24346156.640   127939911.890                                                  
  27683889.300   145479858.572                                                  
  24412629.066   128289220.766                                                  
  25799999.415   135579857.477                                                  
 21  9  2  6 47 14.0000000  0 22G 1G 4G 7G 8G 9G14G21G27G30C24C25C26
                                C33C34C35E 2E 3E 5E 8E24E25E36
  23612945.687   124086817.987    23612949.082    96691013.851                  
  23141929.732   121611655.964    23141931.072    94762329.265                  
  20922527.283   109948638.083    20922526.604    85674266.949                  
  20710141.061   108832485.750    20710143.420    84804524.527                  
  21708483.839   114078819.223    21708485.912    88892577.961                  
  24233521.023   127348010.538    24233521.988    99232217.586                  
  22205813.646   116692337.358    22205812.896    90929094.414                  
  22748506.756   119544180.933    22748508.561    93151303.589                  
  23256252.703   122212395.464    23256254.722    95230428.770                  
                 116436669.923                   116436669.923    22360432.712  
                 131182226.763                   131182226.763    25192165.086  
                 120598954.296                   120598954.296    23159760.586  
                 134812482.516                   134812482.516    25889354.626  
                 123209515.269                   123209515.269    23661092.805  
                 129647592.421                   129647592.421    24897456.686  
  24981239.460   131277275.406                                                  
  25205887.924   132457817.780                                                  
  27362993.079   143793485.164                                                  
  24346067.384   127939442.813                                                  
  27684174.668   145481358.148                                                  
  24412711.121   128289651.983                                                  
  25799493.114   135577196.813                                                  
 21  9  2  6 47 15.0000000  0 22G 1G 4G 7G 8G 9G14G21G27G30C24C25C26
                                C33C34C35E 2E 3E 5E 8E24E25E36
  23612317.484   124083516.797    23612320.897    96688441.481                  
  23142585.007   121615099.378    23142586.347    94765012.441                  
  20922161.343   109946714.980    20922160.646    85672768.425                  
  20710479.143   108834262.344    20710481.502    84805908.868                  
  21708893.772   114080973.469    21708895.845    88894256.628                  
  24233117.665   127345890.874    24233118.613    99230565.907                  
  22205455.998   116690457.976    22205455.265    90927629.974                  
  22749125.775   119547433.995    22749127.580    93153838.472                  
  23255684.236   122209408.161    23255686.255    95228100.981                  
                 116436058.111                   116436058.111    22360315.241  
                 131179951.551                   131179951.551    25191728.152  
                 120600280.958                   120600280.958    23160015.363  
                 134814415.614                   134814415.614    25889725.837  
                 123206650.736                   123206650.736    23660542.707  
                 129650154.395                   129650154.395    24897948.674  
  24981059.555   131276329.977                                                  
  25206242.391   132459680.547                                                  
  27363539.085   143796354.511                                                  
  24345978.200   127938974.208                                                  
  27684460.019   145482857.719                                                  
  24412793.175   128290083.235                                                  
  25798986.849   135574536.307                                                  
 21  9  2  6 47 16.0000000  0 22G 1G 4G 7G 8G 9G14G21G27G30C24C25C26
                                C33C34C35E 2E 3E 5E 8E24E25E36
  23611689.281   124080215.640    23611692.694    96685869.153                  
  23143240.299   121618542.941    23143241.622    94767695.739                  
  20921795.439   109944792.171    20921794.742    85671270.137                  
  20710817.315   108836039.481    20710819.673    84807293.653                  
  21709303.777   114083128.108    21709305.868    88895935.570                  
  24232714.326   127343771.290    24232715.273    99228914.280                  
  22205098.421   116688578.964    22205097.706    90926165.808                  
  22749744.865   119550687.251    22749746.652    93156373.477                  
  23255115.804   122206420.936    23255117.806    95225773.278                  
                 116435446.470                   116435446.470    22360197.788  
                 131177676.301                   131177676.301    25191291.219  
                 120601607.832                   120601607.832    23160270.157  
                 134816348.872                   134816348.872    25890097.119  
                 123203786.476                   123203786.476    23659992.663  
                 129652716.671                   129652716.671    24898440.733  
  24980879.685   131275384.632                                                  
  25206596.949   132461543.684                                                  
  27364085.073   143799223.747                                                  
  24345889.123   127938506.031                                                  
  27684745.387   145484357.286                                                  
  24412875.248   128290514.491                                                  
  25798480.584   135571875.945                                                  
 21  9  2  6 47 17.0000000  0 22G 1G 4G 7G 8G 9G14G21G27G30C24C25C26
                                C33C34C35E 2E 3E 5E 8E24E25E36
  23611061.095   124076914.497    23611064.526    96683296.836                  
  23143895.592   121621986.640    23143896.932    94770379.140                  
  20921429.589   109942869.641    20921428.892    85669772.063                  
  20711155.593   108837817.120    20711157.934    84808678.824                  
  21709713.871   114085283.208    21709715.962    88897614.867                  
  24232311.004   127341651.802    24232311.933    99227262.734                  
  22204740.933   116686700.344    22204740.201    90924701.949                  
  22750363.973   119553940.759    22750365.778    93158908.676                  
  23254547.355   122203433.788    23254549.374    95223445.625                  
                 116434834.997                   116434834.997    22360080.353  
                 131175401.019                   131175401.019    25190854.286  
                 120602934.913                   120602934.913    23160525.023  
                 134818282.290                   134818282.290    25890468.402  
                 123200922.495                   123200922.495    23659442.654  
                 129655279.261                   129655279.261    24898932.864  
  24980699.780   131274439.297                                                  
  25206951.541   132463407.130                                                  
  27364631.061   143802092.913                                                  
  24345800.100   127938038.298                                                  
  27685030.720   145485856.837                                                  
  24412957.320   128290945.781                                                  
  25797974.354   135569215.759                                                  
 21  9  2  6 47 18.0000000  0 22G 1G 4G 7G 8G 9G14G21G27G30C24C25C26
                                C33C34C35E 2E 3E 5E 8E24E25E36
  23610432.927   124073613.348    23610436.323    96680724.512                  
  23144550.957   121625430.485    23144552.279    94773062.652                  
  20921063.792   109940947.407    20921063.095    85668274.214                  
  20711493.979   108839595.281    20711496.320    84810064.402                  
  21710124.073   114087438.766    21710126.163    88899294.520                  
  24231907.700   127339532.414    24231908.647    99225611.263                  
  22204383.517   116684822.098    22204382.784    90923238.378                  
  22750983.153   119557194.516    22750984.939    93161444.071                  
  23253978.941   122200446.693    23253980.943    95221118.016                  
                 116434223.696                   116434223.696    22359962.953  
                 131173125.699                   131173125.699    25190417.317  
                 120604262.206                   120604262.206    23160779.925  
                 134820215.868                   134820215.868    25890839.720  
                 123198058.788                   123198058.788    23658892.699  
                 129657842.156                   129657842.156    24899425.049  
  24980519.875   131273493.970                                                  
  25207306.206   132465270.859                                                  
  27365177.031   143804962.014                                                  
  24345711.183   127937571.004                                                  
  27685316.088   145487356.378                                                  
  24413039.392   128291377.087                                                  
  25797468.178   135566555.708                                                  
 21  9  2  6 47 19.0000000  0 22G 1G 4G 7G 8G 9G14G21G27G30C24C25C26
                                C33C34C35E 2E 3E 5E 8E24E25E36
  23609804.742   124070312.220    23609808.137    96678152.200                  
  23145206.321   121628874.465    23145207.661    94775746.270                  
  20920698.067   109939025.455    20920697.388    85666776.587                  
  20711832.436   108841373.956    20711834.795    84811450.380                  
  21710534.363   114089594.782    21710536.436    88900974.528                  
  24231504.396   127337413.132    24231505.361    99223959.872                  
  22204026.172   116682944.262    22204025.440    90921775.125                  
  22751602.386   119560448.535    22751604.155    93163979.668                  
  23253410.528   122197459.656    23253412.547    95218790.453                  
                 116433612.561                   116433612.561    22359845.607  
                 131170850.339                   131170850.339    25189980.365  
                 120605589.711                   120605589.711    23161034.844  
                 134822149.600                   134822149.600    25891211.074  
                 123195195.360                   123195195.360    23658342.816  
                 129660405.363                   129660405.363    24899917.287  
  24980340.005   131272548.667                                                  
  25207660.924   132467134.897                                                  
  27365723.001   143807831.054                                                  
  24345622.338   127937104.169                                                  
  27685601.438   145488855.913                                                  
  24413121.483   128291808.406                                                  
  25796962.020   135563895.812                                                  
 21  9  2  6 47 20.0000000  0 22G 1G 4G 7G 8G 9G14G21G27G30C24C25C26
                                C33C34C35E 2E 3E 5E 8E24E25E36
  23609176.556   124067011.100    23609179.952    96675579.894                  
  23145861.721   121632318.595    23145863.043    94778430.001                  
  20920332.377   109937103.790    20920331.698    85665279.183                  
  20712171.018   108843153.133    20712173.359    84812836.746                  
  21710944.725   114091751.258    21710946.798    88902654.899                  
  24231101.146   127335293.941    24231102.075    99222308.552                  
  22203668.917   116681066.820    22203668.184    90920312.180                  
  22752221.637   119563702.806    22752223.441    93166515.457                  
  23252842.114   122194472.687    23252844.133    95216462.944                  
                 116433001.601                   116433001.601    22359728.261  
                 131168574.949                   131168574.949    25189543.396  
                 120606917.429                   120606917.429    23161289.817  
                 134824083.492                   134824083.492    25891582.464  
                 123192332.202                   123192332.202    23657792.986  
                 129662968.874                   129662968.874    24900409.578  
  24980160.118   131271603.375                                                  
  25208015.677   132468999.226                                                  
  27366268.936   143810700.023                                                  
  24345533.601   127936637.773                                                  
  27685886.789   145490355.434                                                  
  24413203.555   128292239.753                                                  
  25796455.880   135561236.069                                                  
 21  9  2  6 47 21.0000000  0 22G 1G 4G 7G 8G 9G14G21G27G30C24C25C26
                                C33C34C35E 2E 3E 5E 8E24E25E36
  23608548.389   124063709.995    23608551.784    96673007.605                  
  23146517.139   121635762.851    23146518.461    94781113.839                  
  20919966.759   109935182.419    20919966.062    85663782.009                  
  20712509.672   108844932.808    20712512.013    84814223.504                  
  21711355.159   114093908.183    21711357.232    88904335.617                  
  24230697.878   127333174.856    24230698.843    99220657.312                  
  22203311.715   116679189.762    22203310.983    90918849.535                  
  22752840.959   119566957.320    22752842.746    93169051.444                  
  23252273.718   122191485.782    23252275.737    95214135.484                  
                 116432390.809                   116432390.809    22359610.951  
                 131166299.519                   131166299.519    25189106.427  
                 120608245.356                   120608245.356    23161544.844  
                 134826017.547                   134826017.547    25891953.872  
                 123189469.324                   123189469.324    23657243.192  
                 129665532.695                   129665532.695    24900901.923  
  24979980.248   131270658.090                                                  
  25208370.503   132470863.848                                                  
  27366814.888   143813568.934                                                  
  24345444.917   127936171.824                                                  
  27686172.121   145491854.937                                                  
  24413285.645   128292671.117                                                  
  25795949.776   135558576.476                                                  
 21  9  2  6 47 22.0000000  0 22G 1G 4G 7G 8G 9G14G21G27G30C24C25C26
                                C33C34C35E 2E 3E 5E 8E24E25E36
  23607920.203   124060408.891    23607923.598    96670435.315                  
  23147172.575   121639207.254    23147173.915    94783797.789                  
  20919601.177   109933261.332    20919600.498    85662285.058                  
  20712848.415   108846712.989    20712850.774    84815610.660                  
  21711765.700   114096065.578    21711767.772    88906016.704                  
  24230294.664   127331055.870    24230295.593    99219006.156                  
  22202954.603   116677313.097    22202953.888    90917387.204                  
  22753460.317   119570212.102    22753462.122    93171587.638                  
  23251705.340   122188498.930    23251707.360    95211808.067                  
                 116431780.188                   116431780.188    22359493.695  
                 131164024.051                   131164024.051    25188669.440  
                 120609573.489                   120609573.489    23161799.889  
                 134827951.759                   134827951.759    25892325.315  
                 123186606.721                   123186606.721    23656693.451  
                 129668096.823                   129668096.823    24901394.340  
  24979800.361   131269712.822                                                  
  25208725.399   132472728.769                                                  
  27367360.805   143816437.765                                                  
  24345356.340   127935706.324                                                  
  27686457.472   145493354.440                                                  
  24413367.718   128293102.489                                                  
  25795443.707   135555917.032                                                  
 21  9  2  6 47 23.0000000  0 22G 1G 4G 7G 8G 9G14G21G27G30C24C25C26
                                C33C34C35E 2E 3E 5E 8E24E25E36
  23607292.018   124057107.792    23607295.413    96667863.031                  
  23147828.064   121642651.797    23147829.404    94786481.847                  
  20919235.684   109931340.530    20919234.987    85660788.332                  
  20713187.283   108848493.671    20713189.624    84816998.202                  
  21712176.348   114098223.436    21712178.420    88907698.152                  
  24229891.431   127328936.975    24229892.396    99217355.069                  
  22202597.562   116675436.825    22202596.811    90915925.171                  
  22754079.747   119573467.124    22754081.516    93174124.019                  
  23251136.980   122185512.146    23251139.000    95209480.703                  
                 116431169.739                   116431169.739    22359376.474  
                 131161748.545                   131161748.545    25188232.453  
                 120610901.835                   120610901.835    23162054.987  
                 134829886.125                   134829886.125    25892696.794  
                 123183744.398                   123183744.398    23656143.782  
                 129670661.262                   129670661.262    24901886.828  
  24979620.473   131268767.565                                                  
  25209080.314   132474593.983                                                  
  27367906.703   143819306.534                                                  
  24345267.835   127935241.266                                                  
  27686742.822   145494853.929                                                  
  24413449.826   128293533.886                                                  
  25794937.657   135553257.735                                                  
 21  9  2  6 47 24.0000000  0 22G 1G 4G 7G 8G 9G14G21G27G30C24C25C26
                                C33C34C35E 2E 3E 5E 8E24E25E36
  23606663.832   124053806.710    23606667.245    96665290.762                  
  23148483.553   121646096.470    23148484.893    94789166.007                  
  20918870.227   109929420.013    20918869.512    85659291.825                  
  20713526.223   108850274.848    20713528.582    84818386.133                  
  21712587.031   114100381.750    21712589.122    88909379.952                  
  24229488.235   127326818.183    24229489.200    99215704.067                  
  22202240.592   116673560.950    22202239.860    90914463.450                  
  22754699.195   119576722.399    22754700.982    93176660.594                  
  23250568.620   122182525.423    23250570.639    95207153.386                  
                 116430559.456                   116430559.456    22359259.289  
                 131159473.008                   131159473.008    25187795.466  
                 120612230.396                   120612230.396    23162310.121  
                 134831820.651                   134831820.651    25893068.291  
                 123180882.349                   123180882.349    23655594.167  
