% program   : rnx2rtkp ver.2.4.3 b31
% inp file  : ngs/21_08_31_07_17_53_txlm.obs
% inp file  : ngs/21_08_31_07_17_53_txlm_VZ.obs
% inp file  : ngs/21_08_31_07_17_53_brdc.nav
% obs start : 2021/08/31 07:00:00.0 GPST (week2173 198000.0s)
% obs end   : 2021/08/31 07:59:59.0 GPST (week2173 201599.0s)
% ref pos   :  -496253.4887  -5531225.9222   3126303.8519
%
% (x/y/z-ecef=WGS84,Q=1:fix,2:float,3:sbas,4:dgps,5:single,6:ppp,ns=# of satellites)
%  GPST              x-ecef(m)      y-ecef(m)      z-ecef(m)   Q  ns   sdx(m)   sdy(m)   sdz(m)  sdxy(m)  sdyz(m)  sdzx(m) age(s)  ratio
2173 199062.000   -487016.9087  -5540251.7492   3111842.8811   2   9   0.4328   1.2809   0.5114   0.3831  -0.6536  -0.1888 -30.00    1.1
2173 199063.000   -487016.9362  -5540251.9614   3111842.9430   2   9   0.3080   0.9105   0.3639   0.2724  -0.4648  -0.1345 -29.00    1.0
2173 199064.000   -487016.9776  -5540252.0749   3111843.0305   2   9   0.2522   0.7454   0.2980   0.2229  -0.3806  -0.1102 -28.00    1.1
2173 199065.000   -487016.9802  -5540252.2333   3111843.0766   2   9   0.2188   0.6467   0.2585   0.1934  -0.3302  -0.0956 -27.00    1.1
2173 199066.000   -487016.9739  -5540252.1977   3111843.0403   2   9   0.1959   0.5793   0.2315   0.1732  -0.2957  -0.0856 -26.00    1.2
2173 199067.000   -487016.9597  -5540252.1662   3111843.0402   2   9   0.1790   0.5294   0.2116   0.1583  -0.2703  -0.0782 -25.00    1.2
2173 199068.000   -487016.9326  -5540252.1681   3111843.0429   2   9   0.1658   0.4905   0.1960   0.1466  -0.2504  -0.0725 -24.00    1.2
2173 199069.000   -487016.9252  -5540252.1426   3111843.0294   2   9   0.1552   0.4591   0.1835   0.1372  -0.2344  -0.0678 -23.00    1.2
2173 199070.000   -487016.9275  -5540252.1430   3111843.0244   2   9   0.1464   0.4330   0.1731   0.1294  -0.2211  -0.0640 -22.00    1.2
2173 199071.000   -487016.9356  -5540252.1491   3111843.0246   2   9   0.1389   0.4109   0.1642   0.1228  -0.2098  -0.0607 -21.00    1.3
2173 199072.000   -487016.9485  -5540252.1948   3111843.0328   2   9   0.1325   0.3918   0.1566   0.1170  -0.2000  -0.0579 -20.00    1.3
2173 199073.000   -487016.9483  -5540252.2067   3111843.0296   2   9   0.1268   0.3751   0.1499   0.1120  -0.1915  -0.0554 -19.00    1.4
2173 199074.000   -487016.9516  -5540252.2134   3111843.0243   2   9   0.1218   0.3603   0.1441   0.1076  -0.1840  -0.0532 -18.00    1.4
2173 199075.000   -487016.9494  -5540252.2074   3111843.0160   2   9   0.1174   0.3471   0.1388   0.1036  -0.1772  -0.0513 -17.00    1.5
2173 199076.000   -487016.9518  -5540252.2566   3111843.0354   2   9   0.1134   0.3352   0.1341   0.1000  -0.1712  -0.0495 -16.00    1.5
2173 199077.000   -487016.9552  -5540252.2544   3111843.0373   2   9   0.1098   0.3244   0.1298   0.0968  -0.1656  -0.0479 -15.00    1.6
2173 199078.000   -487016.9578  -5540252.2621   3111843.0343   2   9   0.1065   0.3145   0.1258   0.0938  -0.1606  -0.0464 -14.00    1.7
2173 199079.000   -487016.9599  -5540252.2561   3111843.0400   2   9   0.1034   0.3054   0.1222   0.0911  -0.1560  -0.0451 -13.00    1.8
2173 199080.000   -487016.9530  -5540252.2421   3111843.0413   2   9   0.1006   0.2970   0.1189   0.0886  -0.1517  -0.0439 -12.00    1.8
2173 199081.000   -487016.9489  -5540252.2372   3111843.0441   2   9   0.0980   0.2892   0.1158   0.0863  -0.1477  -0.0427 -11.00    1.9
2173 199082.000   -487016.9450  -5540252.2523   3111843.0516   2   9   0.0956   0.2820   0.1130   0.0841  -0.1440  -0.0416 -10.00    2.0
2173 199083.000   -487016.9398  -5540252.2632   3111843.0590   2   9   0.0934   0.2752   0.1103   0.0821  -0.1405  -0.0406  -9.00    2.2
2173 199084.000   -487016.9438  -5540252.2883   3111843.0645   2   9   0.0913   0.2689   0.1078   0.0801  -0.1373  -0.0397  -8.00    2.4
2173 199085.000   -487016.9402  -5540252.3007   3111843.0673   2   9   0.0893   0.2629   0.1055   0.0784  -0.1342  -0.0388  -7.00    2.6
2173 199086.000   -487016.9434  -5540252.3000   3111843.0689   2   9   0.0875   0.2573   0.1032   0.0767  -0.1314  -0.0380  -6.00    2.9
2173 199087.000   -487017.1760  -5540252.0428   3111843.0964   1   9   0.0057   0.0184   0.0070   0.0055  -0.0093  -0.0027  -5.00    3.4
2173 199088.000   -487017.1786  -5540252.0434   3111843.0962   1   9   0.0052   0.0167   0.0064   0.0049  -0.0085  -0.0021  -4.00    3.9
2173 199089.000   -487017.1793  -5540252.0547   3111843.1011   1   9   0.0050   0.0151   0.0062   0.0045  -0.0077  -0.0018  -3.00    4.5
2173 199090.000   -487017.1803  -5540252.0582   3111843.1003   1   9   0.0045   0.0140   0.0055   0.0041  -0.0071  -0.0018  -2.00    5.3
2173 199091.000   -487017.1817  -5540252.0601   3111843.1001   1   9   0.0046   0.0132   0.0056   0.0040  -0.0066  -0.0026  -1.00    6.1
2173 199092.000   -487017.1798  -5540252.0631   3111843.1024   1   9   0.0045   0.0129   0.0056   0.0039  -0.0066  -0.0022   0.00    6.7
2173 199093.000   -487017.1813  -5540252.0663   3111843.1050   1   9   0.0043   0.0129   0.0052   0.0038  -0.0066  -0.0019   0.00    7.4
2173 199094.000   -487017.1818  -5540252.0647   3111843.1052   1   9   0.0044   0.0129   0.0054   0.0038  -0.0066  -0.0019   0.00    7.8
2173 199095.000   -487017.1815  -5540252.0650   3111843.1046   1   9   0.0042   0.0129   0.0054   0.0038  -0.0065  -0.0023   0.00    8.2
2173 199096.000   -487017.1813  -5540252.0653   3111843.1057   1   9   0.0045   0.0129   0.0052   0.0039  -0.0066  -0.0018   0.00    8.5
2173 199097.000   -487017.1813  -5540252.0650   3111843.1040   1   9   0.0044   0.0129   0.0053   0.0038  -0.0067  -0.0014   0.00    8.6
2173 199098.000   -487017.1832  -5540252.0621   3111843.1038   1   9   0.0046   0.0129   0.0053   0.0038  -0.0066  -0.0018   0.00    8.7
2173 199099.000   -487017.1804  -5540252.0601   3111843.1030   1   9   0.0043   0.0129   0.0047   0.0038  -0.0066  -0.0004   0.00    8.7
2173 199100.000   -487017.1798  -5540252.0646   3111843.1036   1   9   0.0043   0.0129   0.0051   0.0039  -0.0066  -0.0022   0.00    8.8
2173 199101.000   -487017.1805  -5540252.0659   3111843.1040   1   9   0.0044   0.0129   0.0054   0.0040  -0.0066  -0.0021   0.00    9.0
2173 199102.000   -487017.1790  -5540252.0651   3111843.1055   1   9   0.0039   0.0129   0.0050   0.0038  -0.0065  -0.0015   0.00    9.0
2173 199103.000   -487017.1790  -5540252.0625   3111843.1038   1   9   0.0042   0.0129   0.0048   0.0039  -0.0065  -0.0021   0.00    9.0
2173 199104.000   -487017.1808  -5540252.0625   3111843.1036   1   9   0.0042   0.0129   0.0048   0.0039  -0.0065  -0.0016   0.00    8.8
2173 199105.000   -487017.1785  -5540252.0661   3111843.1051   1   9   0.0043   0.0129   0.0050   0.0037  -0.0066  -0.0015   0.00    8.7
2173 199106.000   -487017.1818  -5540252.0623   3111843.1047   1   9   0.0043   0.0129   0.0052   0.0038  -0.0066  -0.0014   0.00    8.8
2173 199107.000   -487017.1822  -5540252.0650   3111843.1059   1   9   0.0044   0.0129   0.0054   0.0038  -0.0066  -0.0020   0.00    8.8
2173 199108.000   -487017.1801  -5540252.0629   3111843.1042   1   9   0.0042   0.0129   0.0049   0.0040  -0.0066  -0.0019   0.00    8.9
2173 199109.000   -487017.1803  -5540252.0610   3111843.1029   1   9   0.0048   0.0129   0.0051   0.0038  -0.0066  -0.0017   0.00    8.9
2173 199110.000   -487017.1819  -5540252.0663   3111843.1051   1   9   0.0044   0.0129   0.0052   0.0037  -0.0065  -0.0019   0.00    8.7
2173 199111.000   -487017.1794  -5540252.0624   3111843.1051   1   9   0.0046   0.0129   0.0050   0.0038  -0.0066  -0.0022   0.00    8.7
2173 199112.000   -487017.1801  -5540252.0618   3111843.1046   1   9   0.0043   0.0129   0.0048   0.0039  -0.0066  -0.0017   0.00    8.7
2173 199113.000   -487017.1795  -5540252.0653   3111843.1057   1   9   0.0042   0.0129   0.0051   0.0039  -0.0065  -0.0022   0.00    8.7
2173 199114.000   -487017.1793  -5540252.0645   3111843.1048   1   9   0.0042   0.0129   0.0053   0.0040  -0.0065  -0.0026   0.00    8.7
2173 199115.000   -487017.1805  -5540252.0648   3111843.1054   1   9   0.0044   0.0129   0.0052   0.0039  -0.0066  -0.0022   0.00    8.7
2173 199116.000   -487017.1791  -5540252.0595   3111843.1036   1   9   0.0040   0.0129   0.0048   0.0039  -0.0066  -0.0012   0.00    8.7
2173 199117.000   -487017.1803  -5540252.0634   3111843.1066   1   9   0.0044   0.0129   0.0056   0.0038  -0.0066  -0.0016   0.00    8.8
2173 199118.000   -487017.1786  -5540252.0596   3111843.1047   1   9   0.0044   0.0129   0.0051   0.0037  -0.0066  -0.0015   0.00    8.7
2173 199119.000   -487017.1799  -5540252.0648   3111843.1060   1   9   0.0044   0.0129   0.0048   0.0039  -0.0066  -0.0019   0.00    8.7
2173 199120.000   -487017.1782  -5540252.0608   3111843.1035   1   9   0.0042   0.0129   0.0051   0.0038  -0.0066  -0.0015   0.00    8.8
2173 199121.000   -487017.1780  -5540252.0619   3111843.1050   1   9   0.0041   0.0129   0.0053   0.0039  -0.0066  -0.0010   0.00    8.7
2173 199122.000   -487017.1810  -5540252.0639   3111843.1062   1   9   0.0044   0.0129   0.0052   0.0038  -0.0067  -0.0018   0.00    8.7
2173 199123.000   -487017.1794  -5540252.0658   3111843.1058   1   9   0.0044   0.0129   0.0055   0.0039  -0.0065  -0.0013   0.00    8.8
2173 199124.000   -487017.1792  -5540252.0584   3111843.1037   1   9   0.0042   0.0129   0.0048   0.0037  -0.0066  -0.0017   0.00    8.7
2173 199125.000   -487017.1785  -5540252.0594   3111843.1031   1   9   0.0046   0.0129   0.0052   0.0039  -0.0066  -0.0013   0.00    8.8
2173 199126.000   -487017.1779  -5540252.0645   3111843.1053   1   9   0.0045   0.0129   0.0052   0.0039  -0.0067  -0.0023   0.00    8.7
2173 199127.000   -487017.1782  -5540252.0644   3111843.1059   1   9   0.0044   0.0129   0.0053   0.0039  -0.0065  -0.0023   0.00    8.7
2173 199128.000   -487017.1789  -5540252.0606   3111843.1040   1   9   0.0044   0.0129   0.0058   0.0038  -0.0066   0.0005   0.00    8.7
2173 199129.000   -487017.1781  -5540252.0577   3111843.1048   1   9   0.0044   0.0129   0.0048   0.0038  -0.0066  -0.0018   0.00    8.6
2173 199130.000   -487017.1781  -5540252.0603   3111843.1050   1   9   0.0046   0.0129   0.0054   0.0039  -0.0067  -0.0019   0.00    8.6
2173 199131.000   -487017.1778  -5540252.0608   3111843.1039   1   9   0.0044   0.0129   0.0051   0.0041  -0.0065  -0.0026   0.00    8.6
2173 199132.000   -487017.1785  -5540252.0570   3111843.1048   1   9   0.0045   0.0129   0.0050   0.0037  -0.0066  -0.0021   0.00    8.6
2173 199133.000   -487017.1802  -5540252.0611   3111843.1052   1   9   0.0042   0.0129   0.0048   0.0040  -0.0066  -0.0021   0.00    8.6
2173 199134.000   -487017.1786  -5540252.0625   3111843.1056   1   9   0.0044   0.0129   0.0050   0.0038  -0.0066  -0.0023   0.00    8.5
2173 199135.000   -487017.1791  -5540252.0603   3111843.1055   1   9   0.0044   0.0129   0.0050   0.0039  -0.0066  -0.0018   0.00    8.5
2173 199136.000   -487017.1801  -5540252.0603   3111843.1033   1   9   0.0042   0.0129   0.0055   0.0039  -0.0066  -0.0020   0.00    8.5
2173 199137.000   -487017.1771  -5540252.0611   3111843.1032   1   8   0.0044   0.0131   0.0056   0.0041  -0.0068  -0.0024   0.00    8.4
2173 199138.000   -487017.1796  -5540252.0579   3111843.1034   1   8   0.0042   0.0131   0.0052   0.0040  -0.0070  -0.0021   0.00    8.4
2173 199139.000   -487017.1786  -5540252.0647   3111843.1050   1   8   0.0044   0.0131   0.0055   0.0042  -0.0068  -0.0025   0.00    8.3
2173 199140.000   -487017.1778  -5540252.0581   3111843.1016   1   8   0.0041   0.0131   0.0056   0.0041  -0.0070  -0.0021   0.00    8.4
2173 199141.000   -487017.1795  -5540252.0701   3111843.1066   1   8   0.0046   0.0131   0.0058   0.0037  -0.0070  -0.0026   0.00    8.3
2173 199142.000   -487017.1777  -5540252.0602   3111843.1025   1   8   0.0041   0.0131   0.0053   0.0041  -0.0069  -0.0012   0.00    8.3
2173 199143.000   -487017.1801  -5540252.0655   3111843.1044   1   8   0.0043   0.0131   0.0058   0.0039  -0.0068  -0.0029   0.00    8.2
2173 199144.000   -487017.1813  -5540252.0613   3111843.1025   1   8   0.0043   0.0131   0.0052   0.0041  -0.0070  -0.0023   0.00    8.2
2173 199145.000   -487017.1800  -5540252.0613   3111843.1035   1   8   0.0044   0.0131   0.0053   0.0040  -0.0069  -0.0015   0.00    8.2
2173 199146.000   -487017.1784  -5540252.0595   3111843.1027   1   8   0.0042   0.0131   0.0056   0.0042  -0.0069  -0.0021   0.00    8.2
2173 199147.000   -487017.1788  -5540252.0622   3111843.1009   1   8   0.0044   0.0131   0.0049   0.0038  -0.0070  -0.0020   0.00    8.2
2173 199148.000   -487017.1774  -5540252.0609   3111843.1015   1   8   0.0044   0.0131   0.0052   0.0038  -0.0069  -0.0021   0.00    8.1
2173 199149.000   -487017.1765  -5540252.0573   3111843.1006   1   8   0.0041   0.0131   0.0057   0.0040  -0.0068  -0.0024   0.00    8.1
2173 199150.000   -487017.1786  -5540252.0567   3111843.1011   1   8   0.0043   0.0131   0.0053   0.0040  -0.0069  -0.0022   0.00    8.1
2173 199151.000   -487017.1801  -5540252.0683   3111843.1061   1   8   0.0046   0.0131   0.0054   0.0039  -0.0070  -0.0021   0.00    8.1
2173 199152.000   -487017.1790  -5540252.0644   3111843.1052   1   8   0.0045   0.0131   0.0056   0.0037  -0.0069  -0.0019   0.00    8.1
2173 199153.000   -487017.1788  -5540252.0653   3111843.1044   1   8   0.0043   0.0131   0.0056   0.0040  -0.0070  -0.0021   0.00    8.1
2173 199154.000   -487017.1768  -5540252.0554   3111843.1010   1   8   0.0043   0.0131   0.0054   0.0042  -0.0069  -0.0015   0.00    8.0
2173 199155.000   -487017.1781  -5540252.0597   3111843.1027   1   8   0.0046   0.0131   0.0051   0.0040  -0.0070  -0.0014   0.00    8.0
2173 199156.000   -487017.1770  -5540252.0622   3111843.1024   1   8   0.0045   0.0131   0.0058   0.0040  -0.0070  -0.0017   0.00    8.0
2173 199157.000   -487017.1779  -5540252.0623   3111843.1042   1   8   0.0040   0.0131   0.0050   0.0038  -0.0070  -0.0022   0.00    7.9
2173 199158.000   -487017.1784  -5540252.0649   3111843.1047   1   8   0.0044   0.0131   0.0058   0.0040  -0.0069  -0.0023   0.00    7.9
2173 199159.000   -487017.1762  -5540252.0582   3111843.1023   1   8   0.0045   0.0131   0.0053   0.0041  -0.0069  -0.0022   0.00    7.8
2173 199160.000   -487017.1783  -5540252.0654   3111843.1027   1   8   0.0042   0.0131   0.0050   0.0038  -0.0069  -0.0020   0.00    7.8
2173 199161.000   -487017.1799  -5540252.0612   3111843.1022   1   8   0.0046   0.0131   0.0055   0.0039  -0.0070  -0.0021   0.00    7.8
2173 199162.000   -487017.1766  -5540252.0616   3111843.1030   1   8   0.0043   0.0131   0.0059   0.0038  -0.0069  -0.0021   0.00    7.8
2173 199163.000   -487017.1757  -5540252.0583   3111843.1030   1   8   0.0042   0.0131   0.0060   0.0039  -0.0069  -0.0015   0.00    7.8
2173 199164.000   -487017.1789  -5540252.0642   3111843.1034   1   8   0.0044   0.0131   0.0057   0.0040  -0.0070  -0.0024   0.00    7.8
2173 199165.000   -487017.1785  -5540252.0658   3111843.1039   1   8   0.0045   0.0131   0.0055   0.0041  -0.0070  -0.0015   0.00    7.8
2173 199166.000   -487017.1797  -5540252.0626   3111843.1040   1   8   0.0046   0.0131   0.0058   0.0039  -0.0068  -0.0016   0.00    7.8
2173 199167.000   -487017.1780  -5540252.0595   3111843.1016   1   8   0.0043   0.0131   0.0055   0.0040  -0.0071  -0.0022   0.00    7.8
2173 199168.000   -487017.1776  -5540252.0612   3111843.1040   1   8   0.0043   0.0131   0.0054   0.0041  -0.0069  -0.0018   0.00    7.8
2173 199169.000   -487017.1780  -5540252.0621   3111843.1045   1   8   0.0044   0.0131   0.0055   0.0039  -0.0070  -0.0014   0.00    7.8
2173 199170.000   -487017.1783  -5540252.0668   3111843.1045   1   8   0.0043   0.0131   0.0058   0.0039  -0.0068  -0.0021   0.00    7.7
2173 199171.000   -487017.1797  -5540252.0693   3111843.1071   1   8   0.0044   0.0131   0.0055   0.0039  -0.0071  -0.0019   0.00    7.7
2173 199172.000   -487017.1781  -5540252.0654   3111843.1044   1   8   0.0044   0.0131   0.0057   0.0038  -0.0070  -0.0026   0.00    7.7
2173 199173.000   -487017.1785  -5540252.0651   3111843.1031   1   8   0.0045   0.0131   0.0056   0.0039  -0.0069  -0.0024   0.00    7.7
2173 199174.000   -487017.1771  -5540252.0704   3111843.1052   1   8   0.0043   0.0131   0.0056   0.0038  -0.0069  -0.0025   0.00    7.6
2173 199175.000   -487017.1805  -5540252.0692   3111843.1038   1   8   0.0044   0.0131   0.0051   0.0039  -0.0069  -0.0016   0.00    7.6
2173 199176.000   -487017.1817  -5540252.0679   3111843.1043   1   8   0.0045   0.0131   0.0058   0.0039  -0.0069  -0.0024   0.00    7.6
2173 199177.000   -487017.1796  -5540252.0721   3111843.1043   1   8   0.0041   0.0131   0.0056   0.0039  -0.0071  -0.0013   0.00    7.6
2173 199178.000   -487017.1795  -5540252.0678   3111843.1036   1   8   0.0043   0.0131   0.0060   0.0040  -0.0070  -0.0025   0.00    7.6
2173 199179.000   -487017.1792  -5540252.0732   3111843.1051   1   8   0.0045   0.0131   0.0053   0.0040  -0.0070  -0.0020   0.00    7.6
2173 199180.000   -487017.1813  -5540252.0722   3111843.1055   1   8   0.0044   0.0131   0.0060   0.0040  -0.0069  -0.0021   0.00    7.6
2173 199181.000   -487017.1794  -5540252.0734   3111843.1060   1   8   0.0043   0.0131   0.0057   0.0038  -0.0068  -0.0021   0.00    7.5
2173 199182.000   -487017.1796  -5540252.0720   3111843.1061   1   8   0.0042   0.0131   0.0051   0.0039  -0.0069  -0.0013   0.00    7.5
2173 199183.000   -487017.1775  -5540252.0678   3111843.1045   1   8   0.0041   0.0131   0.0054   0.0039  -0.0070  -0.0025   0.00    7.4
2173 199184.000   -487017.1796  -5540252.0721   3111843.1054   1   8   0.0044   0.0131   0.0054   0.0039  -0.0070  -0.0006   0.00    7.4
2173 199185.000   -487017.1816  -5540252.0772   3111843.1057   1   8   0.0044   0.0131   0.0055   0.0038  -0.0071  -0.0027   0.00    7.4
2173 199186.000   -487017.1798  -5540252.0692   3111843.1051   1   8   0.0044   0.0132   0.0053   0.0038  -0.0069  -0.0013   0.00    7.4
2173 199187.000   -487017.1811  -5540252.0748   3111843.1066   1   8   0.0042   0.0131   0.0057   0.0038  -0.0068  -0.0021   0.00    7.3
2173 199188.000   -487017.1802  -5540252.0675   3111843.1044   1   8   0.0044   0.0131   0.0056   0.0041  -0.0069  -0.0027   0.00    7.3
2173 199189.000   -487017.1805  -5540252.0652   3111843.1048   1   8   0.0045   0.0131   0.0055   0.0041  -0.0069  -0.0017   0.00    7.3
2173 199190.000   -487017.1804  -5540252.0727   3111843.1054   1   8   0.0045   0.0131   0.0056   0.0040  -0.0069  -0.0029   0.00    7.3
2173 199191.000   -487017.1805  -5540252.0702   3111843.1055   1   8   0.0045   0.0131   0.0062   0.0038  -0.0069  -0.0021   0.00    7.3
2173 199192.000   -487017.1814  -5540252.0660   3111843.1047   1   8   0.0044   0.0131   0.0056   0.0039  -0.0069  -0.0018   0.00    7.3
2173 199193.000   -487017.1825  -5540252.0728   3111843.1070   1   8   0.0042   0.0131   0.0056   0.0041  -0.0069  -0.0016   0.00    7.3
2173 199194.000   -487017.1818  -5540252.0707   3111843.1077   1   8   0.0048   0.0131   0.0060   0.0038  -0.0070  -0.0023   0.00    7.3
2173 199195.000   -487017.1807  -5540252.0690   3111843.1074   1   8   0.0044   0.0131   0.0055   0.0038  -0.0069  -0.0023   0.00    7.3
2173 199196.000   -487017.1825  -5540252.0743   3111843.1060   1   8   0.0044   0.0131   0.0053   0.0041  -0.0070  -0.0021   0.00    7.2
2173 199197.000   -487017.1818  -5540252.0721   3111843.1068   1   8   0.0042   0.0131   0.0053   0.0038  -0.0069  -0.0021   0.00    7.2
2173 199198.000   -487017.1837  -5540252.0749   3111843.1076   1   8   0.0044   0.0131   0.0053   0.0040  -0.0070  -0.0024   0.00    7.2
2173 199199.000   -487017.1824  -5540252.0740   3111843.1085   1   8   0.0040   0.0131   0.0052   0.0039  -0.0069  -0.0018   0.00    7.1
2173 199200.000   -487017.1817  -5540252.0743   3111843.1068   1   8   0.0046   0.0131   0.0051   0.0040  -0.0070  -0.0019   0.00    7.1
2173 199201.000   -487017.1800  -5540252.0652   3111843.1060   1   8   0.0043   0.0131   0.0056   0.0039  -0.0070  -0.0025   0.00    7.1
2173 199202.000   -487017.1838  -5540252.0790   3111843.1095   1   8   0.0047   0.0131   0.0055   0.0041  -0.0069  -0.0019   0.00    7.0
2173 199203.000   -487017.1862  -5540252.0740   3111843.1082   1   8   0.0042   0.0131   0.0058   0.0038  -0.0069  -0.0020   0.00    7.0
2173 199204.000   -487017.1813  -5540252.0694   3111843.1069   1   8   0.0040   0.0131   0.0052   0.0039  -0.0070  -0.0016   0.00    7.0
2173 199205.000   -487017.1821  -5540252.0731   3111843.1077   1   8   0.0044   0.0131   0.0051   0.0038  -0.0070  -0.0022   0.00    7.0
2173 199206.000   -487017.1835  -5540252.0744   3111843.1083   1   8   0.0043   0.0131   0.0059   0.0041  -0.0069  -0.0021   0.00    7.0
2173 199207.000   -487017.1799  -5540252.0753   3111843.1085   1   8   0.0044   0.0131   0.0056   0.0039  -0.0070  -0.0023   0.00    6.9
2173 199208.000   -487017.1830  -5540252.0701   3111843.1069   1   8   0.0043   0.0131   0.0056   0.0040  -0.0070  -0.0015   0.00    6.9
2173 199209.000   -487017.1835  -5540252.0732   3111843.1072   1   8   0.0044   0.0131   0.0056   0.0038  -0.0069  -0.0022   0.00    6.9
2173 199210.000   -487017.1843  -5540252.0703   3111843.1076   1   8   0.0043   0.0131   0.0049   0.0040  -0.0069  -0.0023   0.00    6.9
2173 199211.000   -487017.1854  -5540252.0725   3111843.1062   1   8   0.0045   0.0131   0.0057   0.0042  -0.0070  -0.0021   0.00    6.9
2173 199212.000   -487017.1817  -5540252.0687   3111843.1072   1   8   0.0046   0.0131   0.0058   0.0039  -0.0069  -0.0020   0.00    6.9
2173 199213.000   -487017.1843  -5540252.0780   3111843.1091   1   8   0.0048   0.0131   0.0058   0.0040  -0.0070  -0.0026   0.00    6.9
2173 199214.000   -487017.1840  -5540252.0748   3111843.1091   1   8   0.0043   0.0131   0.0058   0.0038  -0.0070  -0.0022   0.00    6.9
2173 199215.000   -487017.1820  -5540252.0768   3111843.1084   1   8   0.0041   0.0131   0.0050   0.0040  -0.0070  -0.0025   0.00    6.9
2173 199216.000   -487017.1855  -5540252.0791   3111843.1093   1   8   0.0042   0.0131   0.0056   0.0039  -0.0069  -0.0016   0.00    6.9
2173 199217.000   -487017.1849  -5540252.0785   3111843.1088   1   8   0.0042   0.0131   0.0055   0.0039  -0.0069  -0.0016   0.00    6.9
2173 199218.000   -487017.1848  -5540252.0705   3111843.1068   1   8   0.0045   0.0131   0.0054   0.0038  -0.0068  -0.0027   0.00    6.9
2173 199219.000   -487017.1847  -5540252.0756   3111843.1076   1   8   0.0047   0.0131   0.0053   0.0039  -0.0071  -0.0020   0.00    6.9
2173 199220.000   -487017.1845  -5540252.0731   3111843.1060   1   8   0.0044   0.0131   0.0053   0.0040  -0.0069  -0.0018   0.00    6.9
2173 199221.000   -487017.1841  -5540252.0725   3111843.1086   1   8   0.0041   0.0131   0.0054   0.0039  -0.0069  -0.0011   0.00    6.9
2173 199222.000   -487017.1861  -5540252.0741   3111843.1073   1   8   0.0045   0.0131   0.0054   0.0037  -0.0070  -0.0023   0.00    7.0
2173 199223.000   -487017.1853  -5540252.0717   3111843.1084   1   8   0.0041   0.0131   0.0056   0.0038  -0.0069  -0.0024   0.00    7.0
2173 199224.000   -487017.1865  -5540252.0789   3111843.1111   1   8   0.0043   0.0131   0.0054   0.0041  -0.0068  -0.0017   0.00    7.0
2173 199225.000   -487017.1850  -5540252.0766   3111843.1100   1   8   0.0041   0.0131   0.0052   0.0040  -0.0069  -0.0023   0.00    7.0
2173 199226.000   -487017.1843  -5540252.0756   3111843.1096   1   8   0.0042   0.0131   0.0057   0.0040  -0.0069  -0.0019   0.00    7.0
2173 199227.000   -487017.1841  -5540252.0724   3111843.1105   1   8   0.0045   0.0131   0.0054   0.0039  -0.0068  -0.0024   0.00    7.1
2173 199228.000   -487017.1836  -5540252.0685   3111843.1088   1   8   0.0043   0.0131   0.0051   0.0039  -0.0070  -0.0020   0.00    7.1
2173 199229.000   -487017.1874  -5540252.0818   3111843.1154   1   8   0.0044   0.0131   0.0055   0.0038  -0.0070  -0.0022   0.00    7.1
2173 199230.000   -487017.1858  -5540252.0751   3111843.1109   1   8   0.0043   0.0131   0.0059   0.0037  -0.0070  -0.0020   0.00    7.1
2173 199231.000   -487017.1862  -5540252.0759   3111843.1120   1   8   0.0042   0.0131   0.0057   0.0041  -0.0069  -0.0021   0.00    7.1
2173 199232.000   -487017.1850  -5540252.0724   3111843.1091   1   8   0.0044   0.0132   0.0056   0.0040  -0.0067  -0.0018   0.00    7.1
2173 199233.000   -487017.1866  -5540252.0752   3111843.1111   1   8   0.0043   0.0131   0.0053   0.0037  -0.0070  -0.0025   0.00    7.2
2173 199234.000   -487017.1891  -5540252.0814   3111843.1117   1   8   0.0044   0.0131   0.0058   0.0038  -0.0070  -0.0020   0.00    7.2
2173 199235.000   -487017.1875  -5540252.0755   3111843.1100   1   8   0.0045   0.0131   0.0055   0.0038  -0.0069  -0.0011   0.00    7.2
2173 199236.000   -487017.1859  -5540252.0748   3111843.1113   1   8   0.0044   0.0132   0.0053   0.0037  -0.0070  -0.0018   0.00    7.3
2173 199237.000   -487017.1872  -5540252.0753   3111843.1118   1   8   0.0045   0.0131   0.0055   0.0040  -0.0069  -0.0026   0.00    7.3
2173 199238.000   -487017.1863  -5540252.0747   3111843.1122   1   8   0.0044   0.0131   0.0058   0.0040  -0.0069  -0.0021   0.00    7.3
2173 199239.000   -487017.1871  -5540252.0727   3111843.1120   1   8   0.0044   0.0131   0.0053   0.0041  -0.0069  -0.0024   0.00    7.4
2173 199240.000   -487017.1867  -5540252.0722   3111843.1106   1   8   0.0041   0.0131   0.0053   0.0040  -0.0070  -0.0022   0.00    7.4
2173 199241.000   -487017.1863  -5540252.0754   3111843.1114   1   8   0.0046   0.0131   0.0056   0.0039  -0.0069  -0.0027   0.00    7.4
2173 199242.000   -487017.1854  -5540252.0738   3111843.1119   1   8   0.0042   0.0131   0.0053   0.0040  -0.0070  -0.0020   0.00    7.4
2173 199243.000   -487017.1861  -5540252.0766   3111843.1129   1   8   0.0042   0.0131   0.0048   0.0040  -0.0071  -0.0016   0.00    7.4
2173 199244.000   -487017.1878  -5540252.0805   3111843.1132   1   8   0.0044   0.0131   0.0057   0.0040  -0.0069  -0.0015   0.00    7.4
2173 199245.000   -487017.1867  -5540252.0765   3111843.1148   1   8   0.0043   0.0131   0.0055   0.0039  -0.0069  -0.0022   0.00    7.4
2173 199246.000   -487017.1865  -5540252.0748   3111843.1108   1   8   0.0041   0.0131   0.0054   0.0039  -0.0070  -0.0029   0.00    7.4
2173 199247.000   -487017.1867  -5540252.0752   3111843.1116   1   8   0.0043   0.0131   0.0054   0.0038  -0.0069  -0.0012   0.00    7.5
2173 199248.000   -487017.1868  -5540252.0707   3111843.1112   1   8   0.0045   0.0131   0.0058   0.0040  -0.0069  -0.0031   0.00    7.5
2173 199249.000   -487017.1866  -5540252.0757   3111843.1127   1   8   0.0043   0.0131   0.0052   0.0042  -0.0069  -0.0012   0.00    7.5
2173 199250.000   -487017.1868  -5540252.0738   3111843.1108   1   8   0.0043   0.0131   0.0054   0.0039  -0.0069  -0.0021   0.00    7.5
2173 199251.000   -487017.1844  -5540252.0740   3111843.1118   1   8   0.0047   0.0131   0.0058   0.0037  -0.0070  -0.0026   0.00    7.5
2173 199252.000   -487017.1851  -5540252.0715   3111843.1110   1   8   0.0043   0.0131   0.0056   0.0041  -0.0069  -0.0012   0.00    7.5
2173 199253.000   -487017.1869  -5540252.0762   3111843.1120   1   8   0.0040   0.0131   0.0053   0.0042  -0.0069  -0.0027   0.00    7.5
2173 199254.000   -487017.1847  -5540252.0792   3111843.1134   1   8   0.0044   0.0131   0.0054   0.0038  -0.0071  -0.0016   0.00    7.5
2173 199255.000   -487017.1843  -5540252.0665   3111843.1085   1   8   0.0042   0.0131   0.0056   0.0038  -0.0070  -0.0023   0.00    7.6
2173 199256.000   -487017.1846  -5540252.0750   3111843.1117   1   8   0.0043   0.0131   0.0059   0.0041  -0.0069  -0.0026   0.00    7.6
2173 199257.000   -487017.1859  -5540252.0776   3111843.1131   1   8   0.0047   0.0131   0.0059   0.0039  -0.0070  -0.0018   0.00    7.6
2173 199258.000   -487017.1841  -5540252.0689   3111843.1119   1   8   0.0043   0.0131   0.0058   0.0039  -0.0069  -0.0021   0.00    7.6
2173 199259.000   -487017.1869  -5540252.0716   3111843.1115   1   8   0.0042   0.0131   0.0055   0.0040  -0.0070  -0.0018   0.00    7.6
2173 199260.000   -487017.1878  -5540252.0811   3111843.1154   1   8   0.0045   0.0132   0.0052   0.0039  -0.0068  -0.0024   0.00    7.6
2173 199261.000   -487017.1856  -5540252.0791   3111843.1172   1   8   0.0045   0.0131   0.0060   0.0039  -0.0068  -0.0020   0.00    7.6
2173 199262.000   -487017.1857  -5540252.0743   3111843.1135   1   8   0.0042   0.0131   0.0054   0.0041  -0.0069  -0.0023   0.00    7.6
2173 199263.000   -487017.1850  -5540252.0746   3111843.1126   1   8   0.0044   0.0131   0.0057   0.0039  -0.0070  -0.0022   0.00    7.6
2173 199264.000   -487017.1870  -5540252.0814   3111843.1158   1   8   0.0040   0.0131   0.0054   0.0037  -0.0069  -0.0022   0.00    7.6
2173 199265.000   -487017.1868  -5540252.0775   3111843.1125   1   8   0.0044   0.0131   0.0057   0.0039  -0.0069  -0.0022   0.00    7.6
2173 199266.000   -487017.1848  -5540252.0806   3111843.1151   1   8   0.0044   0.0131   0.0058   0.0041  -0.0069  -0.0021   0.00    7.6
2173 199267.000   -487017.1845  -5540252.0744   3111843.1123   1   8   0.0042   0.0131   0.0053   0.0039  -0.0069  -0.0022   0.00    7.6
2173 199268.000   -487017.1858  -5540252.0755   3111843.1116   1   8   0.0043   0.0131   0.0058   0.0039  -0.0070  -0.0026   0.00    7.7
2173 199269.000   -487017.1860  -5540252.0796   3111843.1148   1   8   0.0044   0.0131   0.0059   0.0040  -0.0069  -0.0022   0.00    7.7
2173 199270.000   -487017.1881  -5540252.0786   3111843.1138   1   8   0.0041   0.0131   0.0052   0.0038  -0.0068  -0.0021   0.00    7.7
2173 199271.000   -487017.1861  -5540252.0837   3111843.1150   1   8   0.0041   0.0131   0.0056   0.0037  -0.0069  -0.0022   0.00    7.7
2173 199272.000   -487017.1847  -5540252.0830   3111843.1129   1   8   0.0040   0.0131   0.0050   0.0038  -0.0069  -0.0017   0.00    7.7
2173 199273.000   -487017.1861  -5540252.0771   3111843.1140   1   8   0.0045   0.0131   0.0056   0.0039  -0.0070  -0.0024   0.00    7.7
2173 199274.000   -487017.1852  -5540252.0833   3111843.1144   1   8   0.0043   0.0131   0.0056   0.0040  -0.0070  -0.0022   0.00    7.7
2173 199275.000   -487017.1858  -5540252.0786   3111843.1131   1   8   0.0043   0.0132   0.0055   0.0039  -0.0070  -0.0021   0.00    7.7
2173 199276.000   -487017.1838  -5540252.0795   3111843.1131   1   8   0.0043   0.0131   0.0058   0.0039  -0.0071  -0.0016   0.00    7.7
2173 199277.000   -487017.1853  -5540252.0772   3111843.1125   1   8   0.0040   0.0131   0.0054   0.0041  -0.0069  -0.0021   0.00    7.7
2173 199278.000   -487017.1862  -5540252.0799   3111843.1129   1   8   0.0043   0.0131   0.0060   0.0039  -0.0069  -0.0026   0.00    7.7
2173 199279.000   -487017.1855  -5540252.0785   3111843.1143   1   8   0.0043   0.0131   0.0059   0.0038  -0.0069  -0.0018   0.00    7.7
2173 199280.000   -487017.1889  -5540252.0813   3111843.1152   1   8   0.0041   0.0131   0.0054   0.0039  -0.0068  -0.0020   0.00    7.7
2173 199281.000   -487017.1859  -5540252.0751   3111843.1136   1   8   0.0046   0.0131   0.0061   0.0038  -0.0070  -0.0028   0.00    7.8
2173 199282.000   -487017.1869  -5540252.0770   3111843.1136   1   8   0.0042   0.0132   0.0055   0.0037  -0.0069  -0.0018   0.00    7.8
2173 199283.000   -487017.1853  -5540252.0782   3111843.1141   1   8   0.0044   0.0131   0.0057   0.0040  -0.0070  -0.0024   0.00    7.8
2173 199284.000   -487017.1866  -5540252.0822   3111843.1148   1   8   0.0043   0.0131   0.0056   0.0040  -0.0069  -0.0014   0.00    7.8
2173 199285.000   -487017.1867  -5540252.0811   3111843.1157   1   8   0.0044   0.0131   0.0054   0.0041  -0.0068  -0.0019   0.00    7.8
2173 199286.000   -487017.1853  -5540252.0842   3111843.1152   1   8   0.0040   0.0131   0.0057   0.0037  -0.0071  -0.0020   0.00    7.8
2173 199287.000   -487017.1850  -5540252.0808   3111843.1124   1   8   0.0044   0.0131   0.0054   0.0039  -0.0070  -0.0013   0.00    7.8
2173 199288.000   -487017.1855  -5540252.0797   3111843.1145   1   8   0.0045   0.0131   0.0056   0.0041  -0.0069  -0.0021   0.00    7.8
2173 199289.000   -487017.1866  -5540252.0773   3111843.1121   1   8   0.0044   0.0131   0.0057   0.0040  -0.0069  -0.0016   0.00    7.9
2173 199290.000   -487017.1879  -5540252.0807   3111843.1141   1   8   0.0045   0.0131   0.0051   0.0041  -0.0068  -0.0013   0.00    7.9
2173 199291.000   -487017.1865  -5540252.0779   3111843.1124   1   8   0.0043   0.0131   0.0057   0.0039  -0.0070  -0.0026   0.00    7.9
2173 199292.000   -487017.1890  -5540252.0803   3111843.1145   1   8   0.0042   0.0131   0.0054   0.0040  -0.0069  -0.0019   0.00    7.9
2173 199293.000   -487017.1867  -5540252.0728   3111843.1110   1   8   0.0043   0.0131   0.0055   0.0038  -0.0070  -0.0019   0.00    7.9
2173 199294.000   -487017.1857  -5540252.0719   3111843.1108   1   8   0.0046   0.0131   0.0061   0.0038  -0.0069  -0.0029   0.00    7.9
2173 199295.000   -487017.1858  -5540252.0761   3111843.1132   1   8   0.0043   0.0131   0.0055   0.0038  -0.0069  -0.0025   0.00    7.9
2173 199296.000   -487017.1858  -5540252.0755   3111843.1141   1   8   0.0045   0.0131   0.0056   0.0040  -0.0068  -0.0021   0.00    8.0
2173 199297.000   -487017.1835  -5540252.0741   3111843.1124   1   8   0.0042   0.0131   0.0054   0.0040  -0.0069  -0.0026   0.00    8.0
2173 199298.000   -487017.1864  -5540252.0747   3111843.1147   1   8   0.0044   0.0131   0.0057   0.0038  -0.0069  -0.0026   0.00    8.0
2173 199299.000   -487017.1856  -5540252.0767   3111843.1131   1   8   0.0042   0.0131   0.0055   0.0039  -0.0070  -0.0023   0.00    8.0
2173 199300.000   -487017.1879  -5540252.0742   3111843.1136   1   8   0.0044   0.0131   0.0050   0.0040  -0.0068  -0.0019   0.00    8.0
2173 199301.000   -487017.1849  -5540252.0718   3111843.1135   1   8   0.0044   0.0131   0.0055   0.0037  -0.0069  -0.0026   0.00    8.0
2173 199302.000   -487017.1869  -5540252.0825   3111843.1154   1   8   0.0042   0.0131   0.0048   0.0041  -0.0069  -0.0015   0.00    8.1
2173 199303.000   -487017.1860  -5540252.0758   3111843.1143   1   8   0.0040   0.0131   0.0054   0.0038  -0.0070  -0.0011   0.00    8.1
2173 199304.000   -487017.1860  -5540252.0749   3111843.1143   1   8   0.0045   0.0131   0.0059   0.0037  -0.0069  -0.0025   0.00    8.1
2173 199305.000   -487017.1861  -5540252.0683   3111843.1112   1   8   0.0042   0.0131   0.0058   0.0039  -0.0068  -0.0027   0.00    8.1
2173 199306.000   -487017.1861  -5540252.0767   3111843.1151   1   8   0.0043   0.0131   0.0057   0.0040  -0.0068  -0.0025   0.00    8.1
2173 199307.000   -487017.1876  -5540252.0766   3111843.1134   1   8   0.0042   0.0131   0.0056   0.0040  -0.0070  -0.0027   0.00    8.1
2173 199308.000   -487017.1863  -5540252.0803   3111843.1146   1   8   0.0042   0.0131   0.0057   0.0039  -0.0070  -0.0026   0.00    8.1
2173 199309.000   -487017.1850  -5540252.0767   3111843.1141   1   8   0.0043   0.0131   0.0054   0.0040  -0.0070  -0.0019   0.00    8.2
2173 199310.000   -487017.1860  -5540252.0725   3111843.1138   1   8   0.0042   0.0131   0.0052   0.0040  -0.0068  -0.0027   0.00    8.2
2173 199311.000   -487017.1876  -5540252.0796   3111843.1154   1   8   0.0042   0.0131   0.0052   0.0039  -0.0068  -0.0012   0.00    8.2
2173 199312.000   -487017.1870  -5540252.0768   3111843.1127   1   8   0.0040   0.0131   0.0057   0.0036  -0.0069  -0.0019   0.00    8.2
2173 199313.000   -487017.1903  -5540252.0871   3111843.1194   1   8   0.0043   0.0131   0.0058   0.0039  -0.0069  -0.0017   0.00    8.2
2173 199314.000   -487017.1860  -5540252.0724   3111843.1127   1   8   0.0044   0.0131   0.0058   0.0039  -0.0069  -0.0021   0.00    8.2
2173 199315.000   -487017.1876  -5540252.0803   3111843.1163   1   8   0.0043   0.0131   0.0056   0.0039  -0.0070  -0.0019   0.00    8.3
2173 199316.000   -487017.1884  -5540252.0760   3111843.1141   1   8   0.0044   0.0131   0.0054   0.0037  -0.0070  -0.0022   0.00    8.3
2173 199317.000   -487017.1879  -5540252.0781   3111843.1136   1   8   0.0044   0.0131   0.0053   0.0035  -0.0072  -0.0022   0.00    8.3
2173 199318.000   -487017.1881  -5540252.0799   3111843.1149   1   8   0.0041   0.0131   0.0055   0.0035  -0.0069  -0.0025   0.00    8.3
2173 199319.000   -487017.1869  -5540252.0755   3111843.1113   1   8   0.0043   0.0131   0.0056   0.0039  -0.0071  -0.0021   0.00    8.3
2173 199320.000   -487017.1875  -5540252.0802   3111843.1158   1   8   0.0043   0.0131   0.0056   0.0038  -0.0069  -0.0028   0.00    8.4
2173 199321.000   -487017.1893  -5540252.0766   3111843.1125   1   8   0.0046   0.0131   0.0057   0.0037  -0.0069  -0.0024   0.00    8.4
2173 199322.000   -487017.1885  -5540252.0760   3111843.1156   1   8   0.0043   0.0131   0.0056   0.0038  -0.0070  -0.0022   0.00    8.4
2173 199323.000   -487017.1875  -5540252.0829   3111843.1163   1   8   0.0044   0.0132   0.0057   0.0038  -0.0069  -0.0023   0.00    8.4
2173 199324.000   -487017.1855  -5540252.0726   3111843.1128   1   8   0.0042   0.0131   0.0058   0.0038  -0.0071  -0.0024   0.00    8.4
2173 199325.000   -487017.1892  -5540252.0797   3111843.1166   1   8   0.0044   0.0131   0.0054   0.0038  -0.0069  -0.0022   0.00    8.5
2173 199326.000   -487017.1879  -5540252.0774   3111843.1132   1   8   0.0041   0.0131   0.0050   0.0039  -0.0068  -0.0021   0.00    8.5
2173 199327.000   -487017.1908  -5540252.0831   3111843.1154   1   8   0.0043   0.0131   0.0057   0.0040  -0.0069  -0.0012   0.00    8.5
2173 199328.000   -487017.1873  -5540252.0716   3111843.1122   1   8   0.0044   0.0131   0.0060   0.0037  -0.0069  -0.0021   0.00    8.5
2173 199329.000   -487017.1878  -5540252.0759   3111843.1135   1   8   0.0043   0.0131   0.0054   0.0038  -0.0070  -0.0017   0.00    8.5
2173 199330.000   -487017.1878  -5540252.0709   3111843.1116   1   8   0.0042   0.0131   0.0051   0.0040  -0.0069  -0.0013   0.00    8.6
2173 199331.000   -487017.1903  -5540252.0811   3111843.1162   1   8   0.0042   0.0131   0.0054   0.0040  -0.0069  -0.0011   0.00    8.6
2173 199332.000   -487017.1877  -5540252.0738   3111843.1130   1   8   0.0045   0.0131   0.0058   0.0038  -0.0069  -0.0024   0.00    8.6
2173 199333.000   -487017.1885  -5540252.0733   3111843.1135   1   8   0.0041   0.0131   0.0056   0.0038  -0.0068  -0.0018   0.00    8.6
2173 199334.000   -487017.1872  -5540252.0729   3111843.1150   1   8   0.0045   0.0132   0.0057   0.0037  -0.0069  -0.0016   0.00    8.6
2173 199335.000   -487017.1887  -5540252.0791   3111843.1149   1   8   0.0042   0.0131   0.0055   0.0038  -0.0070  -0.0021   0.00    8.7
2173 199336.000   -487017.1895  -5540252.0735   3111843.1135   1   8   0.0041   0.0131   0.0055   0.0040  -0.0069  -0.0005   0.00    8.7
2173 199337.000   -487017.1879  -5540252.0758   3111843.1147   1   8   0.0046   0.0131   0.0059   0.0041  -0.0069  -0.0025   0.00    8.7
2173 199338.000   -487017.1880  -5540252.0698   3111843.1118   1   8   0.0044   0.0131   0.0056   0.0041  -0.0069   0.0009   0.00    8.7
2173 199339.000   -487017.1890  -5540252.0745   3111843.1132   1   8   0.0043   0.0131   0.0054   0.0039  -0.0070  -0.0020   0.00    8.8
2173 199340.000   -487017.1904  -5540252.0776   3111843.1144   1   8   0.0044   0.0131   0.0059   0.0040  -0.0070  -0.0024   0.00    8.8
2173 199341.000   -487017.1884  -5540252.0771   3111843.1137   1   8   0.0042   0.0131   0.0053   0.0041  -0.0068  -0.0018   0.00    8.8
2173 199342.000   -487017.1890  -5540252.0755   3111843.1140   1   8   0.0045   0.0131   0.0056   0.0041  -0.0069  -0.0023   0.00    8.8
2173 199343.000   -487017.1882  -5540252.0728   3111843.1130   1   8   0.0046   0.0131   0.0055   0.0038  -0.0070  -0.0029   0.00    8.9
2173 199344.000   -487017.1861  -5540252.0731   3111843.1128   1   8   0.0044   0.0131   0.0056   0.0038  -0.0069  -0.0021   0.00    8.9
2173 199345.000   -487017.1892  -5540252.0731   3111843.1139   1   8   0.0041   0.0131   0.0058   0.0039  -0.0069  -0.0025   0.00    8.9
2173 199346.000   -487017.1884  -5540252.0754   3111843.1139   1   8   0.0043   0.0131   0.0054   0.0037  -0.0069  -0.0022   0.00    9.0
2173 199347.000   -487017.1870  -5540252.0661   3111843.1105   1   8   0.0042   0.0131   0.0053   0.0040  -0.0070  -0.0026   0.00    9.0
2173 199348.000   -487017.1855  -5540252.0688   3111843.1106   1   8   0.0044   0.0131   0.0056   0.0038  -0.0071  -0.0024   0.00    9.0
2173 199349.000   -487017.1861  -5540252.0677   3111843.1143   1   8   0.0045   0.0131   0.0058   0.0037  -0.0069  -0.0026   0.00    9.0
2173 199350.000   -487017.1870  -5540252.0707   3111843.1124   1   8   0.0045   0.0131   0.0057   0.0039  -0.0069  -0.0027   0.00    9.1
2173 199351.000   -487017.1873  -5540252.0731   3111843.1169   1   8   0.0038   0.0131   0.0053   0.0036  -0.0070  -0.0018   0.00    9.1
2173 199352.000   -487017.1876  -5540252.0722   3111843.1171   1   8   0.0046   0.0131   0.0055   0.0037  -0.0071  -0.0023   0.00    9.1
2173 199353.000   -487017.1864  -5540252.0703   3111843.1136   1   8   0.0045   0.0131   0.0058   0.0040  -0.0070  -0.0021   0.00    9.2
2173 199354.000   -487017.1862  -5540252.0691   3111843.1150   1   8   0.0040   0.0131   0.0054   0.0039  -0.0070  -0.0011   0.00    9.2
2173 199355.000   -487017.1856  -5540252.0754   3111843.1160   1   8   0.0043   0.0131   0.0051   0.0040  -0.0069  -0.0022   0.00    9.2
2173 199356.000   -487017.1872  -5540252.0748   3111843.1156   1   8   0.0041   0.0131   0.0057   0.0039  -0.0069  -0.0009   0.00    9.2
2173 199357.000   -487017.1877  -5540252.0723   3111843.1135   1   8   0.0042   0.0131   0.0050   0.0039  -0.0069  -0.0023   0.00    9.3
2173 199358.000   -487017.1863  -5540252.0708   3111843.1151   1   8   0.0042   0.0131   0.0055   0.0038  -0.0071  -0.0024   0.00    9.3
2173 199359.000   -487017.1858  -5540252.0721   3111843.1144   1   8   0.0042   0.0130   0.0058   0.0037  -0.0071  -0.0023   0.00    9.4
2173 199360.000   -487017.1869  -5540252.0738   3111843.1155   1   8   0.0043   0.0131   0.0052   0.0038  -0.0070  -0.0018   0.00    9.4
2173 199361.000   -487017.1865  -5540252.0716   3111843.1160   1   8   0.0041   0.0131   0.0057   0.0039  -0.0069  -0.0018   0.00    9.4
2173 199362.000   -487017.1869  -5540252.0754   3111843.1173   1   8   0.0045   0.0131   0.0058   0.0036  -0.0070  -0.0018   0.00    9.5
2173 199363.000   -487017.1865  -5540252.0746   3111843.1175   1   8   0.0042   0.0131   0.0055   0.0039  -0.0070  -0.0018   0.00    9.5
2173 199364.000   -487017.1867  -5540252.0752   3111843.1162   1   8   0.0042   0.0131   0.0055   0.0038  -0.0070  -0.0023   0.00    9.5
2173 199365.000   -487017.1869  -5540252.0772   3111843.1165   1   8   0.0042   0.0131   0.0052   0.0039  -0.0070  -0.0012   0.00    9.6
2173 199366.000   -487017.1864  -5540252.0719   3111843.1154   1   8   0.0041   0.0131   0.0057   0.0040  -0.0069  -0.0030   0.00    9.6
2173 199367.000   -487017.1857  -5540252.0788   3111843.1161   1   8   0.0043   0.0131   0.0055   0.0039  -0.0070  -0.0019   0.00    9.6
2173 199368.000   -487017.1869  -5540252.0771   3111843.1158   1   8   0.0042   0.0131   0.0053   0.0038  -0.0069  -0.0019   0.00    9.7
2173 199369.000   -487017.1877  -5540252.0758   3111843.1174   1   8   0.0040   0.0131   0.0055   0.0039  -0.0069  -0.0020   0.00    9.7
2173 199370.000   -487017.1861  -5540252.0686   3111843.1138   1   8   0.0043   0.0131   0.0060   0.0037  -0.0071  -0.0026   0.00    9.7
2173 199371.000   -487017.1859  -5540252.0694   3111843.1158   1   8   0.0040   0.0131   0.0053   0.0039  -0.0070  -0.0017   0.00    9.8
2173 199372.000   -487017.1867  -5540252.0685   3111843.1137   1   8   0.0044   0.0131   0.0052   0.0037  -0.0070  -0.0032   0.00    9.8
2173 199373.000   -487017.1844  -5540252.0747   3111843.1161   1   8   0.0042   0.0131   0.0055   0.0040  -0.0068  -0.0019   0.00    9.8
2173 199374.000   -487017.1860  -5540252.0749   3111843.1178   1   8   0.0044   0.0131   0.0056   0.0038  -0.0070  -0.0025   0.00    9.9
2173 199375.000   -487017.1859  -5540252.0732   3111843.1163   1   8   0.0046   0.0131   0.0054   0.0038  -0.0069  -0.0017   0.00    9.9
2173 199376.000   -487017.1849  -5540252.0728   3111843.1151   1   8   0.0042   0.0131   0.0054   0.0039  -0.0070  -0.0016   0.00    9.9
2173 199377.000   -487017.1865  -5540252.0754   3111843.1156   1   8   0.0044   0.0131   0.0054   0.0037  -0.0069  -0.0017   0.00   10.0
2173 199378.000   -487017.1841  -5540252.0705   3111843.1157   1   8   0.0042   0.0131   0.0056   0.0038  -0.0069  -0.0018   0.00   10.0
2173 199379.000   -487017.1872  -5540252.0730   3111843.1162   1   8   0.0043   0.0131   0.0056   0.0038  -0.0069  -0.0024   0.00   10.0
2173 199380.000   -487017.1834  -5540252.0736   3111843.1164   1   8   0.0041   0.0131   0.0054   0.0035  -0.0070  -0.0024   0.00   10.1
2173 199381.000   -487017.1811  -5540252.0700   3111843.1136   1   8   0.0040   0.0131   0.0056   0.0038  -0.0069  -0.0011   0.00   10.1
2173 199382.000   -487017.1848  -5540252.0762   3111843.1165   1   8   0.0044   0.0131   0.0053   0.0039  -0.0070  -0.0024   0.00   10.1
2173 199383.000   -487017.1846  -5540252.0740   3111843.1152   1   8   0.0039   0.0131   0.0054   0.0039  -0.0067  -0.0025   0.00   10.2
2173 199384.000   -487017.1839  -5540252.0742   3111843.1159   1   8   0.0040   0.0131   0.0056   0.0037  -0.0071  -0.0011   0.00   10.2
2173 199385.000   -487017.1839  -5540252.0704   3111843.1154   1   8   0.0041   0.0131   0.0055   0.0039  -0.0070  -0.0021   0.00   10.2
2173 199386.000   -487017.1863  -5540252.0720   3111843.1148   1   8   0.0039   0.0131   0.0058   0.0039  -0.0070  -0.0016   0.00   10.2
2173 199387.000   -487017.1871  -5540252.0745   3111843.1161   1   8   0.0041   0.0131   0.0061   0.0037  -0.0070  -0.0016   0.00   10.3
2173 199388.000   -487017.1868  -5540252.0694   3111843.1146   1   8   0.0041   0.0131   0.0054   0.0037  -0.0070  -0.0022   0.00   10.3
2173 199389.000   -487017.1864  -5540252.0740   3111843.1171   1   8   0.0044   0.0131   0.0056   0.0038  -0.0068  -0.0028   0.00   10.3
2173 199390.000   -487017.1859  -5540252.0688   3111843.1149   1   8   0.0044   0.0131   0.0057   0.0042  -0.0068  -0.0013   0.00   10.3
2173 199391.000   -487017.1846  -5540252.0696   3111843.1138   1   8   0.0043   0.0131   0.0052   0.0037  -0.0070  -0.0020   0.00   10.4
2173 199392.000   -487017.1842  -5540252.0692   3111843.1142   1   8   0.0044   0.0131   0.0053   0.0037  -0.0070  -0.0016   0.00   10.4
2173 199393.000   -487017.1843  -5540252.0716   3111843.1152   1   8   0.0043   0.0131   0.0053   0.0039  -0.0070  -0.0015   0.00   10.4
2173 199394.000   -487017.1852  -5540252.0698   3111843.1146   1   8   0.0042   0.0131   0.0053   0.0038  -0.0069  -0.0020   0.00   10.5
2173 199395.000   -487017.1858  -5540252.0779   3111843.1185   1   8   0.0044   0.0130   0.0057   0.0038  -0.0071  -0.0022   0.00   10.5
2173 199396.000   -487017.1845  -5540252.0728   3111843.1178   1   8   0.0042   0.0131   0.0055   0.0038  -0.0070  -0.0019   0.00   10.5
2173 199397.000   -487017.1857  -5540252.0690   3111843.1136   1   8   0.0041   0.0131   0.0056   0.0040  -0.0069  -0.0020   0.00   10.6
2173 199398.000   -487017.1836  -5540252.0698   3111843.1151   1   8   0.0043   0.0131   0.0057   0.0036  -0.0067  -0.0023   0.00   10.6
2173 199399.000   -487017.1864  -5540252.0800   3111843.1180   1   8   0.0045   0.0131   0.0058   0.0037  -0.0069  -0.0025   0.00   10.7
2173 199400.000   -487017.1859  -5540252.0735   3111843.1159   1   8   0.0043   0.0131   0.0058   0.0037  -0.0069  -0.0018   0.00   10.7
2173 199401.000   -487017.1859  -5540252.0745   3111843.1156   1   8   0.0042   0.0131   0.0058   0.0038  -0.0069  -0.0023   0.00   10.7
2173 199402.000   -487017.1846  -5540252.0716   3111843.1146   1   8   0.0041   0.0131   0.0053   0.0037  -0.0070  -0.0018   0.00   10.8
2173 199403.000   -487017.1858  -5540252.0694   3111843.1146   1   8   0.0043   0.0131   0.0054   0.0037  -0.0068  -0.0024   0.00   10.8
2173 199404.000   -487017.1866  -5540252.0755   3111843.1143   1   8   0.0045   0.0132   0.0058   0.0038  -0.0069  -0.0019   0.00   10.8
2173 199405.000   -487017.1864  -5540252.0766   3111843.1155   1   8   0.0043   0.0131   0.0055   0.0035  -0.0069  -0.0013   0.00   10.9
2173 199406.000   -487017.1854  -5540252.0730   3111843.1131   1   8   0.0041   0.0132   0.0051   0.0037  -0.0068  -0.0022   0.00   10.9
2173 199407.000   -487017.1867  -5540252.0768   3111843.1152   1   8   0.0044   0.0131   0.0055   0.0036  -0.0071  -0.0021   0.00   10.9
2173 199408.000   -487017.1849  -5540252.0694   3111843.1154   1   8   0.0043   0.0131   0.0056   0.0038  -0.0069  -0.0025   0.00   11.0
2173 199409.000   -487017.1860  -5540252.0745   3111843.1167   1   8   0.0044   0.0131   0.0056   0.0036  -0.0071  -0.0024   0.00   11.0
2173 199410.000   -487017.1873  -5540252.0747   3111843.1151   1   8   0.0045   0.0131   0.0052   0.0041  -0.0069  -0.0016   0.00   11.0
2173 199411.000   -487017.1859  -5540252.0744   3111843.1167   1   8   0.0043   0.0131   0.0053   0.0039  -0.0069  -0.0019   0.00   11.1
2173 199412.000   -487017.1882  -5540252.0730   3111843.1151   1   8   0.0044   0.0131   0.0059   0.0038  -0.0071  -0.0024   0.00   11.1
2173 199413.000   -487017.1869  -5540252.0748   3111843.1153   1   8   0.0044   0.0131   0.0057   0.0039  -0.0069  -0.0025   0.00   11.2
2173 199414.000   -487017.1873  -5540252.0783   3111843.1183   1   8   0.0042   0.0131   0.0055   0.0037  -0.0070  -0.0026   0.00   11.2
2173 199415.000   -487017.1864  -5540252.0731   3111843.1162   1   8   0.0043   0.0131   0.0055   0.0037  -0.0070  -0.0014   0.00   11.2
2173 199416.000   -487017.1868  -5540252.0796   3111843.1170   1   8   0.0042   0.0131   0.0055   0.0040  -0.0069  -0.0016   0.00   11.3
2173 199417.000   -487017.1879  -5540252.0750   3111843.1158   1   8   0.0043   0.0131   0.0056   0.0039  -0.0069  -0.0020   0.00   11.3
2173 199418.000   -487017.1891  -5540252.0747   3111843.1173   1   8   0.0042   0.0131   0.0056   0.0037  -0.0070  -0.0021   0.00   11.3
2173 199419.000   -487017.1878  -5540252.0785   3111843.1166   1   8   0.0044   0.0131   0.0052   0.0037  -0.0069  -0.0023   0.00   11.4
2173 199420.000   -487017.1897  -5540252.0760   3111843.1167   1   8   0.0040   0.0131   0.0057   0.0036  -0.0070  -0.0016   0.00   11.4
2173 199421.000   -487017.1871  -5540252.0770   3111843.1161   1   8   0.0039   0.0131   0.0052   0.0038  -0.0071  -0.0008   0.00   11.5
2173 199422.000   -487017.1872  -5540252.0762   3111843.1165   1   8   0.0042   0.0131   0.0056   0.0039  -0.0069  -0.0024   0.00   11.5
2173 199423.000   -487017.1872  -5540252.0731   3111843.1166   1   8   0.0045   0.0131   0.0057   0.0037  -0.0069  -0.0021   0.00   11.5
2173 199424.000   -487017.1854  -5540252.0774   3111843.1173   1   8   0.0042   0.0131   0.0054   0.0037  -0.0068  -0.0019   0.00   11.6
2173 199425.000   -487017.1877  -5540252.0729   3111843.1136   1   8   0.0042   0.0131   0.0059   0.0039  -0.0069  -0.0024   0.00   11.6
2173 199426.000   -487017.1880  -5540252.0772   3111843.1172   1   8   0.0044   0.0131   0.0057   0.0038  -0.0070  -0.0023   0.00   11.6
2173 199427.000   -487017.1885  -5540252.0759   3111843.1176   1   8   0.0045   0.0131   0.0059   0.0038  -0.0070  -0.0026   0.00   11.6
2173 199428.000   -487017.1886  -5540252.0789   3111843.1164   1   8   0.0043   0.0131   0.0054   0.0037  -0.0069  -0.0018   0.00   11.6
2173 199429.000   -487017.1878  -5540252.0766   3111843.1153   1   8   0.0042   0.0131   0.0058   0.0039  -0.0069  -0.0019   0.00   11.6
2173 199430.000   -487017.1910  -5540252.0810   3111843.1183   1   8   0.0042   0.0131   0.0056   0.0040  -0.0070   0.0008   0.00   11.6
2173 199431.000   -487017.1900  -5540252.0761   3111843.1156   1   8   0.0042   0.0131   0.0057   0.0038  -0.0069  -0.0024   0.00   11.6
2173 199432.000   -487017.1888  -5540252.0754   3111843.1168   1   8   0.0045   0.0131   0.0058   0.0037  -0.0069  -0.0016   0.00   11.6
2173 199433.000   -487017.1918  -5540252.0789   3111843.1172   1   8   0.0041   0.0131   0.0051   0.0037  -0.0070  -0.0017   0.00   11.6
2173 199434.000   -487017.1901  -5540252.0741   3111843.1156   1   8   0.0044   0.0131   0.0055   0.0040  -0.0069  -0.0026   0.00   11.7
2173 199435.000   -487017.1896  -5540252.0772   3111843.1167   1   8   0.0044   0.0131   0.0058   0.0037  -0.0069  -0.0030   0.00   11.7
2173 199436.000   -487017.1898  -5540252.0764   3111843.1171   1   8   0.0042   0.0131   0.0056   0.0037  -0.0070  -0.0027   0.00   11.7
2173 199437.000   -487017.1875  -5540252.0780   3111843.1158   1   8   0.0041   0.0131   0.0058   0.0038  -0.0069  -0.0026   0.00   11.7
2173 199438.000   -487017.1885  -5540252.0810   3111843.1165   1   8   0.0042   0.0130   0.0054   0.0038  -0.0071  -0.0016   0.00   11.7
2173 199439.000   -487017.1900  -5540252.0751   3111843.1160   1   8   0.0043   0.0131   0.0054   0.0040  -0.0069  -0.0022   0.00   11.7
2173 199440.000   -487017.1893  -5540252.0786   3111843.1156   1   8   0.0041   0.0131   0.0055   0.0039  -0.0070  -0.0015   0.00   11.7
2173 199441.000   -487017.1887  -5540252.0692   3111843.1126   1   8   0.0042   0.0131   0.0055   0.0038  -0.0070  -0.0027   0.00   11.7
2173 199442.000   -487017.1880  -5540252.0768   3111843.1164   1   8   0.0044   0.0131   0.0057   0.0039  -0.0070  -0.0019   0.00   11.7
2173 199443.000   -487017.1881  -5540252.0779   3111843.1161   1   8   0.0043   0.0131   0.0052   0.0038  -0.0069  -0.0018   0.00   11.7
2173 199444.000   -487017.1887  -5540252.0761   3111843.1154   1   8   0.0042   0.0131   0.0057   0.0038  -0.0071  -0.0013   0.00   11.7
2173 199445.000   -487017.1890  -5540252.0753   3111843.1157   1   8   0.0045   0.0131   0.0052   0.0035  -0.0069  -0.0025   0.00   11.7
2173 199446.000   -487017.1898  -5540252.0775   3111843.1159   1   8   0.0044   0.0131   0.0056   0.0037  -0.0070  -0.0017   0.00   11.7
2173 199447.000   -487017.1872  -5540252.0778   3111843.1176   1   8   0.0045   0.0131   0.0056   0.0039  -0.0069  -0.0021   0.00   11.7
2173 199448.000   -487017.1896  -5540252.0763   3111843.1161   1   8   0.0041   0.0131   0.0057   0.0040  -0.0068  -0.0018   0.00   11.7
2173 199449.000   -487017.1891  -5540252.0769   3111843.1161   1   8   0.0040   0.0131   0.0052   0.0039  -0.0070  -0.0023   0.00   11.7
2173 199450.000   -487017.1875  -5540252.0720   3111843.1134   1   8   0.0042   0.0131   0.0057   0.0037  -0.0070  -0.0018   0.00   11.8
2173 199451.000   -487017.1885  -5540252.0781   3111843.1150   1   8   0.0043   0.0131   0.0055   0.0037  -0.0071  -0.0021   0.00   11.7
2173 199452.000   -487017.1892  -5540252.0803   3111843.1153   1   8   0.0040   0.0131   0.0054   0.0037  -0.0069  -0.0019   0.00   11.7
2173 199453.000   -487017.1876  -5540252.0790   3111843.1148   1   8   0.0041   0.0131   0.0055   0.0038  -0.0068  -0.0024   0.00   11.7
2173 199454.000   -487017.1910  -5540252.0832   3111843.1176   1   8   0.0042   0.0131   0.0054   0.0039  -0.0070  -0.0008   0.00   11.7
2173 199455.000   -487017.1898  -5540252.0836   3111843.1172   1   8   0.0042   0.0131   0.0053   0.0039  -0.0069  -0.0020   0.00   11.7
2173 199456.000   -487017.1885  -5540252.0805   3111843.1163   1   8   0.0044   0.0131   0.0056   0.0038  -0.0069  -0.0018   0.00   11.7
2173 199457.000   -487017.1880  -5540252.0803   3111843.1152   1   8   0.0041   0.0131   0.0055   0.0036  -0.0071  -0.0017   0.00   11.8
2173 199458.000   -487017.1877  -5540252.0817   3111843.1165   1   8   0.0047   0.0131   0.0058   0.0039  -0.0069  -0.0019   0.00   11.8
2173 199459.000   -487017.1884  -5540252.0823   3111843.1165   1   8   0.0046   0.0131   0.0056   0.0038  -0.0070  -0.0014   0.00   11.8
2173 199460.000   -487017.1890  -5540252.0814   3111843.1153   1   8   0.0042   0.0131   0.0054   0.0036  -0.0067  -0.0006   0.00   11.7
2173 199461.000   -487017.1870  -5540252.0739   3111843.1130   1   8   0.0043   0.0131   0.0053   0.0039  -0.0069  -0.0025   0.00   11.7
2173 199462.000   -487017.1883  -5540252.0789   3111843.1160   1   8   0.0039   0.0131   0.0051   0.0038  -0.0068  -0.0021   0.00   11.7
2173 199463.000   -487017.1866  -5540252.0765   3111843.1140   1   8   0.0041   0.0131   0.0057   0.0036  -0.0069  -0.0017   0.00   11.7
2173 199464.000   -487017.1896  -5540252.0815   3111843.1155   1   8   0.0041   0.0131   0.0055   0.0039  -0.0068  -0.0019   0.00   11.7
2173 199465.000   -487017.1859  -5540252.0732   3111843.1123   1   8   0.0042   0.0131   0.0058   0.0038  -0.0069  -0.0021   0.00   11.7
2173 199466.000   -487017.1900  -5540252.0780   3111843.1134   1   8   0.0045   0.0131   0.0058   0.0038  -0.0069  -0.0019   0.00   11.7
2173 199467.000   -487017.1891  -5540252.0801   3111843.1146   1   8   0.0043   0.0131   0.0059   0.0038  -0.0069  -0.0024   0.00   11.7
2173 199468.000   -487017.1896  -5540252.0812   3111843.1164   1   8   0.0043   0.0131   0.0053   0.0037  -0.0069  -0.0018   0.00   11.7
2173 199469.000   -487017.1891  -5540252.0798   3111843.1136   1   8   0.0043   0.0131   0.0055   0.0039  -0.0070  -0.0022   0.00   11.7
2173 199470.000   -487017.1873  -5540252.0783   3111843.1147   1   8   0.0043   0.0130   0.0053   0.0037  -0.0070  -0.0026   0.00   11.7
2173 199471.000   -487017.1873  -5540252.0848   3111843.1144   1   8   0.0045   0.0131   0.0055   0.0038  -0.0070  -0.0022   0.00   11.7
2173 199472.000   -487017.1889  -5540252.0816   3111843.1161   1   8   0.0041   0.0130   0.0052   0.0036  -0.0070  -0.0026   0.00   11.7
2173 199473.000   -487017.1868  -5540252.0746   3111843.1111   1   8   0.0044   0.0131   0.0058   0.0037  -0.0070  -0.0029   0.00   11.7
2173 199474.000   -487017.1889  -5540252.0815   3111843.1130   1   8   0.0041   0.0131   0.0054   0.0037  -0.0069  -0.0016   0.00   11.7
2173 199475.000   -487017.1855  -5540252.0775   3111843.1113   1   8   0.0044   0.0131   0.0055   0.0037  -0.0068  -0.0022   0.00   11.7
2173 199476.000   -487017.1882  -5540252.0806   3111843.1139   1   8   0.0044   0.0131   0.0053   0.0038  -0.0070  -0.0024   0.00   11.7
2173 199477.000   -487017.1876  -5540252.0787   3111843.1141   1   8   0.0041   0.0131   0.0057   0.0037  -0.0070  -0.0015   0.00   11.7
2173 199478.000   -487017.1889  -5540252.0803   3111843.1144   1   8   0.0044   0.0131   0.0055   0.0036  -0.0070  -0.0025   0.00   11.7
2173 199479.000   -487017.1878  -5540252.0825   3111843.1148   1   8   0.0043   0.0131   0.0052   0.0038  -0.0070  -0.0014   0.00   11.7
2173 199480.000   -487017.1877  -5540252.0827   3111843.1146   1   8   0.0042   0.0131   0.0054   0.0037  -0.0070  -0.0023   0.00   11.7
2173 199481.000   -487017.1873  -5540252.0719   3111843.1114   1   8   0.0042   0.0131   0.0053   0.0037  -0.0067  -0.0015   0.00   11.7
2173 199482.000   -487017.1913  -5540252.0829   3111843.1152   1   8   0.0042   0.0131   0.0062   0.0037  -0.0070  -0.0027   0.00   11.7
2173 199483.000   -487017.1866  -5540252.0798   3111843.1136   1   8   0.0041   0.0131   0.0053   0.0040  -0.0068  -0.0005   0.00   11.7
2173 199484.000   -487017.1858  -5540252.0750   3111843.1106   1   8   0.0044   0.0130   0.0052   0.0040  -0.0069  -0.0019   0.00   11.7
2173 199485.000   -487017.1892  -5540252.0816   3111843.1130   1   8   0.0041   0.0131   0.0059   0.0038  -0.0070  -0.0016   0.00   11.7
2173 199486.000   -487017.1898  -5540252.0791   3111843.1146   1   8   0.0043   0.0131   0.0055   0.0039  -0.0069  -0.0020   0.00   11.7
2173 199487.000   -487017.1881  -5540252.0821   3111843.1141   1   8   0.0043   0.0131   0.0057   0.0036  -0.0068  -0.0020   0.00   11.7
2173 199488.000   -487017.1893  -5540252.0847   3111843.1188   1   8   0.0043   0.0131   0.0058   0.0036  -0.0069  -0.0025   0.00   11.7
2173 199489.000   -487017.1890  -5540252.0891   3111843.1191   1   8   0.0048   0.0131   0.0056   0.0039  -0.0069  -0.0007   0.00   11.6
2173 199490.000   -487017.1873  -5540252.0744   3111843.1124   1   8   0.0043   0.0131   0.0053   0.0038  -0.0071  -0.0018   0.00   11.6
2173 199491.000   -487017.1882  -5540252.0849   3111843.1161   1   8   0.0044   0.0131   0.0054   0.0035  -0.0070  -0.0021   0.00   11.6
2173 199492.000   -487017.1887  -5540252.0814   3111843.1146   1   8   0.0043   0.0130   0.0058   0.0036  -0.0071  -0.0029   0.00   11.6
2173 199493.000   -487017.1886  -5540252.0848   3111843.1149   1   8   0.0042   0.0130   0.0054   0.0037  -0.0069  -0.0023   0.00   11.6
2173 199494.000   -487017.1873  -5540252.0834   3111843.1138   1   8   0.0043   0.0131   0.0056   0.0037  -0.0069  -0.0020   0.00   11.6
