     2.11           OBSERVATION DATA    M (MIXED)           RINEX VERSION / TYPE
CONVBIN 2.4.3                           20210901 190745 UTC PGM / RUN BY / DATE 
log: logs/21_09_01_08_12_04_ohlc_P1.rtcm                    COMMENT             
format: RTCM 3, station ID: 726                             COMMENT             
0726                                                        MARKER NAME         
                                                            MARKER NUMBER       
                                                            OBSERVER / AGENCY   
                                                            REC # / TYPE / VERS 
                                                            ANT # / TYPE        
   507437.5970 -4749451.4380  4212897.2210                  APPROX POSITION XYZ 
        0.0000        0.0000        0.0000                  ANTENNA: DELTA H/E/N
     1     1                                                WAVELENGTH FACT L1/2
     5    C1    L1    C2    L2    P2                        # / TYPES OF OBSERV 
  2021     9     1     8    12    9.0000000     GPS         TIME OF FIRST OBS   
  2021     9     1     8    42    8.0000000     GPS         TIME OF LAST OBS    
                                                            END OF HEADER       
 21  9  1  8 12  9.0000000  0 27G30G21G 7G 8G17G13G14G 1R 4R12R13R14
                                R22R23R24E13E15E19E21E27E30C11C12C23
                                C25C28C34
  20659226.014   108564965.2981   20659229.517    84596082.1951   20659228.284  
  21579705.847   113402130.7951                   88365308.8061   21579709.546  
  20483930.542   107643781.7411   20483931.400    83878278.8041   20483930.202  
  22301448.139   117194896.6991   22301452.553    91320718.5671   22301452.035  
  22785506.641   119738659.4681   22785510.054    93302891.6681   22785509.500  
  23596875.521   124002415.5951                   96625246.9741   23596877.379  
  21952972.815   115363673.3861   21952975.227    89893788.3541   21952974.941  
  21640166.276   113719847.4321   21640173.066    88612907.5841   21640172.601  
  23555885.573   126140747.338    23555893.667    98109453.981                  
  20921979.490   111761451.479    20921987.853    86925603.151                  
  19457082.652   103899745.552    19457089.943    80810935.152                  
  22417382.986   119497284.148    22417390.348    92942334.761                  
  21243641.524   113399982.390                                                  
  19528197.307   104462749.000                                                  
  22001318.671   117650967.253    22001328.928    91506353.333                  
  25737488.980   135251423.452                                                  
  23900861.517   125599886.411                                                  
  26764901.603   140650507.009                                                  
  25512454.207   134068857.870                                                  
  23478597.009   123380856.617                                                  
  25452290.671   133752678.823                                                  
                 113036306.883    21707431.300   113036306.883                  
                 128285339.955    24635849.759   128285339.955                  
                 115428932.932    22166912.748   115428932.932                  
                 118078572.652    22675748.633   118078572.652                  
                 130825445.308    25123647.961   130825445.308                  
                 119606520.290    22969174.466   119606520.290                  
 21  9  1  8 12 10.0000000  0 27G30G21G 7G 8G17G13G14G 1R 4R12R13R14
                                R22R23R24E13E15E19E21E27E30C11C12C23
                                C25C28C34
  20659059.243   108564088.8131   20659062.549    84595399.2181   20659061.494  
  21579672.771   113401957.3221                   88365173.6321   21579676.542  
  20484191.394   107645152.9971   20484191.644    83879347.3101   20484191.090  
  22302003.812   117197818.2331   22302008.798    91322995.0921   22302007.994  
  22784972.679   119735854.0421   22784976.092    93300705.6211   22784975.663  
  23596676.710   124001370.4651                   96624432.5821   23596678.497  
  21952557.020   115361488.8711   21952559.629    89892086.1341   21952559.254  
  21639653.435   113717152.3671   21639660.118    88610807.5331   21639659.778  
  23556250.351   126142701.020    23556258.714    98110973.500                  
  20922417.835   111763792.896    20922426.109    86927424.253                  
  19456918.364   103898869.291    19456925.172    80810253.564                  
  22416739.218   119493853.221    22416746.938    92939666.260                  
  21244253.163   113403248.823                                                  
  19527860.279   104460946.216                                                  
  22000542.262   117646816.206    22000552.323    91503124.727                  
  25736919.691   135248431.166                                                  
  23900715.491   125599119.155                                                  
  26765135.222   140651734.001                                                  
  25512097.058   134066981.258                                                  
  23478608.785   123380918.610                                                  
  25452664.206   133754641.405                                                  
                 113036770.844    21707520.359   113036770.844                  
                 128288229.690    24636404.681   128288229.690                  
                 115427811.690    22166697.462   115427811.690                  
                 118080279.822    22676076.494   118080279.822                  
                 130822177.897    25123020.705   130822177.897                  
                 119608362.454    22969528.326   119608362.454                  
 21  9  1  8 12 11.0000000  0 27G30G21G 7G 8G17G13G14G 1R 4R12R13R14
                                R22R23R24E13E15E19E21E27E30C11C12C23
                                C25C28C34
  20658892.418   108563212.3411   20658895.866    84594716.2541   20658894.723  
  21579639.749   113401783.9021                   88365038.4981   21579643.555  
  20484452.389   107646524.2591   20484452.567    83880415.8241   20484451.978  
  22302559.682   117200739.4061   22302564.560    91325271.3311   22302563.881  
  22784438.788   119733048.3281   22784442.362    93298519.3531   22784441.808  
  23596478.042   124000325.3751                   96623618.2271   23596479.669  
  21952141.226   115359303.9511   21952143.656    89890383.6021   21952143.495  
  21639140.630   113714457.2201   21639147.277    88608707.4181   21639146.920  
  23556615.272   126144654.744    23556623.420    98112493.058                  
  20922856.252   111766134.144    20922864.436    86929245.225                  
  19456754.094   103897992.933    19456761.063    80809571.976                  
  22416095.505   119490421.739    22416103.135    92936997.323                  
  21244865.230   113406515.199                                                  
  19527523.305   104459143.674                                                  
  21999765.943   117642664.909    21999775.592    91499895.954                  
  25736350.402   135245438.480                                                  
  23900569.448   125598351.808                                                  
  26765368.895   140652960.791                                                  
  25511739.910   134065104.129                                                  
  23478620.453   123380980.225                                                  
  25453037.436   133756603.548                                                  
                 113037234.756    21707609.472   113037234.756                  
                 128291119.081    24636959.514   128291119.081                  
                 115426690.203    22166482.069   115426690.203                  
                 118081986.777    22676404.248   118081986.777                  
                 130818910.079    25122393.288   130818910.079                  
                 119610204.443    22969882.168   119610204.443                  
 21  9  1  8 12 12.0000000  0 27G30G21G 7G 8G17G13G14G 1R 4R12R13R14
                                R22R23R24E13E15E19E21E27E30C11C12C23
                                C25C28C34
  20658725.753   108562336.6921   20658729.166    84594033.9311   20658728.112  
  21579606.942   113401611.3571                   88364904.0491   21579610.730  
  20484713.527   107647896.3521   20484713.545    83881484.9891   20484713.026  
  22303115.623   117203661.0461   22303120.465    91327547.9311   22303119.858  
  22783905.023   119730243.1741   22783908.507    93296333.5191   22783908.114  
  23596279.428   123999281.1581                   96622804.5281   23596280.947  
  21951725.432   115357119.4541   21951728.005    89888681.3961   21951727.808  
  21638627.932   113711762.8301   21638634.472    88606607.8941   21638634.204  
  23556980.604   126146609.353    23556988.502    98114013.312                  
  20923294.507   111768476.044    20923302.995    86931066.703                  
  19456590.039   103897117.324    19456597.115    80808890.933                  
  22415452.041   119486990.571    22415459.457    92934328.648                  
  21245477.048   113409782.395                                                  
  19527186.456   104457342.231                                                  
  21998989.462   117638514.182    21998999.969    91496667.602                  
  25735781.023   135242446.214                                                  
  23900423.547   125597585.193                                                  
  26765602.479   140654188.239                                                  
  25511382.780   134063227.318                                                  
  23478632.211   123381042.262                                                  
  25453410.898   133758566.042                                                  
                 113037699.426    21707698.746   113037699.426                  
                 128294008.898    24637514.401   128294008.898                  
                 115425569.324    22166266.943   115425569.324                  
                 118083694.345    22676732.127   118083694.345                  
                 130815642.643    25121765.906   130815642.643                  
                 119612047.066    22970236.100   119612047.066                  
 21  9  1  8 12 13.0000000  0 27G30G21G 7G 8G17G13G14G 1R 4R12R13R14
                                R22R23R24E13E15E19E21E27E30C11C12C23
                                C25C28C34
  20658559.250   108561461.7871   20658562.895    84593352.1841   20658561.626  
  21579574.188   113401439.5981                   88364770.2081   21579578.030  
  20484974.754   107649269.1981   20484975.308    83882554.7371   20484974.254  
  22303671.653   117206583.0431   22303676.639    91329824.8121   22303675.906  
  22783371.257   119727438.4931   22783374.974    93294148.0511   22783374.456  
  23596081.082   123998237.7271                   96621991.4581   23596082.404  
  21951309.870   115354935.2851   21951312.211    89886979.4461   21951312.175  
  21638115.305   113709069.0971   21638121.988    88604508.8831   21638121.613  
  23557345.758   126148564.715    23557353.692    98115534.147                  
  20923733.013   111770818.550    20923741.429    86932888.638                  
  19456426.269   103896242.371    19456433.220    80808210.402                  
  22414808.470   119483559.616    22414815.404    92931660.130                  
  21246088.508   113413050.277                                                  
  19526849.965   104455541.792                                                  
  21998213.035   117634363.953    21998223.685    91493439.637                  
  25735211.716   135239454.289                                                  
  23900277.718   125596819.228                                                  
  26765836.224   140655416.273                                                  
  25511025.757   134061350.723                                                  
  23478644.023   123381104.655                                                  
  25453784.450   133760528.842                                                  
                 113038164.766    21707788.109   113038164.766                  
                 128296899.074    24638069.038   128296899.074                  
                 115424448.945    22166051.765   115424448.945                  
                 118085402.434    22677060.059   118085402.434                  
                 130812375.532    25121138.561   130812375.532                  
                 119613890.244    22970589.978   119613890.244                  
 21  9  1  8 12 14.0000000  0 27G30G21G 7G 8G17G13G14G 1R 4R12R13R14
                                R22R23R24E13E15E19E21E27E30C11C12C23
                                C25C28C34
  20658392.728   108560587.2151   20658396.588    84592670.7001   20658395.194  
  21579541.577   113401268.2261                   88364636.6741   21579545.419  
  20485236.160   107650642.3761   20485236.714    83883624.7441   20485235.534  
  22304227.541   117209504.9881   22304232.615    91332101.6501   22304231.919  
  22782837.634   119724633.8531   22782841.244    93291962.6241   22782840.797  
  23595882.182   123997194.6651                   96621178.6831   23595883.915  
  21950894.254   115352751.0371   21950896.434    89885277.4371   21950896.524  
  21637602.714   113706375.6201   21637609.236    88602410.0681   21637609.094  
  23557711.394   126150520.493    23557718.934    98117055.296                  
  20924171.448   111773161.282    20924179.971    86934710.768                  
  19456262.678   103895367.657    19456270.594    80807530.057                  
  22414164.810   119480128.472    22414171.618    92928991.455                  
  21246700.915   113416318.471                                                  
  19526513.473   104453741.941                                                  
  21997436.841   117630213.838    21997447.133    91490211.772                  
  25734642.373   135236462.314                                                  
  23900132.032   125596053.499                                                  
  26766069.879   140656644.396                                                  
  25510668.609   134059473.941                                                  
  23478655.923   123381166.988                                                  
  25454157.841   133762491.501                                                  
                 113038630.370    21707877.507   113038630.370                  
                 128299789.225    24638624.121   128299789.225                  
                 115423328.676    22165836.586   115423328.676                  
                 118087110.631    22677387.991   118087110.631                  
                 130809108.348    25120511.269   130809108.348                  
                 119615733.562    22970943.928   119615733.562                  
 21  9  1  8 12 15.0000000  0 27G30G21G 7G 8G17G13G14G 1R 4R12R13R14
                                R22R23R24E13E15E19E21E27E30C11C12C23
                                C25C28C34
  20658226.386   108559713.2161   20658230.138    84591989.6611   20658228.905  
  21579509.180   113401097.4671                   88364503.6181   21579512.933  
  20485497.673   107652016.1351   20485498.281    83884695.2061   20485496.923  
  22304783.642   117212427.1441   22304788.360    91334378.6571   22304788.003  
  22782303.994   119721829.5001   22782307.550    93289777.4141   22782307.139  
  23595683.711   123996152.2291                   96620366.4081   23595685.605  
  21950478.656   115350566.9601   21950480.854    89883575.5541   21950480.926  
  21637090.141   113703682.6231   21637096.842    88600311.6341   21637096.628  
  23558076.797   126152476.857    23558084.106    98118576.922                  
  20924610.096   111775504.445    20924618.530    86936533.228                  
  19456099.105   103894493.417    19456106.878    80806850.125                  
  22413521.329   119476697.366    22413527.637    92926322.803                  
  21247313.197   113419587.176                                                  
  19526177.071   104451942.915                                                  
  21996660.771   117626064.058    21996671.028    91486984.183                  
  25734073.156   135233470.511                                                  
  23899986.489   125595288.256                                                  
  26766303.767   140657872.906                                                  
  25510311.425   134057597.194                                                  
  23478667.806   123381229.501                                                  
  25454531.393   133764454.260                                                  
                 113039096.483    21707967.031   113039096.483                  
                 128302679.559    24639179.383   128302679.559                  
                 115422208.748    22165621.550   115422208.748                  
                 118088819.185    22677716.066   118088819.185                  
                 130805841.298    25119883.923   130805841.298                  
                 119617577.275    22971298.020   119617577.275                  
 21  9  1  8 12 16.0000000  0 27G30G21G 7G 8G17G13G14G 1R 4R12R13R14
                                R22R23R24E13E15E19E21E27E30C11C12C23
                                C25C28C34
  20658060.168   108558839.7901   20658063.885    84591309.0671   20658062.705  
  21579476.820   113400927.3221                   88364371.0351   21579480.554  
  20485759.186   107653390.4671   20485760.097    83885766.1111   20485758.418  
  22305339.726   117215349.5111   22305344.372    91336655.8261   22305344.104  
  22781770.353   119719025.4351   22781774.034    93287592.4281   22781773.570  
  23595485.257   123995110.4151                   96619554.6051   23595487.402  
  21950063.041   115348383.0201   21950065.114    89881873.7831   21950065.346  
  21636577.658   113700990.1091   21636584.430    88598213.5631   21636584.287  
  23558442.487   126154433.813    23558449.474    98120099.008                  
  20925048.852   111777847.995    20925057.090    86938355.984                  
  19455935.639   103893619.657    19455943.127    80806170.546                  
  22412877.579   119473266.259    22412884.155    92923654.177                  
  21247925.890   113422856.443                                                  
  19525840.901   104450144.710                                                  
  21995884.898   117621914.567    21995894.994    91483756.797                  
  25733503.777   135230478.862                                                  
  23899840.892   125594523.468                                                  
  26766537.619   140659101.788                                                  
  25509954.366   134055720.514                                                  
  23478679.707   123381292.180                                                  
  25454904.963   133766417.144                                                  
                 113039563.090    21708056.716   113039563.090                  
                 128305570.078    24639734.520   128305570.078                  
                 115421089.145    22165406.550   115421089.145                  
                 118090528.071    22678044.160   118090528.071                  
                 130802574.396    25119256.559   130802574.396                  
                 119619421.343    22971652.095   119619421.343                  
 21  9  1  8 12 17.0000000  0 27G30G21G 7G 8G17G13G14G 1R 4R12R13R14
                                R22R23R24E13E15E19E21E27E30C11C12C23
                                C25C28C34
  20657894.022   108557966.8291   20657897.828    84590628.8401   20657896.577  
  21579444.530   113400757.6941                   88364238.8571   21579448.301  
  20486020.681   107654765.2791   20486021.486    83886837.3931   20486020.038  
  22305895.810   117218271.9811   22305900.760    91338933.0751   22305900.242  
  22781236.927   119716221.5871   22781240.305    93285407.6141   22781240.037  
  23595287.161   123994069.1141                   96618743.1951   23595289.288  
  21949647.461   115346199.1651   21949649.712    89880172.0781   21949649.766  
  21636065.442   113698298.0131   21636072.197    88596115.8291   21636072.018  
  23558808.141   126156391.329    23558815.092    98121621.513                  
  20925487.644   111780191.834    20925495.864    86940178.968                  
  19455772.531   103892746.314    19455779.428    80805491.251                  
  22412233.973   119469835.115    22412240.156    92920985.509                  
  21248538.530   113426126.155                                                  
  19525504.821   104448347.249                                                  
  21995108.846   117617765.288    21995119.032    91480529.585                  
  25732934.452   135227487.300                                                  
  23899695.438   125593759.083                                                  
  26766771.739   140660330.984                                                  
  25509597.236   134053843.785                                                  
  23478691.679   123381354.957                                                  
  25455278.658   133768380.032                                                  
                 113040030.125    21708146.526   113040030.125                  
                 128308460.709    24640289.853   128308460.709                  
                 115419969.796    22165191.586   115419969.796                  
                 118092237.221    22678372.342   118092237.221                  
                 130799307.549    25118629.232   130799307.549                  
                 119621265.728    22972006.241   119621265.728                  
 21  9  1  8 12 18.0000000  0 27G30G21G 7G 8G17G13G14G 1R 4R12R13R14
                                R22R23R24E13E15E19E21E27E30C11C12C23
                                C25C28C34
  20657728.054   108557095.0521   20657731.950    84589949.5311   20657730.735  
  21579412.420   113400589.2911                   88364107.6321   21579416.262  
  20486282.498   107656141.2801   20486283.249    83887909.6041   20486281.909  
  22306452.002   117221195.2701   22306457.166    91341210.9581   22306456.523  
  22780703.555   119713418.6231   22780706.485    93283223.4881   22780706.664  
  23595089.048   123993029.0251                   96617932.7341   23595091.406  
  21949231.988   115344016.0761   21949234.383    89878470.9671   21949234.311  
  21635553.459   113695606.9981   21635559.874    88594018.9381   21635559.963  
  23559173.866   126158350.082    23559180.817    98123144.995                  
  20925926.543   111782536.708    20925934.798    86942002.759                  
  19455609.619   103891874.054    19455616.338    80804812.820                  
  22411590.688   119466404.622    22411596.353    92918317.338                  
  21249151.187   113429397.006                                                  
  19525169.044   104446551.219                                                  
  21994333.045   117613616.976    21994343.552    91477303.116                  
  25732365.252   135224496.516                                                  
  23899550.288   125592995.765                                                  
  26767005.805   140661561.164                                                  
  25509240.159   134051967.713                                                  
  23478703.830   123381418.508                                                  
  25455652.281   133770343.618                                                  
                 113040498.235    21708236.443   113040498.235                  
                 128311352.121    24640845.116   128311352.121                  
                 115418851.380    22164976.836   115418851.380                  
                 118093947.317    22678700.793   118093947.317                  
                 130796041.453    25118002.082   130796041.453                  
                 119623111.084    22972360.673   119623111.084                  
 21  9  1  8 12 19.0000000  0 27G30G21G 7G 8G17G13G14G 1R 4R12R13R14
                                R22R23R24E13E15E19E21E27E30C11C12C23
                                C25C28C34
  20657562.069   108556223.3711   20657566.072    84589270.2991   20657564.874  
  21579380.416   113400421.0391                   88363976.5211   21579384.222  
  20486544.405   107657517.3691   20486545.048    83888981.8811   20486543.815  
  22307008.247   117224118.2571   22307013.554    91343488.6141   22307012.750  
  22780170.111   119710615.4791   22780172.863    93281039.2251   22780173.292  
  23594891.309   123991989.0951                   96617122.4141   23594893.543  
  21948816.516   115341832.6651   21948819.071    89876769.6081   21948818.785  
  21635041.422   113692915.9821   21635047.676    88591922.0431   21635047.909  
  23559539.788   126160308.964    23559546.685    98124668.558                  
  20926365.442   111784881.562    20926373.608    86943826.527                  
  19455446.475   103891001.776    19455453.140    80804134.404                  
  22410947.135   119462973.697    22410952.746    92915648.846                  
  21249763.737   113432667.901                                                  
  19524833.338   104444755.530                                                  
  21993557.315   117609468.533    21993568.090    91474076.579                  
  25731795.945   135221505.430                                                  
  23899405.013   125592232.451                                                  
  26767239.443   140662791.217                                                  
  25508883.029   134050091.209                                                  
  23478715.856   123381481.769                                                  
  25456025.815   133772306.870                                                  
                 113040966.392    21708326.342   113040966.392                  
                 128314243.257    24641400.109   128314243.257                  
                 115417732.827    22164761.979   115417732.827                  
                 118095657.293    22679029.172   118095657.293                  
                 130792775.037    25117374.898   130792775.037                  
                 119624956.350    22972714.927   119624956.350                  
 21  9  1  8 12 20.0000000  0 27G30G21G 7G 8G17G13G14G 1R 4R12R13R14
                                R22R23R24E13E15E19E21E27E30C11C12C23
                                C25C28C34
  20657396.352   108555352.3091   20657400.158    84588591.5491   20657399.121  
  21579348.609   113400253.4581                   88363845.9391   21579352.308  
  20486806.400   107658894.0921   20486807.133    83890054.6501   20486805.811  
  22307564.491   117227041.4981   22307570.066    91345766.4611   22307569.030  
  22779636.792   119707812.6821   22779639.401    93278855.2241   22779639.919  
  23594693.588   123990949.8191                   96616312.5981   23594695.804  
  21948401.007   115339649.4701   21948403.616    89875068.4171   21948403.348  
  21634529.492   113690225.5311   21634535.693    88589825.5901   21634535.961  
  23559905.835   126162268.492    23559912.679    98126192.626                  
  20926804.537   111787226.895    20926812.739    86945650.680                  
  19455283.760   103890130.064    19455289.281    80803456.367                  
  22410303.833   119459542.853    22410309.301    92912980.398                  
  21250376.394   113435939.404                                                  
  19524497.758   104442960.721                                                  
  21992781.603   117605320.512    21992792.342    91470850.333                  
  25731226.781   135218514.570                                                  
  23899259.881   125591469.673                                                  
  26767473.491   140664021.711                                                  
  25508525.934   134048214.809                                                  
  23478727.882   123381545.262                                                  
  25456399.421   133774270.271                                                  
                 113041435.125    21708416.437   113041435.125                  
                 128317134.620    24641955.532   128317134.620                  
                 115416614.672    22164547.175   115416614.672                  
                 118097367.673    22679357.676   118097367.673                  
                 130789508.807    25116747.516   130789508.807                  
                 119626802.038    22973069.323   119626802.038                  
 21  9  1  8 12 21.0000000  0 27G30G21G 7G 8G17G13G14G 1R 4R12R13R14
                                R22R23R24E13E15E19E21E27E30C11C12C23
                                C25C28C34
  20657230.652   108554481.6491   20657234.512    84587913.1131   20657233.475  
  21579316.677   113400086.3181                   88363715.7021   21579320.466  
  20487068.414   107660271.2111   20487069.343    83891127.7251   20487067.878  
  22308121.004   117229964.7641   22308125.972    91348044.3321   22308125.311  
  22779103.491   119705009.9811   22779106.064    93276671.3041   22779106.600  
  23594495.850   123989910.9971                   96615503.1201   23594498.173  
  21947985.606   115337466.2671   21947988.001    89873367.2201   21947987.893  
  21634017.545   113687535.3901   21634023.531    88587729.3711   21634024.103  
  23560271.846   126164228.444    23560278.332    98127717.045                  
  20927243.669   111789572.456    20927251.460    86947474.993                  
  19455120.312   103889258.630    19455126.602    80802778.638                  
  22409660.316   119456111.863    22409665.712    92910311.857                  
  21250989.016   113439211.224                                                  
  19524162.482   104441166.552                                                  
  21992006.051   117601172.639    21992017.291    91467624.198                  
  25730657.563   135215523.704                                                  
  23899114.802   125590707.183                                                  
  26767707.683   140665252.407                                                  
  25508168.822   134046338.285                                                  
  23478739.961   123381608.755                                                  
  25456773.009   133776233.599                                                  
                 113041904.169    21708506.586   113041904.169                  
                 128320026.021    24642510.741   128320026.021                  
                 115415496.684    22164332.461   115415496.684                  
                 118099078.225    22679686.216   118099078.225                  
                 130786242.559    25116120.206   130786242.559                  
                 119628647.947    22973423.844   119628647.947                  
 21  9  1  8 12 22.0000000  0 27G30G21G 7G 8G17G13G14G 1R 4R12R13R14
                                R22R23R24E13E15E19E21E27E30C11C12C23
                                C25C28C34
  20657065.131   108553611.4241   20657068.812    84587235.0161   20657067.919  
  21579284.978   113399919.6561                   88363585.8361   21579288.730  
  20487330.606   107661648.7731   20487331.410    83892201.1501   20487330.052  
  22308677.267   117232888.1021   22308682.413    91350322.2561   22308681.609  
  22778570.047   119702207.4631   22778572.942    93274487.5281   22778573.317  
  23594298.343   123988872.6721                   96614694.0241   23594300.631  
  21947570.223   115335283.0841   21947572.742    89871666.0391   21947572.439  
  21633505.597   113684845.6011   21633511.816    88585633.4391   21633512.263  
  23560638.018   126166188.911    23560644.326    98129241.852                  
  20927682.800   111791918.279    20927690.376    86949299.531                  
  19454957.275   103888387.547    19454963.636    80802101.130                  
  22409016.620   119452680.775    22409021.855    92907643.230                  
  21251601.977   113442483.428                                                  
  19523827.295   104439373.064                                                  
  21991230.732   117597024.931    21991241.454    91464398.201                  
  25730088.453   135212532.873                                                  
  23898969.795   125589945.045                                                  
  26767941.856   140666483.334                                                  
  25507811.691   134044461.675                                                  
  23478751.987   123381672.285                                                  
  25457146.507   133778196.915                                                  
                 113042373.576    21708596.754   113042373.576                  
                 128322917.454    24643065.913   128322917.454                  
                 115414378.884    22164117.782   115414378.884                  
                 118100788.989    22680014.863   118100788.989                  
                 130782976.321    25115492.789   130782976.321                  
                 119630494.105    22973778.330   119630494.105                  
 21  9  1  8 12 23.0000000  0 27G30G21G 7G 8G17G13G14G 1R 4R12R13R14
                                R22R23R24E13E15E19E21E27E30C11C12C23
                                C25C28C34
  20656899.700   108552741.9911   20656903.113    84586557.5351   20656902.505  
  21579253.385   113399753.8391                   88363456.6231   21579257.174  
  20487592.995   107663027.1281   20487593.477    83893275.1931   20487592.405  
  22309233.762   117235811.8491   22309238.997    91352600.5001   22309237.979  
  22778036.943   119699405.4461   22778039.766    93272304.1341   22778040.159  
  23594101.141   123987835.1771                   96613885.5931   23594103.214  
  21947154.875   115333100.2721   21947157.645    89869965.1481   21947157.037  
  21632993.972   113682156.5251   21633000.083    88583538.0551   21633000.530  
  23561004.172   126168150.215    23561010.587    98130767.309                  
  20928122.146   111794264.749    20928129.704    86951124.557                  
  19454793.845   103887517.196    19454800.152    80801424.185                  
  22408372.817   119449249.954    22408378.445    92904974.821                  
  21252215.456   113445756.403                                                  
  19523492.250   104437580.633                                                  
  21990455.467   117592877.730    21990465.974    91461172.619                  
  25729519.432   135209542.429                                                  
  23898824.877   125589183.594                                                  
  26768176.047   140667714.884                                                  
  25507454.686   134042585.322                                                  
  23478764.138   123381736.218                                                  
  25457520.184   133780160.540                                                  
                 113042843.705    21708687.010   113042843.705                  
                 128325809.291    24643621.193   128325809.291                  
                 115413261.645    22163903.283   115413261.645                  
                 118102500.326    22680343.492   118102500.326                  
                 130779710.439    25114865.426   130779710.439                  
                 119632340.854    22974132.941   119632340.854                  
 21  9  1  8 12 24.0000000  0 27G30G21G 7G 8G17G13G14G 1R 4R12R13R14
                                R22R23R24E13E15E19E21E27E30C11C12C23
                                C25C28C34
  20656734.465   108551873.6091   20656737.896    84585880.8741   20656737.306  
  21579222.043   113399589.1111                   88363328.2611   21579225.813  
  20487855.473   107664406.5211   20487856.152    83894350.0491   20487854.937  
  22309790.239   117238736.2701   22309795.492    91354879.2721   22309794.492  
  22777503.981   119696604.1771   22777506.715    93270121.3321   22777507.090  
  23593904.099   123986798.7451                   96613077.9881   23593905.993  
  21946739.653   115330918.1011   21946742.154    89868264.7531   21946741.743  
  21632482.471   113679468.4061   21632488.528    88581443.4191   21632489.029  
  23561370.773   126170112.610    23561376.991    98132293.618                  
  20928561.509   111796612.132    20928569.336    86952950.308                  
  19454631.308   103886647.768    19454636.847    80800747.979                  
  22407729.085   119445819.640    22407734.946    92902306.797                  
  21252829.061   113449030.402                                                  
  19523157.492   104435789.508                                                  
  21989680.237   117588731.342    21989689.887    91457947.685                  
  25728950.553   135206552.628                                                  
  23898680.210   125588423.091                                                  
  26768410.489   140668947.285                                                  
  25507097.681   134040709.496                                                  
  23478776.450   123381800.791                                                  
  25457893.879   133782124.757                                                  
                 113043314.810    21708777.481   113043314.810                  
                 128328701.803    24644176.938   128328701.803                  
                 115412145.221    22163688.908   115412145.221                  
                 118104212.469    22680672.371   118104212.469                  
                 130776445.181    25114238.134   130776445.181                  
                 119634188.450    22974487.802   119634188.450                  
 21  9  1  8 12 25.0000000  0 27G30G21G 7G 8G17G13G14G 1R 4R12R13R14
                                R22R23R24E13E15E19E21E27E30C11C12C23
                                C25C28C34
  20656569.266   108551005.7131   20656572.840    84585204.5921   20656572.179  
  21579190.611   113399424.9201                   88363200.3251   21579194.543  
  20488118.004   107665786.4191   20488119.255    83895425.2901   20488117.576  
  22310346.788   117241660.8121   22310351.791    91357158.1401   22310351.040  
  22776970.948   119693803.1231   22776973.700    93267938.6921   22776974.093  
  23593707.022   123985762.8761                   96612270.8201   23593708.898  
  21946324.287   115328736.0161   21946326.950    89866564.4271   21946326.503  
  21631970.899   113676780.7011   21631976.974    88579349.1061   21631977.617  
  23561737.499   126172075.544    23561743.521    98133820.333                  
  20929000.962   111798959.858    20929008.771    86954776.304                  
  19454468.575   103885778.794    19454473.399    80800072.080                  
  22407085.318   119442389.272    22407091.626    92899638.730                  
  21253442.558   113452304.877                                                  
  19522822.913   104433999.138                                                  
  21988904.882   117584585.252    21988914.014    91454722.904                  
  25728381.640   135203562.933                                                  
  23898535.596   125587662.995                                                  
  26768645.002   140670179.968                                                  
  25506740.604   134038833.656                                                  
  23478788.780   123381865.484                                                  
  25458267.645   133784089.024                                                  
                 113043786.358    21708867.934   113043786.358                  
                 128331594.422    24644732.718   128331594.422                  
                 115411029.055    22163474.533   115411029.055                  
                 118105924.893    22681001.179   118105924.893                  
                 130773179.994    25113610.949   130773179.994                  
                 119636036.350    22974842.698   119636036.350                  
 21  9  1  8 12 26.0000000  0 27G30G21G 7G 8G17G13G14G 1R 4R12R13R14
                                R22R23R24E13E15E19E21E27E30C11C12C23
                                C25C28C34
  20656404.371   108550138.6601   20656408.087    84584528.9631   20656407.212  
  21579159.591   113399261.6091                   88363073.0701   21579163.451  
  20488380.751   107667167.1531   20488382.037    83896501.1891   20488380.375  
  22310903.336   117244585.8261   22310908.375    91359437.3701   22310907.660  
  22776438.219   119691002.6351   22776441.185    93265756.4891   22776441.185  
  23593510.302   123984727.8931                   96611464.3511   23593511.981  
  21945909.083   115326554.3531   21945911.566    89864864.4301   21945911.334  
  21631459.523   113674093.7611   21631465.723    88577255.3871   21631466.331  
  23562104.279   126174039.360    23562110.336    98135347.741                  
  20929440.522   111801308.231    20929448.635    86956602.821                  
  19454305.627   103884910.565    19454310.684    80799396.794                  
  22406441.962   119438959.205    22406448.073    92896970.896                  
  21254056.305   113455580.121                                                  
  19522488.583   104432209.856                                                  
  21988129.831   117580439.789    21988138.480    91451498.667                  
  25727812.833   135200573.681                                                  
  23898391.000   125586903.642                                                  
  26768879.640   140671413.299                                                  
  25506383.742   134036958.118                                                  
  23478801.145   123381930.611                                                  
  25458641.501   133786053.649                                                  
                 113044258.664    21708958.691   113044258.664                  
                 128334487.498    24645288.677   128334487.498                  
                 115409913.492    22163260.266   115409913.492                  
                 118107637.925    22681330.112   118107637.925                  
                 130769915.218    25112983.782   130769915.218                  
                 119637884.902    22975197.649   119637884.902                  
 21  9  1  8 12 27.0000000  0 27G30G21G 7G 8G17G13G14G 1R 4R12R13R14
                                R22R23R24E13E15E19E21E27E30C11C12C23
                                C25C28C34
  20656239.440   108549272.0181   20656243.103    84583853.6581   20656242.317  
  21579128.535   113399098.7561                   88362946.1731   21579132.430  
  20488643.622   107668548.3011   20488644.479    83897577.4011   20488643.246  
  22311459.867   117247510.8521   22311464.888    91361716.6131   22311464.281  
  22775905.365   119688202.2761   22775908.563    93263574.3961   22775908.295  
  23593313.010   123983693.3561                   96610658.2141   23593315.190  
  21945493.967   115324372.6911   21945496.362    89863164.4311   21945496.147  
  21630948.237   113671407.1421   21630954.258    88575161.9171   21630955.098  
  23562471.165   126176003.606    23562476.687    98136875.497                  
  20929880.118   111803656.840    20929888.373    86958429.519                  
  19454142.680   103884042.652    19454148.487    80798721.755                  
  22405798.444   119435529.039    22405804.627    92894302.982                  
  21254670.213   113458855.756                                                  
  19522154.450   104430421.237                                                  
  21987354.584   117576294.500    21987362.589    91448274.551                  
  25727243.990   135197584.423                                                  
  23898246.582   125586144.588                                                  
  26769114.261   140672646.876                                                  
  25506026.880   134035082.471                                                  
  23478813.510   123381995.753                                                  
  25459015.249   133788018.230                                                  
                 113044731.317    21709049.412   113044731.317                  
                 128337380.603    24645844.618   128337380.603                  
                 115408798.094    22163046.034   115408798.094                  
                 118109351.141    22681659.117   118109351.141                  
                 130766650.427    25112356.740   130766650.427                  
                 119639733.672    22975552.653   119639733.672                  
 21  9  1  8 12 28.0000000  0 27G30G21G 7G 8G17G13G14G 1R 4R12R13R14
                                R22R23R24E13E15E19E21E27E30C11C12C23
                                C25C28C34
  20656074.651   108548405.7601   20656078.708    84583178.6511   20656077.511  
  21579097.639   113398936.3491                   88362819.6221   21579101.463  
  20488906.511   107669929.8511   20488907.529    83898653.9361   20488906.171  
  22312016.469   117250435.9131   22312021.419    91363995.8751   22312020.918  
  22775372.618   119685402.0261   22775376.138    93261392.3831   22775375.423  
  23593116.039   123982659.2741                   96609852.4271   23593118.470  
  21945078.799   115322191.0081   21945081.372    89861464.4181   21945080.925  
  21630437.057   113668720.8421   21630443.008    88573068.6961   21630443.937  
  23562838.141   126177968.241    23562843.341    98138403.554                  
  20930319.857   111806005.705    20930328.362    86960256.405                  
  19453980.143   103883175.056    19453986.183    80798046.958                  
  22405155.034   119432098.725    22405161.342    92891634.958                  
  21255283.478   113462131.716                                                  
  19521820.282   104428633.266                                                  
  21986579.283   117572149.357    21986587.574    91445050.525                  
  25726675.201   135194595.168                                                  
  23898102.218   125585385.851                                                  
  26769348.952   140673880.615                                                  
  25505670.089   134033206.704                                                  
  23478825.929   123382060.903                                                  
  25459389.051   133789982.725                                                  
                 113045204.289    21709140.401   113045204.289                  
                 128340273.719    24646400.488   128340273.719                  
                 115407682.876    22162831.910   115407682.876                  
                 118111064.537    22681988.121   118111064.537                  
                 130763385.613    25111729.591   130763385.613                  
                 119641582.639    22975907.746   119641582.639                  
 21  9  1  8 12 29.0000000  0 27G30G21G 7G 8G17G13G14G 1R 4R12R13R14
                                R22R23R24E13E15E19E21E27E30C11C12C23
                                C25C28C34
  20655909.863   108547539.5541   20655913.687    84582503.6841   20655912.705  
  21579066.886   113398774.0301                   88362693.1401   21579070.532  
  20489169.400   107671311.4391   20489170.365    83899730.4981   20489169.132  
  22312572.875   117253360.6571   22312578.128    91366274.8961   22312577.485  
  22774839.674   119682601.5261   22774843.105    93259210.1801   22774842.515  
  23592919.123   123981625.2511                   96609046.7081   23592921.749  
  21944663.576   115320008.9611   21944666.113    89859764.1221   21944665.667  
  21629925.842   113666034.4921   21629931.686    88570975.4371   21629932.740  
  23563204.957   126179932.981    23563209.996    98139931.668                  
  20930759.488   111808354.493    20930768.030    86962083.242                  
  19453817.731   103882307.450    19453823.807    80797372.144                  
  22404511.357   119428667.937    22404517.646    92888966.567                  
  21255897.386   113465407.720                                                  
  19521486.131   104426845.567                                                  
  21985804.142   117568003.995    21985812.880    91441826.376                  
  25726106.305   135191605.554                                                  
  23897957.801   125584627.056                                                  
  26769583.590   140675114.196                                                  
  25505313.066   134031330.444                                                  
  23478838.277   123382125.699                                                  
  25459762.764   133791946.813                                                  
                 113045677.238    21709231.265   113045677.238                  
                 128343166.484    24646956.161   128343166.484                  
                 115406567.452    22162617.714   115406567.452                  
                 118112777.752    22682317.197   118112777.752                  
                 130760120.416    25111102.442   130760120.416                  
                 119643431.473    22976262.732   119643431.473                  
 21  9  1  8 12 30.0000000  0 27G30G21G 7G 8G17G13G14G 1R 4R12R13R14
                                R22R23R24E13E15E19E21E27E30C11C12C23
                                C25C28C34
  20655745.218   108546674.0921   20655749.149    84581829.3001   20655748.059  
  21579036.223   113398612.4941                   88362567.2681   21579039.761  
  20489432.396   107672693.7791   20489433.272    83900807.6441   20489432.235  
  22313129.495   117256285.7681   22313134.659    91368554.2061   22313134.141  
  22774306.713   119679801.5081   22774310.215    93257028.3521   22774309.679  
  23592722.260   123980592.0461                   96608241.6201   23592725.119  
  21944248.371   115317827.2481   21944251.070    89858064.0881   21944250.498  
  21629414.860   113663348.8121   21629420.221    88568882.7011   21629421.668  
  23563572.112   126181898.540    23563577.061    98141460.425                  
  20931199.424   111810703.881    20931207.661    86963910.555                  
  19453655.516   103881440.498    19453660.931    80796697.832                  
  22403867.661   119425237.373    22403874.219    92886298.351                  
  21256510.830   113468684.416                                                  
  19521152.159   104425058.874                                                  
  21985029.234   117563859.124    21985038.508    91438602.575                  
  25725537.356   135188616.288                                                  
  23897813.526   125583868.915                                                  
  26769818.461   140676348.363                                                  
  25504956.096   134029454.413                                                  
  23478850.624   123382190.849                                                  
  25460136.388   133793911.177                                                  
                 113046150.871    21709322.236   113046150.871                  
                 128346059.623    24647511.941   128346059.623                  
                 115405452.551    22162403.678   115405452.551                  
                 118114491.485    22682646.416   118114491.485                  
                 130756855.538    25110475.310   130756855.538                  
                 119645280.851    22976617.843   119645280.851                  
 21  9  1  8 12 31.0000000  0 27G30G21G 7G 8G17G13G14G 1R 4R12R13R14
                                R22R23R24E13E15E19E21E27E30C11C12C23
                                C25C28C34
  20655580.716   108545809.3891   20655584.451    84581155.5101   20655583.557  
  21579005.685   113398451.7751                   88362442.0321   21579009.152  
  20489695.589   107674076.8841   20489696.661    83901885.3901   20489695.517  
  22313686.222   117259211.2611   22313691.511    91370833.8081   22313690.850  
  22773773.841   119677001.9831   22773777.254    93254846.8971   22773776.968  
  23592525.754   123979559.6401                   96607437.1291   23592528.720  
  21943833.310   115315645.8881   21943835.686    89856364.3291   21943835.383  
  21628903.913   113660663.8121   21628909.327    88566790.4961   21628910.703  
  23563939.284   126183864.928    23563944.073    98142989.837                  
  20931639.430   111813053.877    20931647.364    86965738.325                  
  19453493.516   103880574.216    19453499.109    80796024.066                  
  22403224.072   119421807.023    22403230.291    92883630.296                  
  21257124.899   113471961.833                                                  
  19520818.348   104423273.209                                                  
  21984254.362   117559714.766    21984263.565    91435379.197                  
  25724968.585   135185627.399                                                  
  23897669.323   125583111.431                                                  
  26770053.421   140677583.076                                                  
  25504599.127   134027578.629                                                  
  23478863.097   123382256.358                                                  
  25460510.172   133795875.846                                                  
                 113046625.183    21709413.279   113046625.183                  
                 128348953.150    24648067.792   128348953.150                  
                 115404338.174    22162189.733   115404338.174                  
                 118116205.765    22682975.760   118116205.765                  
                 130753591.012    25109848.394   130753591.012                  
                 119647130.807    22976973.168   119647130.807                  
 21  9  1  8 12 32.0000000  0 27G30G21G 7G 8G17G13G14G 1R 4R12R13R14
                                R22R23R24E13E15E19E21E27E30C11C12C23
                                C25C28C34
  20655416.232   108544945.4811   20655420.199    84580482.3331   20655419.216  
  21578975.308   113398291.8851                   88362317.4381   21578978.703  
  20489958.925   107675460.7791   20489959.925    83902963.7481   20489958.907  
  22314242.896   117262137.1611   22314248.399    91373113.7281   22314247.649  
  22773241.183   119674202.9411   22773244.417    93252665.8281   22773244.328  
  23592329.302   123978528.0581                   96606633.2991   23592332.447  
  21943418.248   115313464.9031   21943420.517    89854664.8601   21943420.321  
  21628393.252   113657979.5251   21628398.613    88564698.8411   21628399.882  
  23564306.546   126185832.143    23564311.657    98144519.887                  
  20932079.384   111815404.490    20932087.246    86967566.587                  
  19453331.980   103879708.659    19453337.662    80795350.834                  
  22402580.448   119418376.929    22402586.630    92880962.447                  
  21257738.610   113475239.984                                                  
  19520484.751   104421488.590                                                  
  21983479.543   117555570.970    21983488.567    91432156.226                  
  25724399.849   135182638.881                                                  
  23897525.299   125582354.648                                                  
  26770288.613   140678818.417                                                  
  25504242.229   134025703.102                                                  
  23478875.605   123382322.269                                                  
  25460883.974   133797840.847                                                  
                 113047100.217    21709504.518   113047100.217                  
                 128351847.060    24648623.555   128351847.060                  
                 115403224.352    22161975.733   115403224.352                  
                 118117920.603    22683305.068   118117920.603                  
                 130750326.834    25109221.405   130750326.834                  
                 119648981.360    22977328.494   119648981.360                  
 21  9  1  8 12 33.0000000  0 27G30G21G 7G 8G17G13G14G 1R 4R12R13R14
                                R22R23R24E13E15E19E21E27E30C11C12C23
                                C25C28C34
  20655251.926   108544081.9581   20655255.964    84579809.4561   20655254.892  
  21578944.930   113398132.4161                   88362193.1761   21578948.343  
  20490222.475   107676845.0491   20490223.297    83904042.4021   20490222.350  
  22314799.587   117265063.0821   22314805.145    91375393.6691   22314804.430  
  22772708.597   119671404.0121   22772711.670    93250484.8481   22772711.688  
  23592132.904   123977496.9191                   96605829.8241   23592136.245  
  21943003.276   115311283.8951   21943005.563    89852965.3731   21943005.259  
  21627882.448   113655295.5471   21627887.916    88562607.4321   21627889.149  
  23564673.916   126187799.733    23564679.312    98146050.237                  
  20932519.426   111817755.360    20932527.360    86969395.035                  
  19453169.586   103878843.385    19453175.429    80794677.813                  
  22401937.145   119414946.653    22401942.935    92878294.455                  
  21258352.590   113478518.489                                                  
  19520151.315   104419704.604                                                  
  21982704.689   117551427.304    21982713.087    91428933.394                  
  25723831.221   135179650.356                                                  
  23897381.400   125581598.145                                                  
  26770523.876   140680053.926                                                  
  25503885.295   134023827.432                                                  
  23478888.167   123382388.168                                                  
  25461257.865   133799805.753                                                  
