% program   : rnx2rtkp ver.2.4.3 b31
% inp file  : ngs/21_08_31_18_48_30_moip.obs
% inp file  : ngs/21_08_31_18_48_30_moip_SNMO.obs
% inp file  : ngs/21_08_31_18_48_30_brdc.nav
% obs start : 2021/08/31 18:00:00.0 GPST (week2173 237600.0s)
% obs end   : 2021/08/31 18:59:59.0 GPST (week2173 241199.0s)
% ref pos   :  -379046.1897  -4940284.4028   4002819.2058
%
% (x/y/z-ecef=WGS84,Q=1:fix,2:float,3:sbas,4:dgps,5:single,6:ppp,ns=# of satellites)
%  GPST              x-ecef(m)      y-ecef(m)      z-ecef(m)   Q  ns   sdx(m)   sdy(m)   sdz(m)  sdxy(m)  sdyz(m)  sdzx(m) age(s)  ratio
2173 240487.000   -379062.0563  -4940496.7757   4002991.7241   2   6   0.4857   1.3261   0.9223  -0.4832  -0.9261   0.2474 -30.00    1.1
2173 240488.000   -379062.0467  -4940496.9690   4002991.8647   2   6   0.3452   0.9427   0.6554  -0.3432  -0.6582   0.1757 -29.00    1.0
2173 240489.000   -379062.0595  -4940496.8901   4002991.7913   2   6   0.2827   0.7719   0.5364  -0.2812  -0.5388   0.1440 -28.00    1.1
2173 240490.000   -379062.0436  -4940496.8231   4002991.7419   2   6   0.2453   0.6698   0.4654  -0.2442  -0.4674   0.1251 -27.00    1.1
2173 240491.000   -379062.0359  -4940496.7460   4002991.7345   2   6   0.2198   0.5999   0.4167  -0.2189  -0.4186   0.1122 -26.00    1.1
2173 240492.000   -379062.0508  -4940496.7351   4002991.7274   2   6   0.2009   0.5483   0.3808  -0.2002  -0.3825   0.1027 -25.00    1.2
2173 240493.000   -379062.0585  -4940496.7218   4002991.7340   2   6   0.1862   0.5081   0.3528  -0.1857  -0.3544   0.0953 -24.00    1.2
2173 240494.000   -379062.0734  -4940496.7176   4002991.7216   2   6   0.1744   0.4756   0.3301  -0.1739  -0.3317   0.0893 -23.00    1.2
2173 240495.000   -379062.0767  -4940496.7199   4002991.7107   2   6   0.1645   0.4486   0.3113  -0.1642  -0.3128   0.0843 -22.00    1.2
2173 240496.000   -379062.0795  -4940496.6915   4002991.6937   2   6   0.1561   0.4257   0.2954  -0.1559  -0.2968   0.0800 -21.00    1.3
2173 240497.000   -379062.0795  -4940496.6575   4002991.6797   2   6   0.1489   0.4060   0.2816  -0.1487  -0.2830   0.0764 -20.00    1.4
2173 240498.000   -379062.0781  -4940496.6751   4002991.6943   2   6   0.1426   0.3887   0.2696  -0.1424  -0.2709   0.0732 -19.00    1.4
2173 240499.000   -379062.0813  -4940496.6773   4002991.6867   2   6   0.1370   0.3734   0.2589  -0.1369  -0.2603   0.0703 -18.00    1.5
2173 240500.000   -379062.0985  -4940496.6368   4002991.6676   2   6   0.1320   0.3598   0.2494  -0.1319  -0.2507   0.0678 -17.00    1.6
2173 240501.000   -379062.1117  -4940496.6054   4002991.6633   2   6   0.1275   0.3475   0.2408  -0.1274  -0.2421   0.0655 -16.00    1.7
2173 240502.000   -379062.1245  -4940496.5826   4002991.6740   2   6   0.1234   0.3363   0.2330  -0.1233  -0.2343   0.0634 -15.00    1.9
2173 240503.000   -379062.1215  -4940496.5922   4002991.6855   2   6   0.1197   0.3261   0.2259  -0.1196  -0.2271   0.0615 -14.00    2.0
2173 240504.000   -379062.1311  -4940496.5707   4002991.6846   2   6   0.1163   0.3168   0.2194  -0.1162  -0.2206   0.0597 -13.00    2.2
2173 240505.000   -379062.1331  -4940496.5672   4002991.6919   2   6   0.1131   0.3082   0.2134  -0.1130  -0.2146   0.0581 -12.00    2.4
2173 240506.000   -379062.1266  -4940496.5755   4002991.6948   2   6   0.1102   0.3002   0.2078  -0.1101  -0.2090   0.0566 -11.00    2.5
2173 240507.000   -379062.1271  -4940496.5609   4002991.6936   2   6   0.1075   0.2928   0.2026  -0.1074  -0.2038   0.0552 -10.00    2.6
2173 240508.000   -379062.1281  -4940496.5471   4002991.6851   2   6   0.1050   0.2859   0.1978  -0.1048  -0.1989   0.0539  -9.00    2.8
2173 240509.000   -379062.1334  -4940496.5193   4002991.6803   2   6   0.1026   0.2794   0.1933  -0.1024  -0.1944   0.0527  -8.00    3.0
2173 240510.000   -379062.4708  -4940496.4462   4002992.1872   1   6   0.0089   0.0234   0.0163  -0.0101  -0.0165   0.0056  -7.00    3.1
2173 240511.000   -379062.4706  -4940496.4349   4002992.1795   1   6   0.0081   0.0212   0.0147  -0.0091  -0.0150   0.0050  -6.00    3.2
2173 240512.000   -379062.4703  -4940496.4363   4002992.1781   1   6   0.0073   0.0192   0.0133  -0.0080  -0.0135   0.0043  -5.00    3.2
2173 240513.000   -379062.4689  -4940496.4345   4002992.1742   1   6   0.0065   0.0173   0.0120  -0.0070  -0.0122   0.0038  -4.00    3.3
2173 240514.000   -379062.4670  -4940496.4363   4002992.1724   1   6   0.0058   0.0157   0.0108  -0.0062  -0.0110   0.0034  -3.00    3.3
2173 240515.000   -379062.4655  -4940496.4350   4002992.1738   1   6   0.0053   0.0145   0.0100  -0.0055  -0.0100   0.0029  -2.00    3.4
2173 240516.000   -379062.4667  -4940496.4347   4002992.1695   1   6   0.0051   0.0136   0.0094  -0.0051  -0.0095   0.0026  -1.00    3.5
2173 240517.000   -379062.4626  -4940496.4358   4002992.1674   1   6   0.0050   0.0134   0.0092  -0.0048  -0.0093   0.0025   0.00    3.4
2173 240518.000   -379062.4647  -4940496.4345   4002992.1696   1   6   0.0048   0.0133   0.0093  -0.0050  -0.0093   0.0027   0.00    3.6
2173 240519.000   -379062.4629  -4940496.4426   4002992.1717   1   6   0.0051   0.0134   0.0093  -0.0047  -0.0093   0.0022   0.00    3.7
2173 240520.000   -379062.4623  -4940496.4422   4002992.1689   1   6   0.0051   0.0134   0.0092  -0.0048  -0.0093   0.0023   0.00    3.8
2173 240521.000   -379062.4602  -4940496.4403   4002992.1679   1   6   0.0049   0.0134   0.0092  -0.0049  -0.0092   0.0026   0.00    4.0
2173 240522.000   -379062.4615  -4940496.4420   4002992.1707   1   6   0.0049   0.0134   0.0092  -0.0049  -0.0094   0.0025   0.00    4.3
2173 240523.000   -379062.4612  -4940496.4487   4002992.1737   1   6   0.0050   0.0134   0.0092  -0.0049  -0.0093   0.0023   0.00    4.5
2173 240524.000   -379062.4640  -4940496.4386   4002992.1773   1   6   0.0047   0.0133   0.0092  -0.0049  -0.0094   0.0025   0.00    4.5
2173 240525.000   -379062.4605  -4940496.4415   4002992.1742   1   6   0.0049   0.0134   0.0092  -0.0049  -0.0093   0.0026   0.00    4.6
2173 240526.000   -379062.4605  -4940496.4412   4002992.1753   1   6   0.0048   0.0133   0.0093  -0.0049  -0.0093   0.0027   0.00    4.6
2173 240527.000   -379062.4614  -4940496.4328   4002992.1728   1   6   0.0049   0.0134   0.0093  -0.0048  -0.0092   0.0025   0.00    4.7
2173 240528.000   -379062.4591  -4940496.4487   4002992.1806   1   6   0.0047   0.0134   0.0093  -0.0050  -0.0092   0.0024   0.00    4.7
2173 240529.000   -379062.4606  -4940496.4377   4002992.1744   1   6   0.0050   0.0134   0.0091  -0.0048  -0.0092   0.0025   0.00    4.8
2173 240530.000   -379062.4592  -4940496.4375   4002992.1735   1   6   0.0049   0.0134   0.0091  -0.0050  -0.0093   0.0026   0.00    4.9
2173 240531.000   -379062.4579  -4940496.4414   4002992.1745   1   6   0.0048   0.0134   0.0093  -0.0050  -0.0093   0.0024   0.00    4.9
2173 240532.000   -379062.4586  -4940496.4374   4002992.1736   1   6   0.0049   0.0133   0.0094  -0.0049  -0.0093   0.0025   0.00    5.0
2173 240533.000   -379062.4608  -4940496.4268   4002992.1688   1   6   0.0046   0.0134   0.0091  -0.0049  -0.0092   0.0027   0.00    5.1
2173 240534.000   -379062.4615  -4940496.4418   4002992.1772   1   6   0.0048   0.0134   0.0091  -0.0050  -0.0093   0.0027   0.00    5.2
2173 240535.000   -379062.4574  -4940496.4390   4002992.1753   1   6   0.0048   0.0134   0.0092  -0.0051  -0.0092   0.0027   0.00    5.2
2173 240536.000   -379062.4622  -4940496.4348   4002992.1751   1   6   0.0050   0.0134   0.0092  -0.0048  -0.0093   0.0027   0.00    5.2
2173 240537.000   -379062.4593  -4940496.4388   4002992.1754   1   6   0.0048   0.0134   0.0092  -0.0051  -0.0093   0.0026   0.00    5.2
2173 240538.000   -379062.4560  -4940496.4424   4002992.1764   1   6   0.0049   0.0134   0.0092  -0.0049  -0.0093   0.0026   0.00    5.1
2173 240539.000   -379062.4562  -4940496.4399   4002992.1772   1   6   0.0053   0.0134   0.0090  -0.0047  -0.0093   0.0022   0.00    5.1
2173 240540.000   -379062.4587  -4940496.4342   4002992.1735   1   6   0.0048   0.0134   0.0092  -0.0050  -0.0093   0.0023   0.00    5.1
2173 240541.000   -379062.4601  -4940496.4317   4002992.1743   1   6   0.0047   0.0134   0.0091  -0.0051  -0.0093   0.0027   0.00    5.0
2173 240542.000   -379062.4591  -4940496.4318   4002992.1769   1   6   0.0050   0.0134   0.0093  -0.0050  -0.0092   0.0025   0.00    5.0
2173 240543.000   -379062.4596  -4940496.4299   4002992.1740   1   6   0.0046   0.0134   0.0092  -0.0051  -0.0092   0.0025   0.00    5.0
2173 240544.000   -379062.4575  -4940496.4385   4002992.1776   1   6   0.0051   0.0134   0.0094  -0.0048  -0.0092   0.0023   0.00    5.0
2173 240545.000   -379062.4606  -4940496.4330   4002992.1770   1   6   0.0049   0.0134   0.0090  -0.0049  -0.0092   0.0025   0.00    5.0
2173 240546.000   -379062.4584  -4940496.4328   4002992.1755   1   6   0.0049   0.0134   0.0091  -0.0051  -0.0092   0.0028   0.00    5.0
2173 240547.000   -379062.4558  -4940496.4372   4002992.1752   1   6   0.0050   0.0133   0.0093  -0.0049  -0.0093   0.0025   0.00    5.0
2173 240548.000   -379062.4599  -4940496.4299   4002992.1755   1   6   0.0047   0.0134   0.0091  -0.0051  -0.0092   0.0027   0.00    5.0
2173 240549.000   -379062.4557  -4940496.4369   4002992.1746   1   6   0.0054   0.0134   0.0092  -0.0049  -0.0093   0.0025   0.00    5.0
2173 240550.000   -379062.4571  -4940496.4330   4002992.1730   1   6   0.0049   0.0134   0.0092  -0.0049  -0.0092   0.0026   0.00    5.1
2173 240551.000   -379062.4582  -4940496.4307   4002992.1706   1   6   0.0050   0.0134   0.0092  -0.0050  -0.0093   0.0027   0.00    5.1
2173 240552.000   -379062.4600  -4940496.4225   4002992.1675   1   6   0.0046   0.0134   0.0090  -0.0052  -0.0092   0.0029   0.00    5.2
2173 240553.000   -379062.4615  -4940496.4181   4002992.1650   1   6   0.0050   0.0134   0.0092  -0.0049  -0.0093   0.0026   0.00    5.2
2173 240554.000   -379062.4617  -4940496.4273   4002992.1729   1   6   0.0050   0.0134   0.0092  -0.0049  -0.0093   0.0025   0.00    5.2
2173 240555.000   -379062.4637  -4940496.4220   4002992.1672   1   6   0.0046   0.0134   0.0092  -0.0050  -0.0092   0.0027   0.00    5.2
2173 240556.000   -379062.4617  -4940496.4224   4002992.1673   1   6   0.0046   0.0134   0.0090  -0.0051  -0.0092   0.0028   0.00    5.2
2173 240557.000   -379062.4609  -4940496.4250   4002992.1670   1   6   0.0050   0.0134   0.0093  -0.0049  -0.0093   0.0026   0.00    5.2
2173 240558.000   -379062.4640  -4940496.4209   4002992.1652   1   6   0.0049   0.0134   0.0091  -0.0050  -0.0093   0.0025   0.00    5.3
2173 240559.000   -379062.4579  -4940496.4223   4002992.1713   1   6   0.0051   0.0134   0.0092  -0.0049  -0.0093   0.0024   0.00    5.3
2173 240560.000   -379062.4610  -4940496.4281   4002992.1729   1   6   0.0047   0.0134   0.0093  -0.0052  -0.0092   0.0028   0.00    5.3
2173 240561.000   -379062.4568  -4940496.4362   4002992.1784   1   6   0.0050   0.0134   0.0090  -0.0050  -0.0092   0.0026   0.00    5.4
2173 240562.000   -379062.4598  -4940496.4284   4002992.1764   1   6   0.0049   0.0134   0.0091  -0.0051  -0.0092   0.0027   0.00    5.4
2173 240563.000   -379062.4591  -4940496.4284   4002992.1745   1   6   0.0049   0.0134   0.0092  -0.0051  -0.0092   0.0026   0.00    5.4
2173 240564.000   -379062.4587  -4940496.4347   4002992.1765   1   6   0.0048   0.0134   0.0091  -0.0050  -0.0093   0.0025   0.00    5.5
2173 240565.000   -379062.4606  -4940496.4262   4002992.1737   1   6   0.0050   0.0134   0.0091  -0.0049  -0.0092   0.0025   0.00    5.5
2173 240566.000   -379062.4590  -4940496.4247   4002992.1714   1   6   0.0048   0.0134   0.0091  -0.0051  -0.0092   0.0028   0.00    5.6
2173 240567.000   -379062.4597  -4940496.4308   4002992.1739   1   6   0.0051   0.0134   0.0091  -0.0049  -0.0092   0.0025   0.00    5.6
2173 240568.000   -379062.4591  -4940496.4312   4002992.1739   1   6   0.0051   0.0134   0.0091  -0.0048  -0.0092   0.0024   0.00    5.8
2173 240569.000   -379062.4563  -4940496.4418   4002992.1793   1   6   0.0047   0.0134   0.0091  -0.0051  -0.0093   0.0026   0.00    5.9
2173 240570.000   -379062.4548  -4940496.4419   4002992.1769   1   6   0.0050   0.0134   0.0092  -0.0050  -0.0093   0.0025   0.00    5.9
2173 240571.000   -379062.4574  -4940496.4444   4002992.1799   1   6   0.0049   0.0134   0.0090  -0.0050  -0.0093   0.0024   0.00    6.0
2173 240572.000   -379062.4564  -4940496.4432   4002992.1810   1   6   0.0048   0.0134   0.0091  -0.0051  -0.0091   0.0027   0.00    6.1
2173 240573.000   -379062.4563  -4940496.4430   4002992.1818   1   6   0.0050   0.0134   0.0091  -0.0052  -0.0092   0.0028   0.00    6.2
2173 240574.000   -379062.4581  -4940496.4460   4002992.1834   1   6   0.0052   0.0134   0.0092  -0.0050  -0.0092   0.0024   0.00    6.3
2173 240575.000   -379062.4588  -4940496.4497   4002992.1829   1   6   0.0049   0.0134   0.0091  -0.0050  -0.0092   0.0025   0.00    6.3
2173 240576.000   -379062.4609  -4940496.4449   4002992.1846   1   6   0.0051   0.0134   0.0091  -0.0050  -0.0093   0.0026   0.00    6.3
2173 240577.000   -379062.4581  -4940496.4446   4002992.1841   1   6   0.0051   0.0134   0.0091  -0.0051  -0.0091   0.0026   0.00    6.4
2173 240578.000   -379062.4596  -4940496.4459   4002992.1848   1   6   0.0053   0.0134   0.0091  -0.0049  -0.0093   0.0025   0.00    6.4
2173 240579.000   -379062.4559  -4940496.4476   4002992.1808   1   6   0.0049   0.0134   0.0090  -0.0050  -0.0091   0.0025   0.00    6.4
2173 240580.000   -379062.4536  -4940496.4492   4002992.1848   1   6   0.0048   0.0134   0.0090  -0.0050  -0.0093   0.0027   0.00    6.4
2173 240581.000   -379062.4545  -4940496.4475   4002992.1818   1   6   0.0050   0.0134   0.0091  -0.0050  -0.0093   0.0025   0.00    6.5
2173 240582.000   -379062.4547  -4940496.4473   4002992.1819   1   6   0.0050   0.0134   0.0091  -0.0050  -0.0092   0.0026   0.00    6.5
2173 240583.000   -379062.4549  -4940496.4497   4002992.1838   1   6   0.0049   0.0134   0.0092  -0.0051  -0.0092   0.0026   0.00    6.5
2173 240584.000   -379062.4558  -4940496.4522   4002992.1838   1   6   0.0052   0.0134   0.0091  -0.0051  -0.0091   0.0024   0.00    6.6
2173 240585.000   -379062.4569  -4940496.4467   4002992.1786   1   6   0.0049   0.0134   0.0091  -0.0051  -0.0091   0.0027   0.00    6.7
2173 240586.000   -379062.4573  -4940496.4400   4002992.1758   1   6   0.0051   0.0134   0.0090  -0.0050  -0.0092   0.0026   0.00    6.7
2173 240587.000   -379062.4576  -4940496.4407   4002992.1705   1   6   0.0048   0.0134   0.0091  -0.0051  -0.0091   0.0028   0.00    6.8
2173 240588.000   -379062.4556  -4940496.4466   4002992.1751   1   6   0.0049   0.0134   0.0090  -0.0050  -0.0092   0.0027   0.00    6.9
2173 240589.000   -379062.4551  -4940496.4410   4002992.1725   1   6   0.0050   0.0134   0.0092  -0.0050  -0.0093   0.0026   0.00    7.0
2173 240590.000   -379062.4550  -4940496.4400   4002992.1713   1   6   0.0046   0.0134   0.0091  -0.0051  -0.0091   0.0027   0.00    7.1
2173 240591.000   -379062.4552  -4940496.4419   4002992.1731   1   6   0.0050   0.0134   0.0092  -0.0051  -0.0092   0.0025   0.00    7.3
2173 240592.000   -379062.4573  -4940496.4350   4002992.1699   1   6   0.0050   0.0134   0.0091  -0.0050  -0.0093   0.0023   0.00    7.4
2173 240593.000   -379062.4553  -4940496.4403   4002992.1744   1   6   0.0049   0.0134   0.0092  -0.0050  -0.0092   0.0026   0.00    7.5
2173 240594.000   -379062.4564  -4940496.4443   4002992.1734   1   6   0.0048   0.0134   0.0092  -0.0051  -0.0092   0.0027   0.00    7.7
2173 240595.000   -379062.4549  -4940496.4413   4002992.1719   1   6   0.0050   0.0134   0.0091  -0.0050  -0.0092   0.0027   0.00    7.8
2173 240596.000   -379062.4545  -4940496.4452   4002992.1719   1   6   0.0052   0.0134   0.0092  -0.0049  -0.0092   0.0024   0.00    7.9
2173 240597.000   -379062.4554  -4940496.4383   4002992.1680   1   6   0.0049   0.0134   0.0090  -0.0051  -0.0092   0.0026   0.00    7.9
2173 240598.000   -379062.4534  -4940496.4377   4002992.1644   1   6   0.0047   0.0134   0.0092  -0.0052  -0.0092   0.0028   0.00    8.0
2173 240599.000   -379062.4555  -4940496.4388   4002992.1708   1   6   0.0050   0.0134   0.0091  -0.0050  -0.0091   0.0026   0.00    8.1
2173 240600.000   -379062.4546  -4940496.4380   4002992.1683   1   6   0.0049   0.0134   0.0091  -0.0051  -0.0092   0.0027   0.00    8.2
2173 240601.000   -379062.4547  -4940496.4418   4002992.1742   1   6   0.0051   0.0134   0.0092  -0.0051  -0.0093   0.0028   0.00    8.2
2173 240602.000   -379062.4554  -4940496.4394   4002992.1734   1   6   0.0052   0.0134   0.0092  -0.0050  -0.0092   0.0026   0.00    8.3
2173 240603.000   -379062.4542  -4940496.4365   4002992.1688   1   6   0.0050   0.0134   0.0092  -0.0050  -0.0093   0.0026   0.00    8.3
2173 240604.000   -379062.4570  -4940496.4397   4002992.1689   1   6   0.0050   0.0134   0.0091  -0.0051  -0.0092   0.0027   0.00    8.4
2173 240605.000   -379062.4559  -4940496.4401   4002992.1691   1   6   0.0051   0.0134   0.0092  -0.0050  -0.0091   0.0025   0.00    8.4
2173 240606.000   -379062.4553  -4940496.4434   4002992.1703   1   6   0.0049   0.0134   0.0091  -0.0051  -0.0091   0.0026   0.00    8.4
2173 240607.000   -379062.4525  -4940496.4442   4002992.1722   1   6   0.0048   0.0134   0.0091  -0.0051  -0.0092   0.0025   0.00    8.5
2173 240608.000   -379062.4544  -4940496.4446   4002992.1681   1   6   0.0048   0.0134   0.0091  -0.0050  -0.0091   0.0026   0.00    8.6
2173 240609.000   -379062.4550  -4940496.4456   4002992.1662   1   6   0.0051   0.0134   0.0091  -0.0049  -0.0091   0.0026   0.00    8.6
2173 240610.000   -379062.4545  -4940496.4520   4002992.1752   1   6   0.0052   0.0134   0.0091  -0.0048  -0.0091   0.0024   0.00    8.6
2173 240611.000   -379062.4540  -4940496.4538   4002992.1763   1   6   0.0051   0.0134   0.0091  -0.0051  -0.0091   0.0027   0.00    8.7
2173 240612.000   -379062.4556  -4940496.4484   4002992.1739   1   6   0.0049   0.0134   0.0091  -0.0050  -0.0092   0.0026   0.00    8.8
2173 240613.000   -379062.4543  -4940496.4488   4002992.1743   1   6   0.0052   0.0134   0.0090  -0.0050  -0.0092   0.0027   0.00    8.9
2173 240614.000   -379062.4561  -4940496.4462   4002992.1684   1   6   0.0050   0.0134   0.0091  -0.0050  -0.0092   0.0024   0.00    8.9
2173 240615.000   -379062.4527  -4940496.4496   4002992.1711   1   6   0.0051   0.0134   0.0090  -0.0050  -0.0092   0.0025   0.00    9.0
2173 240616.000   -379062.4545  -4940496.4438   4002992.1654   1   6   0.0049   0.0134   0.0090  -0.0052  -0.0091   0.0025   0.00    9.1
2173 240617.000   -379062.4542  -4940496.4460   4002992.1662   1   6   0.0046   0.0134   0.0091  -0.0052  -0.0092   0.0028   0.00    9.1
2173 240618.000   -379062.4556  -4940496.4488   4002992.1672   1   6   0.0051   0.0134   0.0090  -0.0050  -0.0091   0.0026   0.00    9.2
2173 240619.000   -379062.4541  -4940496.4432   4002992.1687   1   6   0.0052   0.0134   0.0089  -0.0050  -0.0091   0.0025   0.00    9.2
2173 240620.000   -379062.4519  -4940496.4454   4002992.1675   1   6   0.0047   0.0134   0.0090  -0.0052  -0.0092   0.0029   0.00    9.3
2173 240621.000   -379062.4519  -4940496.4421   4002992.1638   1   6   0.0051   0.0134   0.0091  -0.0049  -0.0092   0.0025   0.00    9.4
2173 240622.000   -379062.4508  -4940496.4470   4002992.1663   1   6   0.0050   0.0134   0.0090  -0.0050  -0.0092   0.0025   0.00    9.4
2173 240623.000   -379062.4527  -4940496.4413   4002992.1679   1   6   0.0051   0.0134   0.0092  -0.0051  -0.0092   0.0027   0.00    9.5
2173 240624.000   -379062.4524  -4940496.4454   4002992.1702   1   6   0.0053   0.0134   0.0090  -0.0049  -0.0091   0.0025   0.00    9.6
2173 240625.000   -379062.4525  -4940496.4462   4002992.1705   1   6   0.0052   0.0134   0.0093  -0.0051  -0.0093   0.0026   0.00    9.7
2173 240626.000   -379062.4494  -4940496.4511   4002992.1734   1   6   0.0050   0.0134   0.0091  -0.0051  -0.0092   0.0028   0.00    9.7
2173 240627.000   -379062.4485  -4940496.4538   4002992.1748   1   6   0.0051   0.0134   0.0091  -0.0050  -0.0091   0.0026   0.00    9.8
2173 240628.000   -379062.4482  -4940496.4496   4002992.1725   1   6   0.0050   0.0134   0.0091  -0.0050  -0.0091   0.0026   0.00    9.8
2173 240629.000   -379062.4521  -4940496.4500   4002992.1762   1   6   0.0049   0.0134   0.0091  -0.0052  -0.0091   0.0028   0.00    9.8
2173 240630.000   -379062.4501  -4940496.4496   4002992.1783   1   6   0.0051   0.0135   0.0090  -0.0051  -0.0090   0.0024   0.00    9.7
2173 240631.000   -379062.4497  -4940496.4453   4002992.1739   1   6   0.0051   0.0134   0.0090  -0.0051  -0.0092   0.0027   0.00    9.7
2173 240632.000   -379062.4502  -4940496.4430   4002992.1742   1   6   0.0052   0.0134   0.0090  -0.0050  -0.0091   0.0026   0.00    9.7
2173 240633.000   -379062.4521  -4940496.4424   4002992.1715   1   6   0.0050   0.0134   0.0091  -0.0051  -0.0090   0.0024   0.00    9.7
2173 240634.000   -379062.4489  -4940496.4436   4002992.1723   1   6   0.0047   0.0134   0.0089  -0.0053  -0.0090   0.0027   0.00    9.7
2173 240635.000   -379062.4508  -4940496.4403   4002992.1746   1   6   0.0050   0.0134   0.0091  -0.0051  -0.0092   0.0028   0.00    9.7
2173 240636.000   -379062.4540  -4940496.4353   4002992.1720   1   6   0.0051   0.0134   0.0090  -0.0049  -0.0091   0.0026   0.00    9.7
2173 240637.000   -379062.4515  -4940496.4411   4002992.1736   1   6   0.0052   0.0134   0.0090  -0.0051  -0.0092   0.0026   0.00    9.8
2173 240638.000   -379062.4497  -4940496.4463   4002992.1756   1   6   0.0053   0.0134   0.0090  -0.0049  -0.0091   0.0025   0.00    9.8
2173 240639.000   -379062.4522  -4940496.4480   4002992.1761   1   6   0.0051   0.0134   0.0090  -0.0053  -0.0091   0.0026   0.00    9.8
2173 240640.000   -379062.4498  -4940496.4541   4002992.1810   1   6   0.0054   0.0135   0.0089  -0.0049  -0.0091   0.0023   0.00    9.8
2173 240641.000   -379062.4519  -4940496.4533   4002992.1772   1   6   0.0052   0.0134   0.0090  -0.0051  -0.0091   0.0027   0.00    9.9
2173 240642.000   -379062.4511  -4940496.4487   4002992.1761   1   6   0.0050   0.0134   0.0090  -0.0051  -0.0091   0.0025   0.00    9.9
2173 240643.000   -379062.4517  -4940496.4542   4002992.1764   1   6   0.0049   0.0134   0.0089  -0.0052  -0.0091   0.0027   0.00    9.9
2173 240644.000   -379062.4513  -4940496.4572   4002992.1751   1   6   0.0049   0.0134   0.0090  -0.0050  -0.0091   0.0027   0.00    9.9
2173 240645.000   -379062.4515  -4940496.4546   4002992.1728   1   6   0.0050   0.0134   0.0090  -0.0053  -0.0090   0.0028   0.00    9.9
2173 240646.000   -379062.4518  -4940496.4472   4002992.1711   1   6   0.0049   0.0134   0.0090  -0.0052  -0.0090   0.0027   0.00    9.9
2173 240647.000   -379062.4530  -4940496.4467   4002992.1693   1   6   0.0050   0.0134   0.0089  -0.0052  -0.0091   0.0027   0.00    9.9
2173 240648.000   -379062.4524  -4940496.4524   4002992.1736   1   6   0.0052   0.0134   0.0089  -0.0052  -0.0091   0.0026   0.00    9.8
2173 240649.000   -379062.4518  -4940496.4458   4002992.1709   1   6   0.0050   0.0134   0.0091  -0.0051  -0.0092   0.0026   0.00    9.8
2173 240650.000   -379062.4507  -4940496.4522   4002992.1738   1   6   0.0050   0.0134   0.0089  -0.0052  -0.0091   0.0026   0.00    9.8
2173 240651.000   -379062.4505  -4940496.4462   4002992.1702   1   6   0.0053   0.0134   0.0091  -0.0052  -0.0091   0.0025   0.00    9.7
2173 240652.000   -379062.4500  -4940496.4541   4002992.1753   1   6   0.0052   0.0135   0.0089  -0.0052  -0.0090   0.0027   0.00    9.7
2173 240653.000   -379062.4526  -4940496.4504   4002992.1732   1   6   0.0053   0.0134   0.0090  -0.0051  -0.0091   0.0026   0.00    9.7
2173 240654.000   -379062.4513  -4940496.4547   4002992.1737   1   6   0.0053   0.0134   0.0092  -0.0051  -0.0091   0.0027   0.00    9.7
2173 240655.000   -379062.4522  -4940496.4518   4002992.1710   1   6   0.0050   0.0134   0.0090  -0.0051  -0.0091   0.0027   0.00    9.7
2173 240656.000   -379062.4506  -4940496.4559   4002992.1743   1   6   0.0049   0.0134   0.0090  -0.0051  -0.0091   0.0026   0.00    9.8
2173 240657.000   -379062.4523  -4940496.4549   4002992.1737   1   6   0.0051   0.0134   0.0089  -0.0051  -0.0091   0.0027   0.00    9.8
2173 240658.000   -379062.4521  -4940496.4580   4002992.1715   1   6   0.0047   0.0134   0.0089  -0.0053  -0.0092   0.0029   0.00    9.9
2173 240659.000   -379062.4514  -4940496.4534   4002992.1703   1   6   0.0050   0.0134   0.0090  -0.0051  -0.0091   0.0027   0.00    9.9
2173 240660.000   -379062.4559  -4940496.4454   4002992.1685   1   6   0.0050   0.0134   0.0091  -0.0051  -0.0091   0.0026   0.00    9.9
2173 240661.000   -379062.4519  -4940496.4511   4002992.1695   1   6   0.0051   0.0134   0.0091  -0.0051  -0.0091   0.0027   0.00    9.9
2173 240662.000   -379062.4554  -4940496.4417   4002992.1670   1   6   0.0049   0.0134   0.0088  -0.0052  -0.0091   0.0027   0.00    9.9
2173 240663.000   -379062.4551  -4940496.4518   4002992.1711   1   6   0.0050   0.0134   0.0089  -0.0052  -0.0090   0.0026   0.00    9.9
2173 240664.000   -379062.4497  -4940496.4556   4002992.1733   1   6   0.0050   0.0134   0.0089  -0.0052  -0.0091   0.0027   0.00    9.8
2173 240665.000   -379062.4509  -4940496.4568   4002992.1728   1   6   0.0051   0.0134   0.0090  -0.0052  -0.0091   0.0027   0.00    9.8
2173 240666.000   -379062.4490  -4940496.4579   4002992.1713   1   6   0.0051   0.0134   0.0090  -0.0052  -0.0091   0.0028   0.00    9.8
2173 240667.000   -379062.4495  -4940496.4559   4002992.1729   1   6   0.0050   0.0134   0.0090  -0.0052  -0.0091   0.0028   0.00    9.8
2173 240668.000   -379062.4496  -4940496.4589   4002992.1738   1   6   0.0052   0.0134   0.0089  -0.0051  -0.0091   0.0027   0.00    9.8
2173 240669.000   -379062.4519  -4940496.4490   4002992.1674   1   6   0.0050   0.0134   0.0090  -0.0051  -0.0091   0.0026   0.00    9.8
2173 240670.000   -379062.4530  -4940496.4444   4002992.1675   1   6   0.0049   0.0135   0.0090  -0.0052  -0.0090   0.0029   0.00    9.8
2173 240671.000   -379062.4547  -4940496.4504   4002992.1698   1   6   0.0051   0.0134   0.0091  -0.0051  -0.0091   0.0027   0.00    9.9
2173 240672.000   -379062.4513  -4940496.4549   4002992.1724   1   6   0.0049   0.0134   0.0090  -0.0053  -0.0091   0.0028   0.00    9.9
2173 240673.000   -379062.4533  -4940496.4466   4002992.1689   1   6   0.0054   0.0135   0.0090  -0.0052  -0.0091   0.0025   0.00    9.9
2173 240674.000   -379062.4516  -4940496.4599   4002992.1758   1   6   0.0051   0.0134   0.0089  -0.0052  -0.0090   0.0029   0.00    9.9
2173 240675.000   -379062.4526  -4940496.4508   4002992.1715   1   6   0.0050   0.0134   0.0092  -0.0053  -0.0091   0.0027   0.00    9.8
2173 240676.000   -379062.4513  -4940496.4553   4002992.1713   1   6   0.0050   0.0134   0.0089  -0.0054  -0.0090   0.0027   0.00    9.8
2173 240677.000   -379062.4551  -4940496.4512   4002992.1723   1   6   0.0052   0.0135   0.0091  -0.0052  -0.0090   0.0027   0.00    9.8
2173 240678.000   -379062.4555  -4940496.4514   4002992.1725   1   6   0.0052   0.0134   0.0089  -0.0051  -0.0090   0.0025   0.00    9.8
2173 240679.000   -379062.4567  -4940496.4494   4002992.1712   1   6   0.0052   0.0135   0.0090  -0.0052  -0.0090   0.0025   0.00    9.8
2173 240680.000   -379062.4564  -4940496.4562   4002992.1760   1   6   0.0051   0.0134   0.0089  -0.0053  -0.0091   0.0028   0.00    9.7
2173 240681.000   -379062.4570  -4940496.4524   4002992.1748   1   6   0.0050   0.0135   0.0089  -0.0052  -0.0091   0.0028   0.00    9.7
2173 240682.000   -379062.4589  -4940496.4507   4002992.1729   1   6   0.0053   0.0134   0.0090  -0.0051  -0.0090   0.0025   0.00    9.7
2173 240683.000   -379062.4556  -4940496.4599   4002992.1800   1   6   0.0054   0.0135   0.0089  -0.0051  -0.0090   0.0022   0.00    9.7
2173 240684.000   -379062.4563  -4940496.4482   4002992.1686   1   6   0.0053   0.0135   0.0090  -0.0051  -0.0090   0.0026   0.00    9.7
2173 240685.000   -379062.4539  -4940496.4498   4002992.1723   1   6   0.0049   0.0134   0.0089  -0.0053  -0.0090   0.0028   0.00    9.7
2173 240686.000   -379062.4525  -4940496.4472   4002992.1695   1   6   0.0051   0.0135   0.0088  -0.0053  -0.0090   0.0027   0.00    9.7
2173 240687.000   -379062.4534  -4940496.4490   4002992.1741   1   6   0.0050   0.0134   0.0089  -0.0053  -0.0090   0.0026   0.00    9.7
2173 240688.000   -379062.4537  -4940496.4475   4002992.1734   1   6   0.0050   0.0134   0.0092  -0.0052  -0.0092   0.0026   0.00    9.7
2173 240689.000   -379062.4531  -4940496.4522   4002992.1793   1   6   0.0050   0.0134   0.0089  -0.0053  -0.0091   0.0028   0.00    9.8
2173 240690.000   -379062.4535  -4940496.4510   4002992.1781   1   6   0.0053   0.0135   0.0089  -0.0051  -0.0090   0.0026   0.00    9.7
2173 240691.000   -379062.4542  -4940496.4419   4002992.1764   1   6   0.0052   0.0134   0.0089  -0.0052  -0.0091   0.0028   0.00    9.8
2173 240692.000   -379062.4530  -4940496.4465   4002992.1768   1   6   0.0052   0.0134   0.0090  -0.0052  -0.0092   0.0027   0.00    9.8
2173 240693.000   -379062.4527  -4940496.4499   4002992.1778   1   6   0.0049   0.0134   0.0090  -0.0052  -0.0091   0.0027   0.00    9.8
2173 240694.000   -379062.4548  -4940496.4484   4002992.1701   1   6   0.0052   0.0134   0.0089  -0.0052  -0.0091   0.0026   0.00    9.8
2173 240695.000   -379062.4530  -4940496.4414   4002992.1695   1   6   0.0050   0.0135   0.0088  -0.0053  -0.0090   0.0028   0.00    9.8
2173 240696.000   -379062.4541  -4940496.4471   4002992.1725   1   6   0.0050   0.0134   0.0089  -0.0053  -0.0091   0.0027   0.00    9.8
2173 240697.000   -379062.4516  -4940496.4451   4002992.1695   1   6   0.0050   0.0135   0.0088  -0.0052  -0.0090   0.0027   0.00    9.8
2173 240698.000   -379062.4538  -4940496.4416   4002992.1672   1   6   0.0051   0.0134   0.0089  -0.0053  -0.0091   0.0028   0.00    9.8
2173 240699.000   -379062.4526  -4940496.4484   4002992.1733   1   6   0.0051   0.0134   0.0090  -0.0052  -0.0090   0.0025   0.00    9.8
2173 240700.000   -379062.4561  -4940496.4450   4002992.1723   1   6   0.0049   0.0135   0.0089  -0.0054  -0.0091   0.0029   0.00    9.8
2173 240701.000   -379062.4579  -4940496.4387   4002992.1683   1   6   0.0049   0.0134   0.0089  -0.0052  -0.0090   0.0029   0.00    9.9
2173 240702.000   -379062.4574  -4940496.4432   4002992.1707   1   6   0.0050   0.0135   0.0089  -0.0052  -0.0090   0.0028   0.00    9.9
2173 240703.000   -379062.4575  -4940496.4396   4002992.1634   1   6   0.0050   0.0134   0.0089  -0.0052  -0.0091   0.0028   0.00    9.9
2173 240704.000   -379062.4520  -4940496.4525   4002992.1730   1   6   0.0050   0.0134   0.0091  -0.0053  -0.0091   0.0026   0.00    9.9
2173 240705.000   -379062.4527  -4940496.4484   4002992.1706   1   6   0.0050   0.0134   0.0091  -0.0053  -0.0091   0.0029   0.00    9.9
2173 240706.000   -379062.4548  -4940496.4467   4002992.1704   1   6   0.0051   0.0135   0.0088  -0.0052  -0.0091   0.0027   0.00    9.9
2173 240707.000   -379062.4544  -4940496.4442   4002992.1658   1   6   0.0054   0.0135   0.0089  -0.0051  -0.0091   0.0026   0.00    9.9
2173 240708.000   -379062.4530  -4940496.4483   4002992.1681   1   6   0.0051   0.0135   0.0090  -0.0054  -0.0090   0.0028   0.00    9.9
2173 240709.000   -379062.4550  -4940496.4458   4002992.1708   1   6   0.0049   0.0134   0.0089  -0.0054  -0.0090   0.0028   0.00    9.9
2173 240710.000   -379062.4550  -4940496.4529   4002992.1742   1   6   0.0051   0.0135   0.0090  -0.0052  -0.0090   0.0025   0.00    9.9
2173 240711.000   -379062.4544  -4940496.4507   4002992.1741   1   6   0.0050   0.0134   0.0091  -0.0052  -0.0091   0.0026   0.00    9.9
2173 240712.000   -379062.4537  -4940496.4431   4002992.1720   1   6   0.0049   0.0134   0.0089  -0.0054  -0.0091   0.0027   0.00    9.9
2173 240713.000   -379062.4545  -4940496.4517   4002992.1769   1   6   0.0051   0.0135   0.0089  -0.0052  -0.0090   0.0028   0.00    9.8
2173 240714.000   -379062.4557  -4940496.4446   4002992.1705   1   6   0.0048   0.0135   0.0090  -0.0053  -0.0089   0.0028   0.00    9.8
2173 240715.000   -379062.4554  -4940496.4449   4002992.1734   1   6   0.0052   0.0135   0.0090  -0.0052  -0.0090   0.0028   0.00    9.9
2173 240716.000   -379062.4579  -4940496.4412   4002992.1716   1   6   0.0051   0.0135   0.0089  -0.0052  -0.0090   0.0028   0.00    9.8
2173 240717.000   -379062.4583  -4940496.4427   4002992.1687   1   6   0.0050   0.0135   0.0090  -0.0053  -0.0090   0.0027   0.00    9.8
2173 240718.000   -379062.4576  -4940496.4452   4002992.1738   1   6   0.0048   0.0135   0.0089  -0.0053  -0.0089   0.0029   0.00    9.8
2173 240719.000   -379062.4562  -4940496.4491   4002992.1753   1   6   0.0050   0.0134   0.0090  -0.0052  -0.0090   0.0028   0.00    9.8
2173 240720.000   -379062.4557  -4940496.4519   4002992.1761   1   6   0.0049   0.0134   0.0090  -0.0054  -0.0090   0.0028   0.00    9.9
2173 240721.000   -379062.4533  -4940496.4466   4002992.1727   1   6   0.0052   0.0135   0.0088  -0.0054  -0.0090   0.0029   0.00    9.9
2173 240722.000   -379062.4555  -4940496.4407   4002992.1682   1   6   0.0052   0.0135   0.0089  -0.0052  -0.0091   0.0027   0.00    9.9
2173 240723.000   -379062.4552  -4940496.4418   4002992.1699   1   6   0.0049   0.0135   0.0089  -0.0054  -0.0090   0.0027   0.00    9.9
2173 240724.000   -379062.4551  -4940496.4489   4002992.1716   1   6   0.0051   0.0135   0.0088  -0.0053  -0.0090   0.0028   0.00    9.9
2173 240725.000   -379062.4554  -4940496.4498   4002992.1714   1   6   0.0050   0.0135   0.0089  -0.0053  -0.0090   0.0027   0.00    9.9
2173 240726.000   -379062.4570  -4940496.4414   4002992.1691   1   6   0.0051   0.0135   0.0091  -0.0053  -0.0091   0.0029   0.00    9.9
2173 240727.000   -379062.4570  -4940496.4486   4002992.1668   1   6   0.0049   0.0134   0.0090  -0.0053  -0.0091   0.0029   0.00    9.8
2173 240728.000   -379062.4573  -4940496.4419   4002992.1654   1   6   0.0050   0.0135   0.0089  -0.0052  -0.0090   0.0029   0.00    9.8
2173 240729.000   -379062.4573  -4940496.4460   4002992.1686   1   6   0.0054   0.0135   0.0089  -0.0052  -0.0089   0.0026   0.00    9.8
2173 240730.000   -379062.4543  -4940496.4428   4002992.1673   1   6   0.0053   0.0135   0.0090  -0.0052  -0.0090   0.0026   0.00    9.8
2173 240731.000   -379062.4538  -4940496.4455   4002992.1691   1   6   0.0054   0.0135   0.0087  -0.0051  -0.0090   0.0027   0.00    9.8
2173 240732.000   -379062.4550  -4940496.4406   4002992.1694   1   6   0.0045   0.0134   0.0089  -0.0054  -0.0091   0.0030   0.00    9.8
2173 240733.000   -379062.4566  -4940496.4374   4002992.1643   1   6   0.0055   0.0135   0.0090  -0.0052  -0.0090   0.0027   0.00    9.8
2173 240734.000   -379062.4541  -4940496.4395   4002992.1657   1   6   0.0049   0.0135   0.0089  -0.0053  -0.0090   0.0028   0.00    9.8
2173 240735.000   -379062.4546  -4940496.4432   4002992.1684   1   6   0.0051   0.0135   0.0089  -0.0053  -0.0089   0.0027   0.00    9.7
2173 240736.000   -379062.4555  -4940496.4403   4002992.1679   1   6   0.0051   0.0135   0.0088  -0.0053  -0.0091   0.0028   0.00    9.7
2173 240737.000   -379062.4552  -4940496.4502   4002992.1727   1   6   0.0052   0.0135   0.0089  -0.0054  -0.0089   0.0029   0.00    9.7
2173 240738.000   -379062.4535  -4940496.4435   4002992.1668   1   6   0.0049   0.0135   0.0091  -0.0054  -0.0090   0.0027   0.00    9.7
2173 240739.000   -379062.4547  -4940496.4476   4002992.1713   1   6   0.0049   0.0135   0.0090  -0.0053  -0.0089   0.0028   0.00    9.7
2173 240740.000   -379062.4570  -4940496.4400   4002992.1660   1   6   0.0052   0.0135   0.0086  -0.0052  -0.0090   0.0026   0.00    9.6
2173 240741.000   -379062.4555  -4940496.4445   4002992.1671   1   6   0.0048   0.0135   0.0088  -0.0054  -0.0090   0.0029   0.00    9.6
2173 240742.000   -379062.4554  -4940496.4415   4002992.1664   1   6   0.0050   0.0135   0.0088  -0.0053  -0.0090   0.0027   0.00    9.6
2173 240743.000   -379062.4557  -4940496.4410   4002992.1674   1   6   0.0050   0.0135   0.0090  -0.0053  -0.0091   0.0028   0.00    9.5
2173 240744.000   -379062.2606  -4940496.1811   4002992.1713   2   7   0.0282   0.0661   0.0510  -0.0184  -0.0542   0.0148   0.00    1.2
2173 240745.000   -379062.2561  -4940496.1826   4002992.1737   2   7   0.0280   0.0656   0.0507  -0.0178  -0.0539   0.0145   0.00    1.4
2173 240746.000   -379062.2583  -4940496.1852   4002992.1757   2   7   0.0279   0.0652   0.0505  -0.0176  -0.0536   0.0142   0.00    1.6
2173 240747.000   -379062.2587  -4940496.1839   4002992.1791   2   7   0.0278   0.0649   0.0503  -0.0174  -0.0534   0.0140   0.00    1.8
2173 240748.000   -379062.2574  -4940496.1822   4002992.1801   2   7   0.0277   0.0646   0.0501  -0.0171  -0.0532   0.0139   0.00    2.0
2173 240749.000   -379062.2578  -4940496.1796   4002992.1814   2   7   0.0277   0.0644   0.0500  -0.0169  -0.0530   0.0138   0.00    2.2
2173 240750.000   -379062.2565  -4940496.1806   4002992.1818   2   7   0.0276   0.0641   0.0497  -0.0168  -0.0528   0.0136   0.00    2.4
2173 240751.000   -379062.2569  -4940496.1703   4002992.1774   2   7   0.0275   0.0639   0.0496  -0.0166  -0.0526   0.0134   0.00    2.5
2173 240752.000   -379062.2546  -4940496.1743   4002992.1816   2   7   0.0274   0.0636   0.0494  -0.0164  -0.0524   0.0133   0.00    2.7
2173 240753.000   -379062.2567  -4940496.1736   4002992.1849   2   7   0.0273   0.0634   0.0492  -0.0162  -0.0522   0.0132   0.00    2.9
2173 240754.000   -379062.4535  -4940496.4562   4002992.1724   1   7   0.0043   0.0105   0.0077  -0.0022  -0.0065  -0.0022   0.00    3.1
2173 240755.000   -379062.4527  -4940496.4561   4002992.1704   1   7   0.0046   0.0106   0.0076  -0.0022  -0.0064  -0.0024   0.00    3.3
2173 240756.000   -379062.4539  -4940496.4506   4002992.1707   1   7   0.0042   0.0106   0.0075  -0.0024  -0.0063  -0.0023   0.00    3.4
2173 240757.000   -379062.4540  -4940496.4538   4002992.1744   1   7   0.0040   0.0106   0.0076  -0.0022  -0.0064  -0.0022   0.00    3.6
2173 240758.000   -379062.4546  -4940496.4534   4002992.1734   1   7   0.0045   0.0105   0.0073  -0.0023  -0.0064  -0.0024   0.00    3.8
2173 240759.000   -379062.4553  -4940496.4552   4002992.1789   1   7   0.0040   0.0106   0.0074  -0.0024  -0.0063  -0.0023   0.00    4.0
2173 240760.000   -379062.4538  -4940496.4512   4002992.1750   1   7   0.0043   0.0106   0.0076  -0.0020  -0.0063  -0.0025   0.00    4.2
2173 240761.000   -379062.4519  -4940496.4543   4002992.1736   1   7   0.0045   0.0106   0.0074  -0.0023  -0.0063  -0.0024   0.00    4.3
2173 240762.000   -379062.4520  -4940496.4567   4002992.1778   1   7   0.0047   0.0106   0.0075  -0.0017  -0.0063  -0.0026   0.00    4.5
2173 240763.000   -379062.4535  -4940496.4600   4002992.1788   1   7   0.0045   0.0106   0.0074  -0.0019  -0.0065  -0.0025   0.00    4.7
2173 240764.000   -379062.4515  -4940496.4575   4002992.1713   1   7   0.0039   0.0105   0.0076  -0.0025  -0.0065  -0.0022   0.00    4.9
2173 240765.000   -379062.4515  -4940496.4537   4002992.1714   1   7   0.0043   0.0106   0.0075  -0.0024  -0.0064  -0.0022   0.00    5.1
2173 240766.000   -379062.4533  -4940496.4597   4002992.1768   1   7   0.0043   0.0106   0.0075  -0.0022  -0.0065  -0.0022   0.00    5.2
2173 240767.000   -379062.4524  -4940496.4580   4002992.1760   1   7   0.0042   0.0106   0.0073  -0.0025  -0.0064  -0.0021   0.00    5.4
2173 240768.000   -379062.4533  -4940496.4596   4002992.1787   1   7   0.0043   0.0106   0.0075  -0.0023  -0.0063  -0.0022   0.00    5.6
2173 240769.000   -379062.4509  -4940496.4607   4002992.1737   1   7   0.0043   0.0106   0.0074  -0.0022  -0.0065  -0.0023   0.00    5.7
2173 240770.000   -379062.4538  -4940496.4608   4002992.1765   1   7   0.0041   0.0106   0.0074  -0.0024  -0.0063  -0.0026   0.00    5.9
2173 240771.000   -379062.4525  -4940496.4584   4002992.1718   1   7   0.0043   0.0106   0.0075  -0.0022  -0.0061  -0.0026   0.00    6.1
2173 240772.000   -379062.4530  -4940496.4598   4002992.1727   1   7   0.0044   0.0106   0.0074  -0.0021  -0.0064  -0.0025   0.00    6.2
2173 240773.000   -379062.4530  -4940496.4633   4002992.1761   1   7   0.0040   0.0106   0.0074  -0.0023  -0.0064  -0.0024   0.00    6.4
2173 240774.000   -379062.4512  -4940496.4528   4002992.1739   1   7   0.0044   0.0105   0.0076  -0.0018  -0.0065  -0.0027   0.00    6.5
2173 240775.000   -379062.4510  -4940496.4561   4002992.1721   1   7   0.0045   0.0106   0.0073  -0.0021  -0.0063  -0.0026   0.00    6.7
2173 240776.000   -379062.4525  -4940496.4543   4002992.1746   1   7   0.0042   0.0106   0.0075  -0.0021  -0.0063  -0.0025   0.00    6.9
2173 240777.000   -379062.4501  -4940496.4566   4002992.1744   1   7   0.0044   0.0105   0.0075  -0.0022  -0.0065  -0.0025   0.00    7.0
2173 240778.000   -379062.4504  -4940496.4654   4002992.1778   1   7   0.0042   0.0106   0.0076  -0.0027  -0.0064  -0.0022   0.00    7.2
2173 240779.000   -379062.4513  -4940496.4610   4002992.1725   1   7   0.0041   0.0106   0.0073  -0.0024  -0.0064  -0.0023   0.00    7.4
2173 240780.000   -379062.4523  -4940496.4594   4002992.1721   1   7   0.0044   0.0106   0.0075  -0.0023  -0.0063  -0.0023   0.00    7.5
2173 240781.000   -379062.4509  -4940496.4589   4002992.1682   1   7   0.0046   0.0106   0.0076  -0.0024  -0.0064  -0.0024   0.00    7.7
2173 240782.000   -379062.4517  -4940496.4569   4002992.1687   1   7   0.0042   0.0106   0.0073  -0.0024  -0.0064  -0.0024   0.00    7.8
2173 240783.000   -379062.4527  -4940496.4576   4002992.1698   1   7   0.0039   0.0106   0.0075  -0.0024  -0.0064  -0.0020   0.00    8.0
2173 240784.000   -379062.4506  -4940496.4580   4002992.1765   1   7   0.0041   0.0105   0.0074  -0.0023  -0.0064  -0.0024   0.00    8.1
2173 240785.000   -379062.4507  -4940496.4637   4002992.1788   1   7   0.0042   0.0105   0.0075  -0.0023  -0.0064  -0.0023   0.00    8.3
2173 240786.000   -379062.4482  -4940496.4661   4002992.1761   1   7   0.0041   0.0106   0.0073  -0.0022  -0.0063  -0.0024   0.00    8.5
2173 240787.000   -379062.4516  -4940496.4639   4002992.1792   1   7   0.0034   0.0106   0.0075  -0.0026  -0.0063  -0.0018   0.00    8.6
2173 240788.000   -379062.4503  -4940496.4625   4002992.1793   1   7   0.0045   0.0106   0.0072  -0.0024  -0.0061  -0.0019   0.00    8.8
2173 240789.000   -379062.4522  -4940496.4620   4002992.1777   1   7   0.0040   0.0106   0.0073  -0.0023  -0.0062  -0.0025   0.00    9.0
2173 240790.000   -379062.4519  -4940496.4638   4002992.1823   1   7   0.0047   0.0106   0.0074  -0.0022  -0.0064  -0.0023   0.00    9.1
2173 240791.000   -379062.4536  -4940496.4584   4002992.1779   1   7   0.0044   0.0106   0.0076  -0.0023  -0.0063  -0.0024   0.00    9.3
2173 240792.000   -379062.4525  -4940496.4573   4002992.1783   1   7   0.0043   0.0106   0.0074  -0.0022  -0.0063  -0.0024   0.00    9.4
2173 240793.000   -379062.4542  -4940496.4575   4002992.1789   1   7   0.0044   0.0106   0.0075  -0.0024  -0.0065  -0.0022   0.00    9.6
2173 240794.000   -379062.4503  -4940496.4659   4002992.1769   1   7   0.0038   0.0106   0.0076  -0.0026  -0.0064  -0.0021   0.00    9.8
2173 240795.000   -379062.4496  -4940496.4580   4002992.1769   1   7   0.0046   0.0106   0.0076  -0.0020  -0.0064  -0.0026   0.00    9.9
2173 240796.000   -379062.4512  -4940496.4642   4002992.1750   1   7   0.0042   0.0106   0.0075  -0.0024  -0.0062  -0.0024   0.00   10.0
2173 240797.000   -379062.4518  -4940496.4684   4002992.1779   1   7   0.0043   0.0106   0.0075  -0.0023  -0.0065  -0.0023   0.00   10.2
2173 240798.000   -379062.4507  -4940496.4617   4002992.1770   1   7   0.0041   0.0105   0.0073  -0.0025  -0.0064  -0.0020   0.00   10.2
2173 240799.000   -379062.4541  -4940496.4626   4002992.1763   1   7   0.0044   0.0106   0.0074  -0.0024  -0.0063  -0.0021   0.00   10.2
2173 240800.000   -379062.4509  -4940496.4641   4002992.1780   1   7   0.0038   0.0106   0.0074  -0.0025  -0.0063  -0.0021   0.00   10.2
2173 240801.000   -379062.4520  -4940496.4662   4002992.1757   1   7   0.0043   0.0107   0.0073  -0.0024  -0.0061  -0.0025   0.00   10.3
2173 240802.000   -379062.4516  -4940496.4646   4002992.1750   1   7   0.0043   0.0106   0.0074  -0.0022  -0.0065  -0.0025   0.00   10.3
2173 240803.000   -379062.4517  -4940496.4619   4002992.1740   1   7   0.0042   0.0106   0.0075  -0.0026  -0.0063  -0.0019   0.00   10.3
2173 240804.000   -379062.4529  -4940496.4609   4002992.1756   1   7   0.0042   0.0106   0.0074  -0.0022  -0.0064  -0.0025   0.00   10.3
2173 240805.000   -379062.4528  -4940496.4597   4002992.1722   1   7   0.0048   0.0106   0.0074  -0.0016  -0.0063  -0.0026   0.00   10.3
2173 240806.000   -379062.4531  -4940496.4655   4002992.1717   1   7   0.0043   0.0106   0.0077  -0.0022  -0.0064  -0.0025   0.00   10.4
2173 240807.000   -379062.4538  -4940496.4617   4002992.1721   1   7   0.0038   0.0106   0.0074  -0.0024  -0.0064  -0.0020   0.00   10.4
2173 240808.000   -379062.4532  -4940496.4654   4002992.1766   1   7   0.0040   0.0105   0.0075  -0.0026  -0.0064  -0.0020   0.00   10.4
2173 240809.000   -379062.4519  -4940496.4614   4002992.1744   1   7   0.0040   0.0106   0.0076  -0.0024  -0.0064  -0.0023   0.00   10.4
2173 240810.000   -379062.4552  -4940496.4592   4002992.1750   1   7   0.0039   0.0106   0.0073  -0.0024  -0.0065  -0.0023   0.00   10.5
2173 240811.000   -379062.4552  -4940496.4593   4002992.1757   1   7   0.0044   0.0106   0.0075  -0.0019  -0.0064  -0.0024   0.00   10.5
2173 240812.000   -379062.4542  -4940496.4632   4002992.1745   1   7   0.0044   0.0106   0.0075  -0.0021  -0.0062  -0.0022   0.00   10.5
2173 240813.000   -379062.4531  -4940496.4616   4002992.1737   1   7   0.0039   0.0106   0.0074  -0.0025  -0.0063  -0.0022   0.00   10.6
2173 240814.000   -379062.4532  -4940496.4650   4002992.1772   1   7   0.0043   0.0106   0.0074  -0.0023  -0.0064  -0.0025   0.00   10.6
2173 240815.000   -379062.4540  -4940496.4630   4002992.1732   1   7   0.0040   0.0106   0.0073  -0.0022  -0.0062  -0.0026   0.00   10.6
2173 240816.000   -379062.4527  -4940496.4611   4002992.1710   1   7   0.0048   0.0106   0.0072  -0.0019  -0.0062  -0.0027   0.00   10.6
2173 240817.000   -379062.4553  -4940496.4568   4002992.1683   1   7   0.0041   0.0106   0.0072  -0.0024  -0.0062  -0.0025   0.00   10.7
2173 240818.000   -379062.4545  -4940496.4556   4002992.1715   1   7   0.0045   0.0106   0.0073  -0.0023  -0.0064  -0.0027   0.00   10.7
2173 240819.000   -379062.4529  -4940496.4584   4002992.1734   1   7   0.0042   0.0106   0.0073  -0.0025  -0.0064  -0.0022   0.00   10.7
2173 240820.000   -379062.4547  -4940496.4610   4002992.1763   1   7   0.0048   0.0106   0.0077  -0.0022  -0.0065  -0.0027   0.00   10.8
2173 240821.000   -379062.4538  -4940496.4606   4002992.1738   1   7   0.0043   0.0106   0.0074  -0.0025  -0.0063  -0.0023   0.00   10.8
2173 240822.000   -379062.4559  -4940496.4581   4002992.1761   1   7   0.0045   0.0105   0.0075  -0.0020  -0.0065  -0.0028   0.00   10.8
2173 240823.000   -379062.4535  -4940496.4569   4002992.1732   1   7   0.0040   0.0106   0.0074  -0.0025  -0.0064  -0.0025   0.00   10.9
2173 240824.000   -379062.4530  -4940496.4631   4002992.1786   1   7   0.0040   0.0106   0.0074  -0.0023  -0.0064  -0.0023   0.00   10.9
2173 240825.000   -379062.4538  -4940496.4630   4002992.1766   1   7   0.0044   0.0106   0.0073  -0.0021  -0.0062  -0.0026   0.00   11.0
2173 240826.000   -379062.4555  -4940496.4606   4002992.1774   1   7   0.0046   0.0106   0.0074  -0.0019  -0.0062  -0.0028   0.00   11.0
2173 240827.000   -379062.4543  -4940496.4597   4002992.1744   1   7   0.0043   0.0106   0.0075  -0.0024  -0.0062  -0.0020   0.00   11.0
2173 240828.000   -379062.4542  -4940496.4618   4002992.1748   1   7   0.0042   0.0106   0.0076  -0.0024  -0.0064  -0.0024   0.00   11.0
2173 240829.000   -379062.4545  -4940496.4498   4002992.1761   1   7   0.0046   0.0106   0.0075  -0.0023  -0.0064  -0.0023   0.00   11.0
2173 240830.000   -379062.4573  -4940496.4534   4002992.1767   1   7   0.0039   0.0106   0.0073  -0.0023  -0.0063  -0.0023   0.00   11.1
2173 240831.000   -379062.4552  -4940496.4557   4002992.1769   1   7   0.0044   0.0106   0.0074  -0.0025  -0.0063  -0.0021   0.00   11.1
2173 240832.000   -379062.4571  -4940496.4540   4002992.1730   1   7   0.0040   0.0106   0.0073  -0.0027  -0.0064  -0.0019   0.00   11.2
2173 240833.000   -379062.4549  -4940496.4601   4002992.1728   1   7   0.0044   0.0106   0.0075  -0.0025  -0.0062  -0.0019   0.00   11.2
2173 240834.000   -379062.4554  -4940496.4568   4002992.1761   1   7   0.0044   0.0106   0.0076  -0.0023  -0.0064  -0.0021   0.00   11.3
2173 240835.000   -379062.4527  -4940496.4565   4002992.1728   1   7   0.0044   0.0106   0.0074  -0.0024  -0.0065  -0.0024   0.00   11.3
2173 240836.000   -379062.4556  -4940496.4575   4002992.1735   1   7   0.0043   0.0106   0.0074  -0.0024  -0.0064  -0.0022   0.00   11.4
2173 240837.000   -379062.4540  -4940496.4557   4002992.1725   1   7   0.0042   0.0106   0.0074  -0.0024  -0.0063  -0.0022   0.00   11.4
2173 240838.000   -379062.4529  -4940496.4572   4002992.1699   1   7   0.0037   0.0106   0.0076  -0.0026  -0.0064  -0.0018   0.00   11.4
2173 240839.000   -379062.4540  -4940496.4583   4002992.1741   1   7   0.0041   0.0106   0.0074  -0.0022  -0.0063  -0.0021   0.00   11.4
2173 240840.000   -379062.4552  -4940496.4593   4002992.1754   1   7   0.0043   0.0106   0.0074  -0.0022  -0.0062  -0.0026   0.00   11.5
2173 240841.000   -379062.4564  -4940496.4574   4002992.1790   1   7   0.0041   0.0106   0.0074  -0.0023  -0.0062  -0.0022   0.00   11.5
2173 240842.000   -379062.4572  -4940496.4583   4002992.1773   1   7   0.0042   0.0106   0.0072  -0.0023  -0.0063  -0.0023   0.00   11.6
2173 240843.000   -379062.4579  -4940496.4598   4002992.1794   1   7   0.0046   0.0106   0.0075  -0.0023  -0.0064  -0.0022   0.00   11.6
2173 240844.000   -379062.4553  -4940496.4554   4002992.1734   1   7   0.0040   0.0106   0.0074  -0.0028  -0.0063  -0.0017   0.00   11.7
2173 240845.000   -379062.4557  -4940496.4531   4002992.1707   1   7   0.0043   0.0106   0.0075  -0.0025  -0.0064  -0.0019   0.00   11.7
2173 240846.000   -379062.4547  -4940496.4613   4002992.1736   1   7   0.0040   0.0105   0.0074  -0.0025  -0.0063  -0.0023   0.00   11.7
2173 240847.000   -379062.4554  -4940496.4586   4002992.1729   1   7   0.0043   0.0106   0.0074  -0.0026  -0.0061  -0.0024   0.00   11.8
2173 240848.000   -379062.4541  -4940496.4588   4002992.1721   1   7   0.0041   0.0106   0.0074  -0.0026  -0.0063  -0.0021   0.00   11.8
2173 240849.000   -379062.4561  -4940496.4566   4002992.1762   1   7   0.0042   0.0106   0.0075  -0.0027  -0.0064  -0.0020   0.00   11.9
2173 240850.000   -379062.4568  -4940496.4583   4002992.1766   1   7   0.0043   0.0106   0.0073  -0.0025  -0.0064  -0.0021   0.00   11.9
2173 240851.000   -379062.4589  -4940496.4519   4002992.1736   1   7   0.0044   0.0106   0.0074  -0.0019  -0.0063  -0.0024   0.00   12.0
2173 240852.000   -379062.4586  -4940496.4574   4002992.1757   1   7   0.0045   0.0106   0.0074  -0.0021  -0.0063  -0.0025   0.00   12.0
2173 240853.000   -379062.4598  -4940496.4592   4002992.1772   1   7   0.0043   0.0106   0.0075  -0.0021  -0.0063  -0.0026   0.00   12.0
2173 240854.000   -379062.4563  -4940496.4537   4002992.1731   1   7   0.0042   0.0106   0.0074  -0.0024  -0.0063  -0.0025   0.00   12.1
2173 240855.000   -379062.4573  -4940496.4542   4002992.1743   1   7   0.0047   0.0106   0.0074  -0.0019  -0.0062  -0.0027   0.00   12.1
2173 240856.000   -379062.4577  -4940496.4522   4002992.1753   1   7   0.0045   0.0106   0.0074  -0.0026  -0.0063  -0.0019   0.00   12.1
2173 240857.000   -379062.4574  -4940496.4526   4002992.1727   1   7   0.0044   0.0106   0.0074  -0.0021  -0.0063  -0.0025   0.00   12.1
2173 240858.000   -379062.4583  -4940496.4540   4002992.1784   1   7   0.0042   0.0106   0.0074  -0.0025  -0.0063  -0.0016   0.00   12.1
2173 240859.000   -379062.4545  -4940496.4575   4002992.1734   1   7   0.0042   0.0106   0.0071  -0.0020  -0.0062  -0.0025   0.00   12.2
2173 240860.000   -379062.4548  -4940496.4549   4002992.1754   1   7   0.0045   0.0106   0.0074  -0.0020  -0.0063  -0.0027   0.00   12.2
2173 240861.000   -379062.4554  -4940496.4637   4002992.1757   1   7   0.0046   0.0106   0.0075  -0.0020  -0.0063  -0.0027   0.00   12.2
2173 240862.000   -379062.4567  -4940496.4582   4002992.1749   1   7   0.0046   0.0105   0.0073  -0.0022  -0.0065  -0.0024   0.00   12.3
2173 240863.000   -379062.4542  -4940496.4610   4002992.1757   1   7   0.0044   0.0107   0.0074  -0.0020  -0.0061  -0.0026   0.00   12.3
2173 240864.000   -379062.4573  -4940496.4540   4002992.1764   1   7   0.0045   0.0106   0.0075  -0.0022  -0.0064  -0.0025   0.00   12.4
2173 240865.000   -379062.4565  -4940496.4548   4002992.1763   1   7   0.0045   0.0106   0.0073  -0.0025  -0.0061  -0.0026   0.00   12.4
2173 240866.000   -379062.4552  -4940496.4548   4002992.1731   1   7   0.0043   0.0106   0.0072  -0.0021  -0.0061  -0.0022   0.00   12.4
2173 240867.000   -379062.4574  -4940496.4557   4002992.1732   1   7   0.0038   0.0105   0.0075  -0.0027  -0.0063  -0.0020   0.00   12.5
2173 240868.000   -379062.4555  -4940496.4553   4002992.1754   1   7   0.0048   0.0106   0.0073  -0.0018  -0.0062  -0.0029   0.00   12.5
2173 240869.000   -379062.4553  -4940496.4607   4002992.1745   1   7   0.0041   0.0106   0.0074  -0.0025  -0.0062  -0.0023   0.00   12.6
2173 240870.000   -379062.4557  -4940496.4634   4002992.1749   1   7   0.0042   0.0106   0.0074  -0.0021  -0.0064  -0.0022   0.00   12.6
2173 240871.000   -379062.4566  -4940496.4644   4002992.1773   1   7   0.0044   0.0106   0.0075  -0.0024  -0.0062  -0.0024   0.00   12.7
2173 240872.000   -379062.4546  -4940496.4631   4002992.1732   1   7   0.0042   0.0106   0.0073  -0.0025  -0.0060  -0.0024   0.00   12.7
2173 240873.000   -379062.4555  -4940496.4627   4002992.1745   1   7   0.0040   0.0106   0.0075  -0.0025  -0.0063  -0.0021   0.00   12.8
2173 240874.000   -379062.4556  -4940496.4647   4002992.1782   1   7   0.0043   0.0106   0.0074  -0.0024  -0.0062  -0.0023   0.00   12.8
2173 240875.000   -379062.4559  -4940496.4652   4002992.1749   1   7   0.0043   0.0105   0.0075  -0.0026  -0.0065  -0.0024   0.00   12.9
2173 240876.000   -379062.4561  -4940496.4591   4002992.1737   1   7   0.0041   0.0106   0.0073  -0.0022  -0.0063  -0.0025   0.00   12.9
2173 240877.000   -379062.4572  -4940496.4644   4002992.1784   1   7   0.0039   0.0105   0.0073  -0.0029  -0.0063  -0.0020   0.00   13.0
2173 240878.000   -379062.4559  -4940496.4656   4002992.1779   1   7   0.0046   0.0106   0.0073  -0.0020  -0.0063  -0.0026   0.00   13.0
2173 240879.000   -379062.4557  -4940496.4620   4002992.1786   1   7   0.0044   0.0106   0.0076  -0.0025  -0.0062  -0.0019   0.00   13.1
2173 240880.000   -379062.4538  -4940496.4681   4002992.1771   1   7   0.0042   0.0106   0.0075  -0.0022  -0.0065  -0.0020   0.00   13.1
2173 240881.000   -379062.4568  -4940496.4646   4002992.1778   1   7   0.0041   0.0106   0.0075  -0.0024  -0.0064  -0.0023   0.00   13.1
2173 240882.000   -379062.4546  -4940496.4678   4002992.1761   1   7   0.0044   0.0106   0.0074  -0.0025  -0.0063  -0.0020   0.00   13.2
2173 240883.000   -379062.4523  -4940496.4683   4002992.1810   1   7   0.0043   0.0106   0.0074  -0.0024  -0.0063  -0.0023   0.00   13.2
2173 240884.000   -379062.4548  -4940496.4678   4002992.1765   1   7   0.0042   0.0106   0.0072  -0.0022  -0.0063  -0.0023   0.00   13.3
2173 240885.000   -379062.4566  -4940496.4630   4002992.1772   1   7   0.0049   0.0106   0.0071  -0.0019  -0.0062  -0.0025   0.00   13.3
2173 240886.000   -379062.4578  -4940496.4661   4002992.1796   1   7   0.0045   0.0106   0.0075  -0.0022  -0.0062  -0.0026   0.00   13.4
2173 240887.000   -379062.4563  -4940496.4663   4002992.1775   1   7   0.0047   0.0106   0.0073  -0.0021  -0.0062  -0.0025   0.00   13.4
2173 240888.000   -379062.4586  -4940496.4634   4002992.1781   1   7   0.0043   0.0106   0.0073  -0.0025  -0.0063  -0.0019   0.00   13.5
2173 240889.000   -379062.4559  -4940496.4663   4002992.1803   1   7   0.0042   0.0106   0.0075  -0.0025  -0.0063  -0.0024   0.00   13.5
2173 240890.000   -379062.4543  -4940496.4672   4002992.1846   1   7   0.0041   0.0107   0.0074  -0.0026  -0.0061  -0.0017   0.00   13.6
2173 240891.000   -379062.4530  -4940496.4708   4002992.1817   1   7   0.0043   0.0106   0.0073  -0.0025  -0.0062  -0.0019   0.00   13.6
2173 240892.000   -379062.4535  -4940496.4715   4002992.1801   1   7   0.0045   0.0106   0.0075  -0.0024  -0.0062  -0.0020   0.00   13.7
2173 240893.000   -379062.4575  -4940496.4687   4002992.1855   1   7   0.0045   0.0106   0.0074  -0.0021  -0.0061  -0.0023   0.00   13.8
2173 240894.000   -379062.4543  -4940496.4692   4002992.1786   1   7   0.0041   0.0106   0.0073  -0.0023  -0.0062  -0.0021   0.00   13.8
2173 240895.000   -379062.4544  -4940496.4692   4002992.1792   1   7   0.0042   0.0107   0.0075  -0.0024  -0.0062  -0.0024   0.00   13.8
2173 240896.000   -379062.4544  -4940496.4717   4002992.1780   1   7   0.0044   0.0106   0.0072  -0.0025  -0.0061  -0.0021   0.00   13.9
2173 240897.000   -379062.4549  -4940496.4705   4002992.1779   1   7   0.0042   0.0105   0.0074  -0.0024  -0.0062  -0.0025   0.00   13.9
2173 240898.000   -379062.4545  -4940496.4717   4002992.1783   1   7   0.0043   0.0106   0.0073  -0.0023  -0.0061  -0.0024   0.00   13.9
2173 240899.000   -379062.4572  -4940496.4689   4002992.1805   1   7   0.0047   0.0106   0.0074  -0.0020  -0.0063  -0.0025   0.00   14.0
2173 240900.000   -379062.4585  -4940496.4630   4002992.1806   1   7   0.0042   0.0106   0.0074  -0.0024  -0.0062  -0.0023   0.00   14.0
2173 240901.000   -379062.4575  -4940496.4665   4002992.1775   1   7   0.0043   0.0106   0.0072  -0.0023  -0.0062  -0.0022   0.00   14.1
2173 240902.000   -379062.4569  -4940496.4578   4002992.1722   1   7   0.0041   0.0106   0.0075  -0.0027  -0.0063  -0.0020   0.00   14.1
2173 240903.000   -379062.4564  -4940496.4611   4002992.1755   1   7   0.0045   0.0106   0.0072  -0.0021  -0.0063  -0.0025   0.00   14.1
2173 240904.000   -379062.4531  -4940496.4725   4002992.1774   1   7   0.0039   0.0106   0.0073  -0.0024  -0.0064  -0.0022   0.00   14.2
2173 240905.000   -379062.4554  -4940496.4716   4002992.1758   1   7   0.0040   0.0106   0.0074  -0.0028  -0.0062  -0.0020   0.00   14.2
2173 240906.000   -379062.4511  -4940496.4711   4002992.1748   1   7   0.0041   0.0106   0.0073  -0.0025  -0.0061  -0.0020   0.00   14.2
2173 240907.000   -379062.4521  -4940496.4767   4002992.1787   1   7   0.0043   0.0106   0.0073  -0.0021  -0.0063  -0.0026   0.00   14.3
2173 240908.000   -379062.4503  -4940496.4781   4002992.1788   1   7   0.0041   0.0106   0.0071  -0.0024  -0.0062  -0.0023   0.00   14.3
2173 240909.000   -379062.4526  -4940496.4765   4002992.1782   1   7   0.0038   0.0105   0.0073  -0.0025  -0.0063  -0.0021   0.00   14.4
2173 240910.000   -379062.4543  -4940496.4774   4002992.1823   1   7   0.0046   0.0106   0.0074  -0.0024  -0.0063  -0.0025   0.00   14.4
2173 240911.000   -379062.4536  -4940496.4743   4002992.1755   1   7   0.0046   0.0106   0.0073  -0.0024  -0.0062  -0.0023   0.00   14.4
2173 240912.000   -379062.4530  -4940496.4765   4002992.1747   1   7   0.0042   0.0106   0.0072  -0.0028  -0.0063  -0.0019   0.00   14.5
2173 240913.000   -379062.4552  -4940496.4758   4002992.1780   1   7   0.0044   0.0106   0.0074  -0.0025  -0.0062  -0.0020   0.00   14.6
2173 240914.000   -379062.4543  -4940496.4729   4002992.1766   1   7   0.0042   0.0106   0.0072  -0.0023  -0.0062  -0.0023   0.00   14.6
2173 240915.000   -379062.4532  -4940496.4710   4002992.1768   1   7   0.0046   0.0106   0.0072  -0.0024  -0.0062  -0.0021   0.00   14.6
2173 240916.000   -379062.4535  -4940496.4722   4002992.1779   1   7   0.0046   0.0106   0.0072  -0.0022  -0.0063  -0.0023   0.00   14.7
2173 240917.000   -379062.4536  -4940496.4781   4002992.1798   1   7   0.0043   0.0106   0.0073  -0.0026  -0.0063  -0.0021   0.00   14.7
2173 240918.000   -379062.4523  -4940496.4758   4002992.1771   1   7   0.0042   0.0106   0.0073  -0.0021  -0.0062  -0.0024   0.00   14.8
2173 240919.000   -379062.4565  -4940496.4715   4002992.1772   1   7   0.0041   0.0106   0.0075  -0.0025  -0.0063  -0.0020   0.00   14.8
