% program   : rnx2rtkp ver.2.4.3 b31
% inp file  : ngs/21_08_31_07_48_02_txan.obs
% inp file  : ngs/21_08_31_07_48_02_txan_SW.obs
% inp file  : ngs/21_08_31_07_48_02_brdc.nav
% obs start : 2021/08/31 07:00:00.0 GPST (week2173 198000.0s)
% obs end   : 2021/08/31 07:59:59.0 GPST (week2173 201599.0s)
% ref pos   :  -835825.0232  -5541920.6960   3034372.4658
%
% (x/y/z-ecef=WGS84,Q=1:fix,2:float,3:sbas,4:dgps,5:single,6:ppp,ns=# of satellites)
%  GPST              x-ecef(m)      y-ecef(m)      z-ecef(m)   Q  ns   sdx(m)   sdy(m)   sdz(m)  sdxy(m)  sdyz(m)  sdzx(m) age(s)  ratio
2173 200857.000   -828648.7251  -5494332.4630   3121536.3600   2   6   0.4243   1.1703   0.7160   0.2936  -0.6642  -0.2224 -30.00    1.4
2173 200858.000   -828648.6853  -5494332.1533   3121536.3391   2   6   0.3018   0.8317   0.5091   0.2089  -0.4718  -0.1582 -29.00    1.4
2173 200859.000   -828648.7241  -5494331.9766   3121536.2953   2   6   0.2471   0.6809   0.4169   0.1709  -0.3864  -0.1295 -28.00    1.4
2173 200860.000   -828648.7621  -5494332.0158   3121536.3686   2   6   0.2143   0.5908   0.3619   0.1482  -0.3354  -0.1123 -27.00    1.4
2173 200861.000   -828648.7574  -5494332.0274   3121536.3548   2   6   0.1920   0.5291   0.3242   0.1327  -0.3005  -0.1006 -26.00    1.4
2173 200862.000   -828648.7529  -5494331.9855   3121536.3574   2   6   0.1754   0.4836   0.2964   0.1212  -0.2748  -0.0919 -25.00    1.3
2173 200863.000   -828648.7701  -5494331.9910   3121536.4068   2   6   0.1625   0.4481   0.2747   0.1123  -0.2547  -0.0852 -24.00    1.3
2173 200864.000   -828648.7749  -5494331.9848   3121536.4039   2   6   0.1521   0.4194   0.2572   0.1050  -0.2385  -0.0797 -23.00    1.2
2173 200865.000   -828648.7674  -5494331.9543   3121536.4285   2   6   0.1434   0.3955   0.2426   0.0990  -0.2250  -0.0752 -22.00    1.2
2173 200866.000   -828648.7735  -5494331.9335   3121536.4332   2   6   0.1361   0.3753   0.2303   0.0939  -0.2136  -0.0713 -21.00    1.1
2173 200867.000   -828648.7642  -5494331.9562   3121536.4640   2   6   0.1298   0.3579   0.2197   0.0896  -0.2037  -0.0680 -20.00    1.1
2173 200868.000   -828648.7607  -5494331.9032   3121536.4430   2   6   0.1243   0.3426   0.2104   0.0857  -0.1951  -0.0651 -19.00    1.0
2173 200869.000   -828648.7621  -5494331.9194   3121536.4614   2   6   0.1194   0.3291   0.2022   0.0823  -0.1874  -0.0626 -18.00    1.0
2173 200870.000   -828648.7441  -5494331.8850   3121536.4515   2   6   0.1150   0.3170   0.1948   0.0793  -0.1805  -0.0603 -17.00    1.1
2173 200871.000   -828648.7374  -5494331.8793   3121536.4511   2   6   0.1111   0.3061   0.1882   0.0766  -0.1744  -0.0582 -16.00    1.2
2173 200872.000   -828648.7386  -5494331.8688   3121536.4656   2   6   0.1076   0.2963   0.1822   0.0741  -0.1688  -0.0564 -15.00    1.3
2173 200873.000   -828648.7333  -5494331.8709   3121536.4646   2   6   0.1043   0.2872   0.1767   0.0719  -0.1637  -0.0547 -14.00    1.3
2173 200874.000   -828648.7381  -5494331.8482   3121536.4711   2   6   0.1014   0.2790   0.1717   0.0698  -0.1590  -0.0531 -13.00    1.3
2173 200875.000   -828648.7421  -5494331.8345   3121536.4737   2   6   0.0986   0.2713   0.1671   0.0679  -0.1546  -0.0517 -12.00    1.4
2173 200876.000   -828648.7445  -5494331.8205   3121536.4829   2   6   0.0961   0.2643   0.1628   0.0662  -0.1506  -0.0504 -11.00    1.4
2173 200877.000   -828648.7423  -5494331.8024   3121536.4779   2   6   0.0937   0.2577   0.1588   0.0645  -0.1469  -0.0491 -10.00    1.4
2173 200878.000   -828648.7405  -5494331.8047   3121536.5058   2   6   0.0915   0.2516   0.1551   0.0630  -0.1434  -0.0480  -9.00    1.5
2173 200879.000   -828648.7414  -5494331.8203   3121536.5155   2   6   0.0895   0.2459   0.1516   0.0616  -0.1401  -0.0469  -8.00    1.5
2173 200880.000   -828648.7437  -5494331.8216   3121536.5283   2   6   0.0876   0.2405   0.1484   0.0603  -0.1371  -0.0459  -7.00    1.5
2173 200881.000   -828648.7476  -5494331.8237   3121536.5332   2   6   0.0858   0.2355   0.1453   0.0590  -0.1342  -0.0450  -6.00    1.5
2173 200882.000   -828648.7502  -5494331.8134   3121536.5284   2   6   0.0841   0.2308   0.1425   0.0578  -0.1316  -0.0441  -5.00    1.5
2173 200883.000   -828648.7529  -5494331.8251   3121536.5395   2   6   0.0825   0.2263   0.1398   0.0567  -0.1290  -0.0432  -4.00    1.4
2173 200884.000   -828648.7521  -5494331.8247   3121536.5475   2   6   0.0810   0.2221   0.1372   0.0557  -0.1267  -0.0424  -3.00    1.4
2173 200885.000   -828648.7525  -5494331.8147   3121536.5534   2   6   0.0796   0.2182   0.1348   0.0547  -0.1244  -0.0417  -2.00    1.4
2173 200886.000   -828648.7548  -5494331.8042   3121536.5511   2   6   0.0782   0.2144   0.1326   0.0538  -0.1223  -0.0410  -1.00    1.4
2173 200887.000   -828648.7571  -5494331.8121   3121536.5574   2   6   0.0769   0.2109   0.1304   0.0529  -0.1203  -0.0403   0.00    1.4
2173 200888.000   -828648.7620  -5494331.7994   3121536.5638   2   6   0.0757   0.2076   0.1284   0.0520  -0.1184  -0.0397   0.00    1.3
2173 200889.000   -828648.7619  -5494331.8059   3121536.5708   2   6   0.0746   0.2044   0.1264   0.0512  -0.1166  -0.0391   0.00    1.3
2173 200890.000   -828648.7617  -5494331.7972   3121536.5810   2   6   0.0734   0.2013   0.1246   0.0504  -0.1149  -0.0385   0.00    1.3
2173 200891.000   -828648.7651  -5494331.8006   3121536.5870   2   7   0.0722   0.1983   0.1222   0.0495  -0.1131  -0.0372   0.00    1.1
2173 200892.000   -828648.7659  -5494331.8057   3121536.5929   2   7   0.0711   0.1955   0.1200   0.0487  -0.1113  -0.0360   0.00    1.4
2173 200893.000   -828648.7715  -5494331.8023   3121536.5994   2   7   0.0700   0.1928   0.1179   0.0479  -0.1097  -0.0349   0.00    1.4
2173 200894.000   -828648.7803  -5494331.8174   3121536.6159   2   7   0.0690   0.1902   0.1159   0.0471  -0.1081  -0.0338   0.00    1.5
2173 200895.000   -828648.7867  -5494331.8252   3121536.6237   2   7   0.0680   0.1877   0.1140   0.0464  -0.1066  -0.0328   0.00    1.5
2173 200896.000   -828648.7967  -5494331.8335   3121536.6379   2   7   0.0670   0.1853   0.1122   0.0457  -0.1051  -0.0319   0.00    1.5
2173 200897.000   -828648.7987  -5494331.8255   3121536.6423   2   7   0.0662   0.1830   0.1105   0.0450  -0.1037  -0.0311   0.00    1.5
2173 200898.000   -828648.7957  -5494331.8215   3121536.6441   2   7   0.0653   0.1807   0.1089   0.0444  -0.1024  -0.0302   0.00    1.4
2173 200899.000   -828648.7960  -5494331.8054   3121536.6405   2   7   0.0644   0.1785   0.1073   0.0437  -0.1011  -0.0295   0.00    1.4
2173 200900.000   -828648.7951  -5494331.8050   3121536.6462   2   8   0.0636   0.1764   0.1052   0.0432  -0.0997  -0.0289   0.00    1.1
2173 200901.000   -828648.7962  -5494331.7930   3121536.6475   2   8   0.0628   0.1744   0.1033   0.0426  -0.0984  -0.0283   0.00    1.1
2173 200902.000   -828648.7952  -5494331.7751   3121536.6447   2   8   0.0621   0.1724   0.1014   0.0421  -0.0971  -0.0277   0.00    1.1
2173 200903.000   -828648.7948  -5494331.7688   3121536.6494   2   8   0.0614   0.1705   0.0996   0.0416  -0.0959  -0.0273   0.00    1.1
2173 200904.000   -828648.7977  -5494331.7551   3121536.6554   2   8   0.0607   0.1686   0.0980   0.0411  -0.0947  -0.0268   0.00    1.1
2173 200905.000   -828648.7992  -5494331.7536   3121536.6630   2   8   0.0600   0.1668   0.0964   0.0406  -0.0936  -0.0263   0.00    1.0
2173 200906.000   -828648.7969  -5494331.7470   3121536.6626   2   8   0.0593   0.1651   0.0949   0.0401  -0.0925  -0.0258   0.00    1.0
2173 200907.000   -828648.7945  -5494331.7369   3121536.6634   2   8   0.0587   0.1634   0.0934   0.0397  -0.0914  -0.0254   0.00    1.0
2173 200908.000   -828648.7933  -5494331.7307   3121536.6590   2   8   0.0581   0.1617   0.0921   0.0392  -0.0904  -0.0251   0.00    1.0
2173 200909.000   -828648.7924  -5494331.7284   3121536.6617   2   8   0.0575   0.1600   0.0907   0.0388  -0.0894  -0.0246   0.00    1.0
2173 200910.000   -828648.7939  -5494331.7285   3121536.6585   2   8   0.0569   0.1585   0.0894   0.0383  -0.0884  -0.0243   0.00    1.0
2173 200911.000   -828648.7926  -5494331.7294   3121536.6623   2   8   0.0563   0.1569   0.0882   0.0380  -0.0874  -0.0238   0.00    1.0
2173 200912.000   -828648.7944  -5494331.7290   3121536.6643   2   8   0.0558   0.1554   0.0870   0.0375  -0.0864  -0.0235   0.00    1.1
2173 200913.000   -828648.7933  -5494331.7349   3121536.6732   2   8   0.0553   0.1539   0.0859   0.0371  -0.0855  -0.0232   0.00    1.1
2173 200914.000   -828648.7879  -5494331.7412   3121536.6750   2   8   0.0548   0.1524   0.0848   0.0368  -0.0846  -0.0228   0.00    1.1
2173 200915.000   -828648.7848  -5494331.7389   3121536.6787   2   8   0.0543   0.1510   0.0837   0.0363  -0.0837  -0.0226   0.00    1.1
2173 200916.000   -828648.7848  -5494331.7377   3121536.6843   2   8   0.0538   0.1496   0.0827   0.0360  -0.0828  -0.0223   0.00    1.1
2173 200917.000   -828648.7833  -5494331.7261   3121536.6809   2   8   0.0533   0.1482   0.0817   0.0356  -0.0820  -0.0219   0.00    1.1
2173 200918.000   -828648.7841  -5494331.7168   3121536.6767   2   8   0.0529   0.1468   0.0807   0.0353  -0.0812  -0.0216   0.00    1.1
2173 200919.000   -828648.7831  -5494331.7107   3121536.6769   2   8   0.0524   0.1455   0.0798   0.0350  -0.0803  -0.0213   0.00    1.1
2173 200920.000   -828648.7838  -5494331.7126   3121536.6825   2   8   0.0520   0.1442   0.0789   0.0346  -0.0795  -0.0210   0.00    1.1
2173 200921.000   -828648.7846  -5494331.7058   3121536.6843   2   8   0.0516   0.1429   0.0780   0.0342  -0.0787  -0.0207   0.00    1.1
2173 200922.000   -828648.7846  -5494331.6951   3121536.6875   2   8   0.0511   0.1417   0.0771   0.0339  -0.0779  -0.0204   0.00    1.1
2173 200923.000   -828648.7843  -5494331.6823   3121536.6863   2   8   0.0507   0.1404   0.0762   0.0336  -0.0771  -0.0203   0.00    1.1
2173 200924.000   -828648.7823  -5494331.6633   3121536.6818   2   8   0.0503   0.1392   0.0754   0.0332  -0.0764  -0.0200   0.00    1.1
2173 200925.000   -828648.7794  -5494331.6382   3121536.6738   2   8   0.0499   0.1380   0.0746   0.0329  -0.0756  -0.0197   0.00    1.1
2173 200926.000   -828648.7775  -5494331.6275   3121536.6718   2   8   0.0496   0.1368   0.0738   0.0326  -0.0749  -0.0195   0.00    1.1
2173 200927.000   -828648.7772  -5494331.6181   3121536.6686   2   8   0.0492   0.1356   0.0730   0.0323  -0.0741  -0.0192   0.00    1.1
2173 200928.000   -828648.7796  -5494331.6126   3121536.6652   2   8   0.0489   0.1345   0.0723   0.0320  -0.0734  -0.0190   0.00    1.1
2173 200929.000   -828648.7767  -5494331.6044   3121536.6684   2   8   0.0485   0.1333   0.0715   0.0317  -0.0727  -0.0188   0.00    1.1
2173 200930.000   -828648.7772  -5494331.6016   3121536.6689   2   8   0.0482   0.1322   0.0708   0.0314  -0.0720  -0.0186   0.00    1.2
2173 200931.000   -828648.7777  -5494331.5911   3121536.6658   2   8   0.0478   0.1311   0.0701   0.0311  -0.0713  -0.0183   0.00    1.2
2173 200932.000   -828648.7772  -5494331.5621   3121536.6599   2   8   0.0475   0.1300   0.0694   0.0308  -0.0706  -0.0180   0.00    1.2
2173 200933.000   -828648.7747  -5494331.5432   3121536.6587   2   8   0.0471   0.1289   0.0687   0.0305  -0.0699  -0.0178   0.00    1.2
2173 200934.000   -828648.7711  -5494331.5169   3121536.6510   2   8   0.0468   0.1279   0.0680   0.0302  -0.0692  -0.0176   0.00    1.1
2173 200935.000   -828648.7719  -5494331.4989   3121536.6517   2   8   0.0465   0.1268   0.0673   0.0299  -0.0685  -0.0175   0.00    1.1
2173 200936.000   -828648.7737  -5494331.4790   3121536.6493   2   8   0.0461   0.1258   0.0667   0.0297  -0.0678  -0.0171   0.00    1.1
2173 200937.000   -828648.7712  -5494331.4650   3121536.6445   2   8   0.0459   0.1247   0.0661   0.0294  -0.0672  -0.0170   0.00    1.1
2173 200938.000   -828648.7723  -5494331.4455   3121536.6388   2   8   0.0456   0.1237   0.0654   0.0291  -0.0665  -0.0169   0.00    1.1
2173 200939.000   -828648.7750  -5494331.4468   3121536.6387   2   8   0.0453   0.1227   0.0648   0.0288  -0.0659  -0.0164   0.00    1.1
2173 200940.000   -828648.7781  -5494331.4418   3121536.6389   2   8   0.0450   0.1217   0.0642   0.0286  -0.0652  -0.0163   0.00    1.1
2173 200941.000   -828648.7819  -5494331.4509   3121536.6421   2   8   0.0447   0.1207   0.0636   0.0283  -0.0646  -0.0161   0.00    1.1
2173 200942.000   -828648.7839  -5494331.4569   3121536.6473   2   8   0.0444   0.1198   0.0630   0.0280  -0.0639  -0.0160   0.00    1.1
2173 200943.000   -828648.8084  -5494331.4279   3121536.6533   2   8   0.0442   0.1188   0.0624   0.0277  -0.0633  -0.0157   0.00    1.1
2173 200944.000   -828648.8117  -5494331.4401   3121536.6622   2   8   0.0439   0.1179   0.0618   0.0275  -0.0627  -0.0155   0.00    1.0
2173 200945.000   -828648.8150  -5494331.4579   3121536.6732   2   8   0.0436   0.1169   0.0613   0.0272  -0.0621  -0.0153   0.00    1.0
2173 200946.000   -828648.8173  -5494331.4652   3121536.6780   2   8   0.0434   0.1160   0.0608   0.0270  -0.0615  -0.0152   0.00    1.0
2173 200947.000   -828648.8209  -5494331.4884   3121536.6886   2   8   0.0432   0.1151   0.0602   0.0267  -0.0608  -0.0149   0.00    1.0
2173 200948.000   -828648.8245  -5494331.4989   3121536.6903   2   8   0.0429   0.1142   0.0597   0.0265  -0.0602  -0.0147   0.00    1.0
2173 200949.000   -828648.8241  -5494331.5023   3121536.6917   2   8   0.0426   0.1133   0.0591   0.0262  -0.0597  -0.0146   0.00    1.0
2173 200950.000   -828648.8280  -5494331.5175   3121536.6963   2   8   0.0423   0.1124   0.0586   0.0260  -0.0590  -0.0145   0.00    1.0
2173 200951.000   -828648.8302  -5494331.5287   3121536.6980   2   8   0.0421   0.1115   0.0581   0.0257  -0.0585  -0.0142   0.00    1.0
2173 200952.000   -828648.8332  -5494331.5369   3121536.7002   2   8   0.0419   0.1106   0.0576   0.0255  -0.0579  -0.0139   0.00    1.0
2173 200953.000   -828648.8332  -5494331.5410   3121536.6990   2   8   0.0417   0.1098   0.0571   0.0253  -0.0573  -0.0138   0.00    1.0
2173 200954.000   -828648.8456  -5494331.5265   3121536.6889   2   8   0.0415   0.1089   0.0566   0.0251  -0.0567  -0.0137   0.00    1.0
2173 200955.000   -828648.8469  -5494331.5275   3121536.6866   2   8   0.0412   0.1081   0.0561   0.0248  -0.0561  -0.0134   0.00    1.0
2173 200956.000   -828648.8500  -5494331.5265   3121536.6894   2   8   0.0410   0.1072   0.0556   0.0246  -0.0556  -0.0132   0.00    1.0
2173 200957.000   -828648.8531  -5494331.5225   3121536.6899   2   8   0.0408   0.1064   0.0551   0.0244  -0.0550  -0.0131   0.00    1.1
2173 200958.000   -828648.8533  -5494331.5262   3121536.6955   2   8   0.0406   0.1056   0.0547   0.0241  -0.0545  -0.0128   0.00    1.1
2173 200959.000   -828648.8560  -5494331.5187   3121536.6932   2   8   0.0404   0.1048   0.0542   0.0239  -0.0540  -0.0126   0.00    1.1
2173 200960.000   -828648.8608  -5494331.5185   3121536.6965   2   8   0.0401   0.1040   0.0537   0.0237  -0.0534  -0.0126   0.00    1.1
2173 200961.000   -828648.8627  -5494331.5164   3121536.6925   2   8   0.0400   0.1032   0.0533   0.0235  -0.0528  -0.0123   0.00    1.1
2173 200962.000   -828648.8649  -5494331.4999   3121536.6829   2   8   0.0398   0.1024   0.0528   0.0232  -0.0523  -0.0121   0.00    1.1
2173 200963.000   -828648.8630  -5494331.4882   3121536.6783   2   8   0.0396   0.1016   0.0524   0.0230  -0.0518  -0.0120   0.00    1.1
2173 200964.000   -828648.8647  -5494331.4816   3121536.6758   2   8   0.0393   0.1008   0.0519   0.0228  -0.0512  -0.0118   0.00    1.1
2173 200965.000   -828648.8666  -5494331.4712   3121536.6706   2   8   0.0392   0.1001   0.0515   0.0226  -0.0507  -0.0117   0.00    1.1
2173 200966.000   -828648.8647  -5494331.4618   3121536.6689   2   8   0.0390   0.0993   0.0511   0.0224  -0.0502  -0.0114   0.00    1.1
2173 200967.000   -828648.8668  -5494331.4693   3121536.6687   2   8   0.0388   0.0986   0.0507   0.0222  -0.0497  -0.0113   0.00    1.1
2173 200968.000   -828648.8718  -5494331.4784   3121536.6703   2   8   0.0386   0.0978   0.0503   0.0220  -0.0492  -0.0111   0.00    1.2
2173 200969.000   -828648.8755  -5494331.4944   3121536.6761   2   8   0.0385   0.0971   0.0498   0.0218  -0.0487  -0.0110   0.00    1.2
2173 200970.000   -828648.8785  -5494331.5091   3121536.6815   2   8   0.0382   0.0964   0.0494   0.0216  -0.0482  -0.0107   0.00    1.2
2173 200971.000   -828648.8809  -5494331.5226   3121536.6877   2   8   0.0381   0.0957   0.0491   0.0214  -0.0477  -0.0107   0.00    1.2
2173 200972.000   -828648.8825  -5494331.5356   3121536.6962   2   8   0.0379   0.0949   0.0487   0.0212  -0.0472  -0.0105   0.00    1.2
2173 200973.000   -828648.8846  -5494331.5473   3121536.7021   2   8   0.0377   0.0942   0.0483   0.0209  -0.0467  -0.0101   0.00    1.2
2173 200974.000   -828648.8849  -5494331.5526   3121536.7106   2   8   0.0375   0.0936   0.0479   0.0208  -0.0462  -0.0100   0.00    1.2
2173 200975.000   -828648.8848  -5494331.5504   3121536.7108   2   8   0.0374   0.0929   0.0475   0.0206  -0.0457  -0.0099   0.00    1.2
2173 200976.000   -828648.8843  -5494331.5528   3121536.7166   2   8   0.0372   0.0922   0.0471   0.0204  -0.0452  -0.0098   0.00    1.2
2173 200977.000   -828648.8849  -5494331.5354   3121536.7114   2   8   0.0371   0.0915   0.0468   0.0202  -0.0448  -0.0095   0.00    1.2
2173 200978.000   -828648.8842  -5494331.5352   3121536.7091   2   8   0.0369   0.0909   0.0464   0.0200  -0.0443  -0.0095   0.00    1.2
2173 200979.000   -828648.8862  -5494331.5372   3121536.7128   2   8   0.0367   0.0902   0.0460   0.0198  -0.0439  -0.0093   0.00    1.2
2173 200980.000   -828648.8893  -5494331.5386   3121536.7148   2   8   0.0366   0.0895   0.0457   0.0196  -0.0434  -0.0092   0.00    1.3
2173 200981.000   -828648.8890  -5494331.5375   3121536.7141   2   8   0.0364   0.0889   0.0453   0.0195  -0.0429  -0.0090   0.00    1.3
2173 200982.000   -828648.8884  -5494331.5354   3121536.7162   2   8   0.0362   0.0883   0.0450   0.0193  -0.0425  -0.0088   0.00    1.3
2173 200983.000   -828648.8906  -5494331.5363   3121536.7183   2   8   0.0362   0.0876   0.0446   0.0191  -0.0420  -0.0087   0.00    1.3
2173 200984.000   -828648.8900  -5494331.5327   3121536.7172   2   8   0.0360   0.0870   0.0443   0.0190  -0.0416  -0.0086   0.00    1.3
2173 200985.000   -828648.8898  -5494331.5223   3121536.7122   2   8   0.0358   0.0864   0.0439   0.0187  -0.0412  -0.0084   0.00    1.3
2173 200986.000   -828648.8889  -5494331.5125   3121536.7088   2   8   0.0357   0.0858   0.0436   0.0186  -0.0407  -0.0082   0.00    1.3
2173 200987.000   -828648.8905  -5494331.5070   3121536.7072   2   8   0.0356   0.0852   0.0433   0.0184  -0.0403  -0.0080   0.00    1.3
2173 200988.000   -828648.8905  -5494331.5102   3121536.7055   2   8   0.0354   0.0846   0.0430   0.0182  -0.0399  -0.0079   0.00    1.3
2173 200989.000   -828648.8935  -5494331.5137   3121536.7052   2   8   0.0353   0.0840   0.0427   0.0181  -0.0395  -0.0078   0.00    1.3
2173 200990.000   -828648.8960  -5494331.5243   3121536.7064   2   8   0.0351   0.0834   0.0423   0.0179  -0.0390  -0.0075   0.00    1.3
2173 200991.000   -828648.8980  -5494331.5316   3121536.7083   2   8   0.0350   0.0828   0.0420   0.0177  -0.0386  -0.0075   0.00    1.3
2173 200992.000   -828648.8974  -5494331.5256   3121536.7066   2   8   0.0348   0.0822   0.0416   0.0176  -0.0382  -0.0073   0.00    1.3
2173 200993.000   -828648.9005  -5494331.5249   3121536.7056   2   8   0.0347   0.0817   0.0414   0.0174  -0.0378  -0.0074   0.00    1.3
2173 200994.000   -828648.9001  -5494331.5211   3121536.7038   2   8   0.0345   0.0811   0.0411   0.0173  -0.0374  -0.0069   0.00    1.3
2173 200995.000   -828648.8994  -5494331.5130   3121536.6990   2   8   0.0344   0.0806   0.0408   0.0171  -0.0370  -0.0068   0.00    1.3
2173 200996.000   -828648.9013  -5494331.5124   3121536.6952   2   8   0.0343   0.0800   0.0405   0.0170  -0.0366  -0.0066   0.00    1.3
2173 200997.000   -828648.9013  -5494331.5133   3121536.6938   2   8   0.0341   0.0795   0.0402   0.0168  -0.0362  -0.0064   0.00    1.3
2173 200998.000   -828648.9032  -5494331.5187   3121536.6922   2   8   0.0340   0.0789   0.0399   0.0167  -0.0358  -0.0064   0.00    1.3
2173 200999.000   -828648.9026  -5494331.5058   3121536.6861   2   8   0.0339   0.0784   0.0396   0.0165  -0.0354  -0.0062   0.00    1.3
2173 201000.000   -828648.9016  -5494331.4987   3121536.6782   2   8   0.0337   0.0779   0.0394   0.0163  -0.0351  -0.0063   0.00    1.3
2173 201001.000   -828648.9051  -5494331.4981   3121536.6717   2   8   0.0337   0.0774   0.0391   0.0162  -0.0347  -0.0057   0.00    1.3
2173 201002.000   -828648.9068  -5494331.4979   3121536.6678   2   8   0.0336   0.0768   0.0388   0.0160  -0.0343  -0.0057   0.00    1.3
2173 201003.000   -828648.9086  -5494331.5038   3121536.6660   2   8   0.0334   0.0763   0.0385   0.0159  -0.0339  -0.0056   0.00    1.3
2173 201004.000   -828648.9104  -5494331.5142   3121536.6629   2   8   0.0333   0.0758   0.0382   0.0157  -0.0336  -0.0055   0.00    1.3
2173 201005.000   -828648.9128  -5494331.5259   3121536.6649   2   8   0.0332   0.0753   0.0380   0.0157  -0.0332  -0.0055   0.00    1.3
2173 201006.000   -828648.9151  -5494331.5365   3121536.6656   2   8   0.0331   0.0748   0.0377   0.0155  -0.0328  -0.0052   0.00    1.3
2173 201007.000   -828648.9142  -5494331.5377   3121536.6635   2   8   0.0329   0.0744   0.0374   0.0153  -0.0325  -0.0055   0.00    1.3
2173 201008.000   -828648.9188  -5494331.5388   3121536.6619   2   8   0.0328   0.0739   0.0372   0.0152  -0.0321  -0.0047   0.00    1.3
2173 201009.000   -828648.9179  -5494331.5424   3121536.6604   2   8   0.0327   0.0734   0.0369   0.0151  -0.0318  -0.0047   0.00    1.3
2173 201010.000   -828648.9182  -5494331.5401   3121536.6568   2   8   0.0325   0.0729   0.0366   0.0149  -0.0314  -0.0046   0.00    1.3
2173 201011.000   -828648.9195  -5494331.5382   3121536.6547   2   8   0.0325   0.0725   0.0364   0.0148  -0.0311  -0.0039   0.00    1.3
2173 201012.000   -828648.9193  -5494331.5450   3121536.6544   2   8   0.0324   0.0720   0.0362   0.0147  -0.0308  -0.0041   0.00    1.3
2173 201013.000   -828648.9212  -5494331.5507   3121536.6538   2   8   0.0322   0.0715   0.0359   0.0146  -0.0304  -0.0032   0.00    1.3
2173 201014.000   -828648.9209  -5494331.5524   3121536.6528   2   8   0.0321   0.0711   0.0357   0.0144  -0.0301  -0.0037   0.00    1.3
2173 201015.000   -828648.9202  -5494331.5498   3121536.6518   2   8   0.0320   0.0706   0.0355   0.0142  -0.0298  -0.0037   0.00    1.3
2173 201016.000   -828648.9203  -5494331.5494   3121536.6486   2   8   0.0319   0.0702   0.0352   0.0141  -0.0294  -0.0035   0.00    1.3
2173 201017.000   -828648.9226  -5494331.5540   3121536.6461   2   8   0.0318   0.0698   0.0350   0.0140  -0.0291  -0.0032   0.00    1.3
2173 201018.000   -828648.9213  -5494331.5617   3121536.6547   2   8   0.0317   0.0693   0.0348   0.0138  -0.0288  -0.0029   0.00    1.3
2173 201019.000   -828648.9214  -5494331.5524   3121536.6477   2   8   0.0316   0.0689   0.0345   0.0138  -0.0284  -0.0030   0.00    1.3
2173 201020.000   -828648.9210  -5494331.5382   3121536.6406   2   8   0.0315   0.0685   0.0343   0.0136  -0.0282  -0.0021   0.00    1.3
2173 201021.000   -828648.9210  -5494331.5243   3121536.6355   2   8   0.0314   0.0680   0.0341   0.0136  -0.0278  -0.0021   0.00    1.3
2173 201022.000   -828648.9190  -5494331.5140   3121536.6305   2   8   0.0313   0.0676   0.0339   0.0134  -0.0275  -0.0014   0.00    1.3
2173 201023.000   -828648.9193  -5494331.5021   3121536.6255   2   8   0.0312   0.0672   0.0337   0.0133  -0.0272  -0.0018   0.00    1.3
2173 201024.000   -828648.9163  -5494331.4879   3121536.6230   2   8   0.0311   0.0668   0.0335   0.0131  -0.0269  -0.0013   0.00    1.3
2173 201025.000   -828648.9159  -5494331.4842   3121536.6202   2   8   0.0310   0.0664   0.0333   0.0130  -0.0266  -0.0012   0.00    1.3
2173 201026.000   -828648.9142  -5494331.4820   3121536.6171   2   8   0.0309   0.0660   0.0330   0.0130  -0.0263  -0.0013   0.00    1.3
2173 201027.000   -828648.9144  -5494331.4887   3121536.6169   2   8   0.0308   0.0656   0.0328   0.0128  -0.0260   0.0007   0.00    1.3
2173 201028.000   -828648.9125  -5494331.4837   3121536.6146   2   8   0.0308   0.0653   0.0326   0.0127  -0.0257   0.0004   0.00    1.3
2173 201029.000   -828648.9117  -5494331.4867   3121536.6155   2   8   0.0306   0.0649   0.0323   0.0125  -0.0255   0.0018   0.00    1.3
2173 201030.000   -828648.9090  -5494331.4710   3121536.6102   2   8   0.0305   0.0645   0.0322   0.0125  -0.0251   0.0022   0.00    1.3
2173 201031.000   -828648.9071  -5494331.4664   3121536.6061   2   8   0.0304   0.0641   0.0320   0.0124  -0.0248   0.0024   0.00    1.3
2173 201032.000   -828648.9038  -5494331.4469   3121536.5986   2   8   0.0303   0.0637   0.0318   0.0122  -0.0246   0.0029   0.00    1.3
2173 201033.000   -828648.9017  -5494331.4439   3121536.5990   2   8   0.0302   0.0634   0.0316   0.0121  -0.0243   0.0027   0.00    1.3
2173 201034.000   -828648.9007  -5494331.4315   3121536.5913   2   8   0.0302   0.0630   0.0314   0.0120  -0.0240   0.0026   0.00    1.3
2173 201035.000   -828648.8994  -5494331.4157   3121536.5850   2   8   0.0300   0.0626   0.0313   0.0119  -0.0238   0.0029   0.00    1.3
2173 201036.000   -828648.8980  -5494331.4003   3121536.5801   2   8   0.0300   0.0623   0.0310   0.0118  -0.0235   0.0032   0.00    1.3
2173 201037.000   -828648.8968  -5494331.3935   3121536.5785   2   8   0.0299   0.0619   0.0308   0.0117  -0.0232   0.0038   0.00    1.3
2173 201038.000   -828648.8971  -5494331.3832   3121536.5715   2   8   0.0298   0.0616   0.0307   0.0116  -0.0230   0.0029   0.00    1.3
2173 201039.000   -828648.8953  -5494331.3805   3121536.5682   2   8   0.0297   0.0612   0.0305   0.0115  -0.0227   0.0035   0.00    1.3
2173 201040.000   -828648.8956  -5494331.3754   3121536.5686   2   8   0.0296   0.0609   0.0303   0.0115  -0.0224   0.0039   0.00    1.3
2173 201041.000   -828648.8950  -5494331.3794   3121536.5669   2   8   0.0295   0.0606   0.0301   0.0114  -0.0221   0.0034   0.00    1.3
2173 201042.000   -828648.8973  -5494331.3821   3121536.5675   2   8   0.0295   0.0602   0.0300   0.0113  -0.0219   0.0039   0.00    1.3
2173 201043.000   -828648.8958  -5494331.3822   3121536.5639   2   8   0.0294   0.0599   0.0298   0.0111  -0.0217   0.0044   0.00    1.3
2173 201044.000   -828648.8949  -5494331.3877   3121536.5707   2   8   0.0293   0.0596   0.0296   0.0111  -0.0214   0.0044   0.00    1.3
2173 201045.000   -828648.8945  -5494331.3838   3121536.5701   2   8   0.0292   0.0593   0.0295   0.0110  -0.0211   0.0041   0.00    1.3
2173 201046.000   -828648.8936  -5494331.3805   3121536.5691   2   8   0.0291   0.0589   0.0293   0.0108  -0.0209   0.0042   0.00    1.3
2173 201047.000   -828648.8919  -5494331.3730   3121536.5671   2   8   0.0290   0.0586   0.0291   0.0109  -0.0207   0.0040   0.00    1.3
2173 201048.000   -828648.8915  -5494331.3839   3121536.5693   2   8   0.0290   0.0583   0.0289   0.0107  -0.0205   0.0043   0.00    1.3
2173 201049.000   -828648.8881  -5494331.3721   3121536.5659   2   8   0.0289   0.0580   0.0288   0.0105  -0.0203   0.0045   0.00    1.3
2173 201050.000   -828648.8868  -5494331.3691   3121536.5627   2   8   0.0288   0.0577   0.0286   0.0105  -0.0200   0.0042   0.00    1.3
2173 201051.000   -828648.8849  -5494331.3627   3121536.5615   2   8   0.0287   0.0574   0.0284   0.0103  -0.0197   0.0046   0.00    1.3
2173 201052.000   -828648.8852  -5494331.3652   3121536.5647   2   8   0.0287   0.0571   0.0283   0.0104  -0.0195   0.0047   0.00    1.3
2173 201053.000   -828648.8827  -5494331.3569   3121536.5624   2   8   0.0285   0.0568   0.0282   0.0103  -0.0192   0.0048   0.00    1.3
2173 201054.000   -828648.8815  -5494331.3502   3121536.5580   2   8   0.0285   0.0565   0.0280   0.0101  -0.0191   0.0047   0.00    1.3
2173 201055.000   -828648.8792  -5494331.3444   3121536.5584   2   8   0.0285   0.0561   0.0279   0.0101  -0.0189   0.0048   0.00    1.3
2173 201056.000   -828648.8782  -5494331.3366   3121536.5537   2   8   0.0283   0.0559   0.0276   0.0100  -0.0185   0.0047   0.00    1.3
2173 201057.000   -828648.8765  -5494331.3281   3121536.5481   2   8   0.0282   0.0556   0.0275   0.0098  -0.0184   0.0050   0.00    1.3
2173 201058.000   -828648.8740  -5494331.3258   3121536.5448   2   8   0.0281   0.0553   0.0274   0.0096  -0.0181   0.0049   0.00    1.3
2173 201059.000   -828648.8726  -5494331.3116   3121536.5395   2   8   0.0281   0.0550   0.0273   0.0097  -0.0179   0.0050   0.00    1.3
2173 201060.000   -828648.8707  -5494331.2927   3121536.5304   2   8   0.0280   0.0547   0.0271   0.0097  -0.0177   0.0051   0.00    1.3
2173 201061.000   -828648.8689  -5494331.2816   3121536.5246   2   8   0.0280   0.0545   0.0270   0.0095  -0.0175   0.0051   0.00    1.3
2173 201062.000   -828648.8675  -5494331.2693   3121536.5183   2   8   0.0279   0.0542   0.0268   0.0095  -0.0173   0.0052   0.00    1.3
2173 201063.000   -828648.8677  -5494331.2624   3121536.5123   2   8   0.0278   0.0539   0.0267   0.0093  -0.0170   0.0049   0.00    1.3
2173 201064.000   -828648.8680  -5494331.2557   3121536.5053   2   8   0.0278   0.0537   0.0266   0.0094  -0.0168   0.0052   0.00    1.2
2173 201065.000   -828648.8680  -5494331.2546   3121536.5033   2   8   0.0277   0.0534   0.0264   0.0093  -0.0167   0.0053   0.00    1.2
2173 201066.000   -828648.8733  -5494331.2588   3121536.5009   2   8   0.0276   0.0531   0.0262   0.0092  -0.0164   0.0049   0.00    1.2
2173 201067.000   -828648.8774  -5494331.2578   3121536.4971   2   8   0.0275   0.0529   0.0261   0.0092  -0.0162   0.0052   0.00    1.2
2173 201068.000   -828648.8727  -5494331.2630   3121536.4983   2   8   0.0274   0.0526   0.0260   0.0091  -0.0161   0.0052   0.00    1.2
2173 201069.000   -828648.8738  -5494331.2664   3121536.4986   2   8   0.0273   0.0524   0.0258   0.0091  -0.0158   0.0052   0.00    1.2
2173 201070.000   -828648.8774  -5494331.2692   3121536.4965   2   8   0.0273   0.0521   0.0257   0.0089  -0.0156   0.0055   0.00    1.2
2173 201071.000   -828648.8775  -5494331.2723   3121536.4980   2   8   0.0272   0.0519   0.0256   0.0087  -0.0154   0.0053   0.00    1.2
2173 201072.000   -828648.8788  -5494331.2820   3121536.4987   2   8   0.0272   0.0516   0.0255   0.0089  -0.0152   0.0055   0.00    1.2
2173 201073.000   -828648.8791  -5494331.2868   3121536.4986   2   8   0.0272   0.0514   0.0254   0.0088  -0.0150   0.0056   0.00    1.2
2173 201074.000   -828648.8779  -5494331.3014   3121536.5032   2   8   0.0270   0.0511   0.0252   0.0086  -0.0149   0.0054   0.00    1.2
2173 201075.000   -828648.8782  -5494331.3043   3121536.5023   2   8   0.0270   0.0509   0.0251   0.0086  -0.0146   0.0056   0.00    1.2
2173 201076.000   -828648.8776  -5494331.3057   3121536.5007   2   8   0.0269   0.0507   0.0250   0.0084  -0.0144   0.0058   0.00    1.2
2173 201077.000   -828648.8747  -5494331.3033   3121536.4995   2   8   0.0269   0.0504   0.0248   0.0085  -0.0142   0.0056   0.00    1.2
2173 201078.000   -828648.8738  -5494331.2928   3121536.4988   2   8   0.0268   0.0502   0.0247   0.0084  -0.0141   0.0056   0.00    1.2
2173 201079.000   -828648.8782  -5494331.2870   3121536.5022   2   8   0.0267   0.0499   0.0246   0.0083  -0.0138   0.0057   0.00    1.2
2173 201080.000   -828648.8758  -5494331.2883   3121536.5105   2   8   0.0267   0.0497   0.0245   0.0083  -0.0138   0.0058   0.00    1.2
2173 201081.000   -828648.8730  -5494331.2923   3121536.5159   2   8   0.0266   0.0495   0.0244   0.0082  -0.0135   0.0058   0.00    1.2
2173 201082.000   -828648.8748  -5494331.2919   3121536.5215   2   8   0.0266   0.0493   0.0243   0.0083  -0.0132   0.0060   0.00    1.2
2173 201083.000   -828648.8738  -5494331.3084   3121536.5285   2   8   0.0264   0.0490   0.0242   0.0079  -0.0131   0.0057   0.00    1.2
2173 201084.000   -828648.8748  -5494331.3154   3121536.5344   2   8   0.0265   0.0488   0.0240   0.0079  -0.0130   0.0057   0.00    1.2
2173 201085.000   -828648.8758  -5494331.3221   3121536.5399   2   8   0.0264   0.0486   0.0240   0.0078  -0.0128   0.0059   0.00    1.2
2173 201086.000   -828648.8774  -5494331.3452   3121536.5500   2   8   0.0263   0.0484   0.0238   0.0079  -0.0126   0.0058   0.00    1.2
2173 201087.000   -828648.8783  -5494331.3616   3121536.5593   2   8   0.0263   0.0482   0.0237   0.0079  -0.0123   0.0058   0.00    1.2
2173 201088.000   -828648.8778  -5494331.3655   3121536.5652   2   8   0.0262   0.0479   0.0236   0.0078  -0.0122   0.0056   0.00    1.2
2173 201089.000   -828648.8788  -5494331.3762   3121536.5708   2   8   0.0261   0.0477   0.0234   0.0077  -0.0120   0.0058   0.00    1.2
2173 201090.000   -828648.8767  -5494331.3729   3121536.5752   2   8   0.0260   0.0475   0.0233   0.0076  -0.0120   0.0059   0.00    1.2
2173 201091.000   -828648.8726  -5494331.3726   3121536.5790   2   8   0.0259   0.0473   0.0232   0.0075  -0.0117   0.0059   0.00    1.2
2173 201092.000   -828648.8731  -5494331.3756   3121536.5845   2   8   0.0260   0.0471   0.0232   0.0075  -0.0115   0.0060   0.00    1.2
2173 201093.000   -828648.8716  -5494331.3734   3121536.5887   2   8   0.0258   0.0469   0.0231   0.0075  -0.0113   0.0059   0.00    1.2
2173 201094.000   -828648.8696  -5494331.3806   3121536.5951   2   8   0.0258   0.0467   0.0230   0.0073  -0.0112   0.0061   0.00    1.2
2173 201095.000   -828648.8677  -5494331.3772   3121536.5953   2   8   0.0257   0.0465   0.0229   0.0073  -0.0110   0.0057   0.00    1.2
2173 201096.000   -828648.8647  -5494331.3791   3121536.5991   2   8   0.0257   0.0463   0.0227   0.0072  -0.0109   0.0059   0.00    1.2
2173 201097.000   -828648.8624  -5494331.3805   3121536.6033   2   8   0.0256   0.0461   0.0227   0.0074  -0.0108   0.0058   0.00    1.2
2173 201098.000   -828648.8598  -5494331.3747   3121536.6044   2   8   0.0255   0.0459   0.0225   0.0070  -0.0107   0.0061   0.00    1.2
2173 201099.000   -828648.8579  -5494331.3726   3121536.6090   2   8   0.0255   0.0457   0.0224   0.0071  -0.0104   0.0059   0.00    1.2
2173 201100.000   -828648.8563  -5494331.3744   3121536.6115   2   8   0.0254   0.0455   0.0224   0.0072  -0.0103   0.0062   0.00    1.2
2173 201101.000   -828648.8556  -5494331.3773   3121536.6139   2   8   0.0253   0.0453   0.0222   0.0069  -0.0099   0.0059   0.00    1.2
2173 201102.000   -828648.8570  -5494331.3844   3121536.6165   2   8   0.0254   0.0452   0.0221   0.0069  -0.0099   0.0065   0.00    1.2
2173 201103.000   -828648.8550  -5494331.3879   3121536.6204   2   8   0.0253   0.0450   0.0220   0.0067  -0.0097   0.0060   0.00    1.2
2173 201104.000   -828648.8572  -5494331.3943   3121536.6259   2   8   0.0253   0.0448   0.0220   0.0069  -0.0096   0.0059   0.00    1.2
2173 201105.000   -828648.8551  -5494331.3948   3121536.6241   2   8   0.0252   0.0446   0.0219   0.0068  -0.0095   0.0061   0.00    1.2
2173 201106.000   -828648.8556  -5494331.4017   3121536.6272   2   8   0.0251   0.0444   0.0218   0.0067  -0.0092   0.0061   0.00    1.2
2173 201107.000   -828648.8532  -5494331.4017   3121536.6289   2   8   0.0251   0.0442   0.0217   0.0068  -0.0090   0.0062   0.00    1.2
2173 201108.000   -828648.8505  -5494331.4012   3121536.6304   2   8   0.0250   0.0440   0.0216   0.0067  -0.0090   0.0059   0.00    1.2
2173 201109.000   -828648.8468  -5494331.4102   3121536.6349   2   8   0.0249   0.0439   0.0216   0.0065  -0.0087   0.0061   0.00    1.3
2173 201110.000   -828648.8420  -5494331.4101   3121536.6370   2   8   0.0249   0.0437   0.0214   0.0067  -0.0086   0.0061   0.00    1.3
2173 201111.000   -828648.8169  -5494331.3809   3121536.6339   2   8   0.0249   0.0435   0.0214   0.0064  -0.0085   0.0064   0.00    1.3
2173 201112.000   -828648.8120  -5494331.3962   3121536.6400   2   8   0.0248   0.0433   0.0212   0.0065  -0.0083   0.0062   0.00    1.3
2173 201113.000   -828648.8074  -5494331.4145   3121536.6477   2   8   0.0248   0.0432   0.0212   0.0064  -0.0081   0.0062   0.00    1.3
2173 201114.000   -828648.8001  -5494331.4258   3121536.6544   2   8   0.0247   0.0430   0.0211   0.0061  -0.0081   0.0061   0.00    1.3
2173 201115.000   -828648.7953  -5494331.4405   3121536.6602   2   8   0.0246   0.0429   0.0210   0.0065  -0.0077   0.0063   0.00    1.3
2173 201116.000   -828648.7887  -5494331.4569   3121536.6698   2   8   0.0246   0.0427   0.0209   0.0062  -0.0076   0.0064   0.00    1.3
2173 201117.000   -828648.7826  -5494331.4714   3121536.6785   2   8   0.0245   0.0425   0.0208   0.0065  -0.0073   0.0062   0.00    1.3
2173 201118.000   -828648.7792  -5494331.4847   3121536.6850   2   8   0.0245   0.0423   0.0208   0.0063  -0.0073   0.0064   0.00    1.3
2173 201119.000   -828648.7768  -5494331.5029   3121536.6921   2   8   0.0244   0.0422   0.0207   0.0061  -0.0073   0.0062   0.00    1.3
2173 201120.000   -828648.7735  -5494331.5130   3121536.6942   2   8   0.0244   0.0420   0.0206   0.0062  -0.0068   0.0063   0.00    1.3
2173 201121.000   -828648.7724  -5494331.5308   3121536.7005   2   8   0.0243   0.0419   0.0204   0.0060  -0.0069   0.0063   0.00    1.4
2173 201122.000   -828648.7686  -5494331.5442   3121536.7028   2   8   0.0243   0.0417   0.0204   0.0062  -0.0066   0.0062   0.00    1.4
2173 201123.000   -828648.7655  -5494331.5608   3121536.7099   2   8   0.0243   0.0415   0.0204   0.0059  -0.0067   0.0061   0.00    1.4
2173 201124.000   -828648.7618  -5494331.5754   3121536.7166   2   8   0.0242   0.0414   0.0202   0.0057  -0.0065   0.0065   0.00    1.4
2173 201125.000   -828648.7568  -5494331.5867   3121536.7226   2   8   0.0242   0.0413   0.0201   0.0058  -0.0062   0.0062   0.00    1.4
2173 201126.000   -828648.7520  -5494331.6005   3121536.7297   2   8   0.0240   0.0411   0.0201   0.0059  -0.0060   0.0063   0.00    1.4
2173 201127.000   -828648.7473  -5494331.6118   3121536.7379   2   8   0.0241   0.0409   0.0200   0.0057  -0.0060   0.0064   0.00    1.4
2173 201128.000   -828648.7432  -5494331.6194   3121536.7371   2   8   0.0240   0.0408   0.0200   0.0057  -0.0057   0.0064   0.00    1.4
2173 201129.000   -828648.7401  -5494331.6283   3121536.7442   2   8   0.0239   0.0406   0.0198   0.0056  -0.0055   0.0061   0.00    1.4
2173 201130.000   -828648.7358  -5494331.6423   3121536.7462   2   8   0.0239   0.0405   0.0198   0.0056  -0.0055   0.0061   0.00    1.4
2173 201131.000   -828648.7328  -5494331.6543   3121536.7513   2   8   0.0238   0.0403   0.0197   0.0058  -0.0051   0.0064   0.00    1.4
2173 201132.000   -828648.7290  -5494331.6619   3121536.7545   2   8   0.0238   0.0402   0.0197   0.0058  -0.0050   0.0061   0.00    1.4
2173 201133.000   -828648.7254  -5494331.6692   3121536.7580   2   8   0.0238   0.0401   0.0195   0.0055  -0.0049   0.0064   0.00    1.4
2173 201134.000   -828648.7050  -5494331.6440   3121536.7602   2   8   0.0238   0.0399   0.0195   0.0057  -0.0047   0.0063   0.00    1.4
2173 201135.000   -828648.7017  -5494331.6449   3121536.7668   2   8   0.0236   0.0397   0.0194   0.0054  -0.0046   0.0061   0.00    1.4
2173 201136.000   -828648.6962  -5494331.6541   3121536.7719   2   8   0.0236   0.0396   0.0193   0.0052  -0.0044   0.0063   0.00    1.4
2173 201137.000   -828648.6898  -5494331.6601   3121536.7748   2   8   0.0236   0.0395   0.0193   0.0052  -0.0045   0.0063   0.00    1.4
2173 201138.000   -828648.6839  -5494331.6640   3121536.7802   2   8   0.0234   0.0393   0.0192   0.0056  -0.0040   0.0064   0.00    1.4
2173 201139.000   -828648.6774  -5494331.6620   3121536.7842   2   8   0.0236   0.0392   0.0191   0.0052  -0.0040   0.0063   0.00    1.4
2173 201140.000   -828648.6714  -5494331.6646   3121536.7869   2   8   0.0234   0.0390   0.0190   0.0053  -0.0037   0.0063   0.00    1.4
2173 201141.000   -828648.6644  -5494331.6558   3121536.7873   2   8   0.0234   0.0389   0.0191   0.0055  -0.0035   0.0061   0.00    1.4
2173 201142.000   -828648.6615  -5494331.6607   3121536.7918   2   8   0.0233   0.0388   0.0189   0.0053  -0.0031   0.0065   0.00    1.4
2173 201143.000   -828648.6566  -5494331.6587   3121536.7933   2   8   0.0233   0.0386   0.0188   0.0050  -0.0027   0.0063   0.00    1.4
2173 201144.000   -828648.6499  -5494331.6615   3121536.7971   2   8   0.0232   0.0385   0.0187   0.0051  -0.0029   0.0064   0.00    1.3
2173 201145.000   -828648.6444  -5494331.6656   3121536.7995   2   8   0.0231   0.0384   0.0187   0.0049  -0.0026   0.0064   0.00    1.3
2173 201146.000   -828648.6377  -5494331.6599   3121536.8004   2   8   0.0232   0.0383   0.0186   0.0051  -0.0026   0.0062   0.00    1.3
2173 201147.000   -828648.6315  -5494331.6598   3121536.8012   2   8   0.0231   0.0381   0.0185   0.0054  -0.0015   0.0062   0.00    1.3
2173 201148.000   -828648.6257  -5494331.6688   3121536.8071   2   8   0.0231   0.0380   0.0185   0.0049  -0.0013   0.0063   0.00    1.3
2173 201149.000   -828648.6226  -5494331.6746   3121536.8093   2   8   0.0230   0.0379   0.0184   0.0048  -0.0010   0.0063   0.00    1.3
2173 201150.000   -828648.6172  -5494331.6728   3121536.8114   2   8   0.0230   0.0377   0.0184   0.0051  -0.0010   0.0063   0.00    1.3
2173 201151.000   -828648.6116  -5494331.6903   3121536.8220   2   8   0.0230   0.0376   0.0183   0.0049   0.0006   0.0062   0.00    1.3
2173 201152.000   -828648.6160  -5494331.6914   3121536.8198   2   8   0.0229   0.0375   0.0182   0.0049  -0.0007   0.0062   0.00    1.3
2173 201153.000   -828648.6127  -5494331.6899   3121536.8227   2   8   0.0229   0.0373   0.0181   0.0047   0.0016   0.0064   0.00    1.3
2173 201154.000   -828648.6117  -5494331.6927   3121536.8296   2   8   0.0228   0.0372   0.0181   0.0050   0.0021   0.0063   0.00    1.3
2173 201155.000   -828648.6079  -5494331.7108   3121536.8405   2   8   0.0228   0.0371   0.0181   0.0047   0.0018   0.0062   0.00    1.3
2173 201156.000   -828648.6072  -5494331.6979   3121536.8387   2   8   0.0227   0.0370   0.0180   0.0048   0.0025   0.0062   0.00    1.3
2173 201157.000   -828648.6051  -5494331.7057   3121536.8466   2   8   0.0227   0.0369   0.0180   0.0047   0.0025   0.0062   0.00    1.3
2173 201158.000   -828648.6028  -5494331.7140   3121536.8534   2   8   0.0226   0.0367   0.0178   0.0047   0.0026   0.0064   0.00    1.3
2173 201159.000   -828648.5995  -5494331.7157   3121536.8580   2   8   0.0226   0.0366   0.0178   0.0047   0.0026   0.0065   0.00    1.3
2173 201160.000   -828648.5965  -5494331.7224   3121536.8612   2   8   0.0226   0.0365   0.0177   0.0046   0.0032   0.0066   0.00    1.3
2173 201161.000   -828648.5934  -5494331.7263   3121536.8672   2   8   0.0225   0.0364   0.0177   0.0045   0.0030   0.0062   0.00    1.3
2173 201162.000   -828648.5891  -5494331.7299   3121536.8710   2   8   0.0225   0.0363   0.0176   0.0048   0.0034   0.0061   0.00    1.3
2173 201163.000   -828648.5870  -5494331.7379   3121536.8770   2   8   0.0224   0.0361   0.0176   0.0046   0.0035   0.0063   0.00    1.3
2173 201164.000   -828648.5827  -5494331.7481   3121536.8824   2   8   0.0223   0.0360   0.0176   0.0044   0.0036   0.0064   0.00    1.2
2173 201165.000   -828648.5809  -5494331.7495   3121536.8876   2   8   0.0224   0.0359   0.0175   0.0043   0.0036   0.0061   0.00    1.2
2173 201166.000   -828648.5790  -5494331.7515   3121536.8932   2   8   0.0224   0.0358   0.0175   0.0043   0.0036   0.0063   0.00    1.2
2173 201167.000   -828648.5740  -5494331.7553   3121536.9039   2   8   0.0223   0.0357   0.0173   0.0046   0.0039   0.0064   0.00    1.2
2173 201168.000   -828648.5730  -5494331.7631   3121536.9102   2   8   0.0222   0.0356   0.0172   0.0041   0.0037   0.0062   0.00    1.2
2173 201169.000   -828648.5725  -5494331.7726   3121536.9141   2   8   0.0222   0.0355   0.0173   0.0043   0.0039   0.0062   0.00    1.2
2173 201170.000   -828648.5702  -5494331.7780   3121536.9199   2   8   0.0221   0.0354   0.0170   0.0042   0.0042   0.0064   0.00    1.2
2173 201171.000   -828648.5671  -5494331.7832   3121536.9217   2   8   0.0221   0.0352   0.0172   0.0045   0.0042   0.0061   0.00    1.2
2173 201172.000   -828648.5654  -5494331.7834   3121536.9249   2   8   0.0221   0.0351   0.0171   0.0041   0.0042   0.0062   0.00    1.2
2173 201173.000   -828648.5613  -5494331.7775   3121536.9227   2   8   0.0220   0.0350   0.0170   0.0044   0.0045   0.0064   0.00    1.2
2173 201174.000   -828648.5552  -5494331.7775   3121536.9246   2   8   0.0220   0.0349   0.0170   0.0043   0.0046   0.0062   0.00    1.2
2173 201175.000   -828648.5520  -5494331.7807   3121536.9258   2   8   0.0219   0.0348   0.0169   0.0043   0.0043   0.0062   0.00    1.2
2173 201176.000   -828648.5517  -5494331.7846   3121536.9268   2   8   0.0220   0.0347   0.0169   0.0043   0.0045   0.0061   0.00    1.2
2173 201177.000   -828648.5488  -5494331.7933   3121536.9329   2   8   0.0219   0.0346   0.0169   0.0045   0.0047   0.0062   0.00    1.2
2173 201178.000   -828648.5459  -5494331.7927   3121536.9335   2   8   0.0219   0.0345   0.0168   0.0040   0.0047   0.0063   0.00    1.2
2173 201179.000   -828648.5420  -5494331.7899   3121536.9322   2   8   0.0218   0.0344   0.0167   0.0039   0.0045   0.0062   0.00    1.2
2173 201180.000   -828648.5397  -5494331.7935   3121536.9371   2   8   0.0217   0.0343   0.0166   0.0043   0.0050   0.0064   0.00    1.2
2173 201181.000   -828648.5367  -5494331.7901   3121536.9370   2   8   0.0217   0.0342   0.0166   0.0042   0.0050   0.0063   0.00    1.2
2173 201182.000   -828648.5343  -5494331.7910   3121536.9364   2   8   0.0216   0.0341   0.0165   0.0039   0.0048   0.0064   0.00    1.2
2173 201183.000   -828648.5319  -5494331.7970   3121536.9432   2   8   0.0216   0.0340   0.0165   0.0036   0.0048   0.0065   0.00    1.2
2173 201184.000   -828648.5320  -5494331.7919   3121536.9416   2   8   0.0217   0.0339   0.0165   0.0040   0.0049   0.0063   0.00    1.2
2173 201185.000   -828648.5298  -5494331.7947   3121536.9428   2   8   0.0216   0.0338   0.0164   0.0039   0.0052   0.0062   0.00    1.2
2173 201186.000   -828648.5273  -5494331.7988   3121536.9443   2   8   0.0216   0.0337   0.0163   0.0040   0.0051   0.0065   0.00    1.2
2173 201187.000   -828648.5275  -5494331.7989   3121536.9475   2   8   0.0215   0.0336   0.0163   0.0041   0.0052   0.0064   0.00    1.2
2173 201188.000   -828648.5214  -5494331.7991   3121536.9484   2   8   0.0214   0.0335   0.0163   0.0039   0.0051   0.0061   0.00    1.2
2173 201189.000   -828648.5206  -5494331.8065   3121536.9500   2   8   0.0214   0.0334   0.0162   0.0038   0.0052   0.0062   0.00    1.2
2173 201190.000   -828648.5194  -5494331.8126   3121536.9535   2   8   0.0214   0.0333   0.0162   0.0041   0.0055   0.0063   0.00    1.2
2173 201191.000   -828648.5172  -5494331.8154   3121536.9534   2   8   0.0213   0.0332   0.0162   0.0041   0.0054   0.0065   0.00    1.2
2173 201192.000   -828648.5185  -5494331.8278   3121536.9612   2   8   0.0213   0.0331   0.0160   0.0038   0.0054   0.0063   0.00    1.2
2173 201193.000   -828648.5167  -5494331.8304   3121536.9621   2   8   0.0213   0.0330   0.0160   0.0040   0.0055   0.0062   0.00    1.2
2173 201194.000   -828648.5152  -5494331.8362   3121536.9669   2   8   0.0213   0.0329   0.0160   0.0038   0.0056   0.0061   0.00    1.2
2173 201195.000   -828648.5130  -5494331.8312   3121536.9689   2   8   0.0212   0.0328   0.0159   0.0035   0.0056   0.0063   0.00    1.2
2173 201196.000   -828648.5127  -5494331.8326   3121536.9690   2   8   0.0212   0.0327   0.0158   0.0035   0.0055   0.0061   0.00    1.2
2173 201197.000   -828648.5084  -5494331.8336   3121536.9732   2   8   0.0212   0.0327   0.0159   0.0036   0.0056   0.0063   0.00    1.2
2173 201198.000   -828648.5102  -5494331.8684   3121536.9985   2   8   0.0211   0.0325   0.0158   0.0034   0.0055   0.0061   0.00    1.2
2173 201199.000   -828648.5086  -5494331.8715   3121537.0016   2   8   0.0210   0.0324   0.0158   0.0037   0.0055   0.0061   0.00    1.2
2173 201200.000   -828648.5064  -5494331.8689   3121537.0000   2   8   0.0210   0.0323   0.0157   0.0039   0.0057   0.0063   0.00    1.2
2173 201201.000   -828648.5046  -5494331.8803   3121537.0070   2   8   0.0210   0.0322   0.0157   0.0039   0.0056   0.0062   0.00    1.2
2173 201202.000   -828648.5007  -5494331.8786   3121537.0071   2   8   0.0210   0.0322   0.0156   0.0035   0.0058   0.0061   0.00    1.2
2173 201203.000   -828648.4980  -5494331.8752   3121537.0080   2   8   0.0209   0.0321   0.0155   0.0034   0.0057   0.0060   0.00    1.2
2173 201204.000   -828648.4956  -5494331.8734   3121537.0083   2   8   0.0209   0.0320   0.0156   0.0035   0.0057   0.0063   0.00    1.2
2173 201205.000   -828648.4942  -5494331.8674   3121537.0059   2   8   0.0209   0.0319   0.0154   0.0034   0.0058   0.0062   0.00    1.2
2173 201206.000   -828648.4921  -5494331.8729   3121537.0079   2   8   0.0208   0.0318   0.0154   0.0036   0.0057   0.0062   0.00    1.1
2173 201207.000   -828648.4925  -5494331.8751   3121537.0077   2   8   0.0208   0.0317   0.0153   0.0034   0.0057   0.0062   0.00    1.1
2173 201208.000   -828648.4882  -5494331.8762   3121537.0104   2   8   0.0208   0.0317   0.0154   0.0036   0.0060   0.0061   0.00    1.1
2173 201209.000   -828648.4887  -5494331.8841   3121537.0109   2   8   0.0208   0.0316   0.0153   0.0034   0.0058   0.0061   0.00    1.1
2173 201210.000   -828648.4879  -5494331.8919   3121537.0134   2   8   0.0207   0.0315   0.0153   0.0036   0.0060   0.0061   0.00    1.1
2173 201211.000   -828648.4868  -5494331.8941   3121537.0143   2   8   0.0206   0.0314   0.0152   0.0034   0.0060   0.0061   0.00    1.1
2173 201212.000   -828648.4841  -5494331.8957   3121537.0144   2   8   0.0206   0.0313   0.0152   0.0036   0.0060   0.0062   0.00    1.1
2173 201213.000   -828648.4843  -5494331.9015   3121537.0165   2   8   0.0206   0.0312   0.0151   0.0035   0.0060   0.0061   0.00    1.1
2173 201214.000   -828648.4805  -5494331.9039   3121537.0168   2   8   0.0205   0.0311   0.0151   0.0030   0.0058   0.0063   0.00    1.1
2173 201215.000   -828648.4773  -5494331.8964   3121537.0164   2   8   0.0205   0.0311   0.0151   0.0037   0.0060   0.0061   0.00    1.1
2173 201216.000   -828648.4730  -5494331.8909   3121537.0138   2   8   0.0205   0.0310   0.0149   0.0034   0.0060   0.0062   0.00    1.1
2173 201217.000   -828648.4712  -5494331.8946   3121537.0152   2   8   0.0205   0.0309   0.0150   0.0031   0.0058   0.0062   0.00    1.1
2173 201218.000   -828648.4669  -5494331.8971   3121537.0178   2   8   0.0205   0.0308   0.0149   0.0033   0.0060   0.0063   0.00    1.1
2173 201219.000   -828648.4642  -5494331.8963   3121537.0176   2   8   0.0205   0.0307   0.0149   0.0038   0.0061   0.0064   0.00    1.1
2173 201220.000   -828648.4621  -5494331.8915   3121537.0164   2   8   0.0204   0.0307   0.0149   0.0034   0.0058   0.0061   0.00    1.1
2173 201221.000   -828648.4603  -5494331.9036   3121537.0213   2   8   0.0203   0.0306   0.0148   0.0035   0.0061   0.0063   0.00    1.1
2173 201222.000   -828648.4582  -5494331.9068   3121537.0241   2   8   0.0204   0.0305   0.0148   0.0033   0.0059   0.0061   0.00    1.1
2173 201223.000   -828648.4567  -5494331.9144   3121537.0264   2   8   0.0203   0.0304   0.0147   0.0033   0.0060   0.0059   0.00    1.1
2173 201224.000   -828648.4570  -5494331.9173   3121537.0255   2   8   0.0202   0.0303   0.0147   0.0031   0.0060   0.0062   0.00    1.1
2173 201225.000   -828648.4553  -5494331.9265   3121537.0286   2   8   0.0202   0.0303   0.0147   0.0029   0.0061   0.0062   0.00    1.1
2173 201226.000   -828648.4522  -5494331.9227   3121537.0267   2   8   0.0202   0.0302   0.0148   0.0029   0.0061   0.0062   0.00    1.1
2173 201227.000   -828648.4517  -5494331.9260   3121537.0252   2   8   0.0201   0.0301   0.0145   0.0032   0.0061   0.0062   0.00    1.0
2173 201228.000   -828648.4504  -5494331.9196   3121537.0241   2   8   0.0202   0.0300   0.0146   0.0032   0.0061   0.0063   0.00    1.0
2173 201229.000   -828648.4475  -5494331.9146   3121537.0233   2   8   0.0201   0.0300   0.0146   0.0038   0.0062   0.0060   0.00    1.0
2173 201230.000   -828648.4459  -5494331.9097   3121537.0228   2   8   0.0201   0.0299   0.0144   0.0032   0.0061   0.0063   0.00    1.0
2173 201231.000   -828648.4412  -5494331.9062   3121537.0201   2   8   0.0200   0.0298   0.0143   0.0026   0.0060   0.0060   0.00    1.0
2173 201232.000   -828648.4398  -5494331.9109   3121537.0212   2   8   0.0200   0.0297   0.0144   0.0028   0.0062   0.0063   0.00    1.0
2173 201233.000   -828648.4380  -5494331.9094   3121537.0200   2   8   0.0199   0.0296   0.0143   0.0032   0.0060   0.0062   0.00    1.0
2173 201234.000   -828648.4380  -5494331.9133   3121537.0204   2   8   0.0200   0.0296   0.0143   0.0029   0.0060   0.0061   0.00    1.0
2173 201235.000   -828648.4327  -5494331.9101   3121537.0199   2   8   0.0200   0.0295   0.0142   0.0032   0.0060   0.0061   0.00    1.0
2173 201236.000   -828648.4311  -5494331.9141   3121537.0211   2   8   0.0199   0.0294   0.0142   0.0033   0.0063   0.0061   0.00    1.0
2173 201237.000   -828648.4279  -5494331.9083   3121537.0186   2   8   0.0199   0.0293   0.0142   0.0027   0.0060   0.0062   0.00    1.0
2173 201238.000   -828648.4259  -5494331.9162   3121537.0235   2   8   0.0198   0.0293   0.0142   0.0027   0.0060   0.0060   0.00    1.0
2173 201239.000   -828648.4232  -5494331.9232   3121537.0239   2   8   0.0198   0.0292   0.0142   0.0030   0.0061   0.0061   0.00    1.0
2173 201240.000   -828648.4218  -5494331.9203   3121537.0230   2   8   0.0197   0.0291   0.0141   0.0036   0.0063   0.0061   0.00    1.0
2173 201241.000   -828648.4200  -5494331.9246   3121537.0233   2   8   0.0198   0.0291   0.0142   0.0028   0.0061   0.0062   0.00    1.0
2173 201242.000   -828648.4174  -5494331.9302   3121537.0231   2   8   0.0196   0.0290   0.0140   0.0028   0.0062   0.0058   0.00    1.1
2173 201243.000   -828648.4147  -5494331.9292   3121537.0229   2   8   0.0197   0.0289   0.0141   0.0031   0.0061   0.0060   0.00    1.1
2173 201244.000   -828648.4140  -5494331.9323   3121537.0228   2   8   0.0197   0.0288   0.0140   0.0031   0.0060   0.0059   0.00    1.1
2173 201245.000   -828648.4109  -5494331.9366   3121537.0232   2   8   0.0196   0.0288   0.0138   0.0032   0.0063   0.0061   0.00    1.1
2173 201246.000   -828648.4091  -5494331.9425   3121537.0216   2   8   0.0196   0.0287   0.0139   0.0029   0.0061   0.0062   0.00    1.1
2173 201247.000   -828648.4084  -5494331.9449   3121537.0203   2   8   0.0195   0.0286   0.0139   0.0030   0.0061   0.0060   0.00    1.1
2173 201248.000   -828648.4030  -5494331.9423   3121537.0222   2   8   0.0196   0.0286   0.0138   0.0025   0.0064   0.0062   0.00    1.1
2173 201249.000   -828648.4002  -5494331.9443   3121537.0203   2   8   0.0196   0.0285   0.0138   0.0032   0.0062   0.0059   0.00    1.1
2173 201250.000   -828648.3989  -5494331.9477   3121537.0173   2   8   0.0194   0.0285   0.0137   0.0028   0.0061   0.0061   0.00    1.1
2173 201251.000   -828648.3952  -5494331.9446   3121537.0174   2   8   0.0194   0.0284   0.0137   0.0028   0.0062   0.0059   0.00    1.1
2173 201252.000   -828648.3928  -5494331.9428   3121537.0167   2   8   0.0194   0.0283   0.0137   0.0032   0.0063   0.0059   0.00    1.1
2173 201253.000   -828648.3884  -5494331.9367   3121537.0110   2   8   0.0194   0.0283   0.0137   0.0027   0.0061   0.0060   0.00    1.1
2173 201254.000   -828648.3892  -5494331.9373   3121537.0114   2   8   0.0194   0.0282   0.0137   0.0028   0.0061   0.0061   0.00    1.1
2173 201255.000   -828648.3860  -5494331.9455   3121537.0107   2   8   0.0194   0.0281   0.0136   0.0031   0.0061   0.0061   0.00    1.1
2173 201256.000   -828648.3847  -5494331.9461   3121537.0087   2   8   0.0193   0.0280   0.0136   0.0031   0.0061   0.0057   0.00    1.1
2173 201257.000   -828648.3961  -5494331.9201   3121537.0003   2   8   0.0193   0.0280   0.0135   0.0020   0.0061   0.0061   0.00    1.1
2173 201258.000   -828648.3947  -5494331.9330   3121537.0009   2   8   0.0193   0.0279   0.0135   0.0029   0.0062   0.0058   0.00    1.1
2173 201259.000   -828648.3955  -5494331.9373   3121536.9989   2   8   0.0191   0.0279   0.0134   0.0028   0.0061   0.0061   0.00    1.1
2173 201260.000   -828648.3949  -5494331.9510   3121537.0034   2   8   0.0192   0.0278   0.0134   0.0028   0.0061   0.0060   0.00    1.1
2173 201261.000   -828648.3955  -5494331.9541   3121536.9982   2   8   0.0191   0.0278   0.0135   0.0024   0.0061   0.0058   0.00    1.1
2173 201262.000   -828648.3954  -5494331.9674   3121536.9994   2   8   0.0190   0.0277   0.0133   0.0029   0.0062   0.0063   0.00    1.1
2173 201263.000   -828648.3984  -5494331.9812   3121537.0030   2   8   0.0190   0.0276   0.0133   0.0026   0.0061   0.0059   0.00    1.1
2173 201264.000   -828648.3969  -5494331.9880   3121537.0046   2   8   0.0191   0.0276   0.0134   0.0026   0.0059   0.0062   0.00    1.1
2173 201265.000   -828648.3974  -5494331.9947   3121537.0048   2   8   0.0192   0.0275   0.0133   0.0028   0.0063   0.0059   0.00    1.1
2173 201266.000   -828648.3983  -5494331.9993   3121537.0064   2   8   0.0190   0.0274   0.0132   0.0026   0.0063   0.0059   0.00    1.1
2173 201267.000   -828648.3960  -5494332.0013   3121537.0041   2   8   0.0189   0.0274   0.0133   0.0027   0.0060   0.0062   0.00    1.1
2173 201268.000   -828648.3956  -5494332.0027   3121537.0015   2   8   0.0189   0.0273   0.0132   0.0028   0.0061   0.0057   0.00    1.1
2173 201269.000   -828648.3972  -5494332.0103   3121537.0032   2   8   0.0189   0.0272   0.0131   0.0030   0.0061   0.0058   0.00    1.1
2173 201270.000   -828648.3981  -5494332.0160   3121537.0023   2   8   0.0188   0.0272   0.0132   0.0028   0.0062   0.0060   0.00    1.1
2173 201271.000   -828648.3976  -5494332.0230   3121537.0017   2   8   0.0190   0.0271   0.0131   0.0025   0.0061   0.0062   0.00    1.1
2173 201272.000   -828648.4011  -5494332.0283   3121536.9991   2   8   0.0189   0.0270   0.0133   0.0029   0.0060   0.0058   0.00    1.1
2173 201273.000   -828648.3995  -5494332.0354   3121536.9983   2   8   0.0189   0.0270   0.0131   0.0022   0.0059   0.0060   0.00    1.1
2173 201274.000   -828648.3996  -5494332.0480   3121536.9983   2   8   0.0188   0.0269   0.0130   0.0022   0.0061   0.0058   0.00    1.1
2173 201275.000   -828648.4001  -5494332.0542   3121536.9987   2   8   0.0188   0.0269   0.0131   0.0027   0.0060   0.0059   0.00    1.1
2173 201276.000   -828648.3993  -5494332.0663   3121537.0019   2   8   0.0188   0.0268   0.0129   0.0027   0.0061   0.0058   0.00    1.1
2173 201277.000   -828648.3987  -5494332.0742   3121537.0033   2   8   0.0188   0.0267   0.0130   0.0028   0.0060   0.0058   0.00    1.1
2173 201278.000   -828648.3999  -5494332.0827   3121537.0030   2   8   0.0186   0.0267   0.0129   0.0025   0.0059   0.0058   0.00    1.1
2173 201279.000   -828648.4149  -5494332.0675   3121536.9720   2   8   0.0187   0.0267   0.0129   0.0026   0.0059   0.0057   0.00    1.1
2173 201280.000   -828648.4184  -5494332.0805   3121536.9677   2   8   0.0186   0.0266   0.0128   0.0023   0.0062   0.0059   0.00    1.1
2173 201281.000   -828648.4228  -5494332.0912   3121536.9655   2   8   0.0186   0.0266   0.0129   0.0026   0.0061   0.0060   0.00    1.1
2173 201282.000   -828648.4273  -5494332.1050   3121536.9596   2   8   0.0186   0.0265   0.0128   0.0027   0.0060   0.0061   0.00    1.1
2173 201283.000   -828648.4327  -5494332.1150   3121536.9551   2   8   0.0186   0.0264   0.0128   0.0024   0.0060   0.0058   0.00    1.1
2173 201284.000   -828648.4353  -5494332.1262   3121536.9534   2   8   0.0186   0.0264   0.0128   0.0020   0.0060   0.0058   0.00    1.1
2173 201285.000   -828648.4389  -5494332.1329   3121536.9475   2   8   0.0185   0.0263   0.0128   0.0025   0.0060   0.0061   0.00    1.1
2173 201286.000   -828648.4446  -5494332.1433   3121536.9436   2   8   0.0184   0.0262   0.0127   0.0026   0.0060   0.0060   0.00    1.1
2173 201287.000   -828648.4500  -5494332.1515   3121536.9387   2   8   0.0185   0.0262   0.0126   0.0024   0.0061   0.0061   0.00    1.1
2173 201288.000   -828648.4497  -5494332.1560   3121536.9360   2   8   0.0185   0.0261   0.0127   0.0028   0.0060   0.0056   0.00    1.1
2173 201289.000   -828648.4513  -5494332.1601   3121536.9357   2   8   0.0184   0.0261   0.0127   0.0026   0.0060   0.0059   0.00    1.1
