% program   : rnx2rtkp ver.2.4.3 b31
% inp file  : ngs/21_09_01_07_41_55_blom.obs
% inp file  : ngs/21_09_01_07_41_55_blom_SW.obs
% inp file  : ngs/21_09_01_07_41_55_brdc.nav
% obs start : 2021/09/01 07:00:00.0 GPST (week2173 284400.0s)
% obs end   : 2021/09/01 07:59:59.0 GPST (week2173 287999.0s)
% ref pos   :    85902.2620  -4920601.6362   4043655.9789
%
% (x/y/z-ecef=WGS84,Q=1:fix,2:float,3:sbas,4:dgps,5:single,6:ppp,ns=# of satellites)
%  GPST              x-ecef(m)      y-ecef(m)      z-ecef(m)   Q  ns   sdx(m)   sdy(m)   sdz(m)  sdxy(m)  sdyz(m)  sdzx(m) age(s)  ratio
2173 286890.000     84783.4422  -4856565.0480   4120124.8105   2   8   0.4304   0.9339   0.6836   0.3030  -0.5921  -0.2070 -30.00    2.0
2173 286891.000     84783.5451  -4856565.0085   4120124.8571   2   8   0.3063   0.6646   0.4867   0.2147  -0.4206  -0.1468 -29.00    1.9
2173 286892.000     84783.5747  -4856565.0487   4120124.8762   2   8   0.2508   0.5441   0.3986   0.1756  -0.3442  -0.1201 -28.00    1.8
2173 286893.000     84783.5895  -4856565.0519   4120124.8503   2   8   0.2176   0.4721   0.3458   0.1524  -0.2987  -0.1042 -27.00    1.8
2173 286894.000     84783.6112  -4856565.0675   4120124.8703   2   8   0.1948   0.4228   0.3098   0.1365  -0.2675  -0.0934 -26.00    1.7
2173 286895.000     84783.6460  -4856565.1378   4120124.8863   2   8   0.1780   0.3864   0.2831   0.1247  -0.2445  -0.0854 -25.00    1.7
2173 286896.000     84783.6472  -4856565.1824   4120124.8984   2   8   0.1649   0.3580   0.2623   0.1156  -0.2266  -0.0791 -24.00    1.6
2173 286897.000     84783.6797  -4856565.1203   4120124.8655   2   8   0.1544   0.3350   0.2456   0.1082  -0.2121  -0.0741 -23.00    1.6
2173 286898.000     84783.6881  -4856565.1437   4120124.8668   2   8   0.1456   0.3160   0.2316   0.1020  -0.2001  -0.0699 -22.00    1.6
2173 286899.000     84783.7010  -4856565.1598   4120124.8774   2   8   0.1381   0.2999   0.2198   0.0968  -0.1899  -0.0663 -21.00    1.5
2173 286900.000     84783.7121  -4856565.1684   4120124.8969   2   8   0.1317   0.2859   0.2097   0.0923  -0.1811  -0.0632 -20.00    1.5
2173 286901.000     84783.7119  -4856565.1816   4120124.9193   2   8   0.1261   0.2738   0.2008   0.0883  -0.1734  -0.0605 -19.00    1.5
2173 286902.000     84783.7009  -4856565.1904   4120124.9444   2   8   0.1212   0.2630   0.1929   0.0848  -0.1666  -0.0581 -18.00    1.4
2173 286903.000     84783.7103  -4856565.1690   4120124.9470   2   8   0.1167   0.2534   0.1859   0.0817  -0.1605  -0.0560 -17.00    1.4
2173 286904.000     84783.7058  -4856565.2037   4120124.9724   2   8   0.1128   0.2447   0.1796   0.0789  -0.1550  -0.0541 -16.00    1.4
2173 286905.000     84783.7010  -4856565.2172   4120124.9840   2   8   0.1092   0.2369   0.1738   0.0763  -0.1500  -0.0523 -15.00    1.3
2173 286906.000     84783.7075  -4856565.1884   4120124.9716   2   8   0.1059   0.2297   0.1686   0.0740  -0.1455  -0.0507 -14.00    1.2
2173 286907.000     84783.7043  -4856565.1873   4120124.9781   2   8   0.1028   0.2231   0.1638   0.0718  -0.1413  -0.0492 -13.00    1.2
2173 286908.000     84783.7025  -4856565.1889   4120124.9760   2   8   0.1001   0.2170   0.1594   0.0698  -0.1374  -0.0478 -12.00    1.2
2173 286909.000     84783.7123  -4856565.1890   4120124.9966   2   8   0.0975   0.2114   0.1553   0.0680  -0.1339  -0.0466 -11.00    1.1
2173 286910.000     84783.7117  -4856565.2010   4120125.0077   2   8   0.0951   0.2062   0.1515   0.0662  -0.1305  -0.0454 -10.00    1.1
2173 286911.000     84783.7079  -4856565.2017   4120125.0246   2   8   0.0929   0.2013   0.1479   0.0646  -0.1274  -0.0443  -9.00    1.0
2173 286912.000     84783.7061  -4856565.2031   4120125.0185   2   8   0.0908   0.1967   0.1446   0.0631  -0.1245  -0.0432  -8.00    1.0
2173 286913.000     84783.6962  -4856565.2057   4120125.0215   2   8   0.0888   0.1924   0.1415   0.0617  -0.1218  -0.0423  -7.00    1.0
2173 286914.000     84783.6834  -4856565.2151   4120125.0242   2   8   0.0870   0.1884   0.1386   0.0604  -0.1192  -0.0414  -6.00    1.1
2173 286915.000     84783.6833  -4856565.2097   4120125.0225   2   8   0.0853   0.1846   0.1358   0.0591  -0.1168  -0.0405  -5.00    1.1
2173 286916.000     84783.6807  -4856565.2354   4120125.0420   2   8   0.0836   0.1810   0.1332   0.0579  -0.1145  -0.0397  -4.00    1.1
2173 286917.000     84783.6710  -4856565.2719   4120125.0576   2   8   0.0821   0.1776   0.1307   0.0568  -0.1124  -0.0389  -3.00    1.1
2173 286918.000     84783.6713  -4856565.2830   4120125.0549   2   8   0.0807   0.1744   0.1284   0.0557  -0.1103  -0.0382  -2.00    1.1
2173 286919.000     84783.6654  -4856565.2914   4120125.0627   2   8   0.0793   0.1713   0.1262   0.0547  -0.1084  -0.0375  -1.00    1.1
2173 286920.000     84783.6702  -4856565.2586   4120125.0476   2   8   0.0780   0.1685   0.1241   0.0538  -0.1066  -0.0369   0.00    1.2
2173 286921.000     84783.6736  -4856565.2526   4120125.0466   2   8   0.0767   0.1657   0.1221   0.0529  -0.1048  -0.0362   0.00    1.2
2173 286922.000     84783.6781  -4856565.2515   4120125.0423   2   8   0.0756   0.1631   0.1202   0.0521  -0.1032  -0.0357   0.00    1.3
2173 286923.000     84783.6790  -4856565.2589   4120125.0366   2   8   0.0745   0.1606   0.1184   0.0513  -0.1016  -0.0351   0.00    1.3
2173 286924.000     84783.6798  -4856565.2596   4120125.0258   2   8   0.0734   0.1582   0.1166   0.0505  -0.1001  -0.0346   0.00    1.4
2173 286925.000     84783.6730  -4856565.2570   4120125.0201   2   8   0.0723   0.1559   0.1150   0.0497  -0.0986  -0.0341   0.00    1.4
2173 286926.000     84783.6716  -4856565.2607   4120125.0188   2   8   0.0714   0.1537   0.1134   0.0490  -0.0972  -0.0336   0.00    1.5
2173 286927.000     84783.6687  -4856565.2583   4120125.0176   2   8   0.0704   0.1516   0.1118   0.0483  -0.0958  -0.0331   0.00    1.5
2173 286928.000     84783.6778  -4856565.2346   4120124.9975   2   8   0.0695   0.1496   0.1103   0.0476  -0.0945  -0.0326   0.00    1.6
2173 286929.000     84783.6785  -4856565.2239   4120124.9809   2   8   0.0686   0.1476   0.1089   0.0470  -0.0932  -0.0322   0.00    1.6
2173 286930.000     84783.6742  -4856565.2106   4120124.9703   2   8   0.0678   0.1457   0.1075   0.0463  -0.0920  -0.0317   0.00    1.7
2173 286931.000     84783.6737  -4856565.1988   4120124.9570   2   8   0.0669   0.1438   0.1061   0.0457  -0.0908  -0.0313   0.00    1.7
2173 286932.000     84783.6699  -4856565.2023   4120124.9445   2   8   0.0662   0.1421   0.1048   0.0452  -0.0897  -0.0309   0.00    1.8
2173 286933.000     84783.6645  -4856565.2221   4120124.9420   2   8   0.0654   0.1403   0.1036   0.0446  -0.0886  -0.0305   0.00    1.8
2173 286934.000     84783.6527  -4856565.2436   4120124.9572   2   9   0.0645   0.1385   0.1020   0.0438  -0.0872  -0.0295   0.00    1.4
2173 286935.000     84783.6390  -4856565.2670   4120124.9609   2   9   0.0636   0.1368   0.1005   0.0429  -0.0859  -0.0285   0.00    1.5
2173 286936.000     84783.6272  -4856565.2934   4120124.9708   2   9   0.0628   0.1352   0.0991   0.0422  -0.0847  -0.0276   0.00    1.4
2173 286937.000     84783.6222  -4856565.3060   4120124.9757   2   9   0.0620   0.1335   0.0977   0.0414  -0.0835  -0.0267   0.00    1.3
2173 286938.000     84783.6181  -4856565.3201   4120124.9829   2   9   0.0612   0.1320   0.0963   0.0407  -0.0824  -0.0259   0.00    1.2
2173 286939.000     84783.6112  -4856565.3309   4120124.9720   2   9   0.0605   0.1305   0.0951   0.0401  -0.0812  -0.0250   0.00    1.2
2173 286940.000     84783.6075  -4856565.3386   4120124.9638   2   9   0.0597   0.1290   0.0938   0.0395  -0.0802  -0.0242   0.00    1.1
2173 286941.000     84783.5999  -4856565.3498   4120124.9643   2   9   0.0591   0.1275   0.0926   0.0389  -0.0791  -0.0235   0.00    1.1
2173 286942.000     84783.5937  -4856565.3618   4120124.9586   2   9   0.0584   0.1261   0.0915   0.0382  -0.0781  -0.0229   0.00    1.1
2173 286943.000     84783.5909  -4856565.3712   4120124.9575   2   9   0.0578   0.1248   0.0904   0.0377  -0.0771  -0.0222   0.00    1.1
2173 286944.000     84783.5803  -4856565.3824   4120124.9516   2   9   0.0572   0.1235   0.0893   0.0371  -0.0762  -0.0215   0.00    1.0
2173 286945.000     84783.5749  -4856565.4005   4120124.9482   2   9   0.0566   0.1222   0.0882   0.0366  -0.0753  -0.0209   0.00    1.0
2173 286946.000     84783.5653  -4856565.4268   4120124.9491   2   9   0.0560   0.1209   0.0872   0.0360  -0.0744  -0.0204   0.00    1.0
2173 286947.000     84783.5534  -4856565.4471   4120124.9509   2   9   0.0555   0.1197   0.0862   0.0355  -0.0735  -0.0198   0.00    1.0
2173 286948.000     84783.5471  -4856565.4632   4120124.9519   2   9   0.0549   0.1184   0.0852   0.0350  -0.0726  -0.0191   0.00    1.0
2173 286949.000     84783.5387  -4856565.4712   4120124.9420   2   9   0.0543   0.1173   0.0843   0.0346  -0.0718  -0.0186   0.00    1.0
2173 286950.000     84783.5288  -4856565.4970   4120124.9417   2   9   0.0538   0.1161   0.0834   0.0341  -0.0709  -0.0181   0.00    1.0
2173 286951.000     84783.5228  -4856565.5028   4120124.9360   2   9   0.0533   0.1150   0.0825   0.0336  -0.0701  -0.0175   0.00    1.0
2173 286952.000     84783.5166  -4856565.5104   4120124.9400   2   9   0.0529   0.1139   0.0816   0.0332  -0.0694  -0.0170   0.00    1.0
2173 286953.000     84783.5084  -4856565.5243   4120124.9395   2   9   0.0524   0.1128   0.0808   0.0328  -0.0686  -0.0166   0.00    1.1
2173 286954.000     84783.5020  -4856565.5391   4120124.9420   2   9   0.0519   0.1117   0.0799   0.0323  -0.0679  -0.0162   0.00    1.1
2173 286955.000     84783.4959  -4856565.5463   4120124.9413   2   9   0.0515   0.1107   0.0791   0.0320  -0.0671  -0.0156   0.00    1.1
2173 286956.000     84783.4864  -4856565.5589   4120124.9416   2   9   0.0510   0.1096   0.0783   0.0316  -0.0664  -0.0152   0.00    1.1
2173 286957.000     84783.4802  -4856565.5623   4120124.9399   2   9   0.0506   0.1086   0.0775   0.0312  -0.0657  -0.0149   0.00    1.1
2173 286958.000     84783.4773  -4856565.5585   4120124.9372   2   9   0.0502   0.1076   0.0768   0.0308  -0.0650  -0.0143   0.00    1.1
2173 286959.000     84783.4709  -4856565.5582   4120124.9310   2   9   0.0498   0.1067   0.0760   0.0304  -0.0643  -0.0138   0.00    1.1
2173 286960.000     84783.4715  -4856565.5639   4120124.9310   2   9   0.0494   0.1057   0.0753   0.0301  -0.0636  -0.0136   0.00    1.1
2173 286961.000     84783.4663  -4856565.5709   4120124.9287   2   9   0.0490   0.1047   0.0746   0.0297  -0.0630  -0.0131   0.00    1.1
2173 286962.000     84783.4606  -4856565.5724   4120124.9277   2   9   0.0486   0.1038   0.0739   0.0294  -0.0623  -0.0127   0.00    1.1
2173 286963.000     84783.4575  -4856565.5774   4120124.9257   2   9   0.0483   0.1029   0.0732   0.0290  -0.0617  -0.0123   0.00    1.1
2173 286964.000     84783.4562  -4856565.5757   4120124.9263   2   9   0.0479   0.1020   0.0725   0.0287  -0.0610  -0.0119   0.00    1.1
2173 286965.000     84783.4568  -4856565.5710   4120124.9213   2   9   0.0475   0.1012   0.0719   0.0284  -0.0604  -0.0116   0.00    1.1
2173 286966.000     84783.4522  -4856565.5740   4120124.9188   2   9   0.0472   0.1003   0.0712   0.0281  -0.0598  -0.0113   0.00    1.2
2173 286967.000     84783.4515  -4856565.5524   4120124.9056   2   9   0.0469   0.0994   0.0706   0.0277  -0.0592  -0.0110   0.00    1.2
2173 286968.000     84783.4490  -4856565.5528   4120124.9050   2   9   0.0464   0.0986   0.0699   0.0274  -0.0586  -0.0104   0.00    1.2
2173 286969.000     84783.4497  -4856565.5499   4120124.9005   2   9   0.0462   0.0978   0.0693   0.0271  -0.0580  -0.0101   0.00    1.2
2173 286970.000     84783.4491  -4856565.5352   4120124.8916   2   9   0.0459   0.0969   0.0687   0.0268  -0.0575  -0.0098   0.00    1.2
2173 286971.000     84783.4537  -4856565.5295   4120124.8885   2   9   0.0455   0.0961   0.0681   0.0265  -0.0569  -0.0095   0.00    1.2
2173 286972.000     84783.4564  -4856565.5287   4120124.8839   2   9   0.0452   0.0953   0.0675   0.0262  -0.0564  -0.0092   0.00    1.2
2173 286973.000     84783.4542  -4856565.5430   4120124.8898   2   9   0.0449   0.0945   0.0669   0.0260  -0.0558  -0.0087   0.00    1.2
2173 286974.000     84783.4505  -4856565.5525   4120124.8954   2   9   0.0447   0.0938   0.0664   0.0256  -0.0553  -0.0086   0.00    1.2
2173 286975.000     84783.4520  -4856565.5637   4120124.9025   2   9   0.0443   0.0930   0.0658   0.0254  -0.0547  -0.0079   0.00    1.2
2173 286976.000     84783.4483  -4856565.5712   4120124.9092   2   9   0.0441   0.0923   0.0653   0.0251  -0.0542  -0.0077   0.00    1.2
2173 286977.000     84783.4468  -4856565.5753   4120124.9099   2   9   0.0438   0.0915   0.0648   0.0249  -0.0537  -0.0073   0.00    1.1
2173 286978.000     84783.4474  -4856565.5794   4120124.9133   2   9   0.0436   0.0908   0.0642   0.0246  -0.0532  -0.0071   0.00    1.1
2173 286979.000     84783.4484  -4856565.5819   4120124.9088   2   9   0.0433   0.0901   0.0637   0.0243  -0.0527  -0.0069   0.00    1.1
2173 286980.000     84783.4482  -4856565.5835   4120124.9100   2   9   0.0430   0.0894   0.0632   0.0241  -0.0522  -0.0065   0.00    1.1
2173 286981.000     84783.4502  -4856565.5834   4120124.9114   2   9   0.0427   0.0887   0.0627   0.0238  -0.0517  -0.0061   0.00    1.1
2173 286982.000     84783.4548  -4856565.5784   4120124.9137   2   9   0.0425   0.0880   0.0622   0.0236  -0.0512  -0.0059   0.00    1.1
2173 286983.000     84783.4581  -4856565.5815   4120124.9228   2   9   0.0422   0.0873   0.0616   0.0233  -0.0507  -0.0053   0.00    1.1
2173 286984.000     84783.4624  -4856565.5726   4120124.9223   2   9   0.0420   0.0866   0.0612   0.0231  -0.0502  -0.0052   0.00    1.1
2173 286985.000     84783.4641  -4856565.5656   4120124.9238   2   9   0.0417   0.0859   0.0607   0.0228  -0.0498  -0.0048   0.00    1.1
2173 286986.000     84783.4661  -4856565.5686   4120124.9263   2   9   0.0415   0.0853   0.0602   0.0226  -0.0493  -0.0046   0.00    1.1
2173 286987.000     84783.4614  -4856565.5826   4120124.9381   2   9   0.0412   0.0846   0.0597   0.0224  -0.0488  -0.0030   0.00    1.1
2173 286988.000     84783.4554  -4856565.5832   4120124.9317   2   9   0.0410   0.0840   0.0593   0.0222  -0.0484  -0.0036   0.00    1.1
2173 286989.000     84783.4595  -4856565.5802   4120124.9301   2   9   0.0408   0.0833   0.0588   0.0220  -0.0479  -0.0028   0.00    1.1
2173 286990.000     84783.4591  -4856565.5728   4120124.9257   2   9   0.0406   0.0827   0.0584   0.0217  -0.0475  -0.0021   0.00    1.1
2173 286991.000     84783.4594  -4856565.5648   4120124.9198   2   9   0.0403   0.0821   0.0579   0.0215  -0.0471  -0.0013   0.00    1.1
2173 286992.000     84783.4587  -4856565.5601   4120124.9131   2   9   0.0401   0.0815   0.0575   0.0213  -0.0466  -0.0008   0.00    1.1
2173 286993.000     84783.4578  -4856565.5464   4120124.9053   2   9   0.0398   0.0809   0.0570   0.0211  -0.0462   0.0019   0.00    1.1
2173 286994.000     84783.4564  -4856565.5502   4120124.9020   2   9   0.0397   0.0803   0.0566   0.0208  -0.0458   0.0027   0.00    1.1
2173 286995.000     84783.4561  -4856565.5425   4120124.8909   2   9   0.0395   0.0797   0.0562   0.0206  -0.0453   0.0027   0.00    1.1
2173 286996.000     84783.4558  -4856565.5357   4120124.8834   2   9   0.0393   0.0791   0.0558   0.0205  -0.0449   0.0032   0.00    1.1
2173 286997.000     84783.4582  -4856565.5320   4120124.8828   2   9   0.0391   0.0785   0.0553   0.0202  -0.0445   0.0032   0.00    1.1
2173 286998.000     84783.4707  -4856565.5032   4120124.8783   2   9   0.0389   0.0779   0.0550   0.0200  -0.0441   0.0035   0.00    1.1
2173 286999.000     84783.4737  -4856565.4895   4120124.8753   2   9   0.0387   0.0773   0.0546   0.0198  -0.0437   0.0040   0.00    1.1
2173 287000.000     84783.4754  -4856565.4762   4120124.8729   2   9   0.0385   0.0768   0.0542   0.0197  -0.0433   0.0042   0.00    1.1
2173 287001.000     84783.4794  -4856565.4582   4120124.8689   2   9   0.0383   0.0762   0.0538   0.0194  -0.0430   0.0044   0.00    1.1
2173 287002.000     84783.4802  -4856565.4447   4120124.8623   2   9   0.0381   0.0757   0.0534   0.0192  -0.0425   0.0045   0.00    1.1
2173 287003.000     84783.4825  -4856565.4339   4120124.8594   2   9   0.0379   0.0751   0.0530   0.0190  -0.0422   0.0049   0.00    1.1
2173 287004.000     84783.4817  -4856565.4260   4120124.8554   2   9   0.0378   0.0746   0.0526   0.0189  -0.0418   0.0047   0.00    1.1
2173 287005.000     84783.4797  -4856565.4215   4120124.8530   2   9   0.0376   0.0740   0.0523   0.0187  -0.0415   0.0049   0.00    1.1
2173 287006.000     84783.4803  -4856565.4082   4120124.8511   2   9   0.0374   0.0735   0.0519   0.0185  -0.0411   0.0052   0.00    1.1
2173 287007.000     84783.4867  -4856565.3985   4120124.8446   2   9   0.0373   0.0730   0.0515   0.0183  -0.0407   0.0053   0.00    1.1
2173 287008.000     84783.4910  -4856565.3827   4120124.8399   2   9   0.0370   0.0725   0.0511   0.0181  -0.0403   0.0055   0.00    1.1
2173 287009.000     84783.4943  -4856565.3654   4120124.8387   2   9   0.0369   0.0720   0.0508   0.0180  -0.0400   0.0057   0.00    1.1
2173 287010.000     84783.4994  -4856565.3473   4120124.8276   2   9   0.0367   0.0715   0.0504   0.0177  -0.0396   0.0057   0.00    1.1
2173 287011.000     84783.5035  -4856565.3322   4120124.8217   2   9   0.0365   0.0710   0.0500   0.0175  -0.0393   0.0060   0.00    1.1
2173 287012.000     84783.5025  -4856565.3248   4120124.8137   2   9   0.0364   0.0705   0.0497   0.0174  -0.0389   0.0061   0.00    1.1
2173 287013.000     84783.5055  -4856565.3106   4120124.8024   2   9   0.0362   0.0700   0.0494   0.0174  -0.0386   0.0062   0.00    1.1
2173 287014.000     84783.5059  -4856565.2999   4120124.7919   2   9   0.0360   0.0695   0.0490   0.0170  -0.0382   0.0063   0.00    1.0
2173 287015.000     84783.5081  -4856565.2798   4120124.7821   2   9   0.0358   0.0690   0.0487   0.0168  -0.0379   0.0063   0.00    1.0
2173 287016.000     84783.5050  -4856565.2773   4120124.7768   2   9   0.0358   0.0685   0.0484   0.0167  -0.0376   0.0062   0.00    1.0
2173 287017.000     84783.5049  -4856565.2686   4120124.7658   2   9   0.0355   0.0681   0.0480   0.0166  -0.0372   0.0064   0.00    1.0
2173 287018.000     84783.5030  -4856565.2675   4120124.7644   2   9   0.0354   0.0676   0.0477   0.0164  -0.0369   0.0065   0.00    1.0
2173 287019.000     84783.5036  -4856565.2575   4120124.7563   2   9   0.0353   0.0671   0.0474   0.0163  -0.0366   0.0065   0.00    1.0
2173 287020.000     84783.5050  -4856565.2474   4120124.7498   2   9   0.0351   0.0667   0.0471   0.0160  -0.0363   0.0064   0.00    1.0
2173 287021.000     84783.5059  -4856565.2441   4120124.7494   2   9   0.0350   0.0662   0.0467   0.0158  -0.0360   0.0066   0.00    1.0
2173 287022.000     84783.5072  -4856565.2395   4120124.7460   2   9   0.0348   0.0658   0.0465   0.0158  -0.0357   0.0066   0.00    1.0
2173 287023.000     84783.5076  -4856565.2393   4120124.7419   2   9   0.0347   0.0654   0.0461   0.0156  -0.0354   0.0069   0.00    1.0
2173 287024.000     84783.5081  -4856565.2412   4120124.7429   2   9   0.0346   0.0649   0.0459   0.0155  -0.0350   0.0070   0.00    1.0
2173 287025.000     84783.5097  -4856565.2404   4120124.7442   2   9   0.0344   0.0645   0.0455   0.0153  -0.0347   0.0069   0.00    1.0
2173 287026.000     84783.5050  -4856565.2393   4120124.7436   2   9   0.0342   0.0641   0.0452   0.0151  -0.0344   0.0068   0.00    1.0
2173 287027.000     84783.5045  -4856565.2412   4120124.7465   2   9   0.0341   0.0636   0.0449   0.0150  -0.0341   0.0070   0.00    1.0
2173 287028.000     84783.5072  -4856565.2390   4120124.7487   2   9   0.0340   0.0632   0.0447   0.0149  -0.0339   0.0069   0.00    1.0
2173 287029.000     84783.5084  -4856565.2412   4120124.7535   2   9   0.0338   0.0628   0.0444   0.0147  -0.0336   0.0070   0.00    1.0
2173 287030.000     84783.5103  -4856565.2408   4120124.7555   2   9   0.0337   0.0624   0.0441   0.0146  -0.0333   0.0071   0.00    1.0
2173 287031.000     84783.5156  -4856565.2367   4120124.7582   2   9   0.0335   0.0620   0.0438   0.0144  -0.0330   0.0069   0.00    1.0
2173 287032.000     84783.5296  -4856565.2005   4120124.7962   2   9   0.0334   0.0616   0.0435   0.0142  -0.0327   0.0071   0.00    1.0
2173 287033.000     84783.5370  -4856565.1806   4120124.8132   2   9   0.0333   0.0612   0.0433   0.0142  -0.0324   0.0070   0.00    1.0
2173 287034.000     84783.5426  -4856565.1731   4120124.8283   2   9   0.0332   0.0608   0.0430   0.0140  -0.0321   0.0071   0.00    1.0
2173 287035.000     84783.5467  -4856565.1527   4120124.8442   2   9   0.0331   0.0604   0.0427   0.0139  -0.0319   0.0074   0.00    1.0
2173 287036.000     84783.5509  -4856565.1495   4120124.8623   2   9   0.0330   0.0600   0.0424   0.0136  -0.0316   0.0071   0.00    1.0
2173 287037.000     84783.5541  -4856565.1444   4120124.8785   2   9   0.0328   0.0596   0.0421   0.0134  -0.0314   0.0073   0.00    1.0
2173 287038.000     84783.5553  -4856565.1414   4120124.8955   2   9   0.0327   0.0592   0.0419   0.0134  -0.0311   0.0071   0.00    1.0
2173 287039.000     84783.5597  -4856565.1424   4120124.9164   2   9   0.0325   0.0589   0.0416   0.0132  -0.0308   0.0073   0.00    1.0
2173 287040.000     84783.5585  -4856565.1417   4120124.9364   2   9   0.0324   0.0585   0.0414   0.0132  -0.0306   0.0072   0.00    1.0
2173 287041.000     84783.5618  -4856565.1356   4120124.9564   2   9   0.0323   0.0581   0.0411   0.0130  -0.0303   0.0072   0.00    1.0
2173 287042.000     84783.5673  -4856565.1338   4120124.9776   2   9   0.0322   0.0577   0.0409   0.0129  -0.0300   0.0074   0.00    1.0
2173 287043.000     84783.5721  -4856565.1268   4120124.9969   2   9   0.0321   0.0574   0.0406   0.0127  -0.0298   0.0073   0.00    1.0
2173 287044.000     84783.5776  -4856565.1217   4120125.0124   2   9   0.0320   0.0570   0.0404   0.0126  -0.0296   0.0075   0.00    1.0
2173 287045.000     84783.5819  -4856565.1149   4120125.0269   2   9   0.0318   0.0567   0.0401   0.0125  -0.0293   0.0073   0.00    1.0
2173 287046.000     84783.5870  -4856565.1077   4120125.0414   2   9   0.0317   0.0563   0.0399   0.0124  -0.0291   0.0074   0.00    1.0
2173 287047.000     84783.5909  -4856565.0978   4120125.0549   2   9   0.0317   0.0560   0.0396   0.0122  -0.0288   0.0074   0.00    1.0
2173 287048.000     84783.5944  -4856565.0976   4120125.0671   2   9   0.0315   0.0556   0.0394   0.0120  -0.0286   0.0073   0.00    1.0
2173 287049.000     84783.5978  -4856565.0912   4120125.0827   2   9   0.0314   0.0553   0.0391   0.0121  -0.0284   0.0075   0.00    1.1
2173 287050.000     84783.6015  -4856565.0807   4120125.0942   2   9   0.0313   0.0549   0.0389   0.0118  -0.0281   0.0074   0.00    1.1
2173 287051.000     84783.6074  -4856565.0707   4120125.1075   2   9   0.0312   0.0546   0.0387   0.0117  -0.0279   0.0074   0.00    1.1
2173 287052.000     84783.6087  -4856565.0681   4120125.1188   2   9   0.0311   0.0542   0.0385   0.0114  -0.0277   0.0073   0.00    1.1
2173 287053.000     84783.6121  -4856565.0625   4120125.1341   2   9   0.0310   0.0539   0.0382   0.0114  -0.0275   0.0072   0.00    1.1
2173 287054.000     84783.6148  -4856565.0555   4120125.1430   2   9   0.0309   0.0536   0.0380   0.0113  -0.0273   0.0074   0.00    1.1
2173 287055.000     84783.6155  -4856565.0545   4120125.1564   2   9   0.0308   0.0533   0.0378   0.0113  -0.0271   0.0073   0.00    1.1
2173 287056.000     84783.6133  -4856565.0514   4120125.1747   2   8   0.0307   0.0531   0.0380   0.0110  -0.0272   0.0075   0.00    1.0
2173 287057.000     84783.6166  -4856565.0443   4120125.1841   2   8   0.0306   0.0529   0.0379   0.0108  -0.0271   0.0075   0.00    1.0
2173 287058.000     84783.6171  -4856565.0348   4120125.1926   2   8   0.0306   0.0526   0.0378   0.0109  -0.0271   0.0074   0.00    1.0
2173 287059.000     84783.6205  -4856565.0244   4120125.1989   2   8   0.0304   0.0524   0.0377   0.0107  -0.0270   0.0075   0.00    1.0
2173 287060.000     84783.6232  -4856565.0150   4120125.2086   2   8   0.0303   0.0522   0.0376   0.0107  -0.0269   0.0076   0.00    1.0
2173 287061.000     84783.6249  -4856565.0068   4120125.2183   2   8   0.0302   0.0519   0.0375   0.0105  -0.0268   0.0075   0.00    1.0
2173 287062.000     84783.6274  -4856564.9907   4120125.2237   2   8   0.0301   0.0517   0.0374   0.0103  -0.0268   0.0074   0.00    1.0
2173 287063.000     84783.6336  -4856564.9733   4120125.2298   2   8   0.0300   0.0515   0.0373   0.0102  -0.0267   0.0073   0.00    1.0
2173 287064.000     84783.6377  -4856564.9595   4120125.2346   2   8   0.0299   0.0512   0.0372   0.0102  -0.0267   0.0074   0.00    1.1
2173 287065.000     84783.6417  -4856564.9444   4120125.2411   2   8   0.0298   0.0510   0.0371   0.0102  -0.0266   0.0073   0.00    1.1
2173 287066.000     84783.6478  -4856564.9271   4120125.2450   2   8   0.0297   0.0508   0.0370   0.0101  -0.0265   0.0072   0.00    1.1
2173 287067.000     84783.6539  -4856564.9141   4120125.2512   2   8   0.0296   0.0505   0.0369   0.0100  -0.0265   0.0072   0.00    1.1
2173 287068.000     84783.6583  -4856564.9029   4120125.2591   2   8   0.0295   0.0503   0.0368   0.0099  -0.0264   0.0072   0.00    1.1
2173 287069.000     84783.6619  -4856564.8928   4120125.2626   2   8   0.0295   0.0501   0.0367   0.0097  -0.0263   0.0072   0.00    1.1
2173 287070.000     84783.6657  -4856564.8795   4120125.2678   2   8   0.0294   0.0499   0.0366   0.0097  -0.0262   0.0072   0.00    1.1
2173 287071.000     84783.6676  -4856564.8706   4120125.2779   2   8   0.0292   0.0497   0.0365   0.0097  -0.0262   0.0070   0.00    1.1
2173 287072.000     84783.6719  -4856564.8590   4120125.2814   2   8   0.0292   0.0495   0.0364   0.0096  -0.0261   0.0070   0.00    1.1
2173 287073.000     84783.6751  -4856564.8530   4120125.2902   2   8   0.0291   0.0493   0.0363   0.0095  -0.0260   0.0072   0.00    1.1
2173 287074.000     84783.6760  -4856564.8420   4120125.2884   2   8   0.0290   0.0490   0.0361   0.0094  -0.0260   0.0071   0.00    1.1
2173 287075.000     84783.6793  -4856564.8380   4120125.2970   2   8   0.0290   0.0488   0.0361   0.0093  -0.0259   0.0071   0.00    1.1
2173 287076.000     84783.6799  -4856564.8291   4120125.3040   2   8   0.0288   0.0486   0.0360   0.0092  -0.0259   0.0070   0.00    1.1
2173 287077.000     84783.6812  -4856564.8232   4120125.3075   2   8   0.0288   0.0484   0.0358   0.0090  -0.0258   0.0070   0.00    1.1
2173 287078.000     84783.6840  -4856564.8181   4120125.3103   2   8   0.0287   0.0482   0.0357   0.0090  -0.0257   0.0070   0.00    1.1
2173 287079.000     84783.6884  -4856564.8087   4120125.3142   2   8   0.0286   0.0480   0.0357   0.0089  -0.0256   0.0070   0.00    1.1
2173 287080.000     84783.6904  -4856564.8063   4120125.3243   2   8   0.0285   0.0478   0.0356   0.0088  -0.0255   0.0067   0.00    1.1
2173 287081.000     84783.6928  -4856564.7999   4120125.3296   2   8   0.0284   0.0476   0.0354   0.0086  -0.0255   0.0070   0.00    1.1
2173 287082.000     84783.6942  -4856564.7952   4120125.3294   2   8   0.0283   0.0473   0.0353   0.0086  -0.0254   0.0069   0.00    1.1
2173 287083.000     84783.6939  -4856564.7913   4120125.3327   2   8   0.0282   0.0471   0.0352   0.0086  -0.0254   0.0069   0.00    1.1
2173 287084.000     84783.6967  -4856564.7874   4120125.3372   2   8   0.0282   0.0470   0.0351   0.0085  -0.0253   0.0068   0.00    1.1
2173 287085.000     84783.6966  -4856564.7914   4120125.3459   2   8   0.0281   0.0468   0.0350   0.0085  -0.0252   0.0068   0.00    1.1
2173 287086.000     84783.7002  -4856564.7938   4120125.3506   2   8   0.0280   0.0465   0.0349   0.0083  -0.0251   0.0067   0.00    1.1
2173 287087.000     84783.7036  -4856564.7885   4120125.3575   2   8   0.0279   0.0463   0.0348   0.0082  -0.0250   0.0066   0.00    1.1
2173 287088.000     84783.7079  -4856564.7788   4120125.3642   2   8   0.0279   0.0462   0.0347   0.0082  -0.0250   0.0067   0.00    1.1
2173 287089.000     84783.7103  -4856564.7690   4120125.3645   2   8   0.0278   0.0459   0.0346   0.0080  -0.0249   0.0065   0.00    1.1
2173 287090.000     84783.7148  -4856564.7653   4120125.3683   2   8   0.0277   0.0457   0.0345   0.0079  -0.0248   0.0066   0.00    1.1
2173 287091.000     84783.7194  -4856564.7523   4120125.3711   2   8   0.0275   0.0456   0.0344   0.0078  -0.0247   0.0067   0.00    1.1
2173 287092.000     84783.7258  -4856564.7449   4120125.3758   2   8   0.0275   0.0454   0.0343   0.0077  -0.0247   0.0066   0.00    1.1
2173 287093.000     84783.7304  -4856564.7339   4120125.3751   2   8   0.0275   0.0452   0.0342   0.0076  -0.0246   0.0066   0.00    1.1
2173 287094.000     84783.7353  -4856564.7215   4120125.3786   2   8   0.0274   0.0450   0.0341   0.0075  -0.0246   0.0065   0.00    1.1
2173 287095.000     84783.7383  -4856564.7122   4120125.3794   2   8   0.0273   0.0448   0.0340   0.0076  -0.0245   0.0064   0.00    1.1
2173 287096.000     84783.7401  -4856564.7021   4120125.3776   2   8   0.0272   0.0446   0.0339   0.0075  -0.0244   0.0064   0.00    1.1
2173 287097.000     84783.7396  -4856564.7020   4120125.3779   2   8   0.0271   0.0444   0.0338   0.0075  -0.0243   0.0065   0.00    1.1
2173 287098.000     84783.7409  -4856564.7041   4120125.3786   2   8   0.0271   0.0442   0.0338   0.0072  -0.0243   0.0063   0.00    1.1
2173 287099.000     84783.7427  -4856564.7033   4120125.3802   2   8   0.0270   0.0440   0.0336   0.0072  -0.0242   0.0063   0.00    1.1
2173 287100.000     84783.7437  -4856564.7023   4120125.3826   2   8   0.0270   0.0439   0.0336   0.0071  -0.0242   0.0063   0.00    1.1
2173 287101.000     84783.7486  -4856564.6954   4120125.3875   2   8   0.0269   0.0437   0.0334   0.0069  -0.0241   0.0065   0.00    1.1
2173 287102.000     84783.7509  -4856564.6934   4120125.3924   2   8   0.0268   0.0435   0.0333   0.0070  -0.0240   0.0062   0.00    1.1
2173 287103.000     84783.7530  -4856564.6853   4120125.3928   2   8   0.0267   0.0433   0.0332   0.0070  -0.0239   0.0064   0.00    1.1
2173 287104.000     84783.7556  -4856564.6731   4120125.3924   2   8   0.0267   0.0431   0.0332   0.0068  -0.0239   0.0062   0.00    1.1
2173 287105.000     84783.7580  -4856564.6641   4120125.3897   2   8   0.0266   0.0430   0.0331   0.0067  -0.0238   0.0062   0.00    1.1
2173 287106.000     84783.7593  -4856564.6563   4120125.3837   2   8   0.0265   0.0428   0.0330   0.0066  -0.0237   0.0061   0.00    1.1
2173 287107.000     84783.7643  -4856564.6415   4120125.3743   2   8   0.0265   0.0426   0.0329   0.0067  -0.0236   0.0061   0.00    1.1
2173 287108.000     84783.7635  -4856564.6326   4120125.3765   2   8   0.0264   0.0424   0.0328   0.0065  -0.0236   0.0060   0.00    1.1
2173 287109.000     84783.7642  -4856564.6303   4120125.3734   2   8   0.0263   0.0422   0.0327   0.0062  -0.0235   0.0061   0.00    1.1
2173 287110.000     84783.7652  -4856564.6230   4120125.3700   2   8   0.0263   0.0421   0.0326   0.0063  -0.0235   0.0060   0.00    1.1
2173 287111.000     84783.7655  -4856564.6202   4120125.3666   2   8   0.0262   0.0419   0.0325   0.0063  -0.0234   0.0059   0.00    1.1
2173 287112.000     84783.7657  -4856564.6188   4120125.3653   2   8   0.0261   0.0417   0.0324   0.0062  -0.0233   0.0059   0.00    1.1
2173 287113.000     84783.7675  -4856564.6124   4120125.3644   2   8   0.0261   0.0415   0.0323   0.0059  -0.0232   0.0061   0.00    1.1
2173 287114.000     84783.7701  -4856564.6036   4120125.3644   2   8   0.0259   0.0413   0.0322   0.0058  -0.0232   0.0059   0.00    1.1
2173 287115.000     84783.7734  -4856564.6056   4120125.3659   2   8   0.0259   0.0412   0.0321   0.0060  -0.0231   0.0058   0.00    1.1
2173 287116.000     84783.7831  -4856564.5686   4120125.3525   2   8   0.0258   0.0410   0.0320   0.0057  -0.0230   0.0059   0.00    1.1
2173 287117.000     84783.7836  -4856564.5711   4120125.3520   2   8   0.0258   0.0409   0.0319   0.0057  -0.0229   0.0062   0.00    1.1
2173 287118.000     84783.7805  -4856564.5665   4120125.3516   2   8   0.0257   0.0407   0.0318   0.0058  -0.0229   0.0057   0.00    1.1
2173 287119.000     84783.7812  -4856564.5662   4120125.3468   2   8   0.0256   0.0406   0.0317   0.0055  -0.0228   0.0058   0.00    1.1
2173 287120.000     84783.7803  -4856564.5643   4120125.3532   2   8   0.0256   0.0404   0.0316   0.0056  -0.0228   0.0057   0.00    1.1
2173 287121.000     84783.7830  -4856564.5514   4120125.3463   2   8   0.0256   0.0402   0.0316   0.0054  -0.0227   0.0056   0.00    1.1
2173 287122.000     84783.7832  -4856564.5468   4120125.3459   2   8   0.0255   0.0400   0.0314   0.0053  -0.0226   0.0057   0.00    1.1
2173 287123.000     84783.7861  -4856564.5354   4120125.3465   2   8   0.0254   0.0399   0.0313   0.0054  -0.0225   0.0058   0.00    1.1
2173 287124.000     84783.7875  -4856564.5265   4120125.3492   2   8   0.0253   0.0397   0.0313   0.0049  -0.0225   0.0055   0.00    1.1
2173 287125.000     84783.7875  -4856564.5197   4120125.3486   2   8   0.0253   0.0396   0.0312   0.0053  -0.0224   0.0054   0.00    1.1
2173 287126.000     84783.7887  -4856564.5086   4120125.3454   2   8   0.0253   0.0394   0.0311   0.0053  -0.0224   0.0055   0.00    1.1
2173 287127.000     84783.7864  -4856564.5019   4120125.3458   2   8   0.0252   0.0392   0.0310   0.0048  -0.0223   0.0058   0.00    1.1
2173 287128.000     84783.7844  -4856564.4970   4120125.3428   2   8   0.0251   0.0391   0.0309   0.0048  -0.0222   0.0056   0.00    1.1
2173 287129.000     84783.7834  -4856564.5024   4120125.3430   2   8   0.0251   0.0389   0.0308   0.0048  -0.0221   0.0053   0.00    1.1
2173 287130.000     84783.7795  -4856564.4999   4120125.3407   2   8   0.0250   0.0388   0.0307   0.0046  -0.0221   0.0054   0.00    1.1
2173 287131.000     84783.7767  -4856564.4966   4120125.3367   2   8   0.0249   0.0386   0.0306   0.0046  -0.0220   0.0053   0.00    1.1
2173 287132.000     84783.7770  -4856564.5062   4120125.3395   2   8   0.0249   0.0384   0.0305   0.0042  -0.0220   0.0052   0.00    1.1
2173 287133.000     84783.7704  -4856564.5093   4120125.3368   2   8   0.0248   0.0383   0.0304   0.0045  -0.0219   0.0054   0.00    1.1
2173 287134.000     84783.7689  -4856564.5131   4120125.3370   2   8   0.0247   0.0382   0.0304   0.0046  -0.0218   0.0053   0.00    1.1
2173 287135.000     84783.7684  -4856564.5094   4120125.3365   2   8   0.0247   0.0380   0.0302   0.0040  -0.0217   0.0052   0.00    1.1
2173 287136.000     84783.7655  -4856564.5062   4120125.3389   2   8   0.0247   0.0378   0.0302   0.0042  -0.0217   0.0052   0.00    1.1
2173 287137.000     84783.7637  -4856564.5037   4120125.3411   2   8   0.0246   0.0377   0.0301   0.0040  -0.0216   0.0050   0.00    1.0
2173 287138.000     84783.7660  -4856564.5005   4120125.3454   2   8   0.0245   0.0376   0.0300   0.0039  -0.0216   0.0050   0.00    1.0
2173 287139.000     84783.7646  -4856564.4961   4120125.3445   2   8   0.0245   0.0374   0.0299   0.0036  -0.0215   0.0051   0.00    1.0
2173 287140.000     84783.7597  -4856564.5043   4120125.3444   2   8   0.0244   0.0373   0.0298   0.0040  -0.0214   0.0050   0.00    1.0
2173 287141.000     84783.7550  -4856564.5034   4120125.3417   2   8   0.0244   0.0371   0.0297   0.0036  -0.0213   0.0053   0.00    1.0
2173 287142.000     84783.7527  -4856564.5022   4120125.3457   2   8   0.0243   0.0370   0.0297   0.0034  -0.0213   0.0049   0.00    1.0
2173 287143.000     84783.7515  -4856564.4968   4120125.3437   2   8   0.0242   0.0368   0.0296   0.0036  -0.0212   0.0046   0.00    1.0
2173 287144.000     84783.7524  -4856564.4917   4120125.3453   2   8   0.0242   0.0367   0.0295   0.0035  -0.0211   0.0049   0.00    1.0
2173 287145.000     84783.7472  -4856564.4847   4120125.3414   2   8   0.0241   0.0366   0.0293   0.0031  -0.0211   0.0051   0.00    1.0
2173 287146.000     84783.7488  -4856564.4775   4120125.3394   2   8   0.0241   0.0364   0.0293   0.0034  -0.0210   0.0050   0.00    1.0
2173 287147.000     84783.7499  -4856564.4737   4120125.3440   2   8   0.0240   0.0363   0.0292   0.0031  -0.0210   0.0048   0.00    1.0
2173 287148.000     84783.7481  -4856564.4710   4120125.3391   2   8   0.0239   0.0361   0.0291   0.0031  -0.0209   0.0045   0.00    1.0
2173 287149.000     84783.7453  -4856564.4720   4120125.3394   2   8   0.0239   0.0360   0.0291   0.0030  -0.0209   0.0045   0.00    1.0
2173 287150.000     84783.7439  -4856564.4679   4120125.3422   2   8   0.0238   0.0358   0.0289   0.0029  -0.0208   0.0048   0.00    1.0
2173 287151.000     84783.7451  -4856564.4598   4120125.3434   2   8   0.0238   0.0358   0.0289   0.0031  -0.0207   0.0050   0.00    1.0
2173 287152.000     84783.7431  -4856564.4542   4120125.3441   2   8   0.0238   0.0356   0.0288   0.0025  -0.0206   0.0047   0.00    1.0
2173 287153.000     84783.7401  -4856564.4548   4120125.3474   2   8   0.0237   0.0355   0.0287   0.0027  -0.0206   0.0047   0.00    1.1
2173 287154.000     84783.7377  -4856564.4534   4120125.3489   2   8   0.0237   0.0353   0.0286   0.0022  -0.0205   0.0047   0.00    1.1
2173 287155.000     84783.7319  -4856564.4592   4120125.3553   2   8   0.0236   0.0352   0.0285   0.0028  -0.0205   0.0047   0.00    1.1
2173 287156.000     84783.7268  -4856564.4636   4120125.3561   2   8   0.0236   0.0351   0.0284   0.0021  -0.0204   0.0047   0.00    1.1
2173 287157.000     84783.7240  -4856564.4683   4120125.3614   2   8   0.0234   0.0349   0.0283   0.0020  -0.0203   0.0046   0.00    1.1
2173 287158.000     84783.7205  -4856564.4715   4120125.3637   2   8   0.0235   0.0349   0.0282   0.0015  -0.0202   0.0047   0.00    1.1
2173 287159.000     84783.7183  -4856564.4728   4120125.3658   2   8   0.0234   0.0347   0.0282   0.0023  -0.0202   0.0043   0.00    1.1
2173 287160.000     84783.7110  -4856564.4866   4120125.3712   2   8   0.0233   0.0345   0.0281   0.0018  -0.0202   0.0043   0.00    1.1
2173 287161.000     84783.7112  -4856564.4814   4120125.3732   2   8   0.0233   0.0344   0.0280   0.0018  -0.0201   0.0046   0.00    1.1
2173 287162.000     84783.7120  -4856564.4836   4120125.3740   2   8   0.0233   0.0342   0.0279  -0.0007  -0.0200   0.0043   0.00    1.1
2173 287163.000     84783.7095  -4856564.4848   4120125.3783   2   8   0.0232   0.0342   0.0278   0.0015  -0.0199   0.0045   0.00    1.1
2173 287164.000     84783.7077  -4856564.4858   4120125.3813   2   8   0.0231   0.0340   0.0278  -0.0012  -0.0199   0.0041   0.00    1.1
2173 287165.000     84783.7074  -4856564.4828   4120125.3836   2   8   0.0231   0.0338   0.0277   0.0008  -0.0199   0.0040   0.00    1.1
2173 287166.000     84783.7045  -4856564.4838   4120125.3852   2   8   0.0230   0.0338   0.0276   0.0007  -0.0198   0.0044   0.00    1.1
2173 287167.000     84783.7059  -4856564.4871   4120125.3878   2   8   0.0229   0.0336   0.0275   0.0009  -0.0197   0.0041   0.00    1.1
2173 287168.000     84783.6984  -4856564.4870   4120125.3921   2   8   0.0229   0.0335   0.0274  -0.0018  -0.0197   0.0041   0.00    1.1
2173 287169.000     84783.6957  -4856564.4846   4120125.3900   2   8   0.0229   0.0334   0.0274  -0.0011  -0.0196   0.0040   0.00    1.1
2173 287170.000     84783.6936  -4856564.4847   4120125.3929   2   8   0.0229   0.0333   0.0273  -0.0007  -0.0196   0.0041   0.00    1.1
2173 287171.000     84783.6943  -4856564.4841   4120125.3951   2   8   0.0228   0.0332   0.0272   0.0011  -0.0194   0.0041   0.00    1.1
2173 287172.000     84783.6943  -4856564.4821   4120125.3960   2   8   0.0227   0.0330   0.0271  -0.0022  -0.0194   0.0040   0.00    1.1
2173 287173.000     84783.6852  -4856564.4865   4120125.3877   2   8   0.0227   0.0329   0.0270  -0.0022  -0.0193   0.0038   0.00    1.1
2173 287174.000     84783.6853  -4856564.4807   4120125.3840   2   8   0.0227   0.0328   0.0270  -0.0018  -0.0193   0.0038   0.00    1.1
2173 287175.000     84783.6837  -4856564.4730   4120125.3765   2   8   0.0226   0.0327   0.0269  -0.0023  -0.0193   0.0039   0.00    1.1
2173 287176.000     84783.6815  -4856564.4745   4120125.3697   2   8   0.0225   0.0325   0.0268  -0.0023  -0.0192   0.0037   0.00    1.1
2173 287177.000     84783.6818  -4856564.4704   4120125.3638   2   8   0.0225   0.0324   0.0268  -0.0023  -0.0191   0.0038   0.00    1.1
2173 287178.000     84783.6824  -4856564.4742   4120125.3595   2   8   0.0225   0.0323   0.0267  -0.0029  -0.0191   0.0038   0.00    1.1
2173 287179.000     84783.6801  -4856564.4693   4120125.3517   2   8   0.0224   0.0322   0.0266  -0.0016  -0.0190   0.0038   0.00    1.1
2173 287180.000     84783.6777  -4856564.4710   4120125.3506   2   8   0.0224   0.0321   0.0265  -0.0026  -0.0189   0.0041   0.00    1.1
2173 287181.000     84783.6731  -4856564.4710   4120125.3452   2   8   0.0223   0.0320   0.0264  -0.0027  -0.0189   0.0040   0.00    1.1
2173 287182.000     84783.6726  -4856564.4726   4120125.3423   2   8   0.0223   0.0319   0.0263  -0.0029  -0.0188   0.0039   0.00    1.1
2173 287183.000     84783.6678  -4856564.4754   4120125.3418   2   8   0.0223   0.0317   0.0263  -0.0032  -0.0188   0.0038   0.00    1.1
2173 287184.000     84783.6655  -4856564.4684   4120125.3376   2   8   0.0222   0.0316   0.0262  -0.0028  -0.0187   0.0040   0.00    1.1
2173 287185.000     84783.6676  -4856564.4627   4120125.3300   2   8   0.0222   0.0316   0.0261  -0.0027  -0.0187   0.0038   0.00    1.1
2173 287186.000     84783.6638  -4856564.4659   4120125.3301   2   8   0.0222   0.0314   0.0261  -0.0029  -0.0186   0.0038   0.00    1.1
2173 287187.000     84783.6603  -4856564.4604   4120125.3232   2   8   0.0221   0.0313   0.0260  -0.0032  -0.0186   0.0034   0.00    1.1
2173 287188.000     84783.6574  -4856564.4623   4120125.3182   2   8   0.0221   0.0312   0.0259  -0.0031  -0.0185   0.0036   0.00    1.1
2173 287189.000     84783.6538  -4856564.4665   4120125.3103   2   8   0.0221   0.0311   0.0258  -0.0030  -0.0185   0.0037   0.00    1.1
2173 287190.000     84783.6480  -4856564.4789   4120125.3061   2   8   0.0219   0.0309   0.0257  -0.0030  -0.0184   0.0033   0.00    1.1
2173 287191.000     84783.6428  -4856564.4870   4120125.2977   2   8   0.0220   0.0309   0.0256  -0.0033  -0.0184   0.0038   0.00    1.1
2173 287192.000     84783.6389  -4856564.4937   4120125.2927   2   8   0.0219   0.0308   0.0256  -0.0033  -0.0183   0.0031   0.00    1.1
2173 287193.000     84783.6370  -4856564.4983   4120125.2876   2   8   0.0218   0.0307   0.0256  -0.0034  -0.0182   0.0036   0.00    1.1
2173 287194.000     84783.6347  -4856564.4920   4120125.2742   2   8   0.0219   0.0306   0.0255  -0.0031  -0.0182   0.0034   0.00    1.1
2173 287195.000     84783.6306  -4856564.4898   4120125.2705   2   8   0.0217   0.0304   0.0254  -0.0034  -0.0181   0.0034   0.00    1.1
2173 287196.000     84783.6242  -4856564.4878   4120125.2589   2   8   0.0217   0.0303   0.0253  -0.0035  -0.0181   0.0032   0.00    1.1
2173 287197.000     84783.6211  -4856564.4819   4120125.2477   2   8   0.0216   0.0303   0.0253  -0.0033  -0.0180   0.0035   0.00    1.1
2173 287198.000     84783.6168  -4856564.4825   4120125.2373   2   8   0.0216   0.0301   0.0252  -0.0034  -0.0180   0.0028   0.00    1.1
2173 287199.000     84783.6171  -4856564.4751   4120125.2202   2   8   0.0215   0.0301   0.0251  -0.0035  -0.0179   0.0033   0.00    1.1
2173 287200.000     84783.6114  -4856564.4598   4120125.1909   2   8   0.0215   0.0299   0.0250  -0.0034  -0.0179   0.0034   0.00    1.1
2173 287201.000     84783.6115  -4856564.4641   4120125.1876   2   8   0.0214   0.0299   0.0250  -0.0035  -0.0178   0.0030   0.00    1.1
2173 287202.000     84783.6127  -4856564.4664   4120125.1845   2   8   0.0215   0.0297   0.0250  -0.0034  -0.0178   0.0028   0.00    1.1
2173 287203.000     84783.6191  -4856564.4561   4120125.1798   2   8   0.0214   0.0296   0.0249  -0.0035  -0.0177   0.0024   0.00    1.1
2173 287204.000     84783.6194  -4856564.4605   4120125.1748   2   8   0.0214   0.0296   0.0248  -0.0037  -0.0176   0.0028   0.00    1.1
2173 287205.000     84783.6192  -4856564.4646   4120125.1722   2   8   0.0213   0.0295   0.0247  -0.0037  -0.0176   0.0032   0.00    1.1
2173 287206.000     84783.6201  -4856564.4630   4120125.1653   2   8   0.0213   0.0293   0.0246  -0.0040  -0.0176   0.0027   0.00    1.1
2173 287207.000     84783.6193  -4856564.4593   4120125.1604   2   8   0.0212   0.0292   0.0245  -0.0038  -0.0176   0.0025   0.00    1.1
2173 287208.000     84783.6193  -4856564.4609   4120125.1546   2   8   0.0212   0.0291   0.0245  -0.0039  -0.0175   0.0030   0.00    1.1
2173 287209.000     84783.6169  -4856564.4640   4120125.1505   2   8   0.0211   0.0290   0.0244  -0.0037  -0.0174   0.0028   0.00    1.1
2173 287210.000     84783.6189  -4856564.4627   4120125.1437   2   8   0.0212   0.0290   0.0244  -0.0040  -0.0173   0.0026   0.00    1.1
2173 287211.000     84783.6189  -4856564.4633   4120125.1388   2   8   0.0211   0.0289   0.0243  -0.0039  -0.0173   0.0027   0.00    1.1
2173 287212.000     84783.6162  -4856564.4697   4120125.1305   2   8   0.0211   0.0288   0.0242  -0.0038  -0.0173   0.0023   0.00    1.1
2173 287213.000     84783.6139  -4856564.4786   4120125.1283   2   8   0.0210   0.0287   0.0242  -0.0042  -0.0172   0.0025   0.00    1.1
2173 287214.000     84783.6126  -4856564.4831   4120125.1207   2   8   0.0210   0.0286   0.0241  -0.0039  -0.0172   0.0022   0.00    1.1
2173 287215.000     84783.6129  -4856564.4861   4120125.1156   2   8   0.0209   0.0285   0.0240  -0.0041  -0.0171   0.0028   0.00    1.1
2173 287216.000     84783.6136  -4856564.4921   4120125.1110   2   8   0.0209   0.0284   0.0240  -0.0042  -0.0171   0.0023   0.00    1.1
2173 287217.000     84783.6155  -4856564.4957   4120125.1100   2   8   0.0209   0.0283   0.0239  -0.0043  -0.0170   0.0025   0.00    1.1
2173 287218.000     84783.6187  -4856564.4933   4120125.1045   2   8   0.0210   0.0283   0.0239  -0.0041  -0.0170   0.0023   0.00    1.1
2173 287219.000     84783.6196  -4856564.4974   4120125.1041   2   8   0.0208   0.0281   0.0238  -0.0042  -0.0169   0.0022   0.00    1.1
2173 287220.000     84783.6202  -4856564.4946   4120125.0967   2   8   0.0208   0.0280   0.0237  -0.0043  -0.0169   0.0024   0.00    1.0
2173 287221.000     84783.6210  -4856564.4937   4120125.0901   2   8   0.0208   0.0280   0.0236  -0.0041  -0.0168   0.0024   0.00    1.0
2173 287222.000     84783.6215  -4856564.4954   4120125.0861   2   8   0.0206   0.0278   0.0236  -0.0042  -0.0168   0.0017   0.00    1.0
2173 287223.000     84783.6208  -4856564.4966   4120125.0794   2   8   0.0206   0.0278   0.0235  -0.0041  -0.0167   0.0020   0.00    1.0
2173 287224.000     84783.6211  -4856564.4923   4120125.0762   2   8   0.0207   0.0277   0.0235  -0.0042  -0.0167   0.0021   0.00    1.0
2173 287225.000     84783.6193  -4856564.4930   4120125.0740   2   8   0.0206   0.0276   0.0234  -0.0043  -0.0166   0.0023   0.00    1.0
2173 287226.000     84783.6224  -4856564.4958   4120125.0711   2   8   0.0207   0.0275   0.0234  -0.0044  -0.0166   0.0018   0.00    1.0
2173 287227.000     84783.6238  -4856564.4973   4120125.0665   2   8   0.0205   0.0274   0.0233  -0.0044  -0.0165   0.0017   0.00    1.0
2173 287228.000     84783.6193  -4856564.4981   4120125.0596   2   8   0.0205   0.0274   0.0232  -0.0044  -0.0165   0.0020   0.00    1.0
2173 287229.000     84783.6180  -4856564.5063   4120125.0563   2   8   0.0204   0.0272   0.0231  -0.0044  -0.0165   0.0012   0.00    1.0
2173 287230.000     84783.6189  -4856564.5062   4120125.0504   2   8   0.0204   0.0271   0.0231  -0.0045  -0.0164   0.0014   0.00    1.0
2173 287231.000     84783.6189  -4856564.5117   4120125.0447   2   8   0.0204   0.0271   0.0230  -0.0042  -0.0164   0.0022   0.00    1.0
2173 287232.000     84783.6187  -4856564.5122   4120125.0419   2   8   0.0203   0.0270   0.0229  -0.0042  -0.0163   0.0019   0.00    1.0
2173 287233.000     84783.6222  -4856564.5123   4120125.0355   2   8   0.0203   0.0269   0.0229  -0.0043  -0.0163   0.0014   0.00    1.0
2173 287234.000     84783.6161  -4856564.5190   4120125.0253   2   8   0.0202   0.0268   0.0229  -0.0041  -0.0162   0.0013   0.00    1.0
2173 287235.000     84783.6188  -4856564.5179   4120125.0215   2   8   0.0202   0.0267   0.0227  -0.0046  -0.0162   0.0005   0.00    1.0
2173 287236.000     84783.6193  -4856564.5238   4120125.0189   2   8   0.0202   0.0267   0.0227  -0.0041  -0.0161   0.0017   0.00    1.0
2173 287237.000     84783.6182  -4856564.5255   4120125.0122   2   8   0.0202   0.0266   0.0226  -0.0045  -0.0161   0.0015   0.00    1.0
2173 287238.000     84783.6169  -4856564.5268   4120125.0080   2   8   0.0201   0.0265   0.0226  -0.0046  -0.0161   0.0014   0.00    1.0
2173 287239.000     84783.6200  -4856564.5275   4120124.9990   2   8   0.0201   0.0264   0.0226  -0.0042  -0.0160   0.0017   0.00    1.0
2173 287240.000     84783.6208  -4856564.5267   4120124.9955   2   8   0.0202   0.0263   0.0224  -0.0047  -0.0160   0.0012   0.00    1.0
2173 287241.000     84783.6208  -4856564.5317   4120124.9842   2   8   0.0201   0.0263   0.0224  -0.0044  -0.0159   0.0014   0.00    1.0
2173 287242.000     84783.6252  -4856564.5282   4120124.9800   2   8   0.0199   0.0261   0.0223  -0.0046  -0.0159   0.0015   0.00    1.0
2173 287243.000     84783.6280  -4856564.5249   4120124.9753   2   8   0.0200   0.0261   0.0223  -0.0045  -0.0158   0.0019   0.00    1.0
2173 287244.000     84783.6296  -4856564.5285   4120124.9723   2   8   0.0199   0.0260   0.0222  -0.0046  -0.0158  -0.0007   0.00    1.0
2173 287245.000     84783.6338  -4856564.5301   4120124.9689   2   8   0.0199   0.0260   0.0221  -0.0047  -0.0157   0.0011   0.00    1.0
2173 287246.000     84783.6321  -4856564.5304   4120124.9677   2   8   0.0198   0.0258   0.0221  -0.0046  -0.0158   0.0002   0.00    1.0
2173 287247.000     84783.6340  -4856564.5316   4120124.9631   2   8   0.0199   0.0257   0.0220  -0.0046  -0.0157  -0.0010   0.00    1.0
2173 287248.000     84783.6320  -4856564.5466   4120124.9607   2   8   0.0198   0.0257   0.0220  -0.0047  -0.0156   0.0011   0.00    1.0
2173 287249.000     84783.6345  -4856564.5426   4120124.9551   2   8   0.0198   0.0256   0.0220  -0.0045  -0.0156   0.0011   0.00    1.0
2173 287250.000     84783.6354  -4856564.5467   4120124.9526   2   8   0.0197   0.0256   0.0219  -0.0048  -0.0156   0.0009   0.00    1.0
2173 287251.000     84783.6366  -4856564.5479   4120124.9433   2   8   0.0197   0.0255   0.0218  -0.0047  -0.0155  -0.0011   0.00    1.0
2173 287252.000     84783.6361  -4856564.5466   4120124.9422   2   8   0.0196   0.0254   0.0218  -0.0046  -0.0155  -0.0018   0.00    1.0
2173 287253.000     84783.6347  -4856564.5615   4120124.9374   2   8   0.0197   0.0253   0.0217  -0.0047  -0.0154  -0.0012   0.00    1.0
2173 287254.000     84783.6287  -4856564.5705   4120124.9279   2   8   0.0196   0.0252   0.0217  -0.0048  -0.0154  -0.0009   0.00    1.0
2173 287255.000     84783.6284  -4856564.5705   4120124.9190   2   8   0.0195   0.0251   0.0216  -0.0047  -0.0154  -0.0011   0.00    1.0
2173 287256.000     84783.6243  -4856564.5858   4120124.9131   2   8   0.0196   0.0251   0.0216  -0.0050  -0.0152   0.0003   0.00    1.0
2173 287257.000     84783.6235  -4856564.5878   4120124.9086   2   8   0.0195   0.0250   0.0215  -0.0049  -0.0153  -0.0010   0.00    1.0
2173 287258.000     84783.6218  -4856564.5930   4120124.9089   2   8   0.0194   0.0250   0.0215  -0.0048  -0.0152  -0.0005   0.00    1.0
2173 287259.000     84783.6249  -4856564.5978   4120124.9079   2   8   0.0194   0.0249   0.0214  -0.0047  -0.0152  -0.0011   0.00    1.0
2173 287260.000     84783.6261  -4856564.5970   4120124.9057   2   8   0.0194   0.0249   0.0213  -0.0049  -0.0151   0.0013   0.00    1.0
2173 287261.000     84783.6302  -4856564.5956   4120124.9105   2   8   0.0194   0.0248   0.0213  -0.0049  -0.0151   0.0008   0.00    1.0
2173 287262.000     84783.6295  -4856564.5978   4120124.9068   2   8   0.0193   0.0247   0.0212  -0.0051  -0.0151  -0.0008   0.00    1.0
2173 287263.000     84783.6316  -4856564.6015   4120124.9025   2   8   0.0193   0.0246   0.0212  -0.0048  -0.0150  -0.0013   0.00    1.0
2173 287264.000     84783.6315  -4856564.6054   4120124.9041   2   8   0.0193   0.0245   0.0211  -0.0046  -0.0150  -0.0011   0.00    1.0
2173 287265.000     84783.6318  -4856564.6056   4120124.8946   2   8   0.0192   0.0245   0.0211  -0.0045  -0.0149  -0.0014   0.00    1.0
2173 287266.000     84783.6298  -4856564.6142   4120124.8940   2   8   0.0193   0.0244   0.0210  -0.0049  -0.0149  -0.0018   0.00    1.0
2173 287267.000     84783.6280  -4856564.6203   4120124.8930   2   8   0.0193   0.0243   0.0210  -0.0049  -0.0149  -0.0020   0.00    1.0
2173 287268.000     84783.6298  -4856564.6210   4120124.8908   2   8   0.0192   0.0243   0.0209  -0.0050  -0.0148  -0.0015   0.00    1.0
2173 287269.000     84783.6302  -4856564.6269   4120124.8876   2   8   0.0191   0.0242   0.0209  -0.0049  -0.0147  -0.0013   0.00    1.0
2173 287270.000     84783.6290  -4856564.6245   4120124.8875   2   8   0.0190   0.0241   0.0208  -0.0050  -0.0148  -0.0019   0.00    1.0
2173 287271.000     84783.6290  -4856564.6309   4120124.8818   2   8   0.0191   0.0241   0.0208  -0.0047  -0.0147  -0.0021   0.00    1.0
2173 287272.000     84783.6294  -4856564.6323   4120124.8787   2   8   0.0190   0.0240   0.0208  -0.0045  -0.0147  -0.0016   0.00    1.0
2173 287273.000     84783.6284  -4856564.6442   4120124.8781   2   8   0.0190   0.0239   0.0207  -0.0048  -0.0147  -0.0024   0.00    1.0
2173 287274.000     84783.6301  -4856564.6417   4120124.8753   2   8   0.0189   0.0238   0.0206  -0.0050  -0.0146  -0.0013   0.00    1.0
2173 287275.000     84783.6294  -4856564.6461   4120124.8756   2   8   0.0189   0.0237   0.0205  -0.0050  -0.0146  -0.0022   0.00    1.0
2173 287276.000     84783.6308  -4856564.6426   4120124.8719   2   8   0.0188   0.0237   0.0206  -0.0047  -0.0145  -0.0023   0.00    1.0
2173 287277.000     84783.6309  -4856564.6434   4120124.8706   2   8   0.0188   0.0236   0.0205  -0.0050  -0.0145  -0.0021   0.00    1.0
2173 287278.000     84783.6322  -4856564.6401   4120124.8681   2   8   0.0189   0.0236   0.0204  -0.0050  -0.0144  -0.0021   0.00    1.0
2173 287279.000     84783.6277  -4856564.6474   4120124.8665   2   8   0.0190   0.0235   0.0204  -0.0049  -0.0144  -0.0020   0.00    1.0
2173 287280.000     84783.6291  -4856564.6481   4120124.8654   2   8   0.0188   0.0235   0.0203  -0.0051  -0.0144  -0.0027   0.00    1.0
2173 287281.000     84783.6298  -4856564.6549   4120124.8662   2   8   0.0187   0.0234   0.0202  -0.0052  -0.0144  -0.0021   0.00    1.0
2173 287282.000     84783.6295  -4856564.6591   4120124.8619   2   8   0.0187   0.0233   0.0202  -0.0049  -0.0143  -0.0023   0.00    1.0
2173 287283.000     84783.6296  -4856564.6626   4120124.8600   2   8   0.0187   0.0233   0.0202  -0.0050  -0.0143  -0.0018   0.00    1.0
2173 287284.000     84783.6281  -4856564.6646   4120124.8578   2   8   0.0187   0.0232   0.0201  -0.0053  -0.0142  -0.0022   0.00    1.0
2173 287285.000     84783.6303  -4856564.6611   4120124.8547   2   8   0.0187   0.0232   0.0200  -0.0050  -0.0142  -0.0018   0.00    1.0
2173 287286.000     84783.6275  -4856564.6646   4120124.8535   2   8   0.0187   0.0231   0.0200  -0.0051  -0.0142  -0.0023   0.00    1.0
2173 287287.000     84783.6271  -4856564.6626   4120124.8469   2   8   0.0186   0.0230   0.0200  -0.0049  -0.0141  -0.0029   0.00    1.0
2173 287288.000     84783.6303  -4856564.6670   4120124.8467   2   8   0.0185   0.0230   0.0199  -0.0052  -0.0141  -0.0024   0.00    1.0
2173 287289.000     84783.6289  -4856564.6661   4120124.8420   2   8   0.0185   0.0229   0.0199  -0.0049  -0.0141  -0.0020   0.00    1.0
2173 287290.000     84783.6290  -4856564.6669   4120124.8405   2   8   0.0186   0.0229   0.0198  -0.0052  -0.0140  -0.0025   0.00    1.0
2173 287291.000     84783.6288  -4856564.6723   4120124.8416   2   8   0.0185   0.0228   0.0198  -0.0052  -0.0140  -0.0017   0.00    1.0
2173 287292.000     84783.6300  -4856564.6765   4120124.8390   2   8   0.0185   0.0227   0.0198  -0.0050  -0.0140  -0.0026   0.00    1.0
2173 287293.000     84783.6297  -4856564.6809   4120124.8377   2   8   0.0184   0.0227   0.0197  -0.0052  -0.0139  -0.0026   0.00    1.0
2173 287294.000     84783.6304  -4856564.6732   4120124.8337   2   8   0.0185   0.0227   0.0197  -0.0051  -0.0139  -0.0023   0.00    1.0
2173 287295.000     84783.6275  -4856564.6716   4120124.8285   2   8   0.0183   0.0225   0.0196  -0.0049  -0.0139  -0.0021   0.00    1.0
2173 287296.000     84783.6253  -4856564.6751   4120124.8241   2   8   0.0184   0.0225   0.0195  -0.0051  -0.0138  -0.0023   0.00    1.0
2173 287297.000     84783.6325  -4856564.6862   4120124.8284   2   8   0.0183   0.0224   0.0195  -0.0048  -0.0138  -0.0028   0.00    1.0
2173 287298.000     84783.6313  -4856564.6898   4120124.8273   2   8   0.0183   0.0224   0.0194  -0.0052  -0.0138  -0.0018   0.00    1.0
2173 287299.000     84783.6274  -4856564.7016   4120124.8214   2   8   0.0183   0.0223   0.0194  -0.0048  -0.0137  -0.0025   0.00    1.0
2173 287300.000     84783.6277  -4856564.7119   4120124.8189   2   8   0.0182   0.0223   0.0193  -0.0051  -0.0137  -0.0018   0.00    1.0
2173 287301.000     84783.6286  -4856564.7125   4120124.8177   2   8   0.0181   0.0222   0.0194  -0.0051  -0.0137  -0.0028   0.00    1.0
2173 287302.000     84783.6311  -4856564.7136   4120124.8154   2   8   0.0182   0.0221   0.0193  -0.0050  -0.0137  -0.0029   0.00    1.0
2173 287303.000     84783.6320  -4856564.7199   4120124.8136   2   8   0.0181   0.0221   0.0192  -0.0051  -0.0136  -0.0020   0.00    1.1
2173 287304.000     84783.6334  -4856564.7219   4120124.8101   2   8   0.0181   0.0220   0.0191  -0.0051  -0.0136  -0.0028   0.00    1.1
2173 287305.000     84783.6337  -4856564.7295   4120124.8127   2   8   0.0181   0.0220   0.0192  -0.0049  -0.0136  -0.0028   0.00    1.1
2173 287306.000     84783.6338  -4856564.7327   4120124.8098   2   8   0.0180   0.0219   0.0191  -0.0052  -0.0135  -0.0024   0.00    1.1
2173 287307.000     84783.6324  -4856564.7350   4120124.8071   2   8   0.0181   0.0219   0.0191  -0.0051  -0.0135  -0.0029   0.00    1.1
2173 287308.000     84783.6298  -4856564.7372   4120124.8082   2   8   0.0180   0.0218   0.0190  -0.0049  -0.0135  -0.0023   0.00    1.1
2173 287309.000     84783.6315  -4856564.7401   4120124.8104   2   8   0.0180   0.0217   0.0190  -0.0052  -0.0134  -0.0029   0.00    1.1
2173 287310.000     84783.6329  -4856564.7437   4120124.8140   2   8   0.0180   0.0217   0.0189  -0.0052  -0.0134  -0.0028   0.00    1.1
2173 287311.000     84783.6340  -4856564.7379   4120124.8076   2   8   0.0179   0.0216   0.0189  -0.0050  -0.0134  -0.0029   0.00    1.1
2173 287312.000     84783.6343  -4856564.7397   4120124.8098   2   8   0.0179   0.0216   0.0188  -0.0049  -0.0133  -0.0027   0.00    1.1
2173 287313.000     84783.6332  -4856564.7448   4120124.8075   2   8   0.0180   0.0216   0.0188  -0.0052  -0.0133  -0.0028   0.00    1.1
2173 287314.000     84783.6300  -4856564.7415   4120124.7980   2   8   0.0180   0.0215   0.0188  -0.0052  -0.0133  -0.0029   0.00    1.1
2173 287315.000     84783.6275  -4856564.7502   4120124.7924   2   8   0.0179   0.0215   0.0187  -0.0050  -0.0132  -0.0027   0.00    1.1
2173 287316.000     84783.6287  -4856564.7479   4120124.7865   2   8   0.0178   0.0214   0.0186  -0.0052  -0.0132  -0.0024   0.00    1.1
2173 287317.000     84783.6285  -4856564.7497   4120124.7793   2   8   0.0178   0.0213   0.0186  -0.0052  -0.0132  -0.0027   0.00    1.1
2173 287318.000     84783.6289  -4856564.7566   4120124.7753   2   8   0.0177   0.0212   0.0186  -0.0051  -0.0132  -0.0030   0.00    1.1
2173 287319.000     84783.6265  -4856564.7611   4120124.7696   2   8   0.0178   0.0213   0.0186  -0.0053  -0.0132  -0.0031   0.00    1.1
2173 287320.000     84783.6260  -4856564.7704   4120124.7689   2   8   0.0177   0.0212   0.0185  -0.0052  -0.0132  -0.0026   0.00    1.1
2173 287321.000     84783.6249  -4856564.7709   4120124.7626   2   8   0.0178   0.0212   0.0185  -0.0050  -0.0130  -0.0028   0.00    1.1
2173 287322.000     84783.6243  -4856564.7804   4120124.7623   2   8   0.0177   0.0211   0.0184  -0.0053  -0.0131  -0.0030   0.00    1.1
