% program   : rnx2rtkp ver.2.4.3 b31
% inp file  : ngs/21_08_31_22_54_18_ingy.obs
% inp file  : ngs/21_08_31_22_54_18_ingy_VZ.obs
% inp file  : ngs/21_08_31_22_54_18_brdc.nav
% obs start : 2021/08/31 22:00:00.0 GPST (week2173 252000.0s)
% obs end   : 2021/08/31 22:59:59.0 GPST (week2173 255599.0s)
% ref pos   :   204383.2913  -4771206.7394   4213863.0097
%
% (x/y/z-ecef=WGS84,Q=1:fix,2:float,3:sbas,4:dgps,5:single,6:ppp,ns=# of satellites)
%  GPST              x-ecef(m)      y-ecef(m)      z-ecef(m)   Q  ns   sdx(m)   sdy(m)   sdz(m)  sdxy(m)  sdyz(m)  sdzx(m) age(s)  ratio
2173 255248.000    229480.1729  -4771569.1244   4212190.0666   2   6   0.5160   1.1724   0.8010  -0.3457  -0.7212   0.4399 -30.00    1.1
2173 255249.000    229480.1760  -4771569.1394   4212190.0923   2   6   0.3676   0.8345   0.5694  -0.2454  -0.5125   0.3130 -29.00    1.1
2173 255250.000    229480.1773  -4771569.1371   4212190.0965   2   6   0.3010   0.6833   0.4661  -0.2009  -0.4196   0.2562 -28.00    1.1
2173 255251.000    229480.1793  -4771569.1324   4212190.0926   2   6   0.2612   0.5929   0.4045  -0.1744  -0.3641   0.2223 -27.00    1.2
2173 255252.000    229480.1812  -4771569.1236   4212190.0924   2   6   0.2339   0.5310   0.3623  -0.1562  -0.3262   0.1991 -26.00    1.2
2173 255253.000    229480.1823  -4771569.1216   4212190.0924   2   6   0.2137   0.4853   0.3311  -0.1428  -0.2982   0.1819 -25.00    1.3
2173 255254.000    229480.1826  -4771569.1178   4212190.0918   2   6   0.1980   0.4496   0.3068  -0.1324  -0.2763   0.1686 -24.00    1.4
2173 255255.000    229480.1803  -4771569.1151   4212190.0923   2   6   0.1853   0.4209   0.2872  -0.1239  -0.2587   0.1578 -23.00    1.4
2173 255256.000    229480.1805  -4771569.1024   4212190.0871   2   6   0.1748   0.3970   0.2709  -0.1169  -0.2440   0.1488 -22.00    1.3
2173 255257.000    229480.1825  -4771569.1038   4212190.0888   2   6   0.1658   0.3767   0.2571  -0.1110  -0.2316   0.1412 -21.00    1.3
2173 255258.000    229480.1818  -4771569.0956   4212190.0833   2   6   0.1581   0.3593   0.2452  -0.1059  -0.2209   0.1346 -20.00    1.3
2173 255259.000    229480.1860  -4771569.0933   4212190.0847   2   6   0.1514   0.3440   0.2347  -0.1014  -0.2115   0.1289 -19.00    1.3
2173 255260.000    229480.1827  -4771569.0876   4212190.0799   2   6   0.1455   0.3305   0.2255  -0.0974  -0.2032   0.1238 -18.00    1.3
2173 255261.000    229480.1843  -4771569.0861   4212190.0782   2   6   0.1402   0.3185   0.2172  -0.0939  -0.1958   0.1193 -17.00    1.3
2173 255262.000    229480.1864  -4771569.0795   4212190.0761   2   6   0.1354   0.3077   0.2098  -0.0907  -0.1891   0.1152 -16.00    1.3
2173 255263.000    229480.1848  -4771569.0777   4212190.0740   2   6   0.1311   0.2978   0.2030  -0.0878  -0.1830   0.1115 -15.00    1.2
2173 255264.000    229480.1881  -4771569.0708   4212190.0706   2   6   0.1271   0.2889   0.1969  -0.0851  -0.1775   0.1081 -14.00    1.2
2173 255265.000    229480.1863  -4771569.0685   4212190.0683   2   6   0.1235   0.2807   0.1912  -0.0827  -0.1724   0.1050 -13.00    1.2
2173 255266.000    229480.1874  -4771569.0646   4212190.0635   2   6   0.1202   0.2731   0.1860  -0.0805  -0.1677   0.1021 -12.00    1.1
2173 255267.000    229480.1881  -4771569.0644   4212190.0616   2   6   0.1171   0.2661   0.1811  -0.0784  -0.1633   0.0995 -11.00    1.1
2173 255268.000    229480.1910  -4771569.0611   4212190.0587   2   6   0.1142   0.2596   0.1766  -0.0764  -0.1593   0.0970 -10.00    1.1
2173 255269.000    229480.1936  -4771569.0681   4212190.0605   2   6   0.1116   0.2535   0.1724  -0.0746  -0.1555   0.0947  -9.00    1.0
2173 255270.000    229480.1970  -4771569.0717   4212190.0587   2   6   0.1091   0.2478   0.1685  -0.0730  -0.1520   0.0926  -8.00    1.0
2173 255271.000    229480.1949  -4771569.0679   4212190.0540   2   6   0.1067   0.2425   0.1648  -0.0714  -0.1487   0.0905  -7.00    1.0
2173 255272.000    229480.1950  -4771569.0636   4212190.0490   2   6   0.1045   0.2375   0.1614  -0.0699  -0.1456   0.0886  -6.00    1.1
2173 255273.000    229480.1943  -4771569.0614   4212190.0440   2   6   0.1025   0.2328   0.1581  -0.0685  -0.1427   0.0869  -5.00    1.1
2173 255274.000    229480.1929  -4771569.0510   4212190.0353   2   6   0.1005   0.2284   0.1550  -0.0672  -0.1399   0.0852  -4.00    1.2
2173 255275.000    229480.1946  -4771569.0477   4212190.0299   2   6   0.0987   0.2242   0.1521  -0.0659  -0.1373   0.0836  -3.00    1.2
2173 255276.000    229480.1932  -4771569.0434   4212190.0251   2   6   0.0969   0.2203   0.1493  -0.0647  -0.1348   0.0820  -2.00    1.3
2173 255277.000    229480.1934  -4771569.0353   4212190.0192   2   6   0.0953   0.2166   0.1467  -0.0636  -0.1325   0.0806  -1.00    1.4
2173 255278.000    229480.1923  -4771569.0331   4212190.0148   2   6   0.0937   0.2130   0.1443  -0.0626  -0.1303   0.0792   0.00    1.5
2173 255279.000    229480.1915  -4771569.0219   4212190.0064   2   6   0.0922   0.2097   0.1419  -0.0616  -0.1282   0.0780   0.00    1.6
2173 255280.000    229480.1892  -4771569.0196   4212190.0005   2   6   0.0908   0.2065   0.1397  -0.0606  -0.1262   0.0767   0.00    1.7
2173 255281.000    229480.1876  -4771569.0181   4212189.9941   2   6   0.0895   0.2034   0.1376  -0.0597  -0.1243   0.0755   0.00    1.8
2173 255282.000    229480.1832  -4771569.0063   4212189.9864   2   6   0.0882   0.2005   0.1355  -0.0588  -0.1225   0.0744   0.00    1.9
2173 255283.000    229480.1817  -4771569.0005   4212189.9764   2   6   0.0869   0.1977   0.1335  -0.0580  -0.1207   0.0733   0.00    1.9
2173 255284.000    229480.1813  -4771568.9978   4212189.9737   2   6   0.0857   0.1950   0.1316  -0.0571  -0.1190   0.0723   0.00    2.0
2173 255285.000    229480.1763  -4771568.9920   4212189.9642   2   6   0.0846   0.1924   0.1298  -0.0564  -0.1174   0.0713   0.00    2.0
2173 255286.000    229480.1788  -4771568.9948   4212189.9635   2   6   0.0834   0.1899   0.1281  -0.0556  -0.1158   0.0703   0.00    2.1
2173 255287.000    229480.1760  -4771568.9849   4212189.9580   2   6   0.0824   0.1875   0.1264  -0.0549  -0.1143   0.0693   0.00    2.1
2173 255288.000    229480.1732  -4771568.9840   4212189.9526   2   6   0.0814   0.1852   0.1247  -0.0542  -0.1129   0.0684   0.00    2.1
2173 255289.000    229480.1738  -4771568.9824   4212189.9489   2   6   0.0804   0.1829   0.1231  -0.0535  -0.1115   0.0676   0.00    2.2
2173 255290.000    229480.1726  -4771568.9877   4212189.9464   2   6   0.0794   0.1808   0.1216  -0.0528  -0.1101   0.0667   0.00    2.2
2173 255291.000    229480.1715  -4771568.9901   4212189.9463   2   6   0.0785   0.1787   0.1201  -0.0522  -0.1088   0.0659   0.00    2.2
2173 255292.000    229480.1741  -4771568.9941   4212189.9477   2   6   0.0776   0.1767   0.1187  -0.0515  -0.1075   0.0651   0.00    2.2
2173 255293.000    229480.1708  -4771568.9899   4212189.9404   2   6   0.0767   0.1747   0.1172  -0.0510  -0.1063   0.0643   0.00    2.3
2173 255294.000    229480.1712  -4771568.9960   4212189.9454   2   6   0.0759   0.1728   0.1159  -0.0504  -0.1051   0.0635   0.00    2.3
2173 255295.000    229480.1735  -4771569.0024   4212189.9447   2   6   0.0751   0.1710   0.1145  -0.0498  -0.1039   0.0628   0.00    2.3
2173 255296.000    229480.1746  -4771569.0121   4212189.9442   2   6   0.0743   0.1692   0.1132  -0.0492  -0.1027   0.0620   0.00    2.4
2173 255297.000    229480.1733  -4771569.0095   4212189.9421   2   6   0.0735   0.1675   0.1120  -0.0487  -0.1016   0.0613   0.00    2.4
2173 255298.000    229480.1753  -4771569.0204   4212189.9449   2   6   0.0728   0.1658   0.1107  -0.0481  -0.1005   0.0606   0.00    2.4
2173 255299.000    229480.1773  -4771569.0207   4212189.9457   2   6   0.0720   0.1642   0.1095  -0.0476  -0.0995   0.0600   0.00    2.4
2173 255300.000    229480.1791  -4771569.0305   4212189.9478   2   6   0.0713   0.1626   0.1084  -0.0471  -0.0984   0.0593   0.00    2.5
2173 255301.000    229480.1808  -4771569.0322   4212189.9470   2   6   0.0706   0.1610   0.1072  -0.0466  -0.0974   0.0587   0.00    2.5
2173 255302.000    229480.1815  -4771569.0416   4212189.9518   2   6   0.0700   0.1595   0.1061  -0.0461  -0.0965   0.0580   0.00    2.5
2173 255303.000    229480.1843  -4771569.0491   4212189.9533   2   6   0.0693   0.1581   0.1050  -0.0456  -0.0955   0.0574   0.00    2.5
2173 255304.000    229480.1848  -4771569.0539   4212189.9536   2   6   0.0687   0.1567   0.1039  -0.0452  -0.0946   0.0568   0.00    2.5
2173 255305.000    229480.1894  -4771569.0581   4212189.9557   2   6   0.0681   0.1553   0.1029  -0.0447  -0.0936   0.0562   0.00    2.6
2173 255306.000    229480.1887  -4771569.0680   4212189.9592   2   6   0.0674   0.1539   0.1018  -0.0443  -0.0927   0.0557   0.00    2.6
2173 255307.000    229480.1928  -4771569.0786   4212189.9639   2   6   0.0669   0.1526   0.1008  -0.0438  -0.0918   0.0551   0.00    2.6
2173 255308.000    229480.1963  -4771569.0855   4212189.9650   2   6   0.0663   0.1513   0.0998  -0.0434  -0.0910   0.0545   0.00    2.6
2173 255309.000    229480.1964  -4771569.0869   4212189.9630   2   6   0.0657   0.1500   0.0989  -0.0430  -0.0901   0.0540   0.00    2.7
2173 255310.000    229480.1941  -4771569.0994   4212189.9657   2   6   0.0652   0.1488   0.0979  -0.0425  -0.0893   0.0534   0.00    2.7
2173 255311.000    229480.2005  -4771569.1055   4212189.9684   2   6   0.0646   0.1476   0.0970  -0.0421  -0.0885   0.0529   0.00    2.7
2173 255312.000    229480.1997  -4771569.1080   4212189.9672   2   6   0.0641   0.1464   0.0960  -0.0417  -0.0877   0.0524   0.00    2.7
2173 255313.000    229480.2030  -4771569.1150   4212189.9699   2   6   0.0636   0.1452   0.0951  -0.0413  -0.0869   0.0519   0.00    2.7
2173 255314.000    229480.2059  -4771569.1208   4212189.9700   2   6   0.0630   0.1441   0.0942  -0.0409  -0.0861   0.0514   0.00    2.7
2173 255315.000    229480.2046  -4771569.1258   4212189.9685   2   6   0.0626   0.1430   0.0934  -0.0406  -0.0854   0.0509   0.00    2.8
2173 255316.000    229480.2094  -4771569.1407   4212189.9763   2   7   0.0620   0.1414   0.0924  -0.0398  -0.0844   0.0503   0.00    1.3
2173 255317.000    229480.2120  -4771569.1512   4212189.9752   2   7   0.0615   0.1398   0.0915  -0.0390  -0.0834   0.0497   0.00    1.6
2173 255318.000    229480.2125  -4771569.1636   4212189.9753   2   7   0.0610   0.1383   0.0906  -0.0383  -0.0824   0.0492   0.00    1.9
2173 255319.000    229480.2155  -4771569.1747   4212189.9772   2   7   0.0605   0.1368   0.0897  -0.0376  -0.0815   0.0486   0.00    2.2
2173 255320.000    229480.2160  -4771569.1801   4212189.9730   2   7   0.0600   0.1354   0.0889  -0.0369  -0.0806   0.0481   0.00    2.5
2173 255321.000    229480.2193  -4771569.1921   4212189.9780   2   7   0.0595   0.1341   0.0880  -0.0363  -0.0797   0.0476   0.00    2.8
2173 255322.000    229480.2809  -4771569.6181   4212189.5525   1   7   0.0054   0.0098   0.0079  -0.0014  -0.0064   0.0039   0.00    3.0
2173 255323.000    229480.2812  -4771569.6179   4212189.5522   1   7   0.0051   0.0098   0.0077  -0.0021  -0.0062   0.0040   0.00    3.2
2173 255324.000    229480.2797  -4771569.6111   4212189.5527   1   7   0.0050   0.0097   0.0077  -0.0019  -0.0063   0.0041   0.00    3.2
2173 255325.000    229480.2801  -4771569.6124   4212189.5522   1   7   0.0050   0.0098   0.0076  -0.0019  -0.0063   0.0043   0.00    3.2
2173 255326.000    229480.2806  -4771569.6085   4212189.5521   1   7   0.0049   0.0098   0.0077  -0.0023  -0.0061   0.0043   0.00    3.2
2173 255327.000    229480.2804  -4771569.6166   4212189.5533   1   7   0.0050   0.0098   0.0077  -0.0022  -0.0061   0.0039   0.00    3.2
2173 255328.000    229480.2813  -4771569.6116   4212189.5528   1   7   0.0047   0.0098   0.0077  -0.0014  -0.0064   0.0043   0.00    3.2
2173 255329.000    229480.2821  -4771569.6118   4212189.5527   1   7   0.0051   0.0098   0.0078  -0.0015  -0.0062   0.0039   0.00    3.2
2173 255330.000    229480.2804  -4771569.6173   4212189.5548   1   7   0.0051   0.0098   0.0078  -0.0020  -0.0062   0.0039   0.00    3.2
2173 255331.000    229480.2837  -4771569.6209   4212189.5587   1   7   0.0048   0.0099   0.0076  -0.0020  -0.0061   0.0040   0.00    3.2
2173 255332.000    229480.2817  -4771569.6141   4212189.5549   1   7   0.0046   0.0098   0.0076  -0.0021  -0.0062   0.0042   0.00    3.3
2173 255333.000    229480.2807  -4771569.6164   4212189.5578   1   7   0.0052   0.0098   0.0077   0.0006  -0.0065   0.0041   0.00    3.3
2173 255334.000    229480.2806  -4771569.6140   4212189.5542   1   7   0.0051   0.0098   0.0078  -0.0009  -0.0064   0.0038   0.00    3.3
2173 255335.000    229480.2794  -4771569.6144   4212189.5567   1   7   0.0051   0.0098   0.0077  -0.0014  -0.0063   0.0040   0.00    3.3
2173 255336.000    229480.2777  -4771569.6114   4212189.5544   1   7   0.0050   0.0099   0.0078  -0.0017  -0.0062   0.0042   0.00    3.4
2173 255337.000    229480.2800  -4771569.6149   4212189.5575   1   7   0.0050   0.0098   0.0077  -0.0013  -0.0063   0.0040   0.00    3.4
2173 255338.000    229480.2788  -4771569.6171   4212189.5579   1   7   0.0051   0.0098   0.0078  -0.0017  -0.0062   0.0041   0.00    3.4
2173 255339.000    229480.2783  -4771569.6123   4212189.5565   1   7   0.0049   0.0098   0.0077  -0.0025  -0.0060   0.0044   0.00    3.5
2173 255340.000    229480.2805  -4771569.6110   4212189.5543   1   7   0.0050   0.0098   0.0079  -0.0012  -0.0064   0.0038   0.00    3.5
2173 255341.000    229480.2795  -4771569.6050   4212189.5528   1   7   0.0049   0.0098   0.0079  -0.0014  -0.0064   0.0039   0.00    3.5
2173 255342.000    229480.2793  -4771569.6119   4212189.5551   1   7   0.0052   0.0098   0.0079  -0.0015  -0.0063   0.0040   0.00    3.6
2173 255343.000    229480.2770  -4771569.6124   4212189.5555   1   7   0.0048   0.0098   0.0077  -0.0020  -0.0062   0.0042   0.00    3.6
2173 255344.000    229480.2789  -4771569.6133   4212189.5557   1   7   0.0049   0.0098   0.0079  -0.0019  -0.0062   0.0039   0.00    3.6
2173 255345.000    229480.2801  -4771569.6117   4212189.5552   1   7   0.0048   0.0098   0.0078  -0.0020  -0.0063   0.0041   0.00    3.6
2173 255346.000    229480.2792  -4771569.6100   4212189.5553   1   7   0.0049   0.0098   0.0076  -0.0019  -0.0063   0.0041   0.00    3.7
2173 255347.000    229480.2813  -4771569.6130   4212189.5567   1   7   0.0048   0.0098   0.0076  -0.0018  -0.0061   0.0041   0.00    3.7
2173 255348.000    229480.2801  -4771569.6156   4212189.5552   1   7   0.0050   0.0098   0.0077  -0.0016  -0.0062   0.0042   0.00    3.7
2173 255349.000    229480.2811  -4771569.6135   4212189.5566   1   7   0.0048   0.0098   0.0076  -0.0024  -0.0063   0.0041   0.00    3.8
2173 255350.000    229480.2807  -4771569.6160   4212189.5558   1   7   0.0051   0.0098   0.0077  -0.0018  -0.0062   0.0038   0.00    3.8
2173 255351.000    229480.2801  -4771569.6165   4212189.5572   1   7   0.0050   0.0098   0.0077  -0.0017  -0.0062   0.0040   0.00    3.8
2173 255352.000    229480.2817  -4771569.6157   4212189.5574   1   7   0.0051   0.0098   0.0078  -0.0023  -0.0062   0.0039   0.00    3.8
2173 255353.000    229480.2808  -4771569.6149   4212189.5557   1   7   0.0048   0.0097   0.0076  -0.0022  -0.0064   0.0041   0.00    3.9
2173 255354.000    229480.2821  -4771569.6168   4212189.5572   1   7   0.0051   0.0098   0.0077  -0.0018  -0.0063   0.0040   0.00    3.9
2173 255355.000    229480.2806  -4771569.6136   4212189.5571   1   7   0.0052   0.0098   0.0078  -0.0021  -0.0061   0.0042   0.00    3.9
2173 255356.000    229480.2810  -4771569.6168   4212189.5573   1   7   0.0050   0.0098   0.0078  -0.0019  -0.0062   0.0040   0.00    3.9
2173 255357.000    229480.2810  -4771569.6167   4212189.5589   1   7   0.0051   0.0098   0.0078  -0.0016  -0.0063   0.0039   0.00    3.9
2173 255358.000    229480.2841  -4771569.6186   4212189.5609   1   7   0.0049   0.0097   0.0077  -0.0017  -0.0063   0.0042   0.00    3.9
2173 255359.000    229480.2828  -4771569.6208   4212189.5610   1   7   0.0047   0.0098   0.0077  -0.0018  -0.0061   0.0044   0.00    3.9
2173 255360.000    229480.2833  -4771569.6184   4212189.5601   1   7   0.0049   0.0098   0.0077  -0.0012  -0.0063   0.0040   0.00    3.9
2173 255361.000    229480.2806  -4771569.6190   4212189.5580   1   7   0.0051   0.0098   0.0079  -0.0018  -0.0063   0.0039   0.00    3.9
2173 255362.000    229480.2812  -4771569.6231   4212189.5602   1   7   0.0051   0.0099   0.0078  -0.0004  -0.0064   0.0038   0.00    3.9
2173 255363.000    229480.2834  -4771569.6180   4212189.5600   1   7   0.0049   0.0098   0.0077  -0.0022  -0.0061   0.0042   0.00    4.0
2173 255364.000    229480.2811  -4771569.6201   4212189.5573   1   7   0.0054   0.0098   0.0078  -0.0014  -0.0064   0.0038   0.00    4.0
2173 255365.000    229480.2810  -4771569.6172   4212189.5578   1   7   0.0050   0.0098   0.0078  -0.0014  -0.0063   0.0038   0.00    4.0
2173 255366.000    229480.2795  -4771569.6183   4212189.5572   1   7   0.0048   0.0097   0.0076  -0.0023  -0.0062   0.0042   0.00    4.0
2173 255367.000    229480.2814  -4771569.6193   4212189.5588   1   7   0.0051   0.0098   0.0079  -0.0013  -0.0063   0.0038   0.00    4.1
2173 255368.000    229480.2804  -4771569.6189   4212189.5586   1   7   0.0051   0.0098   0.0079  -0.0011  -0.0064   0.0038   0.00    4.1
2173 255369.000    229480.2828  -4771569.6230   4212189.5622   1   7   0.0054   0.0098   0.0077  -0.0016  -0.0064   0.0039   0.00    4.1
2173 255370.000    229480.2826  -4771569.6149   4212189.5581   1   7   0.0049   0.0098   0.0076  -0.0023  -0.0062   0.0041   0.00    4.1
2173 255371.000    229480.2815  -4771569.6209   4212189.5586   1   7   0.0049   0.0099   0.0078  -0.0021  -0.0062   0.0040   0.00    4.2
2173 255372.000    229480.2812  -4771569.6168   4212189.5616   1   7   0.0047   0.0097   0.0076  -0.0019  -0.0063   0.0039   0.00    4.2
2173 255373.000    229480.2800  -4771569.6241   4212189.5620   1   7   0.0050   0.0098   0.0078  -0.0011  -0.0063   0.0040   0.00    4.2
2173 255374.000    229480.2787  -4771569.6202   4212189.5584   1   7   0.0049   0.0098   0.0077  -0.0017  -0.0063   0.0041   0.00    4.2
2173 255375.000    229480.2803  -4771569.6157   4212189.5586   1   7   0.0046   0.0098   0.0077  -0.0020  -0.0061   0.0043   0.00    4.2
2173 255376.000    229480.2778  -4771569.6231   4212189.5603   1   7   0.0050   0.0098   0.0077  -0.0014  -0.0063   0.0040   0.00    4.3
2173 255377.000    229480.2820  -4771569.6178   4212189.5589   1   7   0.0047   0.0098   0.0076  -0.0017  -0.0061   0.0042   0.00    4.3
2173 255378.000    229480.2809  -4771569.6205   4212189.5602   1   7   0.0050   0.0099   0.0077  -0.0017  -0.0064   0.0040   0.00    4.3
2173 255379.000    229480.2831  -4771569.6154   4212189.5592   1   7   0.0050   0.0098   0.0078  -0.0016  -0.0064   0.0039   0.00    4.3
2173 255380.000    229480.2823  -4771569.6134   4212189.5577   1   7   0.0048   0.0098   0.0076  -0.0020  -0.0063   0.0041   0.00    4.3
2173 255381.000    229480.2842  -4771569.6190   4212189.5616   1   7   0.0048   0.0098   0.0078  -0.0024  -0.0060   0.0041   0.00    4.3
2173 255382.000    229480.2819  -4771569.6138   4212189.5595   1   7   0.0050   0.0098   0.0079   0.0003  -0.0064   0.0039   0.00    4.3
2173 255383.000    229480.2824  -4771569.6177   4212189.5595   1   7   0.0048   0.0098   0.0076  -0.0022  -0.0062   0.0043   0.00    4.3
2173 255384.000    229480.2819  -4771569.6181   4212189.5593   1   7   0.0054   0.0098   0.0078  -0.0008  -0.0065   0.0039   0.00    4.3
2173 255385.000    229480.2814  -4771569.6129   4212189.5599   1   7   0.0049   0.0097   0.0078  -0.0015  -0.0062   0.0040   0.00    4.3
2173 255386.000    229480.2818  -4771569.6148   4212189.5576   1   7   0.0047   0.0098   0.0077  -0.0023  -0.0061   0.0041   0.00    4.3
2173 255387.000    229480.2822  -4771569.6161   4212189.5598   1   7   0.0049   0.0099   0.0078  -0.0019  -0.0063   0.0039   0.00    4.3
2173 255388.000    229480.2822  -4771569.6183   4212189.5609   1   7   0.0047   0.0098   0.0078  -0.0017  -0.0062   0.0039   0.00    4.3
2173 255389.000    229480.2813  -4771569.6216   4212189.5605   1   7   0.0051   0.0098   0.0078   0.0008  -0.0065   0.0038   0.00    4.3
2173 255390.000    229480.2812  -4771569.6139   4212189.5590   1   7   0.0048   0.0098   0.0077  -0.0016  -0.0062   0.0042   0.00    4.3
2173 255391.000    229480.2824  -4771569.6182   4212189.5631   1   7   0.0047   0.0098   0.0077  -0.0017  -0.0065   0.0041   0.00    4.3
2173 255392.000    229480.2816  -4771569.6200   4212189.5609   1   7   0.0053   0.0098   0.0077  -0.0011  -0.0064   0.0039   0.00    4.4
2173 255393.000    229480.2832  -4771569.6257   4212189.5619   1   7   0.0049   0.0098   0.0076  -0.0013  -0.0062   0.0039   0.00    4.4
2173 255394.000    229480.2810  -4771569.6270   4212189.5588   1   7   0.0050   0.0098   0.0078  -0.0018  -0.0062   0.0041   0.00    4.4
2173 255395.000    229480.2803  -4771569.6202   4212189.5585   1   7   0.0050   0.0097   0.0078  -0.0015  -0.0064   0.0042   0.00    4.4
2173 255396.000    229480.2811  -4771569.6209   4212189.5597   1   7   0.0047   0.0098   0.0078  -0.0020  -0.0064   0.0039   0.00    4.4
2173 255397.000    229480.2821  -4771569.6225   4212189.5606   1   7   0.0048   0.0098   0.0077  -0.0021  -0.0062   0.0038   0.00    4.4
2173 255398.000    229480.2805  -4771569.6203   4212189.5591   1   7   0.0048   0.0098   0.0077  -0.0020  -0.0061   0.0040   0.00    4.4
2173 255399.000    229480.2800  -4771569.6219   4212189.5598   1   7   0.0048   0.0098   0.0078  -0.0014  -0.0064   0.0038   0.00    4.4
2173 255400.000    229480.2816  -4771569.6216   4212189.5603   1   7   0.0048   0.0098   0.0076  -0.0018  -0.0063   0.0042   0.00    4.4
2173 255401.000    229480.2812  -4771569.6203   4212189.5602   1   7   0.0052   0.0098   0.0079   0.0009  -0.0064   0.0037   0.00    4.4
2173 255402.000    229480.2810  -4771569.6206   4212189.5609   1   7   0.0050   0.0098   0.0078  -0.0020  -0.0063   0.0040   0.00    4.5
2173 255403.000    229480.2802  -4771569.6282   4212189.5652   1   7   0.0047   0.0098   0.0076  -0.0023  -0.0062   0.0040   0.00    4.5
2173 255404.000    229480.2803  -4771569.6222   4212189.5636   1   7   0.0049   0.0098   0.0077  -0.0022  -0.0063   0.0039   0.00    4.5
2173 255405.000    229480.2785  -4771569.6286   4212189.5650   1   7   0.0050   0.0097   0.0077  -0.0012  -0.0063   0.0038   0.00    4.5
2173 255406.000    229480.2790  -4771569.6253   4212189.5622   1   7   0.0051   0.0097   0.0076  -0.0023  -0.0062   0.0042   0.00    4.5
2173 255407.000    229480.2804  -4771569.6300   4212189.5649   1   7   0.0051   0.0098   0.0078  -0.0011  -0.0064   0.0039   0.00    4.6
2173 255408.000    229480.2806  -4771569.6263   4212189.5651   1   7   0.0051   0.0097   0.0077  -0.0012  -0.0063   0.0038   0.00    4.6
2173 255409.000    229480.2798  -4771569.6285   4212189.5651   1   7   0.0047   0.0098   0.0077  -0.0024  -0.0062   0.0041   0.00    4.6
2173 255410.000    229480.2802  -4771569.6311   4212189.5655   1   7   0.0051   0.0098   0.0075  -0.0015  -0.0063   0.0041   0.00    4.6
2173 255411.000    229480.2785  -4771569.6285   4212189.5646   1   7   0.0050   0.0098   0.0078  -0.0020  -0.0062   0.0038   0.00    4.7
2173 255412.000    229480.2800  -4771569.6307   4212189.5650   1   7   0.0050   0.0097   0.0078  -0.0015  -0.0064   0.0041   0.00    4.7
2173 255413.000    229480.2816  -4771569.6285   4212189.5683   1   7   0.0047   0.0098   0.0076  -0.0024  -0.0062   0.0042   0.00    4.7
2173 255414.000    229480.2810  -4771569.6283   4212189.5674   1   7   0.0047   0.0098   0.0076  -0.0021  -0.0062   0.0040   0.00    4.7
2173 255415.000    229480.2808  -4771569.6279   4212189.5648   1   7   0.0047   0.0098   0.0077  -0.0023  -0.0062   0.0041   0.00    4.7
2173 255416.000    229480.2788  -4771569.6298   4212189.5646   1   7   0.0048   0.0098   0.0077  -0.0020  -0.0063   0.0039   0.00    4.7
2173 255417.000    229480.2791  -4771569.6296   4212189.5632   1   7   0.0050   0.0098   0.0078  -0.0022  -0.0062   0.0039   0.00    4.7
2173 255418.000    229480.2841  -4771569.6271   4212189.5658   1   7   0.0049   0.0097   0.0076  -0.0015  -0.0065   0.0038   0.00    4.7
2173 255419.000    229480.2796  -4771569.6277   4212189.5636   1   7   0.0047   0.0098   0.0078  -0.0021  -0.0063   0.0038   0.00    4.7
2173 255420.000    229480.2806  -4771569.6275   4212189.5645   1   7   0.0049   0.0098   0.0076  -0.0020  -0.0064   0.0041   0.00    4.8
2173 255421.000    229480.2823  -4771569.6289   4212189.5645   1   7   0.0051   0.0098   0.0079  -0.0022  -0.0063   0.0039   0.00    4.8
2173 255422.000    229480.2812  -4771569.6325   4212189.5650   1   7   0.0047   0.0097   0.0078  -0.0017  -0.0062   0.0038   0.00    4.8
2173 255423.000    229480.2812  -4771569.6308   4212189.5654   1   7   0.0048   0.0097   0.0077  -0.0014  -0.0065   0.0038   0.00    4.8
2173 255424.000    229480.2818  -4771569.6308   4212189.5641   1   7   0.0049   0.0097   0.0077  -0.0023  -0.0062   0.0040   0.00    4.8
2173 255425.000    229480.2830  -4771569.6323   4212189.5656   1   7   0.0049   0.0098   0.0076  -0.0020  -0.0063   0.0038   0.00    4.8
2173 255426.000    229480.2819  -4771569.6314   4212189.5669   1   7   0.0049   0.0098   0.0078  -0.0016  -0.0063   0.0039   0.00    4.8
2173 255427.000    229480.2801  -4771569.6298   4212189.5626   1   7   0.0051   0.0097   0.0077  -0.0018  -0.0065   0.0037   0.00    4.8
2173 255428.000    229480.2812  -4771569.6292   4212189.5633   1   7   0.0048   0.0098   0.0078  -0.0017  -0.0064   0.0040   0.00    4.9
2173 255429.000    229480.2808  -4771569.6311   4212189.5663   1   7   0.0051   0.0098   0.0078  -0.0021  -0.0062   0.0041   0.00    4.9
2173 255430.000    229480.2815  -4771569.6299   4212189.5650   1   7   0.0050   0.0098   0.0078  -0.0020  -0.0064   0.0039   0.00    4.9
2173 255431.000    229480.2793  -4771569.6292   4212189.5651   1   7   0.0051   0.0098   0.0077  -0.0022  -0.0062   0.0040   0.00    4.9
2173 255432.000    229480.2839  -4771569.6300   4212189.5668   1   7   0.0046   0.0098   0.0077  -0.0023  -0.0063   0.0041   0.00    4.9
2173 255433.000    229480.2820  -4771569.6285   4212189.5673   1   7   0.0049   0.0097   0.0075  -0.0018  -0.0064   0.0042   0.00    4.9
2173 255434.000    229480.2824  -4771569.6302   4212189.5666   1   7   0.0050   0.0098   0.0076  -0.0023  -0.0063   0.0041   0.00    5.0
2173 255435.000    229480.2804  -4771569.6299   4212189.5677   1   7   0.0050   0.0098   0.0076  -0.0019  -0.0065   0.0039   0.00    5.0
2173 255436.000    229480.2821  -4771569.6294   4212189.5677   1   7   0.0047   0.0098   0.0077  -0.0016  -0.0064   0.0040   0.00    5.0
2173 255437.000    229480.2815  -4771569.6309   4212189.5667   1   7   0.0050   0.0098   0.0077  -0.0017  -0.0062   0.0042   0.00    5.0
2173 255438.000    229480.2824  -4771569.6332   4212189.5669   1   7   0.0050   0.0098   0.0076  -0.0020  -0.0064   0.0039   0.00    5.0
2173 255439.000    229480.2805  -4771569.6315   4212189.5635   1   7   0.0050   0.0098   0.0077  -0.0017  -0.0063   0.0039   0.00    5.1
2173 255440.000    229480.2834  -4771569.6352   4212189.5692   1   7   0.0048   0.0097   0.0076  -0.0019  -0.0065   0.0042   0.00    5.1
2173 255441.000    229480.2829  -4771569.6362   4212189.5678   1   7   0.0050   0.0098   0.0078  -0.0013  -0.0063   0.0037   0.00    5.1
2173 255442.000    229480.2808  -4771569.6356   4212189.5668   1   7   0.0050   0.0097   0.0078  -0.0015  -0.0063   0.0039   0.00    5.2
2173 255443.000    229480.2798  -4771569.6377   4212189.5690   1   7   0.0050   0.0097   0.0079  -0.0012  -0.0062   0.0038   0.00    5.2
2173 255444.000    229480.2845  -4771569.6328   4212189.5693   1   7   0.0049   0.0098   0.0077  -0.0019  -0.0063   0.0040   0.00    5.2
2173 255445.000    229480.2840  -4771569.6302   4212189.5679   1   7   0.0048   0.0098   0.0079  -0.0019  -0.0063   0.0040   0.00    5.2
2173 255446.000    229480.2817  -4771569.6366   4212189.5675   1   7   0.0048   0.0097   0.0077  -0.0022  -0.0063   0.0039   0.00    5.3
2173 255447.000    229480.2822  -4771569.6338   4212189.5679   1   7   0.0049   0.0098   0.0077  -0.0017  -0.0063   0.0040   0.00    5.3
2173 255448.000    229480.2814  -4771569.6326   4212189.5672   1   7   0.0051   0.0098   0.0077  -0.0018  -0.0064   0.0040   0.00    5.3
2173 255449.000    229480.2811  -4771569.6317   4212189.5677   1   7   0.0050   0.0097   0.0076  -0.0018  -0.0062   0.0041   0.00    5.3
2173 255450.000    229480.2820  -4771569.6326   4212189.5697   1   7   0.0049   0.0097   0.0076  -0.0016  -0.0062   0.0041   0.00    5.4
2173 255451.000    229480.2817  -4771569.6304   4212189.5665   1   7   0.0049   0.0098   0.0078  -0.0020  -0.0063   0.0038   0.00    5.4
2173 255452.000    229480.2849  -4771569.6308   4212189.5681   1   7   0.0049   0.0098   0.0078  -0.0021  -0.0063   0.0040   0.00    5.4
2173 255453.000    229480.2834  -4771569.6310   4212189.5667   1   7   0.0050   0.0097   0.0077  -0.0017  -0.0063   0.0041   0.00    5.4
2173 255454.000    229480.2847  -4771569.6354   4212189.5706   1   7   0.0050   0.0097   0.0079  -0.0015  -0.0064   0.0038   0.00    5.5
2173 255455.000    229480.2832  -4771569.6328   4212189.5683   1   7   0.0047   0.0097   0.0077  -0.0021  -0.0062   0.0038   0.00    5.5
2173 255456.000    229480.2819  -4771569.6342   4212189.5670   1   7   0.0049   0.0097   0.0077  -0.0017  -0.0063   0.0040   0.00    5.5
2173 255457.000    229480.2831  -4771569.6297   4212189.5662   1   7   0.0050   0.0098   0.0077  -0.0012  -0.0064   0.0038   0.00    5.6
2173 255458.000    229480.2847  -4771569.6332   4212189.5671   1   7   0.0050   0.0097   0.0078  -0.0017  -0.0063   0.0038   0.00    5.6
2173 255459.000    229480.2830  -4771569.6331   4212189.5680   1   7   0.0050   0.0097   0.0077  -0.0017  -0.0064   0.0040   0.00    5.6
2173 255460.000    229480.2829  -4771569.6357   4212189.5692   1   7   0.0051   0.0098   0.0075  -0.0025  -0.0061   0.0040   0.00    5.7
2173 255461.000    229480.2846  -4771569.6334   4212189.5680   1   7   0.0048   0.0098   0.0078  -0.0023  -0.0062   0.0040   0.00    5.7
2173 255462.000    229480.2837  -4771569.6352   4212189.5701   1   7   0.0050   0.0098   0.0077  -0.0022  -0.0064   0.0038   0.00    5.7
2173 255463.000    229480.2837  -4771569.6320   4212189.5696   1   7   0.0052   0.0098   0.0077  -0.0020  -0.0063   0.0040   0.00    5.8
2173 255464.000    229480.2843  -4771569.6343   4212189.5705   1   7   0.0049   0.0098   0.0078  -0.0017  -0.0064   0.0038   0.00    5.8
2173 255465.000    229480.2831  -4771569.6298   4212189.5694   1   7   0.0048   0.0097   0.0077  -0.0016  -0.0065   0.0038   0.00    5.8
2173 255466.000    229480.2838  -4771569.6353   4212189.5718   1   7   0.0050   0.0098   0.0076  -0.0016  -0.0063   0.0040   0.00    5.9
2173 255467.000    229480.2814  -4771569.6343   4212189.5734   1   7   0.0049   0.0098   0.0076  -0.0018  -0.0063   0.0039   0.00    5.9
2173 255468.000    229480.2822  -4771569.6358   4212189.5687   1   7   0.0051   0.0098   0.0076  -0.0017  -0.0063   0.0040   0.00    6.0
2173 255469.000    229480.2830  -4771569.6369   4212189.5711   1   7   0.0049   0.0098   0.0078  -0.0017  -0.0063   0.0039   0.00    6.0
2173 255470.000    229480.2831  -4771569.6383   4212189.5705   1   7   0.0048   0.0098   0.0077  -0.0022  -0.0063   0.0038   0.00    6.0
2173 255471.000    229480.2830  -4771569.6348   4212189.5694   1   7   0.0051   0.0098   0.0077  -0.0014  -0.0064   0.0038   0.00    6.1
2173 255472.000    229480.2839  -4771569.6358   4212189.5716   1   7   0.0049   0.0097   0.0080  -0.0005  -0.0063   0.0037   0.00    6.1
2173 255473.000    229480.2846  -4771569.6402   4212189.5697   1   7   0.0050   0.0098   0.0078  -0.0021  -0.0063   0.0039   0.00    6.2
2173 255474.000    229480.2842  -4771569.6386   4212189.5718   1   7   0.0051   0.0097   0.0076  -0.0017  -0.0063   0.0040   0.00    6.2
2173 255475.000    229480.2849  -4771569.6371   4212189.5727   1   7   0.0050   0.0098   0.0077  -0.0018  -0.0062   0.0039   0.00    6.3
2173 255476.000    229480.2839  -4771569.6371   4212189.5741   1   7   0.0048   0.0098   0.0077  -0.0015  -0.0064   0.0041   0.00    6.3
2173 255477.000    229480.2850  -4771569.6371   4212189.5706   1   7   0.0049   0.0097   0.0078  -0.0016  -0.0064   0.0038   0.00    6.3
2173 255478.000    229480.2814  -4771569.6370   4212189.5699   1   7   0.0050   0.0098   0.0077  -0.0018  -0.0064   0.0038   0.00    6.4
2173 255479.000    229480.2835  -4771569.6355   4212189.5715   1   7   0.0050   0.0098   0.0077  -0.0014  -0.0064   0.0037   0.00    6.4
2173 255480.000    229480.2831  -4771569.6360   4212189.5716   1   7   0.0048   0.0098   0.0077  -0.0008  -0.0063   0.0038   0.00    6.5
2173 255481.000    229480.2853  -4771569.6386   4212189.5735   1   7   0.0049   0.0097   0.0077  -0.0013  -0.0064   0.0039   0.00    6.5
2173 255482.000    229480.2836  -4771569.6401   4212189.5706   1   7   0.0049   0.0098   0.0077  -0.0020  -0.0063   0.0040   0.00    6.6
2173 255483.000    229480.2834  -4771569.6365   4212189.5701   1   7   0.0048   0.0097   0.0078  -0.0020  -0.0063   0.0039   0.00    6.6
2173 255484.000    229480.2843  -4771569.6383   4212189.5708   1   7   0.0048   0.0097   0.0076  -0.0018  -0.0064   0.0040   0.00    6.6
2173 255485.000    229480.2866  -4771569.6388   4212189.5737   1   7   0.0051   0.0098   0.0077  -0.0019  -0.0063   0.0039   0.00    6.6
2173 255486.000    229480.2879  -4771569.6348   4212189.5713   1   7   0.0048   0.0097   0.0076  -0.0021  -0.0063   0.0041   0.00    6.6
2173 255487.000    229480.2856  -4771569.6367   4212189.5730   1   7   0.0049   0.0098   0.0079  -0.0019  -0.0062   0.0037   0.00    6.6
2173 255488.000    229480.2846  -4771569.6422   4212189.5727   1   7   0.0051   0.0097   0.0076  -0.0017  -0.0064   0.0039   0.00    6.6
2173 255489.000    229480.2851  -4771569.6394   4212189.5740   1   7   0.0050   0.0097   0.0075  -0.0018  -0.0064   0.0041   0.00    6.6
2173 255490.000    229480.2847  -4771569.6381   4212189.5720   1   7   0.0050   0.0098   0.0077  -0.0021  -0.0063   0.0041   0.00    6.6
2173 255491.000    229480.2857  -4771569.6362   4212189.5732   1   7   0.0047   0.0097   0.0076  -0.0019  -0.0063   0.0041   0.00    6.6
2173 255492.000    229480.2832  -4771569.6410   4212189.5708   1   7   0.0047   0.0097   0.0077  -0.0019  -0.0063   0.0037   0.00    6.6
2173 255493.000    229480.2868  -4771569.6393   4212189.5741   1   7   0.0049   0.0098   0.0079  -0.0020  -0.0062   0.0038   0.00    6.6
2173 255494.000    229480.2835  -4771569.6379   4212189.5719   1   7   0.0048   0.0098   0.0078  -0.0021  -0.0063   0.0039   0.00    6.6
2173 255495.000    229480.2862  -4771569.6359   4212189.5724   1   7   0.0049   0.0098   0.0079  -0.0022  -0.0063   0.0038   0.00    6.6
2173 255496.000    229480.2877  -4771569.6354   4212189.5732   1   7   0.0051   0.0098   0.0077  -0.0019  -0.0062   0.0040   0.00    6.6
2173 255497.000    229480.2888  -4771569.6360   4212189.5733   1   7   0.0047   0.0098   0.0078  -0.0018  -0.0063   0.0039   0.00    6.6
2173 255498.000    229480.2869  -4771569.6412   4212189.5744   1   7   0.0049   0.0098   0.0077  -0.0012  -0.0064   0.0039   0.00    6.6
2173 255499.000    229480.2835  -4771569.6380   4212189.5721   1   7   0.0048   0.0097   0.0078  -0.0019  -0.0062   0.0041   0.00    6.6
2173 255500.000    229480.2861  -4771569.6406   4212189.5736   1   7   0.0051   0.0098   0.0077  -0.0023  -0.0062   0.0039   0.00    6.7
2173 255501.000    229480.2848  -4771569.6390   4212189.5728   1   7   0.0049   0.0097   0.0075  -0.0021  -0.0063   0.0040   0.00    6.7
2173 255502.000    229480.2880  -4771569.6422   4212189.5783   1   7   0.0051   0.0097   0.0078  -0.0019  -0.0063   0.0036   0.00    6.7
2173 255503.000    229480.2871  -4771569.6420   4212189.5755   1   7   0.0051   0.0097   0.0078  -0.0015  -0.0064   0.0038   0.00    6.7
2173 255504.000    229480.2864  -4771569.6414   4212189.5758   1   7   0.0048   0.0098   0.0078  -0.0020  -0.0062   0.0041   0.00    6.7
2173 255505.000    229480.2859  -4771569.6397   4212189.5712   1   7   0.0051   0.0097   0.0078  -0.0016  -0.0065   0.0036   0.00    6.7
2173 255506.000    229480.2872  -4771569.6337   4212189.5714   1   7   0.0051   0.0098   0.0078  -0.0018  -0.0064   0.0037   0.00    6.7
2173 255507.000    229480.2880  -4771569.6377   4212189.5721   1   7   0.0049   0.0098   0.0078  -0.0014  -0.0064   0.0038   0.00    6.7
2173 255508.000    229480.2883  -4771569.6370   4212189.5713   1   7   0.0048   0.0097   0.0077  -0.0023  -0.0064   0.0040   0.00    6.7
2173 255509.000    229480.2876  -4771569.6343   4212189.5721   1   7   0.0048   0.0097   0.0077  -0.0015  -0.0062   0.0040   0.00    6.7
2173 255510.000    229480.2859  -4771569.6373   4212189.5733   1   7   0.0051   0.0097   0.0078  -0.0007  -0.0065   0.0038   0.00    6.8
2173 255511.000    229480.2860  -4771569.6359   4212189.5732   1   7   0.0048   0.0097   0.0078  -0.0022  -0.0064   0.0039   0.00    6.8
2173 255512.000    229480.2887  -4771569.6436   4212189.5773   1   7   0.0049   0.0097   0.0078  -0.0024  -0.0062   0.0041   0.00    6.8
2173 255513.000    229480.2909  -4771569.6379   4212189.5749   1   7   0.0048   0.0097   0.0076  -0.0022  -0.0064   0.0038   0.00    6.8
2173 255514.000    229480.2883  -4771569.6402   4212189.5753   1   7   0.0047   0.0097   0.0077  -0.0025  -0.0062   0.0040   0.00    6.8
2173 255515.000    229480.2886  -4771569.6399   4212189.5732   1   7   0.0050   0.0097   0.0076  -0.0010  -0.0064   0.0039   0.00    6.8
2173 255516.000    229480.2901  -4771569.6380   4212189.5740   1   7   0.0049   0.0097   0.0076  -0.0020  -0.0063   0.0040   0.00    6.8
2173 255517.000    229480.2907  -4771569.6355   4212189.5744   1   7   0.0046   0.0097   0.0077  -0.0018  -0.0063   0.0040   0.00    6.8
2173 255518.000    229480.2893  -4771569.6337   4212189.5745   1   7   0.0049   0.0097   0.0078  -0.0020  -0.0063   0.0037   0.00    6.8
2173 255519.000    229480.2881  -4771569.6331   4212189.5765   1   7   0.0052   0.0097   0.0077  -0.0009  -0.0064   0.0036   0.00    6.8
2173 255520.000    229480.2889  -4771569.6364   4212189.5770   1   7   0.0049   0.0097   0.0077  -0.0021  -0.0063   0.0040   0.00    6.9
2173 255521.000    229480.2879  -4771569.6380   4212189.5771   1   7   0.0049   0.0097   0.0077  -0.0012  -0.0063   0.0038   0.00    6.9
2173 255522.000    229480.2890  -4771569.6416   4212189.5799   1   7   0.0051   0.0097   0.0077  -0.0018  -0.0064   0.0039   0.00    6.9
2173 255523.000    229480.2890  -4771569.6375   4212189.5760   1   7   0.0050   0.0098   0.0076  -0.0020  -0.0064   0.0039   0.00    6.9
2173 255524.000    229480.2897  -4771569.6401   4212189.5784   1   7   0.0051   0.0097   0.0077  -0.0018  -0.0062   0.0039   0.00    6.9
2173 255525.000    229480.2891  -4771569.6370   4212189.5767   1   7   0.0049   0.0097   0.0077   0.0004  -0.0065   0.0038   0.00    7.0
2173 255526.000    229480.2904  -4771569.6385   4212189.5781   1   7   0.0049   0.0097   0.0076  -0.0011  -0.0065   0.0041   0.00    7.0
2173 255527.000    229480.2905  -4771569.6357   4212189.5752   1   7   0.0051   0.0097   0.0076  -0.0014  -0.0064   0.0040   0.00    7.0
2173 255528.000    229480.2887  -4771569.6333   4212189.5767   1   7   0.0051   0.0098   0.0079  -0.0015  -0.0064   0.0039   0.00    7.0
2173 255529.000    229480.2900  -4771569.6367   4212189.5754   1   7   0.0048   0.0097   0.0077  -0.0015  -0.0064   0.0038   0.00    7.0
2173 255530.000    229480.2888  -4771569.6357   4212189.5767   1   7   0.0051   0.0098   0.0077  -0.0020  -0.0064   0.0036   0.00    7.1
2173 255531.000    229480.2907  -4771569.6352   4212189.5761   1   7   0.0047   0.0097   0.0078  -0.0021  -0.0062   0.0038   0.00    7.1
2173 255532.000    229480.2908  -4771569.6347   4212189.5786   1   7   0.0047   0.0097   0.0078  -0.0020  -0.0063   0.0039   0.00    7.1
2173 255533.000    229480.2916  -4771569.6370   4212189.5756   1   7   0.0047   0.0097   0.0078  -0.0019  -0.0063   0.0038   0.00    7.1
2173 255534.000    229480.2938  -4771569.6355   4212189.5770   1   7   0.0048   0.0097   0.0076  -0.0019  -0.0063   0.0039   0.00    7.1
2173 255535.000    229480.2909  -4771569.6354   4212189.5753   1   7   0.0049   0.0098   0.0079  -0.0020  -0.0062   0.0040   0.00    7.1
2173 255536.000    229480.2918  -4771569.6380   4212189.5750   1   7   0.0049   0.0097   0.0078  -0.0018  -0.0062   0.0039   0.00    7.1
2173 255537.000    229480.2933  -4771569.6375   4212189.5778   1   7   0.0050   0.0098   0.0077  -0.0019  -0.0063   0.0039   0.00    7.2
2173 255538.000    229480.2933  -4771569.6355   4212189.5779   1   7   0.0053   0.0098   0.0078  -0.0022  -0.0062   0.0039   0.00    7.2
2173 255539.000    229480.2915  -4771569.6395   4212189.5759   1   7   0.0048   0.0097   0.0076  -0.0019  -0.0064   0.0040   0.00    7.2
2173 255540.000    229480.2921  -4771569.6361   4212189.5760   1   7   0.0050   0.0097   0.0077  -0.0016  -0.0064   0.0038   0.00    7.2
2173 255541.000    229480.2929  -4771569.6345   4212189.5744   1   7   0.0049   0.0098   0.0077  -0.0019  -0.0063   0.0040   0.00    7.2
2173 255542.000    229480.2898  -4771569.6347   4212189.5736   1   7   0.0048   0.0097   0.0077  -0.0016  -0.0062   0.0039   0.00    7.2
2173 255543.000    229480.2911  -4771569.6360   4212189.5746   1   7   0.0050   0.0097   0.0076  -0.0019  -0.0064   0.0038   0.00    7.2
2173 255544.000    229480.2899  -4771569.6364   4212189.5753   1   7   0.0048   0.0097   0.0077  -0.0023  -0.0064   0.0040   0.00    7.2
2173 255545.000    229480.2893  -4771569.6356   4212189.5742   1   7   0.0048   0.0097   0.0077  -0.0022  -0.0062   0.0040   0.00    7.2
2173 255546.000    229480.2915  -4771569.6373   4212189.5757   1   7   0.0048   0.0098   0.0078  -0.0021  -0.0062   0.0041   0.00    7.2
2173 255547.000    229480.2905  -4771569.6371   4212189.5766   1   7   0.0050   0.0097   0.0075  -0.0026  -0.0062   0.0042   0.00    7.3
2173 255548.000    229480.2921  -4771569.6363   4212189.5738   1   7   0.0048   0.0097   0.0078  -0.0017  -0.0065   0.0038   0.00    7.3
2173 255549.000    229480.2907  -4771569.6403   4212189.5740   1   7   0.0046   0.0096   0.0076  -0.0023  -0.0063   0.0039   0.00    7.3
2173 255550.000    229480.2911  -4771569.6388   4212189.5757   1   7   0.0046   0.0097   0.0077  -0.0017  -0.0063   0.0039   0.00    7.3
2173 255551.000    229480.2919  -4771569.6361   4212189.5757   1   7   0.0047   0.0097   0.0076  -0.0018  -0.0063   0.0038   0.00    7.3
2173 255552.000    229480.2912  -4771569.6387   4212189.5759   1   7   0.0049   0.0097   0.0077  -0.0017  -0.0065   0.0037   0.00    7.4
2173 255553.000    229480.2907  -4771569.6363   4212189.5730   1   7   0.0049   0.0097   0.0077  -0.0018  -0.0065   0.0037   0.00    7.4
2173 255554.000    229480.2899  -4771569.6391   4212189.5758   1   7   0.0050   0.0097   0.0077  -0.0020  -0.0063   0.0041   0.00    7.4
2173 255555.000    229480.2922  -4771569.6366   4212189.5738   1   7   0.0047   0.0096   0.0077  -0.0022  -0.0062   0.0038   0.00    7.4
2173 255556.000    229480.2917  -4771569.6401   4212189.5744   1   7   0.0046   0.0097   0.0077  -0.0023  -0.0063   0.0038   0.00    7.5
2173 255557.000    229480.2921  -4771569.6386   4212189.5740   1   7   0.0047   0.0097   0.0077  -0.0022  -0.0061   0.0038   0.00    7.5
2173 255558.000    229480.2911  -4771569.6363   4212189.5738   1   7   0.0045   0.0097   0.0077  -0.0021  -0.0063   0.0039   0.00    7.5
2173 255559.000    229480.2890  -4771569.6375   4212189.5749   1   7   0.0047   0.0097   0.0075  -0.0017  -0.0064   0.0040   0.00    7.5
2173 255560.000    229480.2925  -4771569.6351   4212189.5760   1   7   0.0046   0.0097   0.0077  -0.0022  -0.0063   0.0036   0.00    7.5
2173 255561.000    229480.2932  -4771569.6350   4212189.5741   1   7   0.0048   0.0096   0.0078  -0.0014  -0.0063   0.0038   0.00    7.5
2173 255562.000    229480.2916  -4771569.6358   4212189.5733   1   7   0.0052   0.0099   0.0078  -0.0016  -0.0064   0.0037   0.00    7.5
2173 255563.000    229480.2924  -4771569.6347   4212189.5756   1   7   0.0047   0.0096   0.0078  -0.0023  -0.0063   0.0038   0.00    7.6
2173 255564.000    229480.2927  -4771569.6357   4212189.5766   1   7   0.0049   0.0098   0.0078  -0.0021  -0.0063   0.0038   0.00    7.6
2173 255565.000    229480.2927  -4771569.6329   4212189.5762   1   7   0.0047   0.0097   0.0075  -0.0021  -0.0063   0.0042   0.00    7.6
2173 255566.000    229480.2889  -4771569.6410   4212189.5784   1   7   0.0048   0.0097   0.0077  -0.0025  -0.0062   0.0039   0.00    7.6
2173 255567.000    229480.2901  -4771569.6408   4212189.5771   1   7   0.0050   0.0097   0.0075  -0.0021  -0.0063   0.0041   0.00    7.6
2173 255568.000    229480.2905  -4771569.6401   4212189.5775   1   7   0.0050   0.0097   0.0076  -0.0025  -0.0063   0.0039   0.00    7.6
2173 255569.000    229480.2892  -4771569.6363   4212189.5766   1   7   0.0051   0.0097   0.0077  -0.0019  -0.0064   0.0038   0.00    7.6
2173 255570.000    229480.2894  -4771569.6367   4212189.5783   1   7   0.0050   0.0097   0.0077  -0.0014  -0.0064   0.0038   0.00    7.6
2173 255571.000    229480.2888  -4771569.6377   4212189.5772   1   7   0.0047   0.0097   0.0076  -0.0016  -0.0065   0.0040   0.00    7.6
2173 255572.000    229480.2900  -4771569.6370   4212189.5772   1   7   0.0051   0.0097   0.0077  -0.0016  -0.0062   0.0038   0.00    7.6
2173 255573.000    229480.2907  -4771569.6386   4212189.5779   1   7   0.0050   0.0097   0.0077  -0.0021  -0.0062   0.0039   0.00    7.7
2173 255574.000    229480.2904  -4771569.6334   4212189.5753   1   7   0.0049   0.0097   0.0076  -0.0020  -0.0064   0.0039   0.00    7.7
2173 255575.000    229480.2893  -4771569.6348   4212189.5747   1   7   0.0050   0.0097   0.0077  -0.0016  -0.0064   0.0037   0.00    7.7
2173 255576.000    229480.2896  -4771569.6363   4212189.5764   1   7   0.0049   0.0097   0.0076  -0.0022  -0.0064   0.0040   0.00    7.7
2173 255577.000    229480.2917  -4771569.6359   4212189.5788   1   7   0.0050   0.0097   0.0078  -0.0023  -0.0062   0.0039   0.00    7.7
2173 255578.000    229480.2870  -4771569.6360   4212189.5772   1   7   0.0050   0.0098   0.0077  -0.0021  -0.0062   0.0038   0.00    7.7
2173 255579.000    229480.2897  -4771569.6416   4212189.5790   1   7   0.0053   0.0097   0.0077  -0.0012  -0.0064   0.0037   0.00    7.7
2173 255580.000    229480.2885  -4771569.6380   4212189.5777   1   7   0.0046   0.0097   0.0076  -0.0027  -0.0063   0.0041   0.00    7.8
2173 255581.000    229480.2887  -4771569.6374   4212189.5780   1   7   0.0050   0.0097   0.0076  -0.0019  -0.0062   0.0039   0.00    7.8
2173 255582.000    229480.2923  -4771569.6362   4212189.5784   1   7   0.0047   0.0097   0.0076  -0.0023  -0.0063   0.0039   0.00    7.8
2173 255583.000    229480.2926  -4771569.6374   4212189.5783   1   7   0.0047   0.0097   0.0076  -0.0026  -0.0063   0.0037   0.00    7.8
2173 255584.000    229480.2910  -4771569.6353   4212189.5798   1   7   0.0050   0.0097   0.0077  -0.0014  -0.0064   0.0038   0.00    7.8
2173 255585.000    229480.2911  -4771569.6360   4212189.5786   1   7   0.0044   0.0097   0.0077  -0.0022  -0.0064   0.0041   0.00    7.8
2173 255586.000    229480.2911  -4771569.6344   4212189.5755   1   7   0.0050   0.0098   0.0078  -0.0018  -0.0063   0.0038   0.00    7.8
2173 255587.000    229480.2896  -4771569.6341   4212189.5763   1   7   0.0047   0.0097   0.0076  -0.0023  -0.0062   0.0039   0.00    7.8
2173 255588.000    229480.2909  -4771569.6345   4212189.5772   1   7   0.0047   0.0097   0.0077  -0.0022  -0.0063   0.0038   0.00    7.8
2173 255589.000    229480.2918  -4771569.6382   4212189.5780   1   7   0.0050   0.0097   0.0077  -0.0022  -0.0062   0.0039   0.00    7.8
2173 255590.000    229480.2935  -4771569.6363   4212189.5756   1   7   0.0046   0.0097   0.0075  -0.0013  -0.0064   0.0040   0.00    7.9
2173 255591.000    229480.2939  -4771569.6403   4212189.5777   1   7   0.0050   0.0097   0.0077  -0.0023  -0.0063   0.0039   0.00    7.9
2173 255592.000    229480.2906  -4771569.6347   4212189.5754   1   7   0.0050   0.0097   0.0077  -0.0022  -0.0063   0.0037   0.00    7.9
2173 255593.000    229480.2915  -4771569.6362   4212189.5750   1   7   0.0048   0.0097   0.0077  -0.0022  -0.0061   0.0040   0.00    7.9
2173 255594.000    229480.2925  -4771569.6370   4212189.5738   1   7   0.0049   0.0097   0.0078  -0.0018  -0.0063   0.0038   0.00    7.8
2173 255595.000    229480.2892  -4771569.6326   4212189.5742   1   7   0.0048   0.0096   0.0077  -0.0021  -0.0064   0.0037   0.00    7.8
2173 255596.000    229480.2913  -4771569.6296   4212189.5732   1   7   0.0047   0.0097   0.0077  -0.0016  -0.0063   0.0037   0.00    7.9
2173 255597.000    229480.2916  -4771569.6332   4212189.5745   1   7   0.0050   0.0098   0.0077  -0.0019  -0.0064   0.0038   0.00    7.9
2173 255598.000    229480.2918  -4771569.6329   4212189.5753   1   7   0.0047   0.0097   0.0077  -0.0028  -0.0063   0.0039   0.00    7.9
2173 255599.000    229480.2923  -4771569.6386   4212189.5782   1   7   0.0051   0.0098   0.0078  -0.0013  -0.0063   0.0040   0.00    7.9
