     2.11           OBSERVATION DATA    M (MIXED)           RINEX VERSION / TYPE
CONVBIN 2.4.3                           20210901 190850 UTC PGM / RUN BY / DATE 
log: logs/21_09_01_09_42_26_mami_VZ.rtcm                    COMMENT             
format: RTCM 3, station ID: 374                             COMMENT             
0374                                                        MARKER NAME         
                                                            MARKER NUMBER       
                                                            OBSERVER / AGENCY   
                    LEICA GR50          4.40/7.701          REC # / TYPE / VERS 
                    GPPNULLANTENNA                          ANT # / TYPE        
  1539867.4900 -4473007.8162  4263693.9494                  APPROX POSITION XYZ 
        0.0000        0.0000        0.0000                  ANTENNA: DELTA H/E/N
     1     1                                                WAVELENGTH FACT L1/2
     7    C1    L1    C2    L2    P2    C5    L5            # / TYPES OF OBSERV 
  2021     9     1     9    42   34.0000000     GPS         TIME OF FIRST OBS   
  2021     9     1    10    12   30.0000000     GPS         TIME OF LAST OBS    
                                                            END OF HEADER       
 21  9  1  9 42 34.0000000  0 19G 1G 3G 7G 8G14G17G19G21G22G30R13R14
                                R17R24E13E15E21E26E27
  20162792.214   105956202.833    20162791.946    82563270.057    20162791.606  
  20162791.106    79123142.614  
  23850133.058   125333295.378    23850133.505    97662317.414    23850132.701  
  23850133.487    93593044.299  
  23304833.734   122467722.077    23304831.036    95429376.135    23304830.535  
                                
  24560613.059   129066895.703    24560613.917   100571613.119    24560612.791  
  24560612.827    96381126.649  
  20513436.015   107798842.879    20513433.621    83999085.622    20513433.031  
  20513437.481    80499144.291  
  21432481.769   112628467.252    21432478.625    87762435.058    21432477.963  
                                
  23258808.545   122225871.901                    95240920.677    23258803.220  
                                
  22328426.486   117336690.773                    91431176.114    22328422.412  
                                
  23106884.789   121427498.831                    94618816.411    23106879.375  
                                
  21880678.036   114983730.054    21880677.696    89597709.398    21880676.892  
  21880678.000    85864470.242  
  19945652.314   106508667.809    19945653.189    82840073.590    19945653.171  
                                
  19802237.430   105557066.606    19802238.841    82099942.092    19802238.895  
                                
  23096773.781   123595509.919    23096774.675    96129838.685    23096774.532  
                                
  19612086.009   104874651.664    19612086.026    81569179.641    19612085.991  
                                
  23540238.241   123704804.889                                                  
  23540239.403    92376975.401  
  23888978.081   125537447.634                                                  
  23888980.475    93745513.285  
  24216369.548   127257886.247                                                  
  24216371.049    95030244.445  
  27156700.963   142709430.781                                                  
  27156704.394   106568741.441  
  23758728.950   124852982.249                                                  
  23758730.647    93234386.554  
 21  9  1  9 42 35.0000000  0 19G 1G 3G 7G 8G14G17G19G21G22G30R13R14
                                R17R24E13E15E21E26E27
  20162960.879   105957089.312    20162960.611    82563960.816    20162960.272  
  20162959.771    79123804.595  
  23849573.079   125330352.737    23849573.544    97660024.444    23849572.739  
  23849573.526    93590846.870  
  23305513.954   122471296.710    23305511.256    95432161.559    23305510.755  
                                
  24561177.989   129069864.423    24561178.828   100573926.405    24561177.721  
  24561177.756    96383343.550  
  20513189.477   107797547.379    20513187.082    83998076.139    20513186.492  
  20513190.942    80498176.877  
  21432212.662   112627053.082    21432209.517    87761333.106    21432208.856  
                                
  23258267.578   122223029.060                    95238705.477    23258262.253  
                                
  22328912.738   117339246.035                    91433167.229    22328908.664  
                                
  23106571.277   121425851.412                    94617532.709    23106565.863  
                                
  21881122.742   114986066.949    21881122.403    89599530.353    21881121.598  
  21881122.706    85866215.328  
  19946122.037   106511176.050    19946122.912    82842024.444    19946122.894  
                                
  19801873.509   105555126.782    19801874.921    82098433.338    19801874.974  
                                
  23096107.106   123591942.437    23096107.982    96127063.981    23096107.857  
                                
  19611863.504   104873461.800    19611863.521    81568254.188    19611863.486  
                                
  23539991.470   123703508.098                                                  
  23539992.649    92376007.020  
  23889264.753   125538954.115                                                  
  23889267.148    93746638.257  
  24216092.596   127256430.866                                                  
  24216094.080    95029157.635  
  27156144.665   142706507.501                                                  
  27156148.113   106566558.490  
  23758965.125   124854223.344                                                  
  23758966.822    93235313.344  
 21  9  1  9 42 36.0000000  0 19G 1G 3G 7G 8G14G17G19G21G22G30R13R14
                                R17R24E13E15E21E26E27
  20163129.742   105957976.624    20163129.474    82564652.228    20163129.134  
  20163128.634    79124467.199  
  23849013.189   125327410.433    23849013.636    97657731.737    23849012.831  
  23849013.636    93588649.703  
  23306194.246   122474871.620    23306191.529    95434947.200    23306191.029  
                                
  24561742.971   129072833.307    24561743.829   100576239.819    24561742.703  
  24561742.739    96385560.557  
  20512943.045   107796252.445    20512940.650    83997067.100    20512940.061  
  20512944.510    80497209.878  
  21431943.626   112625639.318    21431940.481    87760231.469    21431939.820  
                                
  23257726.647   122220186.569                    95236490.548    23257721.322  
                                
  22329399.061   117341801.766                    91435158.704    22329394.987  
                                
  23106257.926   121424204.631                    94616249.497    23106252.512  
                                
  21881567.538   114988404.475    21881567.198    89601351.804    21881566.412  
  21881567.520    85867960.883  
  19946591.885   106513685.102    19946592.778    82843975.924    19946592.760  
                                
  19801509.767   105553187.810    19801511.179    82096925.248    19801511.232  
                                
  23095440.520   123588375.356    23095441.396    96124289.580    23095441.271  
                                
  19611641.141   104872272.714    19611641.159    81567329.349    19611641.124  
                                
  23539744.788   123702211.832                                                  
  23539745.949    92375039.029  
  23889551.533   125540461.063                                                  
  23889553.910    93747763.569  
  24215815.734   127254975.902                                                  
  24215817.217    95028071.136  
  27155588.473   142703584.527                                                  
  27155591.904   106564375.742  
  23759201.389   124855464.933                                                  
  23759203.104    93236240.509  
 21  9  1  9 42 37.0000000  0 19G 1G 3G 7G 8G14G17G19G21G22G30R13R14
                                R17R24E13E15E21E26E27
  20163298.783   105958864.891    20163298.514    82565344.386    20163298.175  
  20163297.675    79125130.517  
  23848453.370   125324468.633    23848453.817    97655439.431    23848453.031  
  23848453.817    93586452.894  
  23306874.609   122478446.966    23306871.892    95437733.194    23306871.392  
                                
  24562307.972   129075802.441    24562308.830   100578553.430    24562307.704  
  24562307.740    96387777.769  
  20512696.774   107794958.189    20512694.380    83996058.591    20512693.790  
  20512698.239    80496243.388  
  21431674.679   112624226.026    21431671.534    87759130.209    21431670.873  
                                
  23257185.823   122217344.500                    95234275.951    23257180.498  
                                
  22329885.510   117344358.055                    91437150.617    22329881.436  
                                
  23105944.682   121422558.579                    94614966.856    23105939.268  
                                
  21882012.512   114990742.746    21882012.173    89603173.836    21882011.386  
  21882012.494    85869706.993  
  19947061.947   106516195.130    19947062.823    82845928.168    19947062.805  
                                
  19801146.204   105551249.817    19801147.634    82095417.922    19801147.687  
                                
  23094774.023   123584808.866    23094774.917    96121515.644    23094774.792  
                                
  19611418.940   104871084.492    19611418.958    81566405.174    19611418.922  
                                
  23539498.249   123700916.205                                                  
  23539499.411    92374071.516  
  23889838.385   125541968.571                                                  
  23889840.779    93748889.304  
  24215538.943   127253521.469                                                  
  24215540.444    95026985.038  
  27155032.318   142700661.919                                                  
  27155035.767   106562193.258  
  23759437.778   124856707.123                                                  
  23759439.476    93237168.117  
 21  9  1  9 42 38.0000000  0 19G 1G 3G 7G 8G14G17G19G21G22G30R13R14
                                R17R24E13E15E21E26E27
  20163467.984   105959754.120    20163467.716    82566037.292    20163467.377  
  20163466.876    79125794.551  
  23847893.641   125321527.313    23847894.070    97653147.488    23847893.284  
  23847894.088    93584256.475  
  23307555.043   122482022.759    23307552.345    95440519.521    23307551.845  
                                
  24562873.008   129078771.824    24562873.848   100580867.228    24562872.740  
  24562872.776    96389995.183  
  20512450.628   107793664.643    20512448.234    83995050.628    20512447.644  
  20512452.093    80495277.422  
  21431405.840   112622813.288    21431402.713    87758029.375    21431402.034  
                                
  23256645.089   122214502.885                    95232061.702    23256639.764  
                                
  22330372.083   117346914.949                    91439143.004    22330368.009  
                                
  23105631.599   121420913.301                    94613684.822    23105626.185  
                                
  21882457.612   114993081.774    21882457.272    89604996.453    21882456.486  
  21882457.594    85871453.672  
  19947532.171   106518706.135    19947533.064    82847881.172    19947533.028  
                                
  19800782.837   105549312.830    19800784.267    82093911.375    19800784.321  
                                
  23094107.670   123581242.942    23094108.545    96118742.142    23094108.420  
                                
  19611196.882   104869897.169    19611196.917    81565481.700    19611196.864  
                                
  23539251.835   123699621.251                                                  
  23539252.997    92373104.502  
  23890125.379   125543476.681                                                  
  23890127.774    93750015.490  
  24215262.294   127252067.599                                                  
  24215263.778    95025899.358  
  27154476.234   142697739.716                                                  
  27154479.665   106560011.093  
  23759674.275   124857949.947                                                  
  23759675.972    93238096.193  
 21  9  1  9 42 39.0000000  0 19G 1G 3G 7G 8G14G17G19G21G22G30R13R14
                                R17R24E13E15E21E26E27
  20163637.311   105960643.900    20163637.043    82566730.625    20163636.704  
  20163636.203    79126458.987  
  23847333.965   125318586.091    23847334.394    97650855.625    23847333.608  
  23847334.394    93582060.091  
  23308235.513   122485598.584    23308232.815    95443305.881    23308232.315  
                                
  24563438.063   129081741.116    24563438.920   100583180.960    24563437.795  
  24563437.848    96392212.496  
  20512204.518   107792371.364    20512202.142    83994042.881    20512201.552  
  20512206.001    80494311.664  
  21431137.036   112621400.657    21431133.891    87756928.623    21431133.230  
                                
  23256104.354   122211661.295                    95229847.468    23256099.029  
                                
  22330858.657   117349472.001                    91441135.505    22330854.583  
                                
  23105318.587   121419268.332                    94612403.025    23105313.173  
                                
  21882902.765   114995421.137    21882902.443    89606819.331    21882901.639  
  21882902.747    85873200.601  
  19948002.519   106521217.683    19948003.395    82849834.598    19948003.377  
                                
  19800419.560   105547376.384    19800420.972    82092405.253    19800421.026  
                                
  23093441.316   123577677.097    23093442.191    96115968.707    23093442.066  
                                
  19610974.948   104868710.305    19610974.966    81564558.584    19610974.931  
                                
  23539005.439   123698326.534                                                  
  23539006.601    92372137.666  
  23890412.391   125544984.955                                                  
  23890414.786    93751141.794  
  24214985.646   127250613.853                                                  
  24214987.147    95024813.766  
  27153920.114   142694817.442                                                  
  27153923.545   106557828.887  
  23759910.807   124859192.965                                                  
  23759912.504    93239024.420  
 21  9  1  9 42 40.0000000  0 19G 1G 3G 7G 8G14G17G19G21G22G30R13R14
                                R17R24E13E15E21E26E27
  20163806.727   105961534.253    20163806.459    82567424.404    20163806.120  
  20163805.619    79127123.867  
  23846774.290   125315644.982    23846774.736    97648563.851    23846773.950  
  23846774.736    93579863.804  
  23308915.984   122489174.438    23308913.268    95446092.263    23308912.767  
                                
  24564003.063   129084710.261    24564003.921   100585494.579    24564002.795  
  24564002.849    96394429.720  
  20511958.462   107791078.399    20511956.067    83993035.376    20511955.478  
  20511959.927    80493346.143  
  21430868.250   112619988.189    21430865.105    87755827.997    21430864.444  
                                
  23255563.638   122208819.774                    95227633.299    23255558.313  
                                
  22331345.284   117352029.252                    91443128.171    22331341.228  
                                
  23105005.611   121417623.732                    94611121.516    23105000.197  
                                
  21883348.025   114997760.887    21883347.686    89608642.508    21883346.899  
  21883348.007    85874947.808  
  19948472.957   106523729.812    19948473.832    82851788.474    19948473.815  
                                
  19800056.408   105545440.540    19800057.820    82090899.594    19800057.873  
                                
  23092774.962   123574111.379    23092775.838    96113195.371    23092775.713  
                                
  19610753.105   104867523.991    19610753.140    81563635.900    19610753.087  
                                
  23538759.115   123697032.081                                                  
  23538760.276    92371171.034  
  23890699.439   125546493.432                                                  
  23890701.834    93752268.258  
  24214709.052   127249160.280                                                  
  24214710.553    95023728.303  
  27153364.066   142691895.231                                                  
  27153367.497   106555646.720  
  23760147.393   124860436.223                                                  
  23760149.108    93239952.827  
 21  9  1  9 42 41.0000000  0 19G 1G 3G 7G 8G14G17G19G21G22G30R13R14
                                R17R24E13E15E21E26E27
  20163976.340   105962425.486    20163976.072    82568118.871    20163975.715  
  20163975.214    79127789.403  
  23846214.685   125312704.242    23846215.114    97646272.357    23846214.328  
  23846215.114    93577667.810  
  23309596.507   122492750.627    23309593.791    95448878.899    23309593.291  
                                
  24564568.082   129087679.574    24564568.922   100587808.327    24564567.814  
  24564567.867    96396647.087  
  20511712.548   107789786.044    20511710.154    83992028.346    20511709.564  
  20511714.013    80492381.068  
  21430599.536   112618576.150    21430596.391    87754727.707    21430595.730  
                                
  23255022.992   122205978.591                    95225419.390    23255017.668  
                                
  22331832.018   117354586.994                    91445121.219    22331827.944  
                                
  23104692.796   121415979.795                    94609840.527    23104687.382  
                                
  21883793.375   115000101.289    21883793.035    89610466.202    21883792.249  
  21883793.357    85876695.519  
  19948943.573   106526242.824    19948944.449    82853743.039    19948944.431  
                                
  19799693.417   105543505.559    19799694.828    82089394.609    19799694.882  
                                
  23092108.716   123570546.132    23092109.609    96110422.396    23092109.484  
                                
  19610531.404   104866338.516    19610531.421    81562713.859    19610531.386  
                                
  23538512.898   123695738.198                                                  
  23538514.077    92370204.827  
  23890986.577   125548002.408                                                  
  23890988.971    93753395.088  
  24214432.528   127247707.159                                                  
  24214434.012    95022643.183  
  27152808.053   142688973.295                                                  
  27152811.484   106553464.753  
  23760384.068   124861680.004                                                  
  23760385.783    93240881.629  
 21  9  1  9 42 42.0000000  0 19G 1G 3G 7G 8G14G17G19G21G22G30R13R14
                                R17R24E13E15E21E26E27
  20164146.060   105963317.344    20164145.792    82568813.828    20164145.453  
  20164144.952    79128455.398  
  23845655.117   125309763.687    23845655.546    97643981.013    23845654.760  
  23845655.546    93575471.947  
  23310277.049   122496326.904    23310274.333    95451665.610    23310273.833  
                                
  24565133.154   129090648.890    24565133.994   100590122.080    24565132.886  
  24565132.922    96398864.416  
  20511466.688   107788494.048    20511464.294    83991021.596    20511463.704  
  20511468.154    80491416.268  
  21430330.875   112617164.308    21430327.730    87753627.572    21430327.069  
                                
  23254482.347   122203137.544                    95223205.587    23254477.022  
                                
  22332318.788   117357144.994                    91447114.465    22332314.732  
                                
  23104380.017   121414336.272                    94608559.869    23104374.621  
                                
  21884238.832   115002442.125    21884238.492    89612290.226    21884237.706  
  21884238.814    85878443.537  
  19949414.279   106528756.480    19949415.173    82855698.104    19949415.155  
                                
  19799330.533   105541571.210    19799331.962    82087890.117    19799332.016  
                                
  23091442.505   123566981.142    23091443.398    96107649.629    23091443.273  
                                
  19610309.810   104865153.573    19610309.846    81561792.237    19610309.792  
                                
  23538266.734   123694444.640                                                  
  23538267.895    92369238.856  
  23891273.786   125549511.630                                                  
  23891276.180    93754522.107  
  24214156.059   127246254.257                                                  
  24214157.542    95021558.217  
  27152252.041   142686051.432                                                  
  27152255.472   106551282.838  
  23760620.815   124862924.075                                                  
  23760622.530    93241810.643  
 21  9  1  9 42 43.0000000  0 19G 1G 3G 7G 8G14G17G19G21G22G30R13R14
                                R17R24E13E15E21E26E27
  20164315.852   105964209.619    20164315.584    82569509.107    20164315.244  
  20164314.726    79129121.708  
  23845095.549   125306823.085    23845095.995    97641689.632    23845095.209  
  23845095.995    93573276.021  
  23310957.555   122499903.060    23310954.857    95454452.228    23310954.357  
                                
  24565698.137   129093617.909    24565698.976   100592435.599    24565697.869  
  24565697.904    96401081.536  
  20511220.864   107787202.192    20511218.470    83990014.955    20511217.880  
  20511222.329    80490451.568  
  21430062.197   112615752.436    21430059.069    87752527.410    21430058.390  
                                
  23253941.684   122200296.358                    95220991.678    23253936.359  
                                
  22332805.558   117359703.023                    91449107.735    22332801.484  
                                
  23104067.309   121412692.943                    94607279.352    23104061.895  
                                
  21884684.306   115004783.155    21884683.985    89614114.405    21884683.181  
  21884684.288    85880191.707  
  19949885.074   106531270.530    19949885.968    82857653.476    19949885.950  
                                
  19798967.720   105539637.297    19798969.150    82086385.961    19798969.203  
                                
  23090776.276   123563416.102    23090777.170    96104876.822    23090777.045  
                                
  19610088.288   104863968.958    19610088.323    81560870.872    19610088.270  
                                
  23538020.606   123693151.173                                                  
  23538021.767    92368272.955  
  23891560.976   125551020.878                                                  
  23891563.389    93755649.145  
  24213879.572   127244801.339                                                  
  24213881.073    95020473.248  
  27151695.975   142683129.390                                                  
  27151699.406   106549100.792  
  23760857.561   124864168.202                                                  
  23760859.277    93242739.695  
 21  9  1  9 42 44.0000000  0 19G 1G 3G 7G 8G14G17G19G21G22G30R13R14
                                R17R24E13E15E21E26E27
  20164485.768   105965102.592    20164485.500    82570204.928    20164485.161  
  20164484.660    79129788.540  
  23844535.998   125303882.694    23844536.445    97639398.416    23844535.658  
  23844536.445    93571080.284  
  23311638.115   122503479.399    23311635.399    95457238.990    23311634.898  
                                
  24566263.102   129096586.919    24566263.941   100594749.111    24566262.834  
  24566262.887    96403298.665  
  20510975.094   107785910.771    20510972.699    83989008.648    20510972.110  
  20510976.559    80489487.200  
  21429793.589   112614340.840    21429790.444    87751427.463    21429789.783  
                                
  23253401.057   122197455.380                    95218777.934    23253395.732  
                                
  22333292.400   117362261.369                    91451101.253    22333288.326  
                                
  23103754.708   121411050.112                    94605999.222    23103749.294  
                                
  21885129.888   115007124.680    21885129.549    89615938.968    21885128.763  
  21885129.870    85881940.253  
  19950356.030   106533785.295    19950356.906    82859609.405    19950356.888  
                                
  19798605.068   105537704.112    19798606.480    82084882.374    19798606.533  
                                
  23090110.119   123559851.354    23090111.012    96102104.245    23090110.887  
                                
  19609866.872   104862784.988    19609866.890    81559950.004    19609866.855  
                                
  23537774.550   123691858.123                                                  
  23537775.711    92367307.364  
  23891848.257   125552530.464                                                  
  23891850.651    93756776.431  
  24213603.156   127243348.722                                                  
  24213604.639    95019388.504  
  27151139.962   142680207.501                                                  
  27151143.393   106546918.858  
  23761094.397   124865412.701                                                  
  23761096.095    93243669.031  
 21  9  1  9 42 45.0000000  0 19G 1G 3G 7G 8G14G17G19G21G22G30R13R14
                                R17R24E13E15E21E26E27
  20164655.828   105965996.319    20164655.560    82570901.339    20164655.220  
  20164654.720    79130455.930  
  23843976.501   125300942.571    23843976.948    97637107.409    23843976.161  
  23843976.948    93568884.739  
  23312318.692   122507055.960    23312315.994    95460025.928    23312315.494  
                                
  24566828.120   129099556.038    24566828.978   100597062.710    24566827.870  
  24566827.906    96405515.827  
  20510729.448   107784619.833    20510727.054    83988002.725    20510726.464  
  20510730.913    80488523.184  
  21429525.018   112612929.547    21429521.891    87750327.754    21429521.212  
                                
  23252860.483   122194614.626                    95216564.364    23252855.140  
                                
  22333779.313   117364820.099                    91453095.067    22333775.239  
                                
  23103442.179   121409407.816                    94604719.511    23103436.765  
                                
  21885575.577   115009466.745    21885575.238    89617763.958    21885574.452  
  21885575.560    85883689.196  
  19950827.093   106536300.800    19950827.969    82861565.906    19950827.951  
                                
  19798242.559   105535771.688    19798243.971    82083379.378    19798244.025  
                                
  23089443.998   123556286.870    23089444.891    96099331.868    23089444.766  
                                
  19609645.600   104861601.687    19609645.618    81559029.658    19609645.565  
                                
  23537528.582   123690565.499                                                  
  23537529.744    92366342.092  
  23892135.591   125554040.417                                                  
  23892137.985    93757903.989  
  24213326.793   127241896.434                                                  
  24213328.294    95018304.001  
  27150583.985   142677285.771                                                  
  27150587.416   106544737.035  
  23761331.287   124866657.594                                                  
  23761332.985    93244598.656  
 21  9  1  9 42 46.0000000  0 19G 1G 3G 7G 8G14G17G19G21G22G30R13R14
                                R17R24E13E15E21E26E27
  20164826.012   105966890.578    20164825.744    82571598.166    20164825.405  
  20164824.904    79131123.725  
  23843417.040   125298002.538    23843417.486    97634816.481    23843416.700  
  23843417.486    93566689.249  
  23312999.288   122510632.516    23312996.589    95462812.859    23312996.089  
                                
  24567393.085   129102524.940    24567393.943   100599376.138    24567392.817  
  24567392.871    96407732.882  
  20510483.838   107783329.160    20510481.444    83986997.008    20510480.854  
  20510485.322    80487559.374  
  21429256.482   112611518.365    21429253.337    87749228.131    21429252.676  
                                
  23252319.892   122191773.883                    95214350.807    23252314.567  
                                
  22334266.262   117367378.982                    91455089.000    22334262.188  
                                
  23103129.721   121407765.825                    94603440.042    23103124.307  
                                
  21886021.302   115011809.148    21886020.981    89619589.200    21886020.195  
  21886021.302    85885438.390  
  19951298.282   106538816.850    19951299.157    82863522.835    19951299.139  
                                
  19797880.140   105533839.791    19797881.551    82081876.789    19797881.605  
                                
  23088777.930   123552722.537    23088778.805    96096559.619    23088778.680  
                                
  19609424.400   104860418.836    19609424.418    81558109.666    19609424.382  
                                
  23537282.633   123689273.109                                                  
  23537283.795    92365376.998  
  23892422.942   125555550.522                                                  
  23892425.337    93759031.669  
  24213050.449   127240444.264                                                  
  24213051.932    95017219.590  
  27150027.991   142674364.002                                                  
  27150031.422   106542555.210  
  23761568.212   124867902.687                                                  
  23761569.928    93245528.431  
 21  9  1  9 42 47.0000000  0 19G 1G 3G 7G 8G14G17G19G21G22G30R13R14
                                R17R24E13E15E21E26E27
  20164996.286   105967785.297    20164996.018    82572295.350    20164995.679  
  20164995.178    79131791.857  
  23842857.561   125295062.473    23842857.989    97632525.521    23842857.203  
  23842857.989    93564493.764  
  23313679.883   122514209.007    23313677.185    95465599.740    23313676.684  
                                
  24567957.996   129105493.619    24567958.854   100601689.389    24567957.728  
  24567957.782    96409949.757  
  20510238.264   107782038.675    20510235.870    83985991.435    20510235.280  
  20510239.730    80486595.700  
  21428987.947   112610107.209    21428984.802    87748128.532    21428984.141  
                                
  23251779.318   122188933.099                    95212137.207    23251773.993  
                                
  22334753.193   117369937.956                    91457083.005    22334749.136  
                                
  23102817.317   121406124.095                    94602160.774    23102811.903  
                                
  21886467.117   115014151.792    21886466.777    89621414.642    21886465.991  
  21886467.099    85887187.765  
  19951769.524   106541333.369    19951770.417    82865480.129    19951770.399  
                                
  19797517.792   105531908.361    19797519.221    82080374.566    19797519.257  
                                
  23088111.862   123549158.256    23088112.738    96093787.405    23088112.612  
                                
  19609203.288   104859236.371    19609203.306    81557189.971    19609203.253  
                                
  23537036.738   123687980.869                                                  
  23537037.899    92364412.016  
  23892710.330   125557060.712                                                  
  23892712.724    93760159.407  
  24212774.122   127238992.137                                                  
  24212775.623    95016135.212  
  27149471.978   142671442.143                                                  
  27149475.409   106540373.293  
  23761805.173   124869147.890                                                  
  23761806.889    93246458.293  
 21  9  1  9 42 48.0000000  0 19G 1G 3G 7G 8G14G17G19G21G22G30R13R14
                                R17R24E13E15E21E26E27
  20165166.631   105968680.489    20165166.363    82572992.899    20165166.024  
  20165165.524    79132460.333  
  23842298.099   125292122.434    23842298.546    97630234.582    23842297.760  
  23842298.546    93562298.252  
  23314360.443   122517785.401    23314357.744    95468386.540    23314357.244  
                                
  24568522.872   129108462.045    24568523.712   100604002.451    24568522.604  
  24568522.657    96412166.441  
  20509992.744   107780748.401    20509990.350    83984986.027    20509989.760  
  20509994.209    80485632.174  
  21428719.429   112608696.100    21428716.284    87747028.964    21428715.623  
                                
  23251238.727   122186092.266                    95209923.568    23251233.402  
                                
  22335240.177   117372497.004                    91459077.068    22335236.103  
                                
  23102504.931   121404482.620                    94600881.705    23102499.517  
                                
  21886912.949   115016494.691    21886912.609    89623240.275    21886911.823  
  21886912.931    85888937.326  
  19952240.891   106543850.356    19952241.766    82867437.783    19952241.748  
                                
  19797155.551   105529977.428    19797156.980    82078872.729    19797157.034  
                                
  23087445.776   123545594.013    23087446.652    96091015.221    23087446.527  
                                
  19608982.213   104858054.292    19608982.231    81556270.576    19608982.195  
                                
  23536790.860   123686688.776                                                  
  23536792.021    92363447.139  
  23892997.717   125558570.982                                                  
  23893000.130    93761287.206  
  24212497.796   127237540.061                                                  
  24212499.279    95015050.867  
  27148915.930   142668520.163                                                  
  27148919.343   106538191.291  
  23762042.152   124870393.209                                                  
  23762043.868    93247388.234  
 21  9  1  9 42 49.0000000  0 19G 1G 3G 7G 8G14G17G19G21G22G30R13R14
                                R17R24E13E15E21E26E27
  20165337.048   105969576.038    20165336.780    82573690.730    20165336.441  
  20165335.940    79133129.094  
  23841738.602   125289182.270    23841739.049    97627943.540    23841738.263  
  23841739.049    93560102.688  
  23315040.984   122521361.690    23315038.286    95471173.256    23315037.786  
                                
  24569087.712   129111430.201    24569088.569   100606315.303    24569087.461  
  24569087.497    96414382.902  
  20509747.224   107779458.215    20509744.829    83983980.682    20509744.240  
  20509748.689    80484668.733  
  21428450.893   112607284.903    21428447.766    87745929.330    21428447.087  
                                
  23250698.099   122183251.271                    95207709.810    23250692.756  
                                
  22335727.144   117375056.045                    91461071.126    22335723.087  
                                
  23102192.598   121402841.272                    94599602.735    23102187.202  
                                
  21887358.817   115018837.754    21887358.477    89625066.038    21887357.691  
  21887358.799    85890687.022  
  19952712.311   106546367.724    19952713.187    82869395.739    19952713.169  
                                
  19796793.399   105528046.895    19796794.829    82077371.203    19796794.883  
                                
  23086779.708   123542029.726    23086780.584    96088243.002    23086780.459  
                                
  19608761.227   104856872.510    19608761.245    81555351.413    19608761.191  
                                
  23536544.982   123685396.767                                                  
  23536546.161    92362482.325  
  23893285.123   125560081.260                                                  
  23893287.517    93762415.009  
  24212221.469   127236087.952                                                  
  24212222.970    95013966.498  
  27148359.864   142665597.974                                                  
  27148363.277   106536009.150  
  23762279.131   124871638.559                                                  
  23762280.829    93248318.208  
 21  9  1  9 42 50.0000000  0 19G 1G 3G 7G 8G14G17G19G21G22G30R13R14
                                R17R24E13E15E21E26E27
  20165507.608   105970472.407    20165507.340    82574389.199    20165507.001  
  20165506.500    79133798.463  
  23841179.195   125286242.466    23841179.624    97625652.789    23841178.855  
  23841179.641    93557907.371  
  23315721.580   122524938.240    23315718.881    95473960.171    23315718.381  
                                
  24569652.534   129114398.437    24569653.391   100608628.216    24569652.266  
  24569652.319    96416599.457  
  20509501.828   107778168.583    20509499.434    83982975.779    20509498.844  
  20509503.294    80483705.694  
  21428182.429   112605874.097    21428179.284    87744830.003    21428178.623  
                                
  23250157.526   122180410.575                    95205496.279    23250152.201  
                                
  22336214.217   117377615.527                    91463065.523    22336210.143  
                                
  23101880.373   121401200.563                    94598324.256    23101874.959  
                                
  21887804.810   115021181.430    21887804.470    89626892.280    21887803.684  
  21887804.792    85892437.164  
  19953183.893   106548885.915    19953184.768    82871354.330    19953184.750  
                                
  19796431.373   105526117.179    19796432.803    82075870.316    19796432.856  
                                
  23086113.712   123538465.827    23086114.588    96085471.083    23086114.463  
                                
  19608540.366   104855691.505    19608540.401    81554432.853    19608540.348  
                                
  23536299.229   123684105.252                                                  
  23536300.391    92361517.882  
  23893572.600   125561591.973                                                  
  23893575.012    93763543.138  
  24211945.214   127234636.239                                                  
  24211946.697    95012882.424  
  27147803.851   142662676.056                                                  
  27147807.282   106533827.198  
  23762516.182   124872884.382                                                  
  23762517.897    93249248.533  
 21  9  1  9 42 51.0000000  0 19G 1G 3G 7G 8G14G17G19G21G22G30R13R14
                                R17R24E13E15E21E26E27
  20165678.365   105971369.702    20165678.097    82575088.395    20165677.757  
  20165677.257    79134468.523  
  23840619.841   125283303.108    23840620.270    97623362.375    23840619.501  
  23840620.287    93555712.411  
  23316402.264   122528515.203    23316399.548    95476747.413    23316399.066  
                                
  24570217.427   129117366.943    24570218.267   100610941.337    24570217.159  
  24570217.213    96418816.194  
  20509256.523   107776879.621    20509254.128    83981971.393    20509253.538  
  20509258.006    80482743.157  
  21427914.054   112604463.801    21427910.909    87743731.071    21427910.248  
                                
  23249617.041   122177570.305                    95203283.081    23249611.716  
                                
  22336701.363   117380175.566                    91465060.361    22336697.289  
                                
  23101568.308   121399560.570                    94597046.342    23101562.894  
                                
  21888250.928   115023525.826    21888250.588    89628719.081    21888249.802  
  21888250.910    85894187.851  
  19953655.635   106551405.058    19953656.528    82873313.663    19953656.492  
                                
  19796069.543   105524188.393    19796070.973    82074370.146    19796071.026  
                                
  23085447.805   123534902.460    23085448.681    96082699.575    23085448.556  
                                
  19608319.683   104854511.417    19608319.701    81553515.007    19608319.647  
                                
  23536053.584   123682814.374                                                  
  23536054.745    92360553.908  
  23893860.184   125563103.238                                                  
  23893862.578    93764671.680  
  24211669.066   127233185.043                                                  
  24211670.567    95011798.741  
  27147247.875   142659754.481                                                  
  27147251.288   106531645.498  
  23762753.393   124874130.801                                                  
  23762755.109    93250179.289  
 21  9  1  9 42 52.0000000  0 19G 1G 3G 7G 8G14G17G19G21G22G30R13R14
                                R17R24E13E15E21E26E27
  20165849.318   105972268.087    20165849.049    82575788.428    20165848.710  
  20165848.210    79135139.392  
  23840060.630   125280364.399    23840061.076    97621072.465    23840060.308  
  23840061.094    93553517.896  
  23317083.038   122532092.695    23317080.322    95479535.067    23317079.840  
                                
  24570782.410   129120335.862    24570783.267   100613254.779    24570782.160  
  24570782.195    96421033.226  
  20509011.413   107775591.475    20509009.019    83980967.640    20509008.429  
  20509012.878    80481781.223  
  21427645.804   112603054.139    21427642.659    87742632.635    21427641.998  
                                
  23249076.664   122174730.589                    95201070.318    23249071.339  
                                
  22337188.651   117382736.304                    91467055.737    22337184.595  
                                
  23101256.387   121397921.428                    94595769.086    23101250.990  
                                
  21888697.224   115025871.093    21888696.903    89630546.560    21888696.116  
  21888697.224    85895939.186  
  19954127.609   106553925.283    19954128.485    82875273.836    19954128.467  
                                
  19795707.928   105522260.687    19795709.339    82072870.822    19795709.393  
                                
  23084782.023   123531339.732    23084782.917    96079928.565    23084782.774  
                                
  19608099.197   104853332.353    19608099.215    81552597.955    19608099.162  
                                
  23535808.081   123681524.267                                                  
  23535809.243    92359590.521  
  23894147.893   125564615.203                                                  
  23894150.305    93765800.745  
  24211393.043   127231734.519                                                  
  24211394.527    95010715.555  
  27146692.041   142656833.425                                                  
  27146695.472   106529464.186  
  23762990.712   124875377.941                                                  
  23762992.409    93251110.602  
 21  9  1  9 42 53.0000000  0 19G 1G 3G 7G 8G14G17G19G21G22G30R13R14
                                R17R24E13E15E21E26E27
  20166020.431   105973167.266    20166020.163    82576489.090    20166019.824  
  20166019.323    79135810.855  
  23839501.454   125277425.989    23839501.901    97618782.802    23839501.115  
  23839501.901    93551323.634  
  23317763.866   122535670.439    23317761.150    95482322.917    23317760.668  
                                
  24571347.375   129123304.843    24571348.232   100615568.266    24571347.124  
  24571347.160    96423250.331  
  20508766.393   107774303.847    20508763.999    83979964.295    20508763.409  
  20508767.858    80480819.688  
  21427377.626   112601644.850    21427374.481    87741534.485    21427373.820  
                                
  23248536.358   122171891.167                    95198857.774    23248531.016  
                                
  22337676.029   117385297.461                    91469051.448    22337671.972  
                                
  23100944.572   121396282.859                    94594492.274    23100939.176  
                                
  21889143.610   115028216.938    21889143.289    89632374.491    21889142.503  
  21889143.610    85897690.958  
  19954599.709   106556446.325    19954600.584    82877234.646    19954600.567  
                                
  19795346.455   105520333.791    19795347.867    82071372.122    19795347.921  
                                
  23084116.313   123527777.444    23084117.188    96077157.899    23084117.063  
                                
  19607878.836   104852153.973    19607878.854    81551681.437    19607878.819  
                                
  23535562.668   123680234.635                                                  
  23535563.830    92358627.489  
  23894435.691   125566127.583                                                  
  23894438.104    93766930.122  
  24211117.092   127230284.370                                                  
  24211118.593    95009632.656  
  27146136.207   142653912.581                                                  
  27146139.620   106527283.049  
  23763228.119   124876625.540                                                  
  23763229.835    93252042.248  
 21  9  1  9 42 54.0000000  0 19G 1G 3G 7G 8G14G17G19G21G22G30R13R14
                                R17R24E13E15E21E26E27
  20166191.652   105974067.018    20166191.384    82577190.195    20166191.045  
  20166190.544    79136482.748  
  23838942.315   125274487.693    23838942.761    97616493.214    23838941.975  
  23838942.761    93549129.452  
  23318444.712   122539248.253    23318442.013    95485110.820    23318441.513  
                                
  24571912.322   129126273.736    24571913.179   100617881.682    24571912.072  
  24571912.107    96425467.366  
  20508521.427   107773016.540    20508519.032    83978961.198    20508518.443  
  20508522.892    80479858.387  
  21427109.466   112600235.701    21427106.339    87740436.448    21427105.659  
                                
  23247996.035   122169051.809                    95196645.293    23247990.710  
                                
  22338163.424   117387858.809                    91471047.297    22338159.368  
                                
  23100632.847   121394644.662                    94593215.757    23100627.433  
                                
  21889590.086   115030563.170    21889589.746    89634202.724    21889588.960  
  21889590.068    85899443.008  
  19955071.916   106558967.949    19955072.809    82879195.909    19955072.791  
                                
  19794985.072   105518407.502    19794986.484    82069873.897    19794986.537  
                                
  23083450.638   123524215.296    23083451.531    96074387.346    23083451.388  
                                
  19607658.547   104850976.077    19607658.583    81550765.298    19607658.529  
                                
  23535317.327   123678945.289                                                  
  23535318.488    92357664.665  
  23894723.543   125567640.174                                                  
  23894725.938    93768059.652  
  24210841.159   127228834.388                                                  
  24210842.642    95008549.876  
  27145580.409   142650991.775                                                  
  27145583.840   106525101.908  
  23763465.581   124877873.379                                                  
  23763467.278    93252974.074  
 21  9  1  9 42 55.0000000  0 19G 1G 3G 7G 8G14G17G19G21G22G30R13R14
                                R17R24E13E15E21E26E27
  20166362.980   105974967.427    20166362.712    82577891.817    20166362.373  
  20166361.873    79137155.138  
  23838383.211   125271549.577    23838383.658    97614203.771    23838382.871  
  23838383.658    93546935.410  
  23319125.557   122542826.162    23319122.859    95487898.796    23319122.376  
                                
  24572477.304   129129242.620    24572478.162   100620195.089    24572477.036  
  24572477.090    96427684.386  
  20508276.514   107771729.617    20508274.119    83977958.401    20508273.530  
  20508277.979    80478897.373  
  21426841.359   112598826.775    21426838.214    87739338.581    21426837.553  
                                
  23247455.747   122166212.581                    95194432.911    23247450.422  
                                
  22338650.891   117390420.433                    91473043.367    22338646.835  
                                
  23100321.176   121393006.914                    94591939.590    23100315.779  
                                
  21890036.651   115032909.843    21890036.329    89636031.300    21890035.543  
  21890036.651    85901195.396  
  19955544.283   106561490.243    19955545.159    82881157.694    19955545.141  
                                
  19794623.832   105516481.888    19794625.262    82068376.200    19794625.297  
                                
  23082785.017   123520653.375    23082785.892    96071616.972    23082785.767  
                                
  19607438.401   104849798.778    19607438.419    81549849.620    19607438.365  
                                
  23535072.038   123677656.294                                                  
  23535073.200    92356702.099  
  23895011.413   125569153.040                                                  
  23895013.826    93769189.388  
  24210565.297   127227384.651                                                  
  24210566.780    95007467.279  
  27145024.593   142648071.019                                                  
  27145028.006   106522920.837  
  23763703.096   124879121.523                                                  
  23763704.794    93253906.134  
 21  9  1  9 42 56.0000000  0 19G 1G 3G 7G 8G14G17G19G21G22G30R13R14
                                R17R24E13E15E21E26E27
  20166534.434   105975868.317    20166534.166    82578593.809    20166533.826  
  20166533.326    79137827.874  
  23837824.125   125268611.475    23837824.572    97611914.343    23837823.785  
  23837824.572    93544741.365  
  23319806.403   122546404.017    23319803.704    95490686.729    23319803.204  
                                
  24573042.234   129132211.284    24573043.091   100622508.325    24573041.983  
  24573042.019    96429901.221  
  20508031.672   107770442.909    20508029.278    83976955.773    20508028.688  
  20508033.138    80477936.515  
  21426573.252   112597417.888    21426570.125    87738240.749    21426569.446  
                                
  23246915.442   122163373.314                    95192220.496    23246910.117  
                                
  22339138.376   117392982.159                    91475039.516    22339134.320  
                                
  23100009.576   121391369.433                    94590663.633    23100004.179  
                                
  21890483.251   115035256.782    21890482.929    89637860.084    21890482.143  
  21890483.251    85902947.983  
  19956016.704   106564012.997    19956017.580    82883119.833    19956017.562  
                                
  19794262.699   105514556.784    19794264.111    82066878.895    19794264.164  
                                
  23082119.360   123517091.472    23082120.236    96068846.613    23082120.111  
                                
  19607218.326   104848621.914    19607218.344    81548934.282    19607218.290  
                                
  23534826.768   123676367.464                                                  
  23534827.948    92355739.661  
  23895299.319   125570666.004                                                  
  23895301.731    93770319.194  
  24210289.417   127225934.974                                                  
  24210290.900    95006384.727  
  27144468.813   142645150.210                                                  
  27144472.244   106520739.698  
  23763940.629   124880369.802                                                  
  23763942.344    93254838.286  
 21  9  1  9 42 57.0000000  0 19G 1G 3G 7G 8G14G17G19G21G22G30R13R14
                                R17R24E13E15E21E26E27
  20166705.994   105976769.962    20166705.726    82579296.385    20166705.387  
  20166704.886    79138501.178  
  23837265.057   125265673.640    23837265.503    97609625.128    23837264.717  
  23837265.503    93542547.549  
  23320487.284   122549982.078    23320484.586    95493474.824    23320484.085  
                                
  24573607.127   129135179.957    24573607.985   100624821.574    24573606.877  
  24573606.913    96432118.109  
  20507786.920   107769156.681    20507784.526    83975953.518    20507783.936  
  20507788.386    80476976.024  
  21426305.217   112596009.318    21426302.072    87737143.164    21426301.410  
                                
  23246375.189   122160534.279                    95190008.259    23246369.864  
                                
  22339625.932   117395544.261                    91477035.963    22339621.876  
                                
  23099698.083   121389732.483                    94589388.090    23099692.686  
                                
  21890929.959   115037604.276    21890929.637    89639689.298    21890928.851  
  21890929.959    85904700.982  
  19956489.287   106566536.523    19956490.162    82885082.575    19956490.144  
                                
  19793901.691   105512632.453    19793903.121    82065382.191    19793903.174  
                                
  23081453.793   123513529.871    23081454.668    96066076.488    23081454.543  
                                
  19606998.376   104847445.747    19606998.394    81548019.490    19606998.340  
                                
  23534581.605   123675079.079                                                  
  23534582.767    92354777.561  
  23895587.314   125572179.346                                                  
  23895589.709    93771449.291  
  24210013.626   127224485.642                                                  
  24210015.109    95005302.435  
  27143913.032   142642229.553                                                  
  27143916.445   106518558.690  
  23764178.251   124881618.486                                                  
  23764179.967    93255770.749  
 21  9  1  9 42 58.0000000  0 19G 1G 3G 7G 8G14G17G19G21G22G30R13R14
                                R17R24E13E15E21E26E27
  20166877.751   105977672.525    20166877.483    82579999.681    20166877.144  
  20166876.643    79139175.170  
  23836706.114   125262736.299    23836706.560    97607336.290    23836705.774  
  23836706.560    93540354.064  
  23321168.237   122553560.556    23321165.538    95496263.252    23321165.038  
                                
  24574172.110   129138148.900    24574172.968   100627135.034    24574171.842  
  24574171.895    96434335.181  
  20507542.276   107767871.111    20507539.881    83974951.770    20507539.292  
  20507543.759    80476016.019  
  21426037.271   112594601.246    21426034.126    87736045.961    21426033.464  
                                
  23245835.027   122157695.661                    95187796.348    23245829.702  
                                
  22340113.578   117398106.895                    91479032.816    22340109.522  
                                
  23099386.715   121388096.249                    94588113.102    23099381.301  
                                
  21891376.809   115039952.463    21891376.488    89641519.056    21891375.702  
  21891376.809    85906454.500  
  19956962.029   106569060.991    19956962.905    82887046.048    19956962.887  
                                
  19793540.862   105510709.025    19793542.274    82063886.196    19793542.327  
                                
  23080788.332   123509968.829    23080789.208    96063306.791    23080789.065  
                                
  19606778.569   104846270.431    19606778.587    81547105.353    19606778.551  
                                
  23534336.567   123673791.306                                                  
  23534337.729    92353815.909  
  23895875.398   125573693.222                                                  
  23895877.811    93772579.783  
  24209737.907   127223036.805                                                  
  24209739.390    95004220.516  
  27143357.306   142639309.237                                                  
  27143360.719   106516377.957  
  23764415.981   124882867.751                                                  
  23764417.696    93256703.642  
 21  9  1  9 42 59.0000000  0 19G 1G 3G 7G 8G14G17G19G21G22G30R13R14
                                R17R24E13E15E21E26E27
  20167049.651   105978575.801    20167049.383    82580703.534    20167049.044  
  20167048.543    79139849.698  
  23836147.171   125259799.153    23836147.617    97605047.608    23836146.831  
  23836147.617    93538160.768  
  23321849.225   122557139.183    23321846.527    95499051.804    23321846.026  
                                
  24574737.110   129141117.896    24574737.968   100629448.534    24574736.860  
  24574736.896    96436552.255  
  20507297.720   107766585.981    20507295.326    83973950.375    20507294.736  
  20507299.185    80475056.346  
  21425769.360   112593193.441    21425766.233    87734948.973    21425765.572  
                                
  23245294.900   122154857.219                    95185584.573    23245289.557  
                                
  22340601.295   117400669.868                    91481029.943    22340597.239  
                                
  23099075.437   121386460.500                    94586838.492    23099070.040  
                                
  21891823.749   115042301.169    21891823.428    89643349.214    21891822.642  
  21891823.749    85908208.402  
  19957434.933   106571586.184    19957435.809    82889010.087    19957435.791  
                                
  19793180.158   105508786.311    19793181.587    82062390.749    19793181.641  
