% program   : rnx2rtkp ver.2.4.3 b31
% inp file  : ngs/21_09_02_06_46_50_talh.obs
% inp file  : ngs/21_09_02_06_46_50_talh_P1.obs
% inp file  : ngs/21_09_02_06_46_50_brdc.nav
% obs start : 2021/09/02 06:00:00.0 GPST (week2173 367200.0s)
% obs end   : 2021/09/02 06:59:59.0 GPST (week2173 370799.0s)
% ref pos   :   553867.4830  -5487080.4440   3193245.8220
%
% (x/y/z-ecef=WGS84,Q=1:fix,2:float,3:sbas,4:dgps,5:single,6:ppp,ns=# of satellites)
%  GPST              x-ecef(m)      y-ecef(m)      z-ecef(m)   Q  ns   sdx(m)   sdy(m)   sdz(m)  sdxy(m)  sdyz(m)  sdzx(m) age(s)  ratio
2173 369985.000    541527.0036  -5479446.2657   3208362.1703   2   8   0.5175   1.1243   0.5543  -0.4227  -0.6613   0.2800 -30.00    1.7
2173 369986.000    541527.0040  -5479446.2632   3208362.1655   2   8   0.3681   0.7997   0.3943  -0.3008  -0.4703   0.1989 -29.00    1.7
2173 369987.000    541526.9982  -5479446.2518   3208362.1569   2   8   0.3014   0.6548   0.3228  -0.2463  -0.3850   0.1628 -28.00    1.7
2173 369988.000    541527.0027  -5479446.2518   3208362.1585   2   8   0.2615   0.5681   0.2800  -0.2137  -0.3340   0.1413 -27.00    1.7
2173 369989.000    541527.0010  -5479446.2540   3208362.1607   2   8   0.2342   0.5088   0.2508  -0.1914  -0.2992   0.1265 -26.00    1.7
2173 369990.000    541526.9991  -5479446.2572   3208362.1618   2   8   0.2140   0.4649   0.2292  -0.1750  -0.2734   0.1156 -25.00    1.8
2173 369991.000    541527.0017  -5479446.2629   3208362.1674   2   8   0.1983   0.4308   0.2123  -0.1621  -0.2533   0.1071 -24.00    1.8
2173 369992.000    541527.0033  -5479446.2709   3208362.1690   2   8   0.1856   0.4032   0.1987  -0.1517  -0.2371   0.1003 -23.00    1.8
2173 369993.000    541527.0044  -5479446.2699   3208362.1703   2   8   0.1750   0.3803   0.1874  -0.1431  -0.2236   0.0946 -22.00    1.9
2173 369994.000    541527.0076  -5479446.2764   3208362.1748   2   8   0.1661   0.3609   0.1779  -0.1358  -0.2122   0.0898 -21.00    1.9
2173 369995.000    541527.0080  -5479446.2832   3208362.1776   2   8   0.1584   0.3441   0.1696  -0.1295  -0.2023   0.0856 -20.00    1.9
2173 369996.000    541527.0096  -5479446.2875   3208362.1813   2   8   0.1517   0.3295   0.1624  -0.1240  -0.1937   0.0819 -19.00    2.0
2173 369997.000    541527.0082  -5479446.2860   3208362.1791   2   8   0.1457   0.3165   0.1560  -0.1192  -0.1861   0.0787 -18.00    2.0
2173 369998.000    541527.0103  -5479446.2884   3208362.1801   2   8   0.1404   0.3049   0.1503  -0.1148  -0.1793   0.0758 -17.00    2.0
2173 369999.000    541527.0141  -5479446.2968   3208362.1851   2   8   0.1356   0.2945   0.1452  -0.1109  -0.1731   0.0732 -16.00    2.0
2173 370000.000    541527.0145  -5479446.2931   3208362.1849   2   8   0.1313   0.2850   0.1405  -0.1073  -0.1676   0.0709 -15.00    2.1
2173 370001.000    541527.0179  -5479446.2991   3208362.1860   2   8   0.1273   0.2764   0.1362  -0.1041  -0.1625   0.0687 -14.00    2.1
2173 370002.000    541527.0184  -5479446.3004   3208362.1866   2   8   0.1237   0.2685   0.1323  -0.1011  -0.1578   0.0667 -13.00    2.1
2173 370003.000    541527.0193  -5479446.3092   3208362.1908   2   8   0.1204   0.2611   0.1287  -0.0983  -0.1535   0.0649 -12.00    2.2
2173 370004.000    541527.0224  -5479446.3101   3208362.1912   2   8   0.1173   0.2543   0.1254  -0.0958  -0.1495   0.0632 -11.00    2.2
2173 370005.000    541527.0249  -5479446.3219   3208362.1921   2   8   0.1144   0.2480   0.1223  -0.0934  -0.1457   0.0616 -10.00    2.3
2173 370006.000    541527.0270  -5479446.3276   3208362.1974   2   8   0.1117   0.2421   0.1194  -0.0912  -0.1422   0.0601  -9.00    2.4
2173 370007.000    541527.0270  -5479446.3324   3208362.1987   2   8   0.1092   0.2366   0.1166  -0.0891  -0.1390   0.0587  -8.00    2.5
2173 370008.000    541527.0304  -5479446.3350   3208362.2013   2   8   0.1068   0.2314   0.1141  -0.0871  -0.1359   0.0574  -7.00    2.6
2173 370009.000    541527.0329  -5479446.3411   3208362.2028   2   8   0.1046   0.2264   0.1117  -0.0853  -0.1330   0.0561  -6.00    2.6
2173 370010.000    541527.0341  -5479446.3460   3208362.2063   2   8   0.1026   0.2218   0.1094  -0.0835  -0.1302   0.0550  -5.00    2.8
2173 370011.000    541527.0342  -5479446.3493   3208362.2095   2   8   0.1006   0.2174   0.1072  -0.0818  -0.1276   0.0539  -4.00    2.9
2173 370012.000    541527.4834  -5479445.8582   3208362.0807   1   8   0.0061   0.0129   0.0064  -0.0047  -0.0076   0.0033  -3.00    3.0
2173 370013.000    541527.4853  -5479445.8645   3208362.0854   1   8   0.0055   0.0121   0.0057  -0.0045  -0.0071   0.0031  -2.00    3.1
2173 370014.000    541527.4864  -5479445.8692   3208362.0869   1   8   0.0053   0.0115   0.0059  -0.0043  -0.0068   0.0031  -1.00    3.3
2173 370015.000    541527.4867  -5479445.8737   3208362.0888   1   8   0.0052   0.0113   0.0056  -0.0042  -0.0066   0.0033   0.00    3.5
2173 370016.000    541527.4902  -5479445.8761   3208362.0896   1   8   0.0052   0.0114   0.0056  -0.0043  -0.0067   0.0028   0.00    4.7
2173 370017.000    541527.4904  -5479445.8700   3208362.0881   1   8   0.0052   0.0114   0.0056  -0.0043  -0.0067   0.0028   0.00    4.4
2173 370018.000    541527.4900  -5479445.8746   3208362.0894   1   8   0.0052   0.0114   0.0056  -0.0043  -0.0067   0.0028   0.00    4.1
2173 370019.000    541527.4885  -5479445.8811   3208362.0911   1   8   0.0052   0.0114   0.0056  -0.0043  -0.0067   0.0028   0.00    4.9
2173 370020.000    541527.4894  -5479445.8765   3208362.0888   1   8   0.0052   0.0114   0.0056  -0.0043  -0.0067   0.0028   0.00    4.8
2173 370021.000    541527.4929  -5479445.8772   3208362.0912   1   8   0.0052   0.0114   0.0056  -0.0043  -0.0067   0.0028   0.00    4.8
2173 370022.000    541527.4932  -5479445.8842   3208362.0929   1   8   0.0052   0.0114   0.0056  -0.0043  -0.0067   0.0028   0.00    4.4
2173 370023.000    541527.4925  -5479445.8766   3208362.0907   1   8   0.0052   0.0114   0.0056  -0.0043  -0.0067   0.0028   0.00    5.1
2173 370024.000    541527.4889  -5479445.8768   3208362.0898   1   8   0.0052   0.0114   0.0056  -0.0043  -0.0067   0.0028   0.00    4.5
2173 370025.000    541527.4908  -5479445.8762   3208362.0910   1   8   0.0052   0.0114   0.0056  -0.0043  -0.0067   0.0028   0.00    4.2
2173 370026.000    541527.4903  -5479445.8750   3208362.0907   1   8   0.0052   0.0114   0.0056  -0.0043  -0.0067   0.0028   0.00    5.0
2173 370027.000    541527.4922  -5479445.8825   3208362.0923   1   8   0.0052   0.0114   0.0056  -0.0043  -0.0067   0.0028   0.00    5.0
2173 370028.000    541527.4899  -5479445.8772   3208362.0915   1   8   0.0052   0.0114   0.0056  -0.0043  -0.0067   0.0028   0.00    4.1
2173 370029.000    541527.4907  -5479445.8782   3208362.0927   1   8   0.0052   0.0114   0.0056  -0.0043  -0.0067   0.0028   0.00    4.1
2173 370030.000    541527.4931  -5479445.8806   3208362.0931   1   8   0.0052   0.0114   0.0056  -0.0043  -0.0067   0.0028   0.00    5.2
2173 370031.000    541527.4896  -5479445.8815   3208362.0932   1   8   0.0052   0.0114   0.0056  -0.0043  -0.0067   0.0028   0.00    5.2
2173 370032.000    541527.4910  -5479445.8825   3208362.0926   1   8   0.0052   0.0114   0.0056  -0.0043  -0.0067   0.0028   0.00    4.7
2173 370033.000    541527.4929  -5479445.8756   3208362.0917   1   8   0.0052   0.0114   0.0056  -0.0043  -0.0067   0.0028   0.00    4.9
2173 370034.000    541527.4913  -5479445.8763   3208362.0912   1   8   0.0052   0.0114   0.0056  -0.0043  -0.0067   0.0028   0.00    5.0
2173 370035.000    541527.4920  -5479445.8755   3208362.0939   1   8   0.0052   0.0114   0.0056  -0.0043  -0.0067   0.0028   0.00    4.9
2173 370036.000    541527.4932  -5479445.8751   3208362.0946   1   8   0.0052   0.0114   0.0056  -0.0043  -0.0067   0.0028   0.00    4.8
2173 370037.000    541527.4918  -5479445.8768   3208362.0946   1   8   0.0052   0.0114   0.0056  -0.0043  -0.0067   0.0028   0.00    4.8
2173 370038.000    541527.4922  -5479445.8818   3208362.0955   1   8   0.0052   0.0114   0.0056  -0.0043  -0.0067   0.0028   0.00    5.3
2173 370039.000    541527.4905  -5479445.8802   3208362.0932   1   8   0.0052   0.0114   0.0056  -0.0043  -0.0067   0.0028   0.00    5.9
2173 370040.000    541527.4935  -5479445.8754   3208362.0932   1   8   0.0052   0.0114   0.0056  -0.0043  -0.0067   0.0028   0.00    5.0
2173 370041.000    541527.4936  -5479445.8747   3208362.0937   1   8   0.0052   0.0114   0.0056  -0.0043  -0.0067   0.0028   0.00    3.9
2173 370042.000    541527.4939  -5479445.8792   3208362.0945   1   8   0.0052   0.0114   0.0056  -0.0043  -0.0067   0.0028   0.00    4.5
2173 370043.000    541527.4946  -5479445.8784   3208362.0951   1   8   0.0052   0.0114   0.0056  -0.0043  -0.0067   0.0028   0.00    4.2
2173 370044.000    541527.4937  -5479445.8814   3208362.0956   1   8   0.0052   0.0114   0.0056  -0.0043  -0.0067   0.0028   0.00    4.0
2173 370045.000    541527.4949  -5479445.8819   3208362.0961   1   8   0.0052   0.0114   0.0056  -0.0043  -0.0067   0.0028   0.00    5.1
2173 370046.000    541527.4947  -5479445.8764   3208362.0957   1   8   0.0052   0.0114   0.0056  -0.0043  -0.0067   0.0028   0.00    4.6
2173 370047.000    541527.4962  -5479445.8824   3208362.0970   1   8   0.0052   0.0114   0.0056  -0.0043  -0.0067   0.0028   0.00    4.9
2173 370048.000    541527.4962  -5479445.8796   3208362.0961   1   8   0.0052   0.0114   0.0056  -0.0043  -0.0067   0.0028   0.00    5.1
2173 370049.000    541527.4969  -5479445.8772   3208362.0967   1   8   0.0052   0.0114   0.0056  -0.0043  -0.0067   0.0028   0.00    4.9
2173 370050.000    541527.5000  -5479445.8684   3208362.0936   1   8   0.0052   0.0114   0.0056  -0.0043  -0.0067   0.0028   0.00    4.2
2173 370051.000    541527.4982  -5479445.8782   3208362.0970   1   8   0.0052   0.0114   0.0056  -0.0043  -0.0067   0.0028   0.00    5.0
2173 370052.000    541527.4972  -5479445.8787   3208362.0964   1   8   0.0052   0.0114   0.0056  -0.0043  -0.0067   0.0028   0.00    4.6
2173 370053.000    541527.4957  -5479445.8805   3208362.0955   1   8   0.0052   0.0114   0.0056  -0.0043  -0.0067   0.0028   0.00    5.1
2173 370054.000    541527.4974  -5479445.8756   3208362.0965   1   8   0.0052   0.0114   0.0056  -0.0043  -0.0067   0.0028   0.00    5.1
2173 370055.000    541527.4978  -5479445.8774   3208362.0960   1   8   0.0052   0.0114   0.0056  -0.0043  -0.0067   0.0028   0.00    5.0
2173 370056.000    541527.4964  -5479445.8800   3208362.0960   1   8   0.0052   0.0114   0.0056  -0.0043  -0.0067   0.0028   0.00    4.1
2173 370057.000    541527.4982  -5479445.8803   3208362.0961   1   8   0.0052   0.0114   0.0056  -0.0043  -0.0067   0.0028   0.00    3.8
2173 370058.000    541527.4963  -5479445.8736   3208362.0921   1   8   0.0052   0.0114   0.0056  -0.0043  -0.0067   0.0028   0.00    4.7
2173 370059.000    541527.4942  -5479445.8702   3208362.0932   1   8   0.0052   0.0114   0.0056  -0.0043  -0.0067   0.0028   0.00    4.2
2173 370060.000    541527.4996  -5479445.8785   3208362.0966   1   8   0.0052   0.0114   0.0056  -0.0043  -0.0067   0.0028   0.00    4.7
2173 370061.000    541527.4998  -5479445.8768   3208362.0963   1   8   0.0052   0.0114   0.0056  -0.0043  -0.0067   0.0028   0.00    4.0
2173 370062.000    541527.4978  -5479445.8715   3208362.0958   1   8   0.0052   0.0114   0.0056  -0.0043  -0.0067   0.0028   0.00    4.0
2173 370063.000    541527.4987  -5479445.8781   3208362.0953   1   8   0.0052   0.0114   0.0056  -0.0043  -0.0067   0.0028   0.00    4.9
2173 370064.000    541527.4961  -5479445.8749   3208362.0964   1   8   0.0052   0.0114   0.0056  -0.0043  -0.0067   0.0028   0.00    3.5
2173 370065.000    541527.4987  -5479445.8743   3208362.0930   1   8   0.0052   0.0114   0.0056  -0.0043  -0.0067   0.0028   0.00    4.5
2173 370066.000    541527.4968  -5479445.8702   3208362.0929   1   8   0.0052   0.0114   0.0056  -0.0043  -0.0067   0.0028   0.00    3.9
2173 370067.000    541527.4978  -5479445.8725   3208362.0951   1   8   0.0052   0.0114   0.0056  -0.0043  -0.0067   0.0028   0.00    3.6
2173 370068.000    541527.4970  -5479445.8780   3208362.0953   1   8   0.0052   0.0114   0.0056  -0.0043  -0.0067   0.0028   0.00    4.2
2173 370069.000    541527.4988  -5479445.8745   3208362.0954   1   8   0.0052   0.0114   0.0056  -0.0043  -0.0067   0.0028   0.00    4.2
2173 370070.000    541527.4987  -5479445.8744   3208362.0957   1   8   0.0052   0.0114   0.0056  -0.0043  -0.0067   0.0028   0.00    4.3
2173 370071.000    541527.4989  -5479445.8712   3208362.0951   1   8   0.0052   0.0114   0.0056  -0.0043  -0.0067   0.0028   0.00    3.5
2173 370072.000    541527.4987  -5479445.8700   3208362.0934   1   8   0.0052   0.0114   0.0056  -0.0043  -0.0067   0.0028   0.00    3.4
2173 370073.000    541527.4992  -5479445.8734   3208362.0965   1   8   0.0052   0.0114   0.0056  -0.0043  -0.0067   0.0028   0.00    3.8
2173 370074.000    541527.5011  -5479445.8719   3208362.0953   1   8   0.0052   0.0114   0.0056  -0.0043  -0.0067   0.0028   0.00    3.2
2173 370075.000    541527.4994  -5479445.8666   3208362.0926   1   8   0.0052   0.0114   0.0056  -0.0043  -0.0067   0.0028   0.00    3.4
2173 370076.000    541527.5019  -5479445.8722   3208362.0960   1   8   0.0052   0.0114   0.0056  -0.0043  -0.0067   0.0028   0.00    3.3
2173 370077.000    541527.5011  -5479445.8716   3208362.0967   1   8   0.0052   0.0114   0.0056  -0.0043  -0.0067   0.0028   0.00    4.0
2173 370078.000    541527.5020  -5479445.8717   3208362.0971   1   8   0.0052   0.0114   0.0056  -0.0043  -0.0067   0.0028   0.00    4.3
2173 370079.000    541527.4990  -5479445.8693   3208362.0966   1   8   0.0052   0.0114   0.0056  -0.0043  -0.0067   0.0028   0.00    4.4
2173 370080.000    541527.5003  -5479445.8742   3208362.0969   1   8   0.0052   0.0114   0.0056  -0.0043  -0.0067   0.0028   0.00    4.1
2173 370081.000    541527.4982  -5479445.8736   3208362.0962   1   8   0.0052   0.0114   0.0056  -0.0043  -0.0067   0.0028   0.00    3.7
2173 370082.000    541527.5005  -5479445.8709   3208362.0966   1   8   0.0052   0.0114   0.0056  -0.0043  -0.0067   0.0028   0.00    4.0
2173 370083.000    541527.5005  -5479445.8749   3208362.0977   1   8   0.0052   0.0114   0.0056  -0.0043  -0.0067   0.0028   0.00    4.1
2173 370084.000    541527.5012  -5479445.8670   3208362.0955   1   8   0.0052   0.0114   0.0056  -0.0043  -0.0067   0.0028   0.00    4.5
2173 370085.000    541527.4984  -5479445.8696   3208362.0942   1   8   0.0052   0.0114   0.0056  -0.0043  -0.0067   0.0028   0.00    4.0
2173 370086.000    541527.5014  -5479445.8652   3208362.0948   1   8   0.0052   0.0114   0.0056  -0.0043  -0.0067   0.0028   0.00    3.8
2173 370087.000    541527.5012  -5479445.8634   3208362.0934   1   8   0.0052   0.0114   0.0056  -0.0043  -0.0067   0.0028   0.00    3.8
2173 370088.000    541527.5024  -5479445.8704   3208362.0965   1   8   0.0052   0.0114   0.0056  -0.0043  -0.0067   0.0028   0.00    3.7
2173 370089.000    541527.5008  -5479445.8718   3208362.0969   1   8   0.0052   0.0114   0.0056  -0.0043  -0.0067   0.0028   0.00    3.6
2173 370090.000    541527.5017  -5479445.8692   3208362.0964   1   8   0.0052   0.0114   0.0056  -0.0043  -0.0067   0.0028   0.00    3.7
2173 370091.000    541527.5024  -5479445.8695   3208362.0986   1   8   0.0052   0.0114   0.0056  -0.0043  -0.0067   0.0028   0.00    3.5
2173 370092.000    541527.5004  -5479445.8728   3208362.0975   1   8   0.0052   0.0114   0.0056  -0.0043  -0.0067   0.0028   0.00    3.1
2173 370093.000    541527.5003  -5479445.8683   3208362.0977   1   8   0.0052   0.0114   0.0056  -0.0043  -0.0067   0.0028   0.00    3.5
2173 370094.000    541527.5000  -5479445.8686   3208362.0975   1   8   0.0052   0.0114   0.0056  -0.0043  -0.0067   0.0028   0.00    3.4
2173 370095.000    541527.6575  -5479446.7329   3208363.2251   2   8   0.5167   1.1284   0.5528  -0.4253  -0.6620   0.2821   0.00    2.9
2173 370096.000    541527.5005  -5479445.8704   3208362.0960   1   8   0.0052   0.0114   0.0056  -0.0043  -0.0067   0.0028   0.00    3.0
2173 370097.000    541527.5007  -5479445.8675   3208362.0940   1   8   0.0052   0.0114   0.0056  -0.0043  -0.0067   0.0028   0.00    3.1
2173 370098.000    541527.5011  -5479445.8738   3208362.0987   1   8   0.0052   0.0114   0.0056  -0.0043  -0.0067   0.0028   0.00    3.3
2173 370099.000    541527.6973  -5479447.2848   3208363.4685   2   8   0.5167   1.1286   0.5528  -0.4255  -0.6620   0.2822   0.00    3.0
2173 370100.000    541527.5000  -5479445.8756   3208362.0969   1   8   0.0052   0.0114   0.0056  -0.0043  -0.0067   0.0028   0.00    3.3
2173 370101.000    541527.5038  -5479445.8715   3208362.0967   1   8   0.0052   0.0114   0.0056  -0.0043  -0.0067   0.0028   0.00    3.0
2173 370102.000    541527.5022  -5479445.8707   3208362.0964   1   8   0.0052   0.0114   0.0056  -0.0043  -0.0067   0.0028   0.00    3.1
2173 370103.000    541527.5036  -5479445.8740   3208362.0973   1   8   0.0052   0.0114   0.0056  -0.0043  -0.0067   0.0028   0.00    3.1
2173 370104.000    541527.5023  -5479445.8728   3208362.0964   1   8   0.0052   0.0114   0.0056  -0.0043  -0.0067   0.0028   0.00    3.0
2173 370105.000    541527.5035  -5479445.8721   3208362.0982   1   9   0.0046   0.0105   0.0053  -0.0028  -0.0060   0.0019   0.00    3.5
2173 370106.000    541527.5037  -5479445.8707   3208362.0962   1   9   0.0046   0.0105   0.0053  -0.0028  -0.0060   0.0019   0.00    3.1
2173 370107.000    541527.5032  -5479445.8758   3208362.0981   1   9   0.0046   0.0105   0.0053  -0.0028  -0.0060   0.0019   0.00    3.5
2173 370108.000    541527.5026  -5479445.8760   3208362.0981   1   9   0.0046   0.0105   0.0053  -0.0028  -0.0060   0.0019   0.00    3.6
2173 370109.000    541527.5028  -5479445.8732   3208362.0981   1   9   0.0046   0.0105   0.0053  -0.0028  -0.0060   0.0019   0.00    3.5
2173 370110.000    541527.5026  -5479445.8750   3208362.1000   1   9   0.0046   0.0105   0.0053  -0.0028  -0.0060   0.0019   0.00    3.4
2173 370111.000    541527.5017  -5479445.8769   3208362.0992   1   9   0.0046   0.0105   0.0053  -0.0028  -0.0060   0.0019   0.00    3.1
2173 370112.000    541527.6150  -5479447.6235   3208363.4624   2   9   0.4549   1.0394   0.5202  -0.2706  -0.5967   0.1847   0.00    3.0
2173 370113.000    541527.6500  -5479447.6437   3208363.5186   2   9   0.4548   1.0394   0.5202  -0.2706  -0.5967   0.1847   0.00    2.9
2173 370114.000    541527.5002  -5479445.8714   3208362.0980   1   9   0.0046   0.0105   0.0053  -0.0028  -0.0060   0.0019   0.00    3.2
2173 370115.000    541527.6624  -5479447.5902   3208363.4094   2   9   0.4548   1.0395   0.5202  -0.2705  -0.5967   0.1847   0.00    2.5
2173 370116.000    541527.6785  -5479447.5990   3208363.4174   2   9   0.4548   1.0395   0.5202  -0.2705  -0.5967   0.1847   0.00    2.7
2173 370117.000    541527.6622  -5479447.5028   3208363.3292   2   9   0.4548   1.0395   0.5202  -0.2705  -0.5967   0.1847   0.00    2.5
2173 370118.000    541527.5044  -5479445.8717   3208362.0972   1   9   0.0046   0.0105   0.0053  -0.0028  -0.0060   0.0019   0.00    3.4
2173 370119.000    541527.7148  -5479447.4680   3208363.3665   2   9   0.4547   1.0396   0.5202  -0.2705  -0.5967   0.1847   0.00    2.6
2173 370120.000    541527.7485  -5479447.4054   3208363.3413   2   9   0.4547   1.0396   0.5202  -0.2705  -0.5967   0.1847   0.00    2.8
2173 370121.000    541527.6931  -5479447.4978   3208363.2837   2   9   0.4547   1.0397   0.5201  -0.2704  -0.5967   0.1848   0.00    2.5
2173 370122.000    541527.6447  -5479447.4929   3208363.2931   2   9   0.4546   1.0397   0.5201  -0.2704  -0.5967   0.1848   0.00    2.8
2173 370123.000    541527.6925  -5479447.4387   3208363.2522   2   9   0.4546   1.0397   0.5201  -0.2704  -0.5967   0.1848   0.00    2.5
2173 370124.000    541527.6202  -5479447.4621   3208363.3109   2   9   0.4546   1.0397   0.5201  -0.2704  -0.5967   0.1848   0.00    2.6
2173 370125.000    541527.5016  -5479445.8704   3208362.0966   1   9   0.0046   0.0105   0.0053  -0.0028  -0.0060   0.0019   0.00    3.1
2173 370126.000    541527.5386  -5479447.3316   3208363.2033   2   9   0.4545   1.0398   0.5201  -0.2703  -0.5968   0.1848   0.00    2.9
2173 370127.000    541527.5403  -5479447.2747   3208363.1514   2   9   0.4545   1.0398   0.5201  -0.2703  -0.5968   0.1848   0.00    2.7
2173 370128.000    541527.5015  -5479445.8702   3208362.0968   1   9   0.0046   0.0105   0.0053  -0.0028  -0.0060   0.0019   0.00    3.3
2173 370129.000    541527.5016  -5479445.8659   3208362.0947   1   9   0.0046   0.0105   0.0053  -0.0028  -0.0060   0.0019   0.00    3.1
2173 370130.000    541527.4904  -5479447.0755   3208363.1171   2   9   0.4545   1.0399   0.5201  -0.2703  -0.5968   0.1848   0.00    3.0
2173 370131.000    541527.4339  -5479447.0232   3208363.1051   2   9   0.4544   1.0399   0.5201  -0.2702  -0.5968   0.1848   0.00    2.6
2173 370132.000    541527.5019  -5479445.8670   3208362.0959   1   9   0.0046   0.0105   0.0053  -0.0028  -0.0060   0.0019   0.00    3.2
2173 370133.000    541527.5006  -5479445.8703   3208362.0946   1   9   0.0046   0.0105   0.0053  -0.0028  -0.0060   0.0019   0.00    3.3
2173 370134.000    541527.4766  -5479447.2042   3208362.9367   2   9   0.4544   1.0400   0.5200  -0.2702  -0.5968   0.1848   0.00    2.5
2173 370135.000    541527.4469  -5479447.3331   3208363.0073   2   9   0.4543   1.0401   0.5200  -0.2702  -0.5968   0.1848   0.00    2.7
2173 370136.000    541527.3864  -5479447.2033   3208362.9163   2   9   0.4543   1.0401   0.5200  -0.2701  -0.5968   0.1849   0.00    2.7
2173 370137.000    541527.3804  -5479447.0378   3208362.8286   2   9   0.4543   1.0401   0.5200  -0.2701  -0.5968   0.1849   0.00    2.3
2173 370138.000    541527.5005  -5479445.8686   3208362.0928   1   9   0.0046   0.0105   0.0053  -0.0028  -0.0060   0.0019   0.00    3.0
2173 370139.000    541527.3824  -5479446.8044   3208362.8331   2   9   0.4543   1.0402   0.5200  -0.2701  -0.5968   0.1849   0.00    2.5
2173 370140.000    541527.3842  -5479446.6532   3208362.7973   2   9   0.4542   1.0402   0.5200  -0.2701  -0.5968   0.1849   0.00    2.4
2173 370141.000    541527.4416  -5479446.4060   3208362.6637   2   9   0.4542   1.0402   0.5200  -0.2700  -0.5968   0.1849   0.00    2.9
2173 370142.000    541527.3779  -5479446.2733   3208362.6971   2   9   0.4542   1.0403   0.5200  -0.2700  -0.5968   0.1849   0.00    2.3
2173 370143.000    541527.3662  -5479446.1348   3208362.6012   2   9   0.4542   1.0403   0.5200  -0.2700  -0.5968   0.1849   0.00    2.3
2173 370144.000    541527.3420  -5479446.0823   3208362.5527   2   9   0.4541   1.0403   0.5200  -0.2700  -0.5968   0.1849   0.00    2.4
2173 370145.000    541527.3388  -5479445.9333   3208362.4729   2   9   0.4541   1.0403   0.5200  -0.2700  -0.5968   0.1849   0.00    1.9
2173 370146.000    541527.3361  -5479445.8475   3208362.4057   2   9   0.4541   1.0404   0.5200  -0.2699  -0.5968   0.1849   0.00    2.4
2173 370147.000    541527.3702  -5479445.7699   3208362.2961   2   9   0.4541   1.0404   0.5199  -0.2699  -0.5968   0.1849   0.00    1.9
2173 370148.000    541527.4290  -5479445.7649   3208362.3127   2   9   0.4541   1.0404   0.5199  -0.2699  -0.5968   0.1849   0.00    2.3
2173 370149.000    541527.4853  -5479445.7714   3208362.3120   2   9   0.4540   1.0405   0.5199  -0.2699  -0.5968   0.1849   0.00    2.9
2173 370150.000    541527.5024  -5479445.8609   3208362.0916   1   9   0.0046   0.0105   0.0053  -0.0028  -0.0060   0.0019   0.00    3.1
2173 370151.000    541527.5046  -5479445.8614   3208362.0925   1   9   0.0046   0.0105   0.0053  -0.0028  -0.0060   0.0019   0.00    3.5
2173 370152.000    541527.4613  -5479445.5952   3208362.2102   2   9   0.4540   1.0405   0.5199  -0.2698  -0.5968   0.1850   0.00    2.7
2173 370153.000    541527.5034  -5479445.8617   3208362.0912   1   9   0.0046   0.0105   0.0053  -0.0028  -0.0060   0.0019   0.00    3.1
2173 370154.000    541527.4057  -5479445.4115   3208362.1272   2   9   0.4539   1.0406   0.5199  -0.2698  -0.5968   0.1850   0.00    2.2
2173 370155.000    541527.4105  -5479445.2871   3208362.1132   2   9   0.4539   1.0406   0.5199  -0.2697  -0.5968   0.1850   0.00    2.7
2173 370156.000    541527.4280  -5479444.9781   3208362.0241   2   9   0.4539   1.0406   0.5199  -0.2697  -0.5968   0.1850   0.00    2.2
2173 370157.000    541527.4299  -5479445.0014   3208362.0311   2   9   0.4538   1.0407   0.5199  -0.2697  -0.5968   0.1850   0.00    2.7
2173 370158.000    541527.5007  -5479445.8627   3208362.0927   1   9   0.0046   0.0105   0.0053  -0.0028  -0.0060   0.0019   0.00    3.5
2173 370159.000    541527.4154  -5479445.0557   3208361.9676   2   9   0.4538   1.0407   0.5199  -0.2697  -0.5968   0.1850   0.00    2.9
2173 370160.000    541527.3457  -5479445.0576   3208361.8690   2   9   0.4538   1.0408   0.5198  -0.2696  -0.5968   0.1850   0.00    2.7
2173 370161.000    541527.3212  -5479445.0329   3208361.8189   2   9   0.4538   1.0408   0.5198  -0.2696  -0.5968   0.1850   0.00    2.7
2173 370162.000    541527.2693  -5479445.0948   3208361.7998   2   9   0.4537   1.0408   0.5198  -0.2696  -0.5968   0.1850   0.00    2.2
2173 370163.000    541527.2351  -5479445.0017   3208361.8299   2   9   0.4537   1.0408   0.5198  -0.2696  -0.5968   0.1850   0.00    2.5
2173 370164.000    541527.1784  -5479445.3542   3208361.9545   2   9   0.4537   1.0409   0.5198  -0.2696  -0.5968   0.1850   0.00    2.9
2173 370165.000    541527.5014  -5479445.8613   3208362.0918   1   9   0.0046   0.0105   0.0053  -0.0028  -0.0060   0.0019   0.00    3.8
2173 370166.000    541527.1543  -5479445.3781   3208361.9757   2   9   0.4536   1.0409   0.5198  -0.2695  -0.5969   0.1850   0.00    3.0
2173 370167.000    541527.2003  -5479445.2388   3208361.9537   2   9   0.4536   1.0410   0.5198  -0.2695  -0.5969   0.1851   0.00    2.4
2173 370168.000    541527.1918  -5479445.0300   3208361.8358   2   9   0.4536   1.0410   0.5198  -0.2695  -0.5969   0.1851   0.00    2.9
2173 370169.000    541527.1728  -5479445.0489   3208361.7509   2   9   0.4536   1.0410   0.5198  -0.2695  -0.5969   0.1851   0.00    2.9
2173 370170.000    541527.2071  -5479444.9570   3208361.7134   2   9   0.4536   1.0410   0.5198  -0.2694  -0.5969   0.1851   0.00    2.7
2173 370171.000    541527.5009  -5479445.8534   3208362.0884   1   9   0.0046   0.0105   0.0053  -0.0028  -0.0060   0.0019   0.00    3.4
2173 370172.000    541527.5001  -5479445.8583   3208362.0888   1   9   0.0046   0.0105   0.0053  -0.0028  -0.0060   0.0019   0.00    3.1
2173 370173.000    541527.5006  -5479445.8598   3208362.0894   1   9   0.0046   0.0105   0.0053  -0.0028  -0.0060   0.0019   0.00    3.7
2173 370174.000    541527.5003  -5479445.8597   3208362.0888   1   9   0.0046   0.0105   0.0053  -0.0028  -0.0060   0.0019   0.00    3.3
2173 370175.000    541527.2577  -5479445.4044   3208361.8701   2   9   0.4534   1.0412   0.5197  -0.2693  -0.5969   0.1851   0.00    2.7
2173 370176.000    541527.4995  -5479445.8531   3208362.0865   1   9   0.0046   0.0105   0.0053  -0.0028  -0.0060   0.0019   0.00    3.3
2173 370177.000    541527.4178  -5479445.5957   3208361.9672   2   9   0.4534   1.0412   0.5197  -0.2693  -0.5969   0.1851   0.00    2.4
2173 370178.000    541527.3589  -5479445.5982   3208361.9734   2   9   0.4534   1.0413   0.5197  -0.2693  -0.5969   0.1851   0.00    2.4
2173 370179.000    541527.3982  -5479445.4007   3208361.9009   2   9   0.4534   1.0413   0.5197  -0.2692  -0.5969   0.1851   0.00    2.3
2173 370180.000    541527.5019  -5479445.5474   3208361.9329   2   9   0.4533   1.0413   0.5197  -0.2692  -0.5969   0.1851   0.00    2.6
2173 370181.000    541527.4784  -5479445.6373   3208361.9467   2   9   0.4533   1.0413   0.5197  -0.2692  -0.5969   0.1851   0.00    2.6
2173 370182.000    541527.5133  -5479445.5836   3208361.9264   2   9   0.4533   1.0414   0.5197  -0.2692  -0.5969   0.1851   0.00    2.6
2173 370183.000    541527.4426  -5479445.4254   3208361.8721   2   9   0.4533   1.0414   0.5197  -0.2691  -0.5969   0.1852   0.00    2.7
2173 370184.000    541527.4628  -5479445.5474   3208361.8138   2   9   0.4532   1.0414   0.5197  -0.2691  -0.5969   0.1852   0.00    2.7
2173 370185.000    541527.4227  -5479445.6911   3208361.7499   2   9   0.4532   1.0414   0.5197  -0.2691  -0.5969   0.1852   0.00    1.5
2173 370186.000    541527.3931  -5479445.9477   3208361.8829   2   9   0.4532   1.0415   0.5197  -0.2691  -0.5969   0.1852   0.00    2.6
2173 370187.000    541527.3790  -5479445.9869   3208361.9214   2   9   0.4532   1.0415   0.5197  -0.2691  -0.5969   0.1852   0.00    2.3
2173 370188.000    541527.5005  -5479445.8563   3208362.0889   1   9   0.0046   0.0105   0.0053  -0.0028  -0.0060   0.0019   0.00    3.4
2173 370189.000    541527.5363  -5479445.7376   3208361.9845   2   9   0.4531   1.0415   0.5196  -0.2690  -0.5969   0.1852   0.00    2.8
2173 370190.000    541527.5298  -5479445.8650   3208361.9557   2   9   0.4531   1.0416   0.5196  -0.2690  -0.5969   0.1852   0.00    2.7
2173 370191.000    541527.5502  -5479445.8414   3208361.9549   2   9   0.4531   1.0416   0.5196  -0.2690  -0.5969   0.1852   0.00    2.3
2173 370192.000    541527.5751  -5479445.9310   3208361.9718   2   9   0.4531   1.0416   0.5196  -0.2689  -0.5969   0.1852   0.00    2.2
2173 370193.000    541527.6007  -5479445.9019   3208361.8954   2   9   0.4530   1.0417   0.5196  -0.2689  -0.5969   0.1852   0.00    2.6
2173 370194.000    541527.5003  -5479445.8492   3208362.0845   1   9   0.0046   0.0105   0.0053  -0.0028  -0.0060   0.0019   0.00    3.4
2173 370195.000    541527.5197  -5479446.3611   3208362.0039   2   9   0.4530   1.0417   0.5196  -0.2689  -0.5969   0.1852   0.00    2.6
2173 370196.000    541527.5007  -5479446.3678   3208362.0178   2   9   0.4530   1.0417   0.5196  -0.2689  -0.5969   0.1852   0.00    2.2
2173 370197.000    541527.4278  -5479446.3151   3208362.0298   2   9   0.4530   1.0418   0.5196  -0.2688  -0.5969   0.1852   0.00    2.0
2173 370198.000    541527.3226  -5479446.6328   3208362.1186   2   9   0.4529   1.0418   0.5196  -0.2688  -0.5969   0.1852   0.00    2.4
2173 370199.000    541527.2984  -5479446.7742   3208362.1871   2   9   0.4529   1.0418   0.5196  -0.2688  -0.5969   0.1852   0.00    2.3
2173 370200.000    541527.4993  -5479445.8588   3208362.0864   1   9   0.0046   0.0105   0.0052  -0.0028  -0.0060   0.0019   0.00    3.2
2173 370201.000    541527.2038  -5479446.8711   3208362.1790   2   9   0.4529   1.0419   0.5196  -0.2687  -0.5969   0.1853   0.00    2.4
2173 370202.000    541527.2787  -5479447.1494   3208362.2900   2   9   0.4528   1.0419   0.5196  -0.2687  -0.5969   0.1853   0.00    2.1
2173 370203.000    541527.2767  -5479447.1273   3208362.2643   2   9   0.4528   1.0419   0.5196  -0.2687  -0.5969   0.1853   0.00    2.3
2173 370204.000    541527.2726  -5479447.2587   3208362.2988   2   9   0.4528   1.0420   0.5195  -0.2687  -0.5969   0.1853   0.00    2.7
2173 370205.000    541527.2540  -5479447.2286   3208362.3661   2   9   0.4528   1.0420   0.5195  -0.2686  -0.5969   0.1853   0.00    2.3
2173 370206.000    541527.2516  -5479447.0911   3208362.3312   2   9   0.4527   1.0420   0.5195  -0.2686  -0.5969   0.1853   0.00    2.6
2173 370207.000    541527.3395  -5479447.2022   3208362.3354   2   9   0.4527   1.0420   0.5195  -0.2686  -0.5969   0.1853   0.00    1.9
2173 370208.000    541527.2490  -5479447.2675   3208362.2799   2   9   0.4527   1.0421   0.5195  -0.2686  -0.5970   0.1853   0.00    1.6
2173 370209.000    541527.2613  -5479447.1548   3208362.1995   2   9   0.4527   1.0421   0.5195  -0.2686  -0.5970   0.1853   0.00    2.2
2173 370210.000    541527.2315  -5479447.0982   3208362.1561   2   9   0.4527   1.0421   0.5195  -0.2685  -0.5970   0.1853   0.00    1.8
2173 370211.000    541527.2487  -5479447.2780   3208362.2526   2   9   0.4526   1.0421   0.5195  -0.2685  -0.5970   0.1853   0.00    2.9
2173 370212.000    541527.2961  -5479447.2554   3208362.2620   2   9   0.4526   1.0422   0.5195  -0.2685  -0.5970   0.1853   0.00    2.8
2173 370213.000    541527.5002  -5479445.8586   3208362.0881   1   9   0.0046   0.0105   0.0052  -0.0028  -0.0060   0.0019   0.00    4.0
2173 370214.000    541527.4542  -5479447.7609   3208362.3539   2   9   0.4526   1.0422   0.5195  -0.2684  -0.5970   0.1853   0.00    1.7
2173 370215.000    541527.4710  -5479447.7377   3208362.2983   2   9   0.4525   1.0422   0.5195  -0.2684  -0.5970   0.1853   0.00    1.4
2173 370216.000    541527.5412  -5479447.6222   3208362.2891   2   9   0.4525   1.0423   0.5195  -0.2684  -0.5970   0.1853   0.00    1.7
2173 370217.000    541527.5187  -5479447.5589   3208362.2010   2   9   0.4525   1.0423   0.5195  -0.2684  -0.5970   0.1854   0.00    1.8
2173 370218.000    541527.4986  -5479447.6199   3208362.2374   2   9   0.4525   1.0423   0.5195  -0.2683  -0.5970   0.1854   0.00    2.5
2173 370219.000    541527.4993  -5479447.5999   3208362.1897   2   9   0.4525   1.0423   0.5195  -0.2683  -0.5970   0.1854   0.00    2.1
2173 370220.000    541527.3642  -5479447.3458   3208362.1238   2   9   0.4524   1.0424   0.5194  -0.2683  -0.5970   0.1854   0.00    1.2
2173 370221.000    541527.4528  -5479447.2240   3208362.1058   2   9   0.4524   1.0424   0.5194  -0.2683  -0.5970   0.1854   0.00    1.6
2173 370222.000    541527.4694  -5479447.3118   3208362.1606   2   9   0.4524   1.0424   0.5194  -0.2683  -0.5970   0.1854   0.00    2.3
2173 370223.000    541527.5324  -5479447.5670   3208362.3544   2   9   0.4524   1.0425   0.5194  -0.2682  -0.5970   0.1854   0.00    1.2
2173 370224.000    541527.5767  -5479447.6248   3208362.5197   2   9   0.4523   1.0425   0.5194  -0.2682  -0.5970   0.1854   0.00    1.6
2173 370225.000    541527.5496  -5479447.5368   3208362.5825   2   9   0.4523   1.0425   0.5194  -0.2682  -0.5970   0.1854   0.00    1.4
2173 370226.000    541527.6225  -5479447.5816   3208362.6861   2   9   0.4523   1.0425   0.5194  -0.2682  -0.5970   0.1854   0.00    1.1
2173 370227.000    541527.6541  -5479447.3481   3208362.6565   2   9   0.4523   1.0426   0.5194  -0.2681  -0.5970   0.1854   0.00    1.1
2173 370228.000    541527.7823  -5479447.1431   3208362.5944   2   9   0.4523   1.0426   0.5194  -0.2681  -0.5970   0.1854   0.00    1.3
2173 370229.000    541527.8217  -5479447.1595   3208362.6092   2   9   0.4522   1.0426   0.5194  -0.2681  -0.5970   0.1854   0.00    1.9
2173 370230.000    541527.8716  -5479447.1505   3208362.7176   2   9   0.4522   1.0426   0.5194  -0.2681  -0.5970   0.1854   0.00    1.6
2173 370231.000    541527.8914  -5479447.3798   3208362.8213   2   9   0.4522   1.0427   0.5194  -0.2680  -0.5970   0.1854   0.00    1.7
2173 370232.000    541527.8892  -5479447.3185   3208362.8787   2   9   0.4522   1.0427   0.5194  -0.2680  -0.5970   0.1854   0.00    2.6
2173 370233.000    541527.8455  -5479447.3390   3208362.8944   2   9   0.4521   1.0427   0.5194  -0.2680  -0.5970   0.1854   0.00    2.2
2173 370234.000    541527.8312  -5479447.2619   3208362.8913   2   9   0.4521   1.0427   0.5194  -0.2680  -0.5970   0.1854   0.00    2.7
2173 370235.000    541527.8423  -5479447.1545   3208362.9351   2   9   0.4521   1.0428   0.5194  -0.2679  -0.5970   0.1855   0.00    2.9
2173 370236.000    541527.8054  -5479446.9629   3208362.8791   2   9   0.4521   1.0428   0.5194  -0.2679  -0.5970   0.1855   0.00    2.7
2173 370237.000    541527.5001  -5479445.8662   3208362.0907   1   9   0.0046   0.0105   0.0052  -0.0028  -0.0060   0.0019   0.00    3.8
2173 370238.000    541527.7855  -5479446.6705   3208362.7751   2   9   0.4520   1.0428   0.5193  -0.2679  -0.5970   0.1855   0.00    2.9
2173 370239.000    541527.4993  -5479445.8694   3208362.0908   1   9   0.0046   0.0105   0.0052  -0.0028  -0.0060   0.0019   0.00    3.3
2173 370240.000    541527.4999  -5479445.8670   3208362.0894   1   9   0.0046   0.0105   0.0052  -0.0028  -0.0060   0.0019   0.00    3.7
2173 370241.000    541527.4994  -5479445.8663   3208362.0899   1   9   0.0046   0.0105   0.0052  -0.0027  -0.0060   0.0019   0.00    3.4
2173 370242.000    541527.4994  -5479445.8705   3208362.0898   1   9   0.0046   0.0105   0.0052  -0.0027  -0.0060   0.0019   0.00    3.2
2173 370243.000    541527.7998  -5479446.5432   3208362.8357   2   9   0.4519   1.0430   0.5193  -0.2677  -0.5970   0.1855   0.00    2.1
2173 370244.000    541527.7156  -5479446.5155   3208362.8234   2   9   0.4519   1.0430   0.5193  -0.2677  -0.5970   0.1855   0.00    1.6
2173 370245.000    541527.7746  -5479446.3458   3208362.7038   2   9   0.4519   1.0430   0.5193  -0.2677  -0.5970   0.1855   0.00    1.4
2173 370246.000    541527.8425  -5479446.2775   3208362.6924   2   9   0.4519   1.0430   0.5193  -0.2677  -0.5970   0.1855   0.00    1.4
2173 370247.000    541527.9141  -5479446.3148   3208362.7302   2   9   0.4518   1.0431   0.5193  -0.2676  -0.5970   0.1855   0.00    1.6
2173 370248.000    541527.9552  -5479446.2456   3208362.7445   2   9   0.4518   1.0431   0.5193  -0.2676  -0.5970   0.1855   0.00    1.0
2173 370249.000    541528.0116  -5479446.2111   3208362.7315   2   9   0.4518   1.0431   0.5193  -0.2676  -0.5970   0.1855   0.00    1.7
2173 370250.000    541527.9615  -5479446.2607   3208362.8439   2   9   0.4518   1.0431   0.5193  -0.2676  -0.5970   0.1855   0.00    2.6
2173 370251.000    541527.8572  -5479446.4006   3208362.8888   2   9   0.4517   1.0432   0.5193  -0.2675  -0.5970   0.1855   0.00    2.4
2173 370252.000    541527.7829  -5479446.4667   3208362.9546   2   9   0.4517   1.0432   0.5193  -0.2675  -0.5970   0.1855   0.00    2.7
2173 370253.000    541527.5003  -5479445.8658   3208362.0863   1   9   0.0046   0.0105   0.0052  -0.0027  -0.0060   0.0019   0.00    3.0
2173 370254.000    541527.9292  -5479445.8609   3208362.0713   2   9   0.4512   1.0430   0.5178  -0.2684  -0.5963   0.1878   0.00    2.5
2173 370255.000    541527.9280  -5479445.8073   3208362.0790   2   9   0.4510   1.0429   0.5172  -0.2687  -0.5960   0.1886   0.00    2.9
2173 370256.000    541527.9623  -5479445.5572   3208362.0003   2   9   0.4509   1.0429   0.5169  -0.2688  -0.5959   0.1890   0.00    2.3
2173 370257.000    541527.9945  -5479445.5949   3208362.2090   2   9   0.4508   1.0429   0.5168  -0.2689  -0.5958   0.1893   0.00    2.6
2173 370258.000    541527.9628  -5479445.7864   3208362.5191   2   9   0.4507   1.0429   0.5167  -0.2690  -0.5957   0.1895   0.00    2.4
2173 370259.000    541527.5018  -5479445.8655   3208362.0863   1   9   0.0046   0.0105   0.0052  -0.0027  -0.0060   0.0019   0.00    3.3
2173 370260.000    541527.8658  -5479445.6639   3208362.5038   2   9   0.4506   1.0429   0.5165  -0.2690  -0.5957   0.1897   0.00    2.5
2173 370261.000    541527.8682  -5479445.8755   3208362.5727   2   9   0.4506   1.0430   0.5165  -0.2690  -0.5957   0.1897   0.00    2.6
2173 370262.000    541527.8402  -5479445.9867   3208362.6125   2   9   0.4505   1.0430   0.5164  -0.2690  -0.5956   0.1898   0.00    2.1
2173 370263.000    541527.4998  -5479445.8627   3208362.0854   1   9   0.0046   0.0106   0.0052  -0.0027  -0.0060   0.0019   0.00    3.1
2173 370264.000    541527.8526  -5479445.7998   3208362.3488   2   9   0.4505   1.0430   0.5164  -0.2690  -0.5956   0.1899   0.00    2.9
2173 370265.000    541527.7171  -5479445.9518   3208362.5209   2   9   0.4505   1.0430   0.5163  -0.2690  -0.5956   0.1899   0.00    2.4
2173 370266.000    541527.5016  -5479445.8619   3208362.0842   1   9   0.0046   0.0106   0.0052  -0.0027  -0.0060   0.0019   0.00    3.2
2173 370267.000    541527.7666  -5479445.6840   3208362.0601   2   9   0.4504   1.0431   0.5163  -0.2689  -0.5956   0.1900   0.00    2.2
2173 370268.000    541527.7782  -5479445.5539   3208361.9820   2   9   0.4504   1.0431   0.5163  -0.2689  -0.5956   0.1900   0.00    2.7
2173 370269.000    541527.5011  -5479445.8577   3208362.0845   1   9   0.0046   0.0106   0.0052  -0.0027  -0.0060   0.0019   0.00    3.3
2173 370270.000    541527.7484  -5479445.4649   3208362.0042   2   9   0.4503   1.0432   0.5162  -0.2689  -0.5956   0.1901   0.00    2.6
2173 370271.000    541527.7587  -5479445.4271   3208362.0592   2   9   0.4503   1.0432   0.5162  -0.2688  -0.5956   0.1901   0.00    2.5
2173 370272.000    541527.7152  -5479445.4626   3208362.0802   2   9   0.4503   1.0432   0.5162  -0.2688  -0.5956   0.1901   0.00    2.0
2173 370273.000    541527.6204  -5479445.6360   3208362.1740   2   9   0.4502   1.0432   0.5162  -0.2688  -0.5956   0.1901   0.00    2.8
2173 370274.000    541527.5007  -5479445.8594   3208362.0842   1   9   0.0046   0.0106   0.0052  -0.0027  -0.0060   0.0019   0.00    3.5
2173 370275.000    541527.6121  -5479445.7441   3208362.0975   2   9   0.4502   1.0433   0.5162  -0.2687  -0.5956   0.1901   0.00    2.5
2173 370276.000    541527.4991  -5479445.8630   3208362.0878   1   8   0.0046   0.0107   0.0055  -0.0026  -0.0062   0.0017   0.00    3.5
2173 370277.000    541527.5018  -5479445.8606   3208362.0847   1   9   0.0046   0.0106   0.0052  -0.0027  -0.0060   0.0019   0.00    3.1
2173 370278.000    541527.5603  -5479445.7366   3208362.3458   2   9   0.4501   1.0434   0.5162  -0.2687  -0.5956   0.1902   0.00    2.9
2173 370279.000    541527.6261  -5479445.6129   3208362.2332   2   8   0.4527   1.0530   0.5392  -0.2558  -0.6139   0.1694   0.00    2.8
2173 370280.000    541527.5001  -5479445.8658   3208362.0861   1   8   0.0046   0.0107   0.0055  -0.0026  -0.0062   0.0017   0.00    3.0
2173 370281.000    541527.6837  -5479445.2559   3208362.0612   2   8   0.4526   1.0531   0.5392  -0.2557  -0.6139   0.1694   0.00    2.5
2173 370282.000    541527.7893  -5479445.1962   3208361.9580   2   8   0.4526   1.0531   0.5392  -0.2557  -0.6139   0.1694   0.00    2.8
2173 370283.000    541527.8187  -5479444.9333   3208361.7773   2   8   0.4526   1.0531   0.5392  -0.2557  -0.6139   0.1694   0.00    2.4
2173 370284.000    541527.7557  -5479444.8910   3208361.7549   2   8   0.4526   1.0531   0.5392  -0.2556  -0.6139   0.1694   0.00    2.4
2173 370285.000    541527.7718  -5479444.5127   3208361.4920   2   8   0.4526   1.0531   0.5392  -0.2556  -0.6139   0.1694   0.00    2.0
2173 370286.000    541527.7859  -5479444.3367   3208361.3293   2   8   0.4525   1.0531   0.5392  -0.2556  -0.6139   0.1694   0.00    2.5
2173 370287.000    541527.6971  -5479444.3882   3208361.4379   2   8   0.4525   1.0532   0.5392  -0.2556  -0.6139   0.1694   0.00    2.5
2173 370288.000    541527.6544  -5479444.0424   3208361.4364   2   8   0.4525   1.0532   0.5392  -0.2555  -0.6139   0.1694   0.00    2.3
2173 370289.000    541527.6508  -5479444.3823   3208361.6090   2   8   0.4525   1.0532   0.5392  -0.2555  -0.6139   0.1694   0.00    2.4
2173 370290.000    541527.6877  -5479444.1796   3208361.4638   2   8   0.4525   1.0532   0.5392  -0.2555  -0.6139   0.1694   0.00    2.2
2173 370291.000    541527.7098  -5479444.0514   3208361.2994   2   8   0.4524   1.0532   0.5391  -0.2554  -0.6139   0.1694   0.00    1.9
2173 370292.000    541527.7370  -5479443.9434   3208361.2472   2   8   0.4524   1.0533   0.5391  -0.2554  -0.6139   0.1694   0.00    2.2
2173 370293.000    541527.7169  -5479444.0605   3208361.3452   2   8   0.4524   1.0533   0.5391  -0.2554  -0.6139   0.1694   0.00    1.6
2173 370294.000    541527.7161  -5479444.0026   3208361.1929   2   8   0.4524   1.0533   0.5391  -0.2554  -0.6139   0.1694   0.00    1.6
2173 370295.000    541527.6442  -5479444.0966   3208361.2183   2   8   0.4523   1.0533   0.5391  -0.2553  -0.6139   0.1694   0.00    1.9
2173 370296.000    541527.7807  -5479444.2803   3208361.3656   2   8   0.4523   1.0533   0.5391  -0.2553  -0.6138   0.1694   0.00    2.2
2173 370297.000    541527.8025  -5479444.2836   3208361.2913   2   8   0.4523   1.0534   0.5391  -0.2553  -0.6138   0.1694   0.00    2.0
2173 370298.000    541527.7983  -5479444.3684   3208361.2633   2   8   0.4523   1.0534   0.5391  -0.2552  -0.6138   0.1694   0.00    1.7
2173 370299.000    541527.8748  -5479444.0886   3208361.2485   2   8   0.4523   1.0534   0.5391  -0.2552  -0.6138   0.1694   0.00    1.9
2173 370300.000    541527.7789  -5479444.2507   3208361.3956   2   8   0.4522   1.0534   0.5391  -0.2552  -0.6138   0.1694   0.00    1.8
2173 370301.000    541527.8615  -5479444.2207   3208361.4536   2   8   0.4522   1.0534   0.5391  -0.2551  -0.6138   0.1694   0.00    2.1
2173 370302.000    541527.8383  -5479444.2625   3208361.4389   2   8   0.4522   1.0534   0.5391  -0.2551  -0.6138   0.1694   0.00    1.9
2173 370303.000    541527.7864  -5479444.3751   3208361.4721   2   8   0.4522   1.0535   0.5391  -0.2551  -0.6138   0.1694   0.00    2.1
2173 370304.000    541527.8033  -5479444.4074   3208361.4894   2   8   0.4522   1.0535   0.5391  -0.2551  -0.6138   0.1694   0.00    2.0
2173 370305.000    541527.8040  -5479444.4964   3208361.4745   2   8   0.4521   1.0535   0.5391  -0.2550  -0.6138   0.1694   0.00    1.8
2173 370306.000    541527.8415  -5479444.5050   3208361.3398   2   8   0.4521   1.0535   0.5391  -0.2550  -0.6138   0.1694   0.00    2.0
2173 370307.000    541527.9099  -5479444.3872   3208361.2137   2   8   0.4521   1.0535   0.5391  -0.2550  -0.6138   0.1694   0.00    1.7
2173 370308.000    541528.0043  -5479444.4336   3208361.1530   2   8   0.4521   1.0536   0.5391  -0.2549  -0.6138   0.1694   0.00    1.6
2173 370309.000    541528.0216  -5479444.5927   3208361.3524   2   8   0.4521   1.0536   0.5391  -0.2549  -0.6138   0.1694   0.00    1.7
2173 370310.000    541528.0611  -5479444.6250   3208361.3815   2   8   0.4520   1.0536   0.5391  -0.2549  -0.6138   0.1694   0.00    1.9
2173 370311.000    541527.9617  -5479445.0215   3208361.5553   2   8   0.4520   1.0536   0.5391  -0.2548  -0.6138   0.1694   0.00    2.2
2173 370312.000    541527.9307  -5479445.0079   3208361.5071   2   8   0.4520   1.0536   0.5391  -0.2548  -0.6138   0.1694   0.00    1.7
2173 370313.000    541527.9994  -5479444.9027   3208361.2538   2   8   0.4520   1.0536   0.5391  -0.2548  -0.6138   0.1694   0.00    2.1
2173 370314.000    541528.0331  -5479444.8582   3208361.2307   2   8   0.4520   1.0537   0.5391  -0.2548  -0.6138   0.1694   0.00    2.1
2173 370315.000    541527.9729  -5479445.0173   3208361.2216   2   8   0.4519   1.0537   0.5391  -0.2547  -0.6138   0.1694   0.00    1.8
2173 370316.000    541527.9678  -5479445.0999   3208361.1703   2   8   0.4519   1.0537   0.5390  -0.2547  -0.6138   0.1694   0.00    1.7
2173 370317.000    541527.9648  -5479445.0924   3208361.2234   2   8   0.4519   1.0537   0.5390  -0.2547  -0.6138   0.1693   0.00    1.6
2173 370318.000    541527.8558  -5479445.0834   3208361.1302   2   8   0.4519   1.0537   0.5390  -0.2546  -0.6138   0.1693   0.00    1.6
2173 370319.000    541527.8139  -5479445.1840   3208361.0646   2   8   0.4519   1.0538   0.5390  -0.2546  -0.6138   0.1693   0.00    2.0
2173 370320.000    541527.8596  -5479445.5389   3208361.2205   2   8   0.4518   1.0538   0.5390  -0.2546  -0.6138   0.1693   0.00    1.9
2173 370321.000    541527.8556  -5479445.6515   3208361.2157   2   8   0.4518   1.0538   0.5390  -0.2545  -0.6138   0.1693   0.00    2.0
2173 370322.000    541527.8784  -5479445.5957   3208361.0708   2   8   0.4518   1.0538   0.5390  -0.2545  -0.6138   0.1693   0.00    1.8
2173 370323.000    541527.8230  -5479445.7273   3208361.0363   2   8   0.4518   1.0538   0.5390  -0.2545  -0.6138   0.1693   0.00    1.6
2173 370324.000    541527.8429  -5479445.7557   3208361.1160   2   8   0.4518   1.0538   0.5390  -0.2544  -0.6138   0.1693   0.00    2.0
2173 370325.000    541527.9508  -5479445.8566   3208361.1645   2   8   0.4517   1.0539   0.5390  -0.2544  -0.6138   0.1693   0.00    1.9
2173 370326.000    541528.0032  -5479446.0697   3208361.2647   2   8   0.4517   1.0539   0.5390  -0.2544  -0.6138   0.1693   0.00    1.9
2173 370327.000    541527.9707  -5479446.2170   3208361.2515   2   8   0.4517   1.0539   0.5390  -0.2543  -0.6138   0.1693   0.00    1.9
2173 370328.000    541527.8791  -5479446.4115   3208361.2574   2   8   0.4517   1.0539   0.5390  -0.2543  -0.6138   0.1693   0.00    1.7
2173 370329.000    541527.7563  -5479446.4313   3208361.4002   2   8   0.4517   1.0539   0.5390  -0.2543  -0.6138   0.1693   0.00    1.9
2173 370330.000    541527.7013  -5479446.5782   3208361.4657   2   8   0.4516   1.0539   0.5390  -0.2543  -0.6138   0.1693   0.00    2.4
2173 370331.000    541527.7143  -5479446.5497   3208361.5216   2   8   0.4516   1.0540   0.5390  -0.2542  -0.6137   0.1693   0.00    1.9
2173 370332.000    541527.7542  -5479446.5142   3208361.5987   2   8   0.4516   1.0540   0.5390  -0.2542  -0.6137   0.1693   0.00    2.2
2173 370333.000    541527.8816  -5479446.5577   3208361.4703   2   8   0.4516   1.0540   0.5390  -0.2542  -0.6137   0.1693   0.00    2.0
2173 370334.000    541527.8124  -5479446.5741   3208361.4834   2   8   0.4516   1.0540   0.5390  -0.2541  -0.6137   0.1693   0.00    2.0
2173 370335.000    541527.9561  -5479446.5654   3208361.4297   2   8   0.4515   1.0540   0.5390  -0.2541  -0.6137   0.1693   0.00    1.9
2173 370336.000    541528.0984  -5479446.4473   3208361.4462   2   8   0.4515   1.0541   0.5390  -0.2541  -0.6137   0.1693   0.00    1.5
2173 370337.000    541528.1140  -5479446.4568   3208361.2880   2   8   0.4515   1.0541   0.5390  -0.2540  -0.6137   0.1693   0.00    1.9
2173 370338.000    541528.1196  -5479446.2390   3208361.2042   2   8   0.4515   1.0541   0.5390  -0.2540  -0.6137   0.1693   0.00    1.9
2173 370339.000    541528.1277  -5479446.1151   3208361.0074   2   8   0.4515   1.0541   0.5390  -0.2540  -0.6137   0.1693   0.00    2.0
2173 370340.000    541528.0497  -5479446.2465   3208361.0473   2   8   0.4514   1.0541   0.5390  -0.2539  -0.6137   0.1693   0.00    1.8
2173 370341.000    541527.9852  -5479446.2351   3208361.0538   2   8   0.4514   1.0541   0.5390  -0.2539  -0.6137   0.1693   0.00    1.9
2173 370342.000    541527.8949  -5479446.4728   3208361.2292   2   8   0.4514   1.0542   0.5390  -0.2539  -0.6137   0.1693   0.00    2.2
2173 370343.000    541527.9466  -5479446.3705   3208361.2846   2   8   0.4514   1.0542   0.5390  -0.2538  -0.6137   0.1693   0.00    2.0
2173 370344.000    541527.8911  -5479446.5211   3208361.3309   2   8   0.4514   1.0542   0.5390  -0.2538  -0.6137   0.1693   0.00    2.0
2173 370345.000    541527.9185  -5479446.8385   3208361.4194   2   8   0.4513   1.0542   0.5390  -0.2538  -0.6137   0.1693   0.00    2.0
2173 370346.000    541527.8960  -5479446.9862   3208361.4009   2   8   0.4513   1.0542   0.5390  -0.2537  -0.6137   0.1692   0.00    2.4
2173 370347.000    541528.0458  -5479446.7601   3208361.3341   2   8   0.4513   1.0542   0.5390  -0.2537  -0.6137   0.1692   0.00    2.1
2173 370348.000    541527.9705  -5479446.7345   3208361.2923   2   8   0.4513   1.0543   0.5390  -0.2537  -0.6137   0.1692   0.00    2.2
2173 370349.000    541528.0062  -5479446.6587   3208361.2692   2   8   0.4513   1.0543   0.5390  -0.2536  -0.6137   0.1692   0.00    2.1
2173 370350.000    541527.9812  -5479446.7026   3208361.2212   2   8   0.4512   1.0543   0.5390  -0.2536  -0.6137   0.1692   0.00    2.2
2173 370351.000    541527.9315  -5479446.6307   3208361.2428   2   8   0.4512   1.0543   0.5390  -0.2536  -0.6137   0.1692   0.00    2.1
2173 370352.000    541527.8403  -5479446.7478   3208361.2189   2   8   0.4512   1.0543   0.5390  -0.2535  -0.6137   0.1692   0.00    2.0
2173 370353.000    541527.7684  -5479446.5685   3208361.1063   2   8   0.4512   1.0543   0.5390  -0.2535  -0.6137   0.1692   0.00    2.3
2173 370354.000    541527.7652  -5479446.8185   3208361.2166   2   8   0.4512   1.0544   0.5390  -0.2535  -0.6137   0.1692   0.00    2.0
2173 370355.000    541527.7375  -5479446.5909   3208361.1780   2   8   0.4511   1.0544   0.5390  -0.2534  -0.6137   0.1692   0.00    2.1
2173 370356.000    541527.6448  -5479446.6533   3208361.2854   2   8   0.4511   1.0544   0.5390  -0.2534  -0.6137   0.1692   0.00    2.1
2173 370357.000    541527.6980  -5479446.6396   3208361.2631   2   8   0.4511   1.0544   0.5390  -0.2534  -0.6137   0.1692   0.00    2.4
2173 370358.000    541527.6789  -5479446.5152   3208361.3435   2   8   0.4511   1.0544   0.5390  -0.2533  -0.6137   0.1692   0.00    2.3
2173 370359.000    541527.5754  -5479446.6286   3208361.3872   2   8   0.4511   1.0544   0.5390  -0.2533  -0.6137   0.1692   0.00    1.9
2173 370360.000    541527.6118  -5479446.3260   3208361.4841   2   8   0.4510   1.0545   0.5389  -0.2533  -0.6137   0.1692   0.00    2.3
2173 370361.000    541527.5549  -5479446.4707   3208361.5279   2   8   0.4510   1.0545   0.5389  -0.2533  -0.6137   0.1692   0.00    2.2
2173 370362.000    541527.4633  -5479446.3653   3208361.4934   2   8   0.4510   1.0545   0.5389  -0.2532  -0.6137   0.1692   0.00    2.2
2173 370363.000    541527.4781  -5479446.3602   3208361.6012   2   8   0.4510   1.0545   0.5389  -0.2532  -0.6137   0.1692   0.00    1.9
2173 370364.000    541527.4788  -5479446.1226   3208361.4580   2   8   0.4510   1.0545   0.5389  -0.2532  -0.6137   0.1692   0.00    2.6
2173 370365.000    541527.5128  -5479445.7260   3208361.1615   2   8   0.4509   1.0546   0.5389  -0.2531  -0.6137   0.1692   0.00    2.0
2173 370366.000    541527.4772  -5479445.5042   3208360.9973   2   8   0.4509   1.0546   0.5389  -0.2531  -0.6136   0.1692   0.00    2.5
2173 370367.000    541527.4822  -5479445.2727   3208360.8847   2   8   0.4509   1.0546   0.5389  -0.2531  -0.6136   0.1692   0.00    2.1
2173 370368.000    541527.4440  -5479445.2252   3208360.7213   2   8   0.4509   1.0546   0.5389  -0.2530  -0.6136   0.1692   0.00    2.0
2173 370369.000    541527.4993  -5479445.0092   3208360.5401   2   8   0.4509   1.0546   0.5389  -0.2530  -0.6136   0.1691   0.00    2.1
2173 370370.000    541527.4703  -5479445.0808   3208360.4899   2   8   0.4508   1.0546   0.5389  -0.2530  -0.6136   0.1691   0.00    2.1
2173 370371.000    541527.3537  -5479445.2520   3208360.6360   2   8   0.4508   1.0546   0.5389  -0.2529  -0.6136   0.1691   0.00    2.2
2173 370372.000    541527.2865  -5479445.6166   3208360.9214   2   8   0.4508   1.0547   0.5389  -0.2529  -0.6136   0.1691   0.00    2.2
2173 370373.000    541527.3624  -5479445.3876   3208360.7941   2   8   0.4508   1.0547   0.5389  -0.2529  -0.6136   0.1691   0.00    2.2
2173 370374.000    541527.3604  -5479445.1713   3208360.7406   2   8   0.4508   1.0547   0.5389  -0.2528  -0.6136   0.1691   0.00    2.2
2173 370375.000    541527.2550  -5479445.2605   3208360.9499   2   8   0.4507   1.0547   0.5389  -0.2528  -0.6136   0.1691   0.00    2.1
2173 370376.000    541527.2057  -5479445.1450   3208360.8775   2   8   0.4507   1.0547   0.5389  -0.2527  -0.6136   0.1691   0.00    2.0
2173 370377.000    541527.3776  -5479445.0057   3208360.8281   2   8   0.4507   1.0547   0.5389  -0.2527  -0.6136   0.1691   0.00    2.0
2173 370378.000    541527.4455  -5479444.9276   3208360.7662   2   8   0.4507   1.0548   0.5389  -0.2527  -0.6136   0.1691   0.00    2.0
2173 370379.000    541527.4598  -5479444.6901   3208360.6391   2   8   0.4507   1.0548   0.5389  -0.2526  -0.6136   0.1691   0.00    1.9
2173 370380.000    541527.4553  -5479444.7264   3208360.8103   2   8   0.4506   1.0548   0.5389  -0.2526  -0.6136   0.1691   0.00    2.2
2173 370381.000    541527.4132  -5479444.7620   3208360.9151   2   8   0.4506   1.0548   0.5389  -0.2526  -0.6136   0.1691   0.00    2.4
2173 370382.000    541527.3232  -5479444.8654   3208360.9243   2   8   0.4506   1.0548   0.5389  -0.2525  -0.6136   0.1691   0.00    2.6
2173 370383.000    541527.3365  -5479444.6105   3208360.7822   2   8   0.4506   1.0548   0.5389  -0.2525  -0.6136   0.1691   0.00    2.2
2173 370384.000    541527.2504  -5479444.7623   3208360.8265   2   8   0.4506   1.0549   0.5389  -0.2525  -0.6136   0.1691   0.00    2.1
2173 370385.000    541527.5038  -5479445.8644   3208362.0940   1   8   0.0046   0.0108   0.0058  -0.0024  -0.0064   0.0013   0.00    3.1
2173 370386.000    541527.3335  -5479444.9898   3208360.9464   2   8   0.4505   1.0549   0.5389  -0.2524  -0.6136   0.1691   0.00    2.1
2173 370387.000    541527.3406  -5479444.9145   3208360.8114   2   8   0.4554   1.0671   0.5713  -0.2314  -0.6377   0.1272   0.00    2.7
2173 370388.000    541527.3576  -5479444.8987   3208361.0392   2   8   0.4505   1.0549   0.5389  -0.2523  -0.6136   0.1691   0.00    2.1
2173 370389.000    541527.3973  -5479444.7405   3208360.7923   2   8   0.4505   1.0549   0.5389  -0.2523  -0.6136   0.1691   0.00    1.7
2173 370390.000    541527.3928  -5479444.4930   3208360.6252   2   8   0.4504   1.0550   0.5389  -0.2523  -0.6136   0.1691   0.00    2.2
2173 370391.000    541527.3929  -5479444.6062   3208360.7083   2   8   0.4504   1.0550   0.5389  -0.2522  -0.6136   0.1690   0.00    1.7
2173 370392.000    541527.4557  -5479444.5279   3208360.5975   2   8   0.4504   1.0550   0.5389  -0.2522  -0.6136   0.1690   0.00    1.7
2173 370393.000    541527.3631  -5479444.5450   3208360.5510   2   8   0.4504   1.0550   0.5389  -0.2522  -0.6136   0.1690   0.00    2.0
2173 370394.000    541527.3020  -5479444.7190   3208360.5094   2   8   0.4504   1.0550   0.5389  -0.2521  -0.6136   0.1690   0.00    1.9
2173 370395.000    541527.3562  -5479444.8318   3208360.6306   2   8   0.4503   1.0550   0.5389  -0.2521  -0.6136   0.1690   0.00    2.2
2173 370396.000    541527.4863  -5479444.5595   3208360.4576   2   8   0.4503   1.0550   0.5389  -0.2521  -0.6136   0.1690   0.00    1.9
2173 370397.000    541527.5294  -5479444.2816   3208360.3285   2   8   0.4503   1.0551   0.5389  -0.2520  -0.6135   0.1690   0.00    1.7
2173 370398.000    541527.6254  -5479444.0059   3208360.1664   2   8   0.4503   1.0551   0.5389  -0.2520  -0.6135   0.1690   0.00    1.4
2173 370399.000    541527.6696  -5479444.0024   3208360.1220   2   8   0.4503   1.0551   0.5389  -0.2520  -0.6135   0.1690   0.00    1.4
2173 370400.000    541527.7347  -5479443.7771   3208360.0666   2   8   0.4502   1.0551   0.5389  -0.2519  -0.6135   0.1690   0.00    1.4
2173 370401.000    541527.6475  -5479443.6798   3208360.0136   2   8   0.4502   1.0551   0.5389  -0.2519  -0.6135   0.1690   0.00    1.2
2173 370402.000    541527.6330  -5479443.7164   3208360.0180   2   8   0.4502   1.0551   0.5389  -0.2519  -0.6135   0.1690   0.00    1.4
2173 370403.000    541527.6869  -5479443.5772   3208359.9581   2   8   0.4502   1.0552   0.5389  -0.2518  -0.6135   0.1690   0.00    1.3
2173 370404.000    541527.7268  -5479443.7574   3208359.9662   2   8   0.4502   1.0552   0.5389  -0.2518  -0.6135   0.1690   0.00    1.3
2173 370405.000    541527.7077  -5479443.8373   3208360.0042   2   8   0.4501   1.0552   0.5389  -0.2518  -0.6135   0.1690   0.00    1.1
2173 370406.000    541527.7741  -5479443.6443   3208359.9534   2   8   0.4501   1.0552   0.5389  -0.2517  -0.6135   0.1690   0.00    1.2
2173 370407.000    541527.8474  -5479443.5172   3208359.9433   2   8   0.4501   1.0552   0.5389  -0.2517  -0.6135   0.1690   0.00    1.3
2173 370408.000    541527.8424  -5479443.5762   3208360.1570   2   8   0.4501   1.0552   0.5389  -0.2517  -0.6135   0.1690   0.00    1.2
2173 370409.000    541527.9046  -5479443.6560   3208360.2048   2   8   0.4501   1.0552   0.5389  -0.2516  -0.6135   0.1690   0.00    1.3
2173 370410.000    541527.9012  -5479443.7751   3208360.4192   2   8   0.4500   1.0553   0.5389  -0.2516  -0.6135   0.1690   0.00    1.4
2173 370411.000    541527.9301  -5479443.7033   3208360.5125   2   8   0.4500   1.0553   0.5389  -0.2515  -0.6135   0.1689   0.00    1.6
2173 370412.000    541527.9795  -5479443.6987   3208360.4518   2   8   0.4500   1.0553   0.5389  -0.2515  -0.6135   0.1689   0.00    1.6
2173 370413.000    541527.9287  -5479443.9911   3208360.6561   2   8   0.4500   1.0553   0.5389  -0.2515  -0.6135   0.1689   0.00    1.8
2173 370414.000    541527.8445  -5479444.0804   3208360.7184   2   8   0.4500   1.0553   0.5389  -0.2514  -0.6135   0.1689   0.00    1.9
2173 370415.000    541527.7580  -5479444.1872   3208360.8278   2   8   0.4500   1.0553   0.5389  -0.2514  -0.6135   0.1689   0.00    2.0
2173 370416.000    541527.7436  -5479444.4641   3208361.0564   2   8   0.4499   1.0554   0.5389  -0.2514  -0.6135   0.1689   0.00    2.0
2173 370417.000    541527.6811  -5479444.5035   3208361.1224   2   8   0.4499   1.0554   0.5389  -0.2513  -0.6135   0.1689   0.00    2.3
