% program   : rnx2rtkp ver.2.4.3 b31
% inp file  : ngs/21_09_01_07_11_45_wylc.obs
% inp file  : ngs/21_09_01_07_11_45_wylc_SNWY.obs
% inp file  : ngs/21_09_01_07_11_45_brdc.nav
% obs start : 2021/09/01 07:00:00.0 GPST (week2173 284400.0s)
% obs end   : 2021/09/01 07:59:59.0 GPST (week2173 287999.0s)
% ref pos   : -1227450.7788  -4653817.7537   4171177.0387
%
% (x/y/z-ecef=WGS84,Q=1:fix,2:float,3:sbas,4:dgps,5:single,6:ppp,ns=# of satellites)
%  GPST              x-ecef(m)      y-ecef(m)      z-ecef(m)   Q  ns   sdx(m)   sdy(m)   sdz(m)  sdxy(m)  sdyz(m)  sdzx(m) age(s)  ratio
2173 285082.000  -1227801.2943  -4655147.9391   4172376.8729   2   7   0.4499   1.0853   0.7202   0.3249  -0.6627  -0.2980 -30.00    1.4
2173 285083.000  -1227801.3521  -4655147.6451   4172376.6747   2   7   0.3205   0.7728   0.5125   0.2327  -0.4716  -0.2129 -29.00    1.2
2173 285084.000  -1227801.4434  -4655147.6640   4172376.6671   2   7   0.2625   0.6328   0.4196   0.1908  -0.3861  -0.1744 -28.00    1.0
2173 285085.000  -1227801.4557  -4655147.6876   4172376.6843   2   7   0.2278   0.5491   0.3641   0.1655  -0.3350  -0.1513 -27.00    1.0
2173 285086.000  -1227801.4937  -4655147.7959   4172376.7323   2   7   0.2040   0.4917   0.3261   0.1481  -0.3000  -0.1354 -26.00    1.0
2173 285087.000  -1227801.4768  -4655147.8227   4172376.7386   2   7   0.1864   0.4493   0.2980   0.1353  -0.2742  -0.1237 -25.00    1.0
2173 285088.000  -1227801.4880  -4655147.8133   4172376.7152   2   7   0.1727   0.4163   0.2761   0.1253  -0.2540  -0.1146 -24.00    1.0
2173 285089.000  -1227801.4745  -4655147.7990   4172376.7181   2   7   0.1616   0.3896   0.2584   0.1172  -0.2377  -0.1072 -23.00    1.0
2173 285090.000  -1227801.4896  -4655147.8220   4172376.6949   2   7   0.1524   0.3675   0.2437   0.1105  -0.2242  -0.1011 -22.00    1.0
2173 285091.000  -1227801.4829  -4655147.8321   4172376.6901   2   7   0.1446   0.3487   0.2312   0.1048  -0.2128  -0.0959 -21.00    1.0
2173 285092.000  -1227801.4782  -4655147.8177   4172376.6828   2   7   0.1379   0.3325   0.2205   0.0999  -0.2029  -0.0914 -20.00    1.0
2173 285093.000  -1227801.4822  -4655147.8294   4172376.6979   2   7   0.1321   0.3184   0.2111   0.0957  -0.1942  -0.0875 -19.00    1.0
2173 285094.000  -1227801.4767  -4655147.8217   4172376.6845   2   7   0.1269   0.3058   0.2028   0.0919  -0.1866  -0.0841 -18.00    1.1
2173 285095.000  -1227801.4897  -4655147.8459   4172376.6977   2   7   0.1223   0.2947   0.1954   0.0885  -0.1797  -0.0810 -17.00    1.1
2173 285096.000  -1227801.4876  -4655147.8793   4172376.7103   2   7   0.1181   0.2846   0.1887   0.0855  -0.1736  -0.0782 -16.00    1.1
2173 285097.000  -1227801.4930  -4655147.9294   4172376.7466   2   7   0.1143   0.2755   0.1827   0.0828  -0.1680  -0.0757 -15.00    1.1
2173 285098.000  -1227801.4811  -4655147.9395   4172376.7659   2   7   0.1109   0.2671   0.1771   0.0803  -0.1629  -0.0735 -14.00    1.1
2173 285099.000  -1227801.4817  -4655147.9471   4172376.7711   2   7   0.1077   0.2595   0.1721   0.0781  -0.1582  -0.0714 -13.00    1.1
2173 285100.000  -1227801.4687  -4655147.9597   4172376.7789   2   7   0.1048   0.2524   0.1674   0.0760  -0.1538  -0.0695 -12.00    1.1
2173 285101.000  -1227801.4690  -4655147.9731   4172376.7898   2   7   0.1021   0.2459   0.1631   0.0740  -0.1498  -0.0677 -11.00    1.0
2173 285102.000  -1227801.4742  -4655147.9694   4172376.7949   2   7   0.0996   0.2399   0.1590   0.0722  -0.1461  -0.0660 -10.00    1.0
2173 285103.000  -1227801.4727  -4655147.9541   4172376.7839   2   7   0.0973   0.2342   0.1553   0.0705  -0.1426  -0.0645  -9.00    1.0
2173 285104.000  -1227801.4795  -4655147.9536   4172376.8043   2   7   0.0951   0.2289   0.1518   0.0690  -0.1393  -0.0630  -8.00    1.1
2173 285105.000  -1227801.4813  -4655147.9635   4172376.8241   2   7   0.0931   0.2239   0.1485   0.0675  -0.1363  -0.0617  -7.00    1.2
2173 285106.000  -1227801.4807  -4655147.9572   4172376.8156   2   7   0.0912   0.2193   0.1453   0.0661  -0.1334  -0.0604  -6.00    1.3
2173 285107.000  -1227801.4767  -4655147.9415   4172376.7963   2   7   0.0894   0.2149   0.1424   0.0648  -0.1307  -0.0592  -5.00    1.3
2173 285108.000  -1227801.4838  -4655147.9294   4172376.7931   2   7   0.0877   0.2107   0.1397   0.0635  -0.1281  -0.0580  -4.00    1.3
2173 285109.000  -1227801.4764  -4655147.9270   4172376.7906   2   7   0.0861   0.2067   0.1371   0.0623  -0.1257  -0.0570  -3.00    1.2
2173 285110.000  -1227801.4768  -4655147.9268   4172376.7910   2   7   0.0846   0.2030   0.1346   0.0612  -0.1234  -0.0559  -2.00    1.2
2173 285111.000  -1227801.4735  -4655147.9212   4172376.7972   2   7   0.0831   0.1995   0.1323   0.0601  -0.1212  -0.0549  -1.00    1.1
2173 285112.000  -1227801.4705  -4655147.9080   4172376.7962   2   7   0.0818   0.1961   0.1300   0.0591  -0.1191  -0.0540   0.00    1.0
2173 285113.000  -1227801.4608  -4655147.8957   4172376.7898   2   7   0.0805   0.1929   0.1279   0.0581  -0.1172  -0.0531   0.00    1.0
2173 285114.000  -1227801.4580  -4655147.8815   4172376.7822   2   7   0.0793   0.1899   0.1259   0.0572  -0.1153  -0.0523   0.00    1.0
2173 285115.000  -1227801.4493  -4655147.8631   4172376.7696   2   7   0.0781   0.1870   0.1240   0.0563  -0.1135  -0.0515   0.00    1.0
2173 285116.000  -1227801.4386  -4655147.8547   4172376.7665   2   7   0.0770   0.1842   0.1222   0.0554  -0.1118  -0.0507   0.00    1.0
2173 285117.000  -1227801.4311  -4655147.8545   4172376.7674   2   7   0.0759   0.1815   0.1204   0.0546  -0.1101  -0.0500   0.00    1.1
2173 285118.000  -1227801.4216  -4655147.8435   4172376.7629   2   7   0.0748   0.1790   0.1187   0.0538  -0.1085  -0.0492   0.00    1.1
2173 285119.000  -1227801.4098  -4655147.8350   4172376.7561   2   7   0.0738   0.1765   0.1171   0.0531  -0.1070  -0.0486   0.00    1.1
2173 285120.000  -1227801.3997  -4655147.8305   4172376.7559   2   7   0.0729   0.1741   0.1155   0.0524  -0.1055  -0.0479   0.00    1.1
2173 285121.000  -1227801.3952  -4655147.8161   4172376.7419   2   7   0.0720   0.1718   0.1140   0.0516  -0.1041  -0.0472   0.00    1.1
2173 285122.000  -1227801.3923  -4655147.7978   4172376.7358   2   7   0.0711   0.1695   0.1125   0.0509  -0.1027  -0.0466   0.00    1.1
2173 285123.000  -1227801.3878  -4655147.7819   4172376.7242   2   7   0.0702   0.1674   0.1111   0.0503  -0.1014  -0.0460   0.00    1.1
2173 285124.000  -1227801.3870  -4655147.7687   4172376.7092   2   7   0.0694   0.1653   0.1097   0.0496  -0.1001  -0.0454   0.00    1.1
2173 285125.000  -1227801.3835  -4655147.7607   4172376.7020   2   7   0.0686   0.1633   0.1084   0.0490  -0.0988  -0.0449   0.00    1.1
2173 285126.000  -1227801.3797  -4655147.7452   4172376.6938   2   7   0.0678   0.1613   0.1071   0.0484  -0.0976  -0.0443   0.00    1.1
2173 285127.000  -1227801.3735  -4655147.7265   4172376.6897   2   7   0.0671   0.1594   0.1058   0.0478  -0.0964  -0.0438   0.00    1.1
2173 285128.000  -1227801.3684  -4655147.7079   4172376.6821   2   7   0.0664   0.1575   0.1046   0.0472  -0.0952  -0.0433   0.00    1.1
2173 285129.000  -1227801.3597  -4655147.6821   4172376.6625   2   7   0.0657   0.1557   0.1034   0.0467  -0.0941  -0.0428   0.00    1.1
2173 285130.000  -1227801.3503  -4655147.6679   4172376.6606   2   7   0.0650   0.1540   0.1023   0.0462  -0.0930  -0.0423   0.00    1.1
2173 285131.000  -1227801.3436  -4655147.6569   4172376.6555   2   7   0.0643   0.1523   0.1012   0.0456  -0.0919  -0.0418   0.00    1.1
2173 285132.000  -1227801.3333  -4655147.6358   4172376.6393   2   7   0.0637   0.1506   0.1001   0.0451  -0.0909  -0.0414   0.00    1.1
2173 285133.000  -1227801.3250  -4655147.6173   4172376.6331   2   7   0.0631   0.1490   0.0990   0.0446  -0.0899  -0.0409   0.00    1.1
2173 285134.000  -1227801.3249  -4655147.6109   4172376.6327   2   7   0.0625   0.1474   0.0980   0.0441  -0.0889  -0.0405   0.00    1.0
2173 285135.000  -1227801.3168  -4655147.5834   4172376.6160   2   7   0.0619   0.1458   0.0970   0.0437  -0.0879  -0.0401   0.00    1.0
2173 285136.000  -1227801.3073  -4655147.5626   4172376.6139   2   7   0.0613   0.1443   0.0960   0.0432  -0.0870  -0.0396   0.00    1.0
2173 285137.000  -1227801.3018  -4655147.5389   4172376.6131   2   7   0.0608   0.1428   0.0950   0.0427  -0.0860  -0.0392   0.00    1.0
2173 285138.000  -1227801.2994  -4655147.5252   4172376.6113   2   7   0.0602   0.1414   0.0941   0.0423  -0.0851  -0.0388   0.00    1.0
2173 285139.000  -1227801.2954  -4655147.5101   4172376.6091   2   7   0.0597   0.1400   0.0932   0.0418  -0.0842  -0.0384   0.00    1.0
2173 285140.000  -1227801.2899  -4655147.4960   4172376.6073   2   7   0.0592   0.1386   0.0923   0.0414  -0.0833  -0.0381   0.00    1.0
2173 285141.000  -1227801.2863  -4655147.4931   4172376.6079   2   7   0.0587   0.1372   0.0914   0.0410  -0.0825  -0.0377   0.00    1.0
2173 285142.000  -1227801.2882  -4655147.4813   4172376.6107   2   7   0.0582   0.1359   0.0905   0.0406  -0.0816  -0.0373   0.00    1.0
2173 285143.000  -1227801.2762  -4655147.4490   4172376.6001   2   7   0.0577   0.1346   0.0897   0.0402  -0.0808  -0.0370   0.00    1.0
2173 285144.000  -1227801.2706  -4655147.4376   4172376.5977   2   7   0.0573   0.1333   0.0889   0.0398  -0.0800  -0.0366   0.00    1.0
2173 285145.000  -1227801.2686  -4655147.4222   4172376.5946   2   7   0.0568   0.1320   0.0881   0.0394  -0.0792  -0.0362   0.00    1.0
2173 285146.000  -1227801.2618  -4655147.4032   4172376.5892   2   7   0.0564   0.1308   0.0872   0.0390  -0.0784  -0.0359   0.00    1.0
2173 285147.000  -1227801.2561  -4655147.3924   4172376.5872   2   7   0.0559   0.1296   0.0865   0.0387  -0.0776  -0.0356   0.00    1.0
2173 285148.000  -1227801.2573  -4655147.3925   4172376.5925   2   7   0.0555   0.1284   0.0857   0.0383  -0.0769  -0.0353   0.00    1.0
2173 285149.000  -1227801.2521  -4655147.3659   4172376.5854   2   7   0.0551   0.1272   0.0850   0.0379  -0.0761  -0.0349   0.00    1.1
2173 285150.000  -1227801.2492  -4655147.3535   4172376.5826   2   7   0.0546   0.1260   0.0842   0.0376  -0.0754  -0.0346   0.00    1.1
2173 285151.000  -1227801.2487  -4655147.3526   4172376.5794   2   6   0.0545   0.1257   0.0838   0.0381  -0.0753  -0.0348   0.00    1.1
2173 285152.000  -1227801.2374  -4655147.3274   4172376.5704   2   6   0.0541   0.1248   0.0831   0.0379  -0.0747  -0.0345   0.00    1.0
2173 285153.000  -1227801.2344  -4655147.3130   4172376.5675   2   6   0.0538   0.1237   0.0825   0.0376  -0.0740  -0.0342   0.00    1.1
2173 285154.000  -1227801.2287  -4655147.2988   4172376.5636   2   6   0.0535   0.1230   0.0819   0.0378  -0.0736  -0.0341   0.00    1.0
2173 285155.000  -1227801.2270  -4655147.2856   4172376.5619   2   6   0.0532   0.1222   0.0813   0.0378  -0.0731  -0.0340   0.00    1.0
2173 285156.000  -1227801.2193  -4655147.2768   4172376.5579   2   6   0.0529   0.1215   0.0808   0.0377  -0.0725  -0.0338   0.00    1.0
2173 285157.000  -1227801.2173  -4655147.2746   4172376.5564   2   7   0.0526   0.1202   0.0802   0.0377  -0.0718  -0.0337   0.00    1.0
2173 285158.000  -1227801.2103  -4655147.2722   4172376.5536   2   7   0.0523   0.1188   0.0795   0.0375  -0.0710  -0.0335   0.00    1.0
2173 285159.000  -1227801.2002  -4655147.2552   4172376.5461   2   8   0.0520   0.1173   0.0789   0.0371  -0.0702  -0.0332   0.00    1.0
2173 285160.000  -1227801.1904  -4655147.2373   4172376.5384   2   8   0.0516   0.1158   0.0783   0.0367  -0.0693  -0.0329   0.00    1.0
2173 285161.000  -1227801.1850  -4655147.2300   4172376.5394   2   7   0.0514   0.1148   0.0777   0.0367  -0.0687  -0.0328   0.00    1.0
2173 285162.000  -1227801.1791  -4655147.2246   4172376.5323   2   7   0.0511   0.1137   0.0772   0.0367  -0.0681  -0.0326   0.00    1.0
2173 285163.000  -1227801.1742  -4655147.2168   4172376.5284   2   7   0.0509   0.1127   0.0766   0.0365  -0.0675  -0.0325   0.00    1.0
2173 285164.000  -1227801.1710  -4655147.2062   4172376.5260   2   7   0.0506   0.1116   0.0761   0.0365  -0.0668  -0.0322   0.00    1.0
2173 285165.000  -1227801.1662  -4655147.2022   4172376.5203   2   7   0.0503   0.1106   0.0755   0.0364  -0.0662  -0.0321   0.00    1.0
2173 285166.000  -1227801.1596  -4655147.1903   4172376.5147   2   7   0.0501   0.1096   0.0750   0.0363  -0.0656  -0.0319   0.00    1.0
2173 285167.000  -1227801.1564  -4655147.1880   4172376.5138   2   7   0.0498   0.1086   0.0745   0.0362  -0.0651  -0.0318   0.00    1.0
2173 285168.000  -1227801.1559  -4655147.1819   4172376.5083   2   7   0.0496   0.1076   0.0740   0.0361  -0.0645  -0.0316   0.00    1.0
2173 285169.000  -1227801.1486  -4655147.1654   4172376.4957   2   7   0.0493   0.1067   0.0735   0.0360  -0.0639  -0.0315   0.00    1.0
2173 285170.000  -1227801.1447  -4655147.1656   4172376.4952   2   7   0.0491   0.1057   0.0730   0.0359  -0.0633  -0.0313   0.00    1.0
2173 285171.000  -1227801.1449  -4655147.1643   4172376.4951   2   7   0.0489   0.1048   0.0725   0.0358  -0.0628  -0.0311   0.00    1.0
2173 285172.000  -1227801.1435  -4655147.1674   4172376.4936   2   7   0.0486   0.1039   0.0720   0.0357  -0.0623  -0.0310   0.00    1.0
2173 285173.000  -1227801.1406  -4655147.1600   4172376.4878   2   7   0.0484   0.1030   0.0715   0.0355  -0.0617  -0.0308   0.00    1.0
2173 285174.000  -1227801.1395  -4655147.1473   4172376.4837   2   7   0.0482   0.1021   0.0711   0.0354  -0.0612  -0.0306   0.00    1.0
2173 285175.000  -1227801.1357  -4655147.1308   4172376.4752   2   7   0.0480   0.1013   0.0706   0.0353  -0.0607  -0.0305   0.00    1.0
2173 285176.000  -1227801.1321  -4655147.1259   4172376.4727   2   7   0.0478   0.1004   0.0702   0.0352  -0.0602  -0.0303   0.00    1.0
2173 285177.000  -1227801.1313  -4655147.1221   4172376.4710   2   7   0.0476   0.0996   0.0697   0.0350  -0.0596  -0.0302   0.00    1.0
2173 285178.000  -1227801.1267  -4655147.1165   4172376.4651   2   7   0.0473   0.0987   0.0693   0.0349  -0.0592  -0.0300   0.00    1.0
2173 285179.000  -1227801.1255  -4655147.1048   4172376.4605   2   7   0.0471   0.0979   0.0689   0.0348  -0.0587  -0.0298   0.00    1.0
2173 285180.000  -1227801.1226  -4655147.0968   4172376.4552   2   7   0.0469   0.0971   0.0684   0.0347  -0.0582  -0.0297   0.00    1.0
2173 285181.000  -1227801.1203  -4655147.0971   4172376.4527   2   7   0.0467   0.0963   0.0680   0.0345  -0.0577  -0.0296   0.00    1.0
2173 285182.000  -1227801.1174  -4655147.0935   4172376.4515   2   7   0.0465   0.0955   0.0675   0.0344  -0.0572  -0.0294   0.00    1.0
2173 285183.000  -1227801.1187  -4655147.0904   4172376.4491   2   7   0.0464   0.0948   0.0671   0.0342  -0.0568  -0.0293   0.00    1.0
2173 285184.000  -1227801.1149  -4655147.0798   4172376.4431   2   7   0.0461   0.0940   0.0667   0.0341  -0.0563  -0.0290   0.00    1.0
2173 285185.000  -1227801.1156  -4655147.0827   4172376.4430   2   7   0.0459   0.0933   0.0663   0.0339  -0.0558  -0.0289   0.00    1.0
2173 285186.000  -1227801.1134  -4655147.0795   4172376.4394   2   7   0.0457   0.0925   0.0659   0.0338  -0.0554  -0.0288   0.00    1.0
2173 285187.000  -1227801.1076  -4655147.0726   4172376.4372   2   7   0.0455   0.0918   0.0655   0.0337  -0.0549  -0.0286   0.00    1.0
2173 285188.000  -1227801.1097  -4655147.0720   4172376.4385   2   7   0.0454   0.0911   0.0651   0.0335  -0.0545  -0.0285   0.00    1.0
2173 285189.000  -1227801.1084  -4655147.0667   4172376.4363   2   7   0.0452   0.0904   0.0647   0.0334  -0.0541  -0.0283   0.00    1.0
2173 285190.000  -1227801.1064  -4655147.0669   4172376.4300   2   7   0.0450   0.0897   0.0643   0.0332  -0.0536  -0.0282   0.00    1.0
2173 285191.000  -1227801.1093  -4655147.0733   4172376.4350   2   7   0.0448   0.0890   0.0640   0.0331  -0.0532  -0.0280   0.00    1.0
2173 285192.000  -1227801.1091  -4655147.0744   4172376.4361   2   7   0.0446   0.0883   0.0636   0.0329  -0.0528  -0.0279   0.00    1.0
2173 285193.000  -1227801.1077  -4655147.0721   4172376.4333   2   7   0.0444   0.0876   0.0632   0.0328  -0.0524  -0.0277   0.00    1.0
2173 285194.000  -1227801.1079  -4655147.0698   4172376.4330   2   7   0.0443   0.0869   0.0628   0.0327  -0.0520  -0.0276   0.00    1.0
2173 285195.000  -1227801.1062  -4655147.0656   4172376.4303   2   7   0.0441   0.0863   0.0625   0.0325  -0.0516  -0.0275   0.00    1.0
2173 285196.000  -1227801.1058  -4655147.0663   4172376.4319   2   7   0.0440   0.0856   0.0621   0.0324  -0.0512  -0.0273   0.00    1.0
2173 285197.000  -1227801.1033  -4655147.0622   4172376.4285   2   7   0.0438   0.0850   0.0618   0.0323  -0.0508  -0.0272   0.00    1.0
2173 285198.000  -1227801.1050  -4655147.0657   4172376.4302   2   7   0.0436   0.0843   0.0614   0.0321  -0.0504  -0.0270   0.00    1.0
2173 285199.000  -1227801.1048  -4655147.0593   4172376.4267   2   7   0.0434   0.0837   0.0610   0.0319  -0.0500  -0.0269   0.00    1.0
2173 285200.000  -1227801.1079  -4655147.0644   4172376.4303   2   7   0.0432   0.0831   0.0607   0.0318  -0.0496  -0.0268   0.00    1.0
2173 285201.000  -1227801.1056  -4655147.0609   4172376.4251   2   7   0.0430   0.0825   0.0604   0.0316  -0.0492  -0.0266   0.00    1.0
2173 285202.000  -1227801.1066  -4655147.0601   4172376.4261   2   7   0.0429   0.0819   0.0600   0.0315  -0.0489  -0.0264   0.00    1.0
2173 285203.000  -1227801.1099  -4655147.0579   4172376.4220   2   7   0.0428   0.0813   0.0597   0.0313  -0.0485  -0.0263   0.00    1.0
2173 285204.000  -1227801.1069  -4655147.0522   4172376.4207   2   7   0.0426   0.0807   0.0594   0.0312  -0.0481  -0.0261   0.00    1.0
2173 285205.000  -1227801.1072  -4655147.0449   4172376.4155   2   7   0.0424   0.0801   0.0590   0.0310  -0.0478  -0.0260   0.00    1.0
2173 285206.000  -1227801.1063  -4655147.0409   4172376.4144   2   7   0.0423   0.0795   0.0587   0.0309  -0.0474  -0.0259   0.00    1.0
2173 285207.000  -1227801.1086  -4655147.0387   4172376.4152   2   7   0.0421   0.0789   0.0583   0.0308  -0.0471  -0.0258   0.00    1.0
2173 285208.000  -1227801.1088  -4655147.0441   4172376.4125   2   7   0.0419   0.0783   0.0581   0.0306  -0.0467  -0.0256   0.00    1.0
2173 285209.000  -1227801.1101  -4655147.0445   4172376.4128   2   7   0.0418   0.0778   0.0577   0.0305  -0.0464  -0.0255   0.00    1.0
2173 285210.000  -1227801.1095  -4655147.0404   4172376.4096   2   7   0.0417   0.0772   0.0574   0.0303  -0.0460  -0.0254   0.00    1.0
2173 285211.000  -1227801.1088  -4655147.0415   4172376.4145   2   7   0.0416   0.0767   0.0571   0.0302  -0.0457  -0.0252   0.00    1.0
2173 285212.000  -1227801.1119  -4655147.0496   4172376.4157   2   7   0.0414   0.0761   0.0568   0.0301  -0.0454  -0.0251   0.00    1.0
2173 285213.000  -1227801.1089  -4655147.0446   4172376.4154   2   7   0.0412   0.0756   0.0565   0.0299  -0.0450  -0.0250   0.00    1.0
2173 285214.000  -1227801.1090  -4655147.0428   4172376.4162   2   7   0.0411   0.0750   0.0562   0.0298  -0.0447  -0.0249   0.00    1.0
2173 285215.000  -1227801.1059  -4655147.0335   4172376.4124   2   7   0.0410   0.0745   0.0559   0.0296  -0.0444  -0.0247   0.00    1.0
2173 285216.000  -1227801.1103  -4655147.0341   4172376.4121   2   7   0.0408   0.0740   0.0556   0.0294  -0.0441  -0.0246   0.00    1.0
2173 285217.000  -1227801.1116  -4655147.0382   4172376.4138   2   7   0.0406   0.0735   0.0553   0.0293  -0.0437  -0.0245   0.00    1.0
2173 285218.000  -1227801.1126  -4655147.0329   4172376.4127   2   7   0.0405   0.0730   0.0550   0.0292  -0.0434  -0.0243   0.00    1.0
2173 285219.000  -1227801.1124  -4655147.0308   4172376.4114   2   7   0.0404   0.0725   0.0547   0.0290  -0.0431  -0.0242   0.00    1.0
2173 285220.000  -1227801.1136  -4655147.0352   4172376.4122   2   7   0.0403   0.0719   0.0544   0.0289  -0.0428  -0.0242   0.00    1.0
2173 285221.000  -1227801.1160  -4655147.0313   4172376.4112   2   7   0.0401   0.0714   0.0541   0.0288  -0.0425  -0.0240   0.00    1.0
2173 285222.000  -1227801.1161  -4655147.0307   4172376.4108   2   7   0.0400   0.0710   0.0538   0.0286  -0.0422  -0.0239   0.00    1.0
2173 285223.000  -1227801.1191  -4655147.0292   4172376.4097   2   7   0.0399   0.0705   0.0535   0.0285  -0.0419  -0.0238   0.00    1.0
2173 285224.000  -1227801.1176  -4655147.0277   4172376.4065   2   7   0.0397   0.0700   0.0532   0.0283  -0.0416  -0.0236   0.00    1.0
2173 285225.000  -1227801.1231  -4655147.0240   4172376.4076   2   7   0.0396   0.0695   0.0530   0.0283  -0.0413  -0.0235   0.00    1.0
2173 285226.000  -1227801.1233  -4655147.0281   4172376.4065   2   7   0.0395   0.0690   0.0527   0.0281  -0.0411  -0.0234   0.00    1.0
2173 285227.000  -1227801.1231  -4655147.0207   4172376.4056   2   7   0.0393   0.0686   0.0524   0.0279  -0.0408  -0.0233   0.00    1.0
2173 285228.000  -1227801.1266  -4655147.0219   4172376.4077   2   7   0.0392   0.0681   0.0521   0.0278  -0.0405  -0.0232   0.00    1.0
2173 285229.000  -1227801.1285  -4655147.0225   4172376.4080   2   7   0.0391   0.0677   0.0519   0.0277  -0.0402  -0.0230   0.00    1.0
2173 285230.000  -1227801.1299  -4655147.0171   4172376.4070   2   7   0.0390   0.0672   0.0516   0.0275  -0.0399  -0.0229   0.00    1.0
2173 285231.000  -1227801.1333  -4655147.0164   4172376.4057   2   7   0.0389   0.0668   0.0513   0.0275  -0.0396  -0.0228   0.00    1.0
2173 285232.000  -1227801.1334  -4655147.0133   4172376.4069   2   7   0.0387   0.0663   0.0511   0.0273  -0.0394  -0.0227   0.00    1.0
2173 285233.000  -1227801.1358  -4655147.0157   4172376.4099   2   7   0.0386   0.0659   0.0508   0.0272  -0.0391  -0.0226   0.00    1.0
2173 285234.000  -1227801.1389  -4655147.0115   4172376.4084   2   7   0.0385   0.0654   0.0506   0.0270  -0.0389  -0.0225   0.00    1.0
2173 285235.000  -1227801.1401  -4655147.0082   4172376.4103   2   7   0.0383   0.0650   0.0503   0.0269  -0.0386  -0.0224   0.00    1.0
2173 285236.000  -1227801.1431  -4655147.0074   4172376.4101   2   7   0.0382   0.0646   0.0500   0.0268  -0.0383  -0.0222   0.00    1.0
2173 285237.000  -1227801.1424  -4655147.0043   4172376.4137   2   7   0.0381   0.0642   0.0498   0.0266  -0.0381  -0.0222   0.00    1.0
2173 285238.000  -1227801.1431  -4655147.0043   4172376.4136   2   7   0.0380   0.0637   0.0495   0.0265  -0.0378  -0.0220   0.00    1.0
2173 285239.000  -1227801.1445  -4655147.0012   4172376.4138   2   7   0.0379   0.0633   0.0493   0.0264  -0.0376  -0.0219   0.00    1.0
2173 285240.000  -1227801.1437  -4655147.0002   4172376.4175   2   7   0.0377   0.0629   0.0491   0.0262  -0.0373  -0.0219   0.00    1.0
2173 285241.000  -1227801.1443  -4655146.9945   4172376.4144   2   7   0.0376   0.0625   0.0488   0.0262  -0.0371  -0.0217   0.00    1.0
2173 285242.000  -1227801.1481  -4655146.9983   4172376.4205   2   7   0.0376   0.0621   0.0485   0.0260  -0.0368  -0.0216   0.00    1.0
2173 285243.000  -1227801.1477  -4655146.9946   4172376.4178   2   7   0.0374   0.0617   0.0483   0.0259  -0.0366  -0.0215   0.00    1.0
2173 285244.000  -1227801.1492  -4655146.9932   4172376.4191   2   7   0.0373   0.0613   0.0481   0.0257  -0.0364  -0.0214   0.00    1.0
2173 285245.000  -1227801.1484  -4655146.9892   4172376.4231   2   7   0.0372   0.0609   0.0478   0.0256  -0.0361  -0.0213   0.00    1.0
2173 285246.000  -1227801.1492  -4655146.9909   4172376.4220   2   7   0.0371   0.0605   0.0476   0.0255  -0.0359  -0.0212   0.00    1.0
2173 285247.000  -1227801.1497  -4655146.9913   4172376.4227   2   7   0.0370   0.0602   0.0474   0.0254  -0.0356  -0.0211   0.00    1.0
2173 285248.000  -1227801.1500  -4655146.9920   4172376.4258   2   7   0.0369   0.0598   0.0471   0.0253  -0.0354  -0.0210   0.00    1.0
2173 285249.000  -1227801.1509  -4655146.9925   4172376.4295   2   7   0.0368   0.0594   0.0469   0.0252  -0.0352  -0.0210   0.00    1.1
2173 285250.000  -1227801.1521  -4655146.9887   4172376.4275   2   7   0.0367   0.0590   0.0467   0.0250  -0.0350  -0.0209   0.00    1.1
2173 285251.000  -1227801.1522  -4655146.9845   4172376.4243   2   7   0.0366   0.0587   0.0464   0.0249  -0.0348  -0.0207   0.00    1.1
2173 285252.000  -1227801.1499  -4655146.9828   4172376.4256   2   7   0.0364   0.0583   0.0462   0.0248  -0.0345  -0.0206   0.00    1.1
2173 285253.000  -1227801.1533  -4655146.9902   4172376.4283   2   7   0.0363   0.0579   0.0460   0.0247  -0.0343  -0.0205   0.00    1.1
2173 285254.000  -1227801.1551  -4655146.9883   4172376.4285   2   7   0.0362   0.0576   0.0458   0.0246  -0.0341  -0.0204   0.00    1.1
2173 285255.000  -1227801.1560  -4655146.9863   4172376.4302   2   7   0.0361   0.0572   0.0456   0.0244  -0.0339  -0.0203   0.00    1.1
2173 285256.000  -1227801.1602  -4655146.9857   4172376.4277   2   7   0.0360   0.0569   0.0453   0.0243  -0.0337  -0.0203   0.00    1.1
2173 285257.000  -1227801.1606  -4655146.9875   4172376.4315   2   7   0.0359   0.0565   0.0451   0.0242  -0.0335  -0.0202   0.00    1.1
2173 285258.000  -1227801.1634  -4655146.9877   4172376.4317   2   7   0.0359   0.0562   0.0449   0.0241  -0.0333  -0.0201   0.00    1.1
2173 285259.000  -1227801.1618  -4655146.9857   4172376.4329   2   7   0.0357   0.0558   0.0447   0.0240  -0.0330  -0.0199   0.00    1.1
2173 285260.000  -1227801.1647  -4655146.9867   4172376.4335   2   7   0.0356   0.0555   0.0444   0.0239  -0.0328  -0.0199   0.00    1.1
2173 285261.000  -1227801.1650  -4655146.9851   4172376.4344   2   7   0.0355   0.0551   0.0442   0.0238  -0.0326  -0.0198   0.00    1.1
2173 285262.000  -1227801.1677  -4655146.9895   4172376.4357   2   7   0.0354   0.0548   0.0440   0.0237  -0.0325  -0.0197   0.00    1.1
2173 285263.000  -1227801.1688  -4655146.9823   4172376.4353   2   7   0.0354   0.0545   0.0438   0.0235  -0.0323  -0.0196   0.00    1.1
2173 285264.000  -1227801.1713  -4655146.9845   4172376.4388   2   7   0.0352   0.0542   0.0436   0.0234  -0.0320  -0.0195   0.00    1.1
2173 285265.000  -1227801.1729  -4655146.9883   4172376.4393   2   7   0.0351   0.0538   0.0434   0.0234  -0.0319  -0.0195   0.00    1.1
2173 285266.000  -1227801.1750  -4655146.9849   4172376.4393   2   7   0.0350   0.0535   0.0432   0.0233  -0.0317  -0.0194   0.00    1.1
2173 285267.000  -1227801.1734  -4655146.9858   4172376.4401   2   7   0.0350   0.0532   0.0430   0.0232  -0.0315  -0.0193   0.00    1.1
2173 285268.000  -1227801.1764  -4655146.9885   4172376.4424   2   7   0.0348   0.0529   0.0428   0.0230  -0.0313  -0.0191   0.00    1.1
2173 285269.000  -1227801.1758  -4655146.9834   4172376.4441   2   7   0.0348   0.0526   0.0426   0.0229  -0.0311  -0.0191   0.00    1.1
2173 285270.000  -1227801.1781  -4655146.9897   4172376.4467   2   7   0.0347   0.0523   0.0424   0.0228  -0.0309  -0.0189   0.00    1.1
2173 285271.000  -1227801.1772  -4655146.9878   4172376.4446   2   7   0.0346   0.0519   0.0422   0.0227  -0.0307  -0.0189   0.00    1.1
2173 285272.000  -1227801.1772  -4655146.9854   4172376.4475   2   7   0.0345   0.0516   0.0420   0.0226  -0.0306  -0.0189   0.00    1.1
2173 285273.000  -1227801.1817  -4655146.9908   4172376.4496   2   7   0.0344   0.0513   0.0418   0.0225  -0.0304  -0.0188   0.00    1.0
2173 285274.000  -1227801.1785  -4655146.9901   4172376.4539   2   7   0.0343   0.0510   0.0416   0.0224  -0.0302  -0.0187   0.00    1.0
2173 285275.000  -1227801.1800  -4655146.9902   4172376.4545   2   7   0.0342   0.0507   0.0414   0.0223  -0.0300  -0.0186   0.00    1.0
2173 285276.000  -1227801.1779  -4655146.9821   4172376.4547   2   7   0.0341   0.0505   0.0412   0.0223  -0.0298  -0.0185   0.00    1.0
2173 285277.000  -1227801.1783  -4655146.9845   4172376.4533   2   7   0.0341   0.0502   0.0410   0.0221  -0.0297  -0.0184   0.00    1.0
2173 285278.000  -1227801.1781  -4655146.9766   4172376.4523   2   7   0.0339   0.0499   0.0408   0.0220  -0.0295  -0.0184   0.00    1.0
2173 285279.000  -1227801.1777  -4655146.9771   4172376.4526   2   7   0.0339   0.0496   0.0407   0.0219  -0.0293  -0.0182   0.00    1.0
2173 285280.000  -1227801.1756  -4655146.9740   4172376.4553   2   7   0.0338   0.0493   0.0405   0.0218  -0.0292  -0.0182   0.00    1.0
2173 285281.000  -1227801.1739  -4655146.9697   4172376.4517   2   7   0.0337   0.0490   0.0402   0.0218  -0.0290  -0.0181   0.00    1.0
2173 285282.000  -1227801.1712  -4655146.9635   4172376.4551   2   7   0.0336   0.0487   0.0401   0.0217  -0.0288  -0.0180   0.00    1.0
2173 285283.000  -1227801.1738  -4655146.9619   4172376.4548   2   7   0.0335   0.0485   0.0399   0.0216  -0.0287  -0.0179   0.00    1.0
2173 285284.000  -1227801.1730  -4655146.9613   4172376.4562   2   7   0.0335   0.0482   0.0397   0.0214  -0.0285  -0.0179   0.00    1.0
2173 285285.000  -1227801.1737  -4655146.9586   4172376.4556   2   7   0.0334   0.0479   0.0395   0.0214  -0.0284  -0.0178   0.00    1.0
2173 285286.000  -1227801.1727  -4655146.9595   4172376.4591   2   7   0.0333   0.0477   0.0394   0.0213  -0.0282  -0.0177   0.00    1.0
2173 285287.000  -1227801.1695  -4655146.9514   4172376.4568   2   7   0.0332   0.0474   0.0392   0.0212  -0.0280  -0.0177   0.00    1.0
2173 285288.000  -1227801.1692  -4655146.9481   4172376.4551   2   7   0.0332   0.0471   0.0390   0.0211  -0.0279  -0.0176   0.00    1.0
2173 285289.000  -1227801.1682  -4655146.9444   4172376.4580   2   7   0.0330   0.0469   0.0388   0.0210  -0.0277  -0.0175   0.00    1.0
2173 285290.000  -1227801.1666  -4655146.9520   4172376.4605   2   7   0.0330   0.0466   0.0386   0.0208  -0.0276  -0.0175   0.00    1.0
2173 285291.000  -1227801.1641  -4655146.9449   4172376.4584   2   7   0.0329   0.0464   0.0385   0.0208  -0.0274  -0.0173   0.00    1.0
2173 285292.000  -1227801.1652  -4655146.9493   4172376.4651   2   7   0.0328   0.0461   0.0383   0.0207  -0.0273  -0.0173   0.00    1.0
2173 285293.000  -1227801.1637  -4655146.9461   4172376.4655   2   7   0.0327   0.0459   0.0381   0.0206  -0.0271  -0.0172   0.00    1.0
2173 285294.000  -1227801.1606  -4655146.9441   4172376.4638   2   7   0.0327   0.0456   0.0379   0.0205  -0.0270  -0.0172   0.00    1.0
2173 285295.000  -1227801.1586  -4655146.9393   4172376.4611   2   7   0.0326   0.0454   0.0378   0.0205  -0.0268  -0.0171   0.00    1.0
2173 285296.000  -1227801.1556  -4655146.9387   4172376.4649   2   7   0.0325   0.0451   0.0376   0.0203  -0.0267  -0.0170   0.00    1.0
2173 285297.000  -1227801.1532  -4655146.9358   4172376.4612   2   7   0.0325   0.0449   0.0374   0.0203  -0.0265  -0.0170   0.00    1.0
2173 285298.000  -1227801.1522  -4655146.9318   4172376.4616   2   7   0.0324   0.0446   0.0373   0.0202  -0.0264  -0.0169   0.00    1.0
2173 285299.000  -1227801.1513  -4655146.9343   4172376.4643   2   7   0.0323   0.0444   0.0371   0.0201  -0.0263  -0.0168   0.00    1.0
2173 285300.000  -1227801.1516  -4655146.9364   4172376.4635   2   7   0.0322   0.0442   0.0370   0.0200  -0.0261  -0.0168   0.00    1.0
2173 285301.000  -1227801.1499  -4655146.9297   4172376.4657   2   7   0.0321   0.0439   0.0368   0.0199  -0.0260  -0.0168   0.00    1.0
2173 285302.000  -1227801.1488  -4655146.9318   4172376.4656   2   7   0.0321   0.0437   0.0366   0.0199  -0.0259  -0.0167   0.00    1.0
2173 285303.000  -1227801.1488  -4655146.9263   4172376.4647   2   7   0.0320   0.0435   0.0365   0.0198  -0.0257  -0.0166   0.00    1.0
2173 285304.000  -1227801.1473  -4655146.9224   4172376.4640   2   7   0.0319   0.0432   0.0364   0.0197  -0.0256  -0.0165   0.00    1.0
2173 285305.000  -1227801.1472  -4655146.9249   4172376.4645   2   7   0.0319   0.0430   0.0362   0.0196  -0.0254  -0.0164   0.00    1.0
2173 285306.000  -1227801.1463  -4655146.9214   4172376.4669   2   7   0.0318   0.0428   0.0360   0.0195  -0.0253  -0.0164   0.00    1.0
2173 285307.000  -1227801.1466  -4655146.9198   4172376.4663   2   7   0.0317   0.0426   0.0358   0.0195  -0.0252  -0.0163   0.00    1.0
2173 285308.000  -1227801.1486  -4655146.9212   4172376.4667   2   7   0.0317   0.0423   0.0357   0.0194  -0.0251  -0.0163   0.00    1.0
2173 285309.000  -1227801.1447  -4655146.9150   4172376.4675   2   7   0.0316   0.0421   0.0355   0.0193  -0.0249  -0.0162   0.00    1.0
2173 285310.000  -1227801.1436  -4655146.9131   4172376.4615   2   7   0.0315   0.0419   0.0353   0.0193  -0.0248  -0.0161   0.00    1.0
2173 285311.000  -1227801.1432  -4655146.9136   4172376.4655   2   7   0.0315   0.0417   0.0352   0.0191  -0.0247  -0.0161   0.00    1.0
2173 285312.000  -1227801.1425  -4655146.9134   4172376.4686   2   7   0.0314   0.0415   0.0350   0.0191  -0.0245  -0.0161   0.00    1.0
2173 285313.000  -1227801.1406  -4655146.9096   4172376.4628   2   7   0.0313   0.0413   0.0349   0.0190  -0.0244  -0.0159   0.00    1.0
2173 285314.000  -1227801.1392  -4655146.9082   4172376.4629   2   7   0.0312   0.0410   0.0348   0.0190  -0.0243  -0.0159   0.00    1.0
2173 285315.000  -1227801.1390  -4655146.9090   4172376.4631   2   7   0.0311   0.0408   0.0346   0.0188  -0.0242  -0.0159   0.00    1.0
2173 285316.000  -1227801.1364  -4655146.9050   4172376.4657   2   7   0.0311   0.0407   0.0345   0.0188  -0.0241  -0.0158   0.00    1.0
2173 285317.000  -1227801.1365  -4655146.9008   4172376.4653   2   7   0.0310   0.0405   0.0343   0.0187  -0.0240  -0.0157   0.00    1.0
2173 285318.000  -1227801.1363  -4655146.8982   4172376.4624   2   7   0.0310   0.0403   0.0342   0.0186  -0.0238  -0.0156   0.00    1.0
2173 285319.000  -1227801.1375  -4655146.8999   4172376.4620   2   7   0.0309   0.0400   0.0340   0.0186  -0.0237  -0.0156   0.00    1.0
2173 285320.000  -1227801.1356  -4655146.8987   4172376.4630   2   7   0.0308   0.0398   0.0339   0.0185  -0.0236  -0.0156   0.00    1.0
2173 285321.000  -1227801.1357  -4655146.8981   4172376.4623   2   7   0.0308   0.0396   0.0337   0.0184  -0.0235  -0.0154   0.00    1.0
2173 285322.000  -1227801.1323  -4655146.8947   4172376.4605   2   7   0.0307   0.0394   0.0336   0.0183  -0.0234  -0.0154   0.00    1.0
2173 285323.000  -1227801.1345  -4655146.8950   4172376.4620   2   7   0.0306   0.0393   0.0335   0.0183  -0.0232  -0.0153   0.00    1.0
2173 285324.000  -1227801.1356  -4655146.8943   4172376.4624   2   7   0.0306   0.0390   0.0334   0.0182  -0.0231  -0.0153   0.00    1.0
2173 285325.000  -1227801.1352  -4655146.8958   4172376.4636   2   7   0.0305   0.0389   0.0331   0.0181  -0.0230  -0.0153   0.00    1.0
2173 285326.000  -1227801.1323  -4655146.8941   4172376.4648   2   7   0.0305   0.0387   0.0330   0.0180  -0.0229  -0.0151   0.00    1.0
2173 285327.000  -1227801.1334  -4655146.8944   4172376.4649   2   7   0.0304   0.0385   0.0329   0.0179  -0.0228  -0.0151   0.00    1.0
2173 285328.000  -1227801.1335  -4655146.8980   4172376.4686   2   7   0.0303   0.0383   0.0328   0.0179  -0.0227  -0.0151   0.00    1.1
2173 285329.000  -1227801.1357  -4655146.9018   4172376.4728   2   7   0.0303   0.0381   0.0326   0.0179  -0.0226  -0.0150   0.00    1.1
2173 285330.000  -1227801.1308  -4655146.8934   4172376.4681   2   7   0.0302   0.0380   0.0325   0.0177  -0.0225  -0.0150   0.00    1.1
2173 285331.000  -1227801.1356  -4655146.8963   4172376.4723   2   7   0.0301   0.0377   0.0324   0.0178  -0.0224  -0.0150   0.00    1.1
2173 285332.000  -1227801.1334  -4655146.8925   4172376.4717   2   7   0.0301   0.0376   0.0322   0.0177  -0.0223  -0.0149   0.00    1.1
2173 285333.000  -1227801.1343  -4655146.8912   4172376.4713   2   7   0.0300   0.0374   0.0321   0.0176  -0.0222  -0.0148   0.00    1.1
2173 285334.000  -1227801.1357  -4655146.8932   4172376.4736   2   7   0.0300   0.0372   0.0320   0.0175  -0.0221  -0.0147   0.00    1.1
2173 285335.000  -1227801.1342  -4655146.8920   4172376.4741   2   7   0.0299   0.0371   0.0318   0.0174  -0.0220  -0.0147   0.00    1.1
2173 285336.000  -1227801.1370  -4655146.8931   4172376.4731   2   7   0.0298   0.0369   0.0317   0.0173  -0.0219  -0.0147   0.00    1.1
2173 285337.000  -1227801.1380  -4655146.8924   4172376.4764   2   7   0.0298   0.0367   0.0315   0.0173  -0.0218  -0.0146   0.00    1.1
2173 285338.000  -1227801.1357  -4655146.8897   4172376.4747   2   7   0.0297   0.0365   0.0314   0.0173  -0.0217  -0.0146   0.00    1.1
2173 285339.000  -1227801.1371  -4655146.8886   4172376.4781   2   7   0.0296   0.0364   0.0313   0.0172  -0.0216  -0.0144   0.00    1.1
2173 285340.000  -1227801.1353  -4655146.8828   4172376.4773   2   7   0.0296   0.0362   0.0312   0.0171  -0.0215  -0.0145   0.00    1.1
2173 285341.000  -1227801.1362  -4655146.8828   4172376.4786   2   7   0.0295   0.0360   0.0310   0.0170  -0.0214  -0.0144   0.00    1.1
2173 285342.000  -1227801.1354  -4655146.8768   4172376.4795   2   7   0.0295   0.0359   0.0310   0.0170  -0.0213  -0.0143   0.00    1.1
2173 285343.000  -1227801.1351  -4655146.8740   4172376.4792   2   7   0.0294   0.0357   0.0308   0.0169  -0.0212  -0.0143   0.00    1.1
2173 285344.000  -1227801.1372  -4655146.8745   4172376.4810   2   7   0.0293   0.0355   0.0306   0.0169  -0.0211  -0.0143   0.00    1.1
2173 285345.000  -1227801.1392  -4655146.8799   4172376.4834   2   7   0.0293   0.0354   0.0305   0.0168  -0.0210  -0.0142   0.00    1.1
2173 285346.000  -1227801.1361  -4655146.8826   4172376.4834   2   7   0.0293   0.0352   0.0304   0.0167  -0.0209  -0.0141   0.00    1.1
2173 285347.000  -1227801.1383  -4655146.8842   4172376.4870   2   7   0.0292   0.0351   0.0303   0.0167  -0.0208  -0.0141   0.00    1.1
2173 285348.000  -1227801.1378  -4655146.8854   4172376.4908   2   7   0.0291   0.0349   0.0302   0.0166  -0.0207  -0.0141   0.00    1.1
2173 285349.000  -1227801.1354  -4655146.8774   4172376.4888   2   7   0.0291   0.0348   0.0301   0.0165  -0.0207  -0.0140   0.00    1.1
2173 285350.000  -1227801.1367  -4655146.8835   4172376.4930   2   7   0.0290   0.0346   0.0299   0.0165  -0.0206  -0.0140   0.00    1.1
2173 285351.000  -1227801.1385  -4655146.8872   4172376.4958   2   7   0.0290   0.0345   0.0298   0.0165  -0.0205  -0.0140   0.00    1.1
2173 285352.000  -1227801.1379  -4655146.8856   4172376.4955   2   7   0.0289   0.0343   0.0298   0.0164  -0.0204  -0.0138   0.00    1.1
2173 285353.000  -1227801.1370  -4655146.8841   4172376.4969   2   7   0.0289   0.0341   0.0296   0.0163  -0.0203  -0.0138   0.00    1.1
2173 285354.000  -1227801.1369  -4655146.8831   4172376.4983   2   7   0.0288   0.0340   0.0294   0.0163  -0.0202  -0.0139   0.00    1.1
2173 285355.000  -1227801.1391  -4655146.8852   4172376.5004   2   7   0.0288   0.0338   0.0294   0.0163  -0.0201  -0.0138   0.00    1.1
2173 285356.000  -1227801.1381  -4655146.8848   4172376.4998   2   7   0.0287   0.0337   0.0292   0.0162  -0.0200  -0.0138   0.00    1.1
2173 285357.000  -1227801.1382  -4655146.8838   4172376.5021   2   7   0.0287   0.0335   0.0291   0.0161  -0.0199  -0.0137   0.00    1.1
2173 285358.000  -1227801.1407  -4655146.8870   4172376.5047   2   7   0.0286   0.0334   0.0291   0.0160  -0.0199  -0.0136   0.00    1.1
2173 285359.000  -1227801.1383  -4655146.8828   4172376.5043   2   7   0.0286   0.0332   0.0289   0.0160  -0.0198  -0.0136   0.00    1.1
2173 285360.000  -1227801.1386  -4655146.8800   4172376.5026   2   7   0.0285   0.0331   0.0288   0.0160  -0.0197  -0.0135   0.00    1.1
2173 285361.000  -1227801.1424  -4655146.8861   4172376.5088   2   7   0.0284   0.0330   0.0287   0.0159  -0.0196  -0.0135   0.00    1.1
2173 285362.000  -1227801.1432  -4655146.8865   4172376.5091   2   7   0.0284   0.0328   0.0285   0.0158  -0.0195  -0.0134   0.00    1.1
2173 285363.000  -1227801.1442  -4655146.8924   4172376.5139   2   7   0.0283   0.0327   0.0285   0.0158  -0.0195  -0.0134   0.00    1.1
2173 285364.000  -1227801.1435  -4655146.8880   4172376.5120   2   7   0.0283   0.0325   0.0284   0.0158  -0.0194  -0.0134   0.00    1.1
2173 285365.000  -1227801.1475  -4655146.8928   4172376.5161   2   7   0.0283   0.0324   0.0283   0.0157  -0.0193  -0.0133   0.00    1.1
2173 285366.000  -1227801.1477  -4655146.8870   4172376.5162   2   7   0.0282   0.0323   0.0281   0.0157  -0.0192  -0.0133   0.00    1.1
2173 285367.000  -1227801.1482  -4655146.8875   4172376.5158   2   7   0.0282   0.0322   0.0280   0.0156  -0.0191  -0.0132   0.00    1.1
2173 285368.000  -1227801.1485  -4655146.8860   4172376.5187   2   7   0.0281   0.0320   0.0279   0.0155  -0.0190  -0.0133   0.00    1.1
2173 285369.000  -1227801.1483  -4655146.8859   4172376.5202   2   7   0.0280   0.0319   0.0277   0.0155  -0.0190  -0.0133   0.00    1.1
2173 285370.000  -1227801.1516  -4655146.8917   4172376.5244   2   7   0.0280   0.0317   0.0277   0.0154  -0.0189  -0.0131   0.00    1.1
2173 285371.000  -1227801.1484  -4655146.8839   4172376.5211   2   7   0.0280   0.0316   0.0276   0.0153  -0.0188  -0.0132   0.00    1.1
2173 285372.000  -1227801.1506  -4655146.8890   4172376.5228   2   7   0.0278   0.0315   0.0275   0.0153  -0.0187  -0.0131   0.00    1.2
2173 285373.000  -1227801.1511  -4655146.8923   4172376.5257   2   7   0.0278   0.0313   0.0274   0.0153  -0.0186  -0.0131   0.00    1.2
2173 285374.000  -1227801.1554  -4655146.8910   4172376.5255   2   7   0.0278   0.0312   0.0273   0.0153  -0.0186  -0.0130   0.00    1.2
2173 285375.000  -1227801.1539  -4655146.8885   4172376.5264   2   7   0.0277   0.0311   0.0271   0.0152  -0.0185  -0.0130   0.00    1.2
2173 285376.000  -1227801.1565  -4655146.8943   4172376.5294   2   7   0.0277   0.0310   0.0271   0.0151  -0.0184  -0.0129   0.00    1.2
2173 285377.000  -1227801.1560  -4655146.8923   4172376.5283   2   7   0.0276   0.0309   0.0270   0.0151  -0.0184  -0.0129   0.00    1.2
2173 285378.000  -1227801.1548  -4655146.8989   4172376.5307   2   7   0.0276   0.0307   0.0269   0.0150  -0.0183  -0.0127   0.00    1.2
2173 285379.000  -1227801.1547  -4655146.8942   4172376.5301   2   7   0.0275   0.0306   0.0267   0.0150  -0.0182  -0.0128   0.00    1.2
2173 285380.000  -1227801.1529  -4655146.8949   4172376.5299   2   7   0.0275   0.0305   0.0266   0.0149  -0.0182  -0.0127   0.00    1.2
2173 285381.000  -1227801.1528  -4655146.8929   4172376.5334   2   7   0.0274   0.0303   0.0265   0.0149  -0.0181  -0.0128   0.00    1.2
2173 285382.000  -1227801.1520  -4655146.8931   4172376.5304   2   7   0.0275   0.0302   0.0265   0.0148  -0.0180  -0.0127   0.00    1.2
2173 285383.000  -1227801.1522  -4655146.8930   4172376.5314   2   7   0.0274   0.0301   0.0263   0.0148  -0.0179  -0.0127   0.00    1.2
2173 285384.000  -1227801.1502  -4655146.8928   4172376.5299   2   7   0.0273   0.0300   0.0263   0.0147  -0.0179  -0.0126   0.00    1.2
2173 285385.000  -1227801.1510  -4655146.8913   4172376.5302   2   7   0.0273   0.0299   0.0261   0.0147  -0.0178  -0.0126   0.00    1.2
2173 285386.000  -1227801.1492  -4655146.8880   4172376.5282   2   7   0.0272   0.0298   0.0260   0.0146  -0.0177  -0.0126   0.00    1.2
2173 285387.000  -1227801.1522  -4655146.8942   4172376.5312   2   7   0.0272   0.0296   0.0260   0.0147  -0.0177  -0.0126   0.00    1.2
2173 285388.000  -1227801.1510  -4655146.8977   4172376.5333   2   7   0.0271   0.0295   0.0259   0.0146  -0.0176  -0.0125   0.00    1.2
2173 285389.000  -1227801.1492  -4655146.8930   4172376.5319   2   7   0.0271   0.0294   0.0258   0.0145  -0.0175  -0.0125   0.00    1.2
2173 285390.000  -1227801.1494  -4655146.8973   4172376.5295   2   7   0.0271   0.0293   0.0257   0.0145  -0.0175  -0.0124   0.00    1.2
2173 285391.000  -1227801.1527  -4655146.8956   4172376.5334   2   7   0.0270   0.0292   0.0256   0.0144  -0.0174  -0.0124   0.00    1.2
2173 285392.000  -1227801.1542  -4655146.8966   4172376.5325   2   7   0.0269   0.0291   0.0255   0.0144  -0.0174  -0.0124   0.00    1.2
2173 285393.000  -1227801.1537  -4655146.8981   4172376.5370   2   7   0.0269   0.0289   0.0254   0.0144  -0.0173  -0.0123   0.00    1.2
2173 285394.000  -1227801.1547  -4655146.8955   4172376.5325   2   7   0.0269   0.0289   0.0253   0.0143  -0.0172  -0.0123   0.00    1.2
2173 285395.000  -1227801.1535  -4655146.9001   4172376.5374   2   7   0.0268   0.0287   0.0252   0.0143  -0.0171  -0.0122   0.00    1.2
2173 285396.000  -1227801.1546  -4655146.8998   4172376.5379   2   7   0.0267   0.0286   0.0251   0.0143  -0.0171  -0.0122   0.00    1.2
2173 285397.000  -1227801.1543  -4655146.9005   4172376.5372   2   7   0.0267   0.0285   0.0251   0.0141  -0.0171  -0.0122   0.00    1.2
2173 285398.000  -1227801.1537  -4655146.9023   4172376.5371   2   7   0.0267   0.0284   0.0249   0.0141  -0.0170  -0.0122   0.00    1.2
2173 285399.000  -1227801.1526  -4655146.8977   4172376.5356   2   7   0.0267   0.0283   0.0249   0.0142  -0.0169  -0.0121   0.00    1.2
2173 285400.000  -1227801.1554  -4655146.9008   4172376.5370   2   7   0.0266   0.0282   0.0248   0.0140  -0.0168  -0.0121   0.00    1.2
2173 285401.000  -1227801.1535  -4655146.9007   4172376.5363   2   7   0.0266   0.0281   0.0247   0.0141  -0.0168  -0.0121   0.00    1.2
2173 285402.000  -1227801.1549  -4655146.9006   4172376.5386   2   7   0.0265   0.0280   0.0246   0.0140  -0.0167  -0.0120   0.00    1.2
2173 285403.000  -1227801.1545  -4655146.9001   4172376.5387   2   7   0.0265   0.0279   0.0245   0.0140  -0.0167  -0.0120   0.00    1.2
2173 285404.000  -1227801.1548  -4655146.9045   4172376.5425   2   7   0.0265   0.0278   0.0244   0.0139  -0.0166  -0.0119   0.00    1.2
2173 285405.000  -1227801.1566  -4655146.9068   4172376.5436   2   7   0.0264   0.0277   0.0243   0.0138  -0.0165  -0.0120   0.00    1.2
2173 285406.000  -1227801.1542  -4655146.9060   4172376.5432   2   7   0.0263   0.0275   0.0243   0.0139  -0.0165  -0.0119   0.00    1.2
2173 285407.000  -1227801.1567  -4655146.9095   4172376.5459   2   7   0.0263   0.0275   0.0242   0.0137  -0.0164  -0.0119   0.00    1.2
2173 285408.000  -1227801.1563  -4655146.9071   4172376.5418   2   7   0.0262   0.0274   0.0241   0.0137  -0.0164  -0.0119   0.00    1.2
2173 285409.000  -1227801.1569  -4655146.9115   4172376.5458   2   7   0.0262   0.0272   0.0240   0.0137  -0.0163  -0.0118   0.00    1.2
2173 285410.000  -1227801.1573  -4655146.9152   4172376.5472   2   7   0.0262   0.0272   0.0239   0.0137  -0.0162  -0.0118   0.00    1.2
2173 285411.000  -1227801.1563  -4655146.9111   4172376.5460   2   7   0.0262   0.0271   0.0239   0.0136  -0.0162  -0.0118   0.00    1.2
2173 285412.000  -1227801.1595  -4655146.9156   4172376.5500   2   7   0.0261   0.0270   0.0238   0.0136  -0.0162  -0.0117   0.00    1.2
2173 285413.000  -1227801.1588  -4655146.9165   4172376.5490   2   7   0.0261   0.0269   0.0237   0.0135  -0.0161  -0.0117   0.00    1.2
2173 285414.000  -1227801.1572  -4655146.9171   4172376.5510   2   7   0.0260   0.0268   0.0236   0.0135  -0.0160  -0.0116   0.00    1.3
2173 285415.000  -1227801.1582  -4655146.9139   4172376.5516   2   7   0.0259   0.0267   0.0235   0.0135  -0.0160  -0.0117   0.00    1.3
2173 285416.000  -1227801.1573  -4655146.9135   4172376.5516   2   7   0.0260   0.0266   0.0234   0.0134  -0.0159  -0.0115   0.00    1.3
2173 285417.000  -1227801.1592  -4655146.9224   4172376.5527   2   7   0.0259   0.0265   0.0233   0.0133  -0.0159  -0.0116   0.00    1.3
2173 285418.000  -1227801.1591  -4655146.9200   4172376.5510   2   7   0.0259   0.0264   0.0233   0.0133  -0.0158  -0.0116   0.00    1.3
2173 285419.000  -1227801.1609  -4655146.9230   4172376.5532   2   8   0.0258   0.0263   0.0231   0.0134  -0.0157  -0.0116   0.00    1.0
2173 285420.000  -1227801.1605  -4655146.9200   4172376.5534   2   8   0.0257   0.0260   0.0231   0.0131  -0.0156  -0.0115   0.00    1.0
2173 285421.000  -1227801.1642  -4655146.9210   4172376.5550   2   8   0.0256   0.0258   0.0230   0.0129  -0.0155  -0.0113   0.00    1.0
2173 285422.000  -1227801.1643  -4655146.9256   4172376.5565   2   8   0.0256   0.0257   0.0229   0.0127  -0.0154  -0.0114   0.00    1.0
2173 285423.000  -1227801.1637  -4655146.9249   4172376.5549   2   8   0.0256   0.0256   0.0228   0.0128  -0.0153  -0.0113   0.00    1.0
2173 285424.000  -1227801.1653  -4655146.9235   4172376.5555   2   8   0.0255   0.0254   0.0228   0.0126  -0.0153  -0.0112   0.00    1.0
2173 285425.000  -1227801.1662  -4655146.9223   4172376.5556   2   8   0.0255   0.0253   0.0227   0.0127  -0.0152  -0.0112   0.00    1.0
2173 285426.000  -1227801.1668  -4655146.9257   4172376.5556   2   8   0.0255   0.0253   0.0226   0.0125  -0.0152  -0.0112   0.00    1.0
2173 285427.000  -1227801.1690  -4655146.9250   4172376.5549   2   8   0.0254   0.0251   0.0225   0.0126  -0.0151  -0.0111   0.00    1.0
2173 285428.000  -1227801.1687  -4655146.9257   4172376.5549   2   8   0.0254   0.0250   0.0225   0.0125  -0.0150  -0.0111   0.00    1.0
2173 285429.000  -1227801.1707  -4655146.9269   4172376.5547   2   8   0.0253   0.0250   0.0224   0.0125  -0.0150  -0.0111   0.00    1.0
2173 285430.000  -1227801.1703  -4655146.9303   4172376.5546   2   8   0.0253   0.0249   0.0223   0.0125  -0.0149  -0.0110   0.00    1.0
2173 285431.000  -1227801.1687  -4655146.9299   4172376.5529   2   8   0.0252   0.0248   0.0222   0.0123  -0.0149  -0.0110   0.00    1.1
2173 285432.000  -1227801.1691  -4655146.9317   4172376.5553   2   8   0.0252   0.0247   0.0222   0.0123  -0.0149  -0.0110   0.00    1.1
2173 285433.000  -1227801.1716  -4655146.9343   4172376.5570   2   8   0.0252   0.0246   0.0221   0.0123  -0.0148  -0.0109   0.00    1.1
2173 285434.000  -1227801.1696  -4655146.9334   4172376.5556   2   8   0.0251   0.0245   0.0220   0.0122  -0.0147  -0.0109   0.00    1.1
2173 285435.000  -1227801.1719  -4655146.9364   4172376.5544   2   8   0.0251   0.0244   0.0219   0.0122  -0.0147  -0.0109   0.00    1.1
2173 285436.000  -1227801.1726  -4655146.9327   4172376.5575   2   8   0.0250   0.0243   0.0219   0.0121  -0.0146  -0.0108   0.00    1.1
2173 285437.000  -1227801.1750  -4655146.9333   4172376.5549   2   8   0.0249   0.0242   0.0218   0.0121  -0.0146  -0.0109   0.00    1.1
2173 285438.000  -1227801.1737  -4655146.9309   4172376.5552   2   8   0.0249   0.0241   0.0218   0.0120  -0.0145  -0.0108   0.00    1.1
2173 285439.000  -1227801.1774  -4655146.9367   4172376.5573   2   8   0.0249   0.0241   0.0217   0.0120  -0.0145  -0.0108   0.00    1.1
2173 285440.000  -1227801.1768  -4655146.9370   4172376.5571   2   8   0.0249   0.0240   0.0216   0.0120  -0.0145  -0.0107   0.00    1.1
2173 285441.000  -1227801.1781  -4655146.9396   4172376.5563   2   8   0.0247   0.0239   0.0215   0.0119  -0.0143  -0.0108   0.00    1.1
2173 285442.000  -1227801.1799  -4655146.9370   4172376.5585   2   8   0.0247   0.0238   0.0214   0.0119  -0.0143  -0.0108   0.00    1.1
2173 285443.000  -1227801.1802  -4655146.9363   4172376.5580   2   8   0.0248   0.0237   0.0214   0.0119  -0.0143  -0.0107   0.00    1.1
2173 285444.000  -1227801.1806  -4655146.9362   4172376.5584   2   8   0.0247   0.0236   0.0214   0.0118  -0.0143  -0.0107   0.00    1.1
2173 285445.000  -1227801.1830  -4655146.9381   4172376.5574   2   8   0.0246   0.0236   0.0213   0.0117  -0.0142  -0.0106   0.00    1.1
2173 285446.000  -1227801.1832  -4655146.9394   4172376.5563   2   8   0.0246   0.0235   0.0212   0.0117  -0.0142  -0.0106   0.00    1.1
2173 285447.000  -1227801.1838  -4655146.9360   4172376.5611   2   8   0.0246   0.0234   0.0212   0.0117  -0.0141  -0.0106   0.00    1.1
2173 285448.000  -1227801.1853  -4655146.9380   4172376.5576   2   8   0.0245   0.0233   0.0210   0.0117  -0.0141  -0.0106   0.00    1.1
2173 285449.000  -1227801.1846  -4655146.9357   4172376.5591   2   8   0.0245   0.0232   0.0210   0.0117  -0.0140  -0.0105   0.00    1.1
2173 285450.000  -1227801.1851  -4655146.9338   4172376.5562   2   8   0.0245   0.0232   0.0209   0.0116  -0.0140  -0.0105   0.00    1.1
2173 285451.000  -1227801.1859  -4655146.9390   4172376.5600   2   8   0.0244   0.0231   0.0208   0.0116  -0.0139  -0.0104   0.00    1.1
2173 285452.000  -1227801.1843  -4655146.9355   4172376.5569   2   8   0.0243   0.0230   0.0208   0.0116  -0.0139  -0.0104   0.00    1.1
2173 285453.000  -1227801.1867  -4655146.9413   4172376.5610   2   8   0.0243   0.0229   0.0207   0.0114  -0.0138  -0.0104   0.00    1.1
2173 285454.000  -1227801.1860  -4655146.9372   4172376.5571   2   8   0.0243   0.0229   0.0207   0.0114  -0.0138  -0.0104   0.00    1.2
2173 285455.000  -1227801.1870  -4655146.9366   4172376.5575   2   8   0.0242   0.0228   0.0206   0.0114  -0.0137  -0.0104   0.00    1.2
2173 285456.000  -1227801.1855  -4655146.9405   4172376.5576   2   8   0.0241   0.0228   0.0206   0.0112  -0.0137  -0.0103   0.00    1.2
2173 285457.000  -1227801.1876  -4655146.9376   4172376.5565   2   8   0.0242   0.0227   0.0205   0.0113  -0.0136  -0.0103   0.00    1.2
2173 285458.000  -1227801.1861  -4655146.9355   4172376.5587   2   8   0.0242   0.0226   0.0205   0.0113  -0.0136  -0.0102   0.00    1.2
2173 285459.000  -1227801.1901  -4655146.9396   4172376.5585   2   8   0.0241   0.0225   0.0204   0.0113  -0.0136  -0.0103   0.00    1.2
2173 285460.000  -1227801.1917  -4655146.9445   4172376.5617   2   8   0.0241   0.0224   0.0203   0.0113  -0.0136  -0.0103   0.00    1.2
2173 285461.000  -1227801.1905  -4655146.9386   4172376.5579   2   8   0.0240   0.0224   0.0202   0.0112  -0.0135  -0.0102   0.00    1.2
2173 285462.000  -1227801.1895  -4655146.9367   4172376.5614   2   8   0.0240   0.0223   0.0202   0.0112  -0.0135  -0.0102   0.00    1.2
2173 285463.000  -1227801.1866  -4655146.9363   4172376.5580   2   8   0.0240   0.0222   0.0200   0.0111  -0.0134  -0.0101   0.00    1.2
2173 285464.000  -1227801.1887  -4655146.9418   4172376.5611   2   8   0.0239   0.0221   0.0200   0.0111  -0.0134  -0.0102   0.00    1.2
2173 285465.000  -1227801.1901  -4655146.9392   4172376.5594   2   8   0.0238   0.0220   0.0199   0.0112  -0.0133  -0.0102   0.00    1.2
2173 285466.000  -1227801.1915  -4655146.9411   4172376.5613   2   8   0.0239   0.0220   0.0200   0.0110  -0.0133  -0.0100   0.00    1.2
2173 285467.000  -1227801.1934  -4655146.9455   4172376.5626   2   8   0.0238   0.0219   0.0199   0.0110  -0.0133  -0.0099   0.00    1.2
2173 285468.000  -1227801.1923  -4655146.9434   4172376.5636   2   8   0.0238   0.0219   0.0198   0.0109  -0.0132  -0.0101   0.00    1.2
2173 285469.000  -1227801.1928  -4655146.9414   4172376.5604   2   8   0.0237   0.0218   0.0197   0.0110  -0.0132  -0.0100   0.00    1.2
2173 285470.000  -1227801.1939  -4655146.9428   4172376.5619   2   8   0.0237   0.0217   0.0197   0.0109  -0.0131  -0.0101   0.00    1.2
2173 285471.000  -1227801.1919  -4655146.9379   4172376.5583   2   8   0.0237   0.0217   0.0197   0.0108  -0.0131  -0.0100   0.00    1.2
2173 285472.000  -1227801.1923  -4655146.9424   4172376.5600   2   8   0.0236   0.0216   0.0196   0.0109  -0.0131  -0.0100   0.00    1.2
2173 285473.000  -1227801.1921  -4655146.9410   4172376.5612   2   8   0.0236   0.0216   0.0195   0.0108  -0.0131  -0.0100   0.00    1.3
2173 285474.000  -1227801.1907  -4655146.9353   4172376.5566   2   8   0.0236   0.0215   0.0195   0.0108  -0.0130  -0.0099   0.00    1.3
2173 285475.000  -1227801.1917  -4655146.9341   4172376.5568   2   8   0.0236   0.0215   0.0193   0.0106  -0.0129  -0.0100   0.00    1.3
2173 285476.000  -1227801.1928  -4655146.9412   4172376.5598   2   8   0.0235   0.0213   0.0194   0.0107  -0.0129  -0.0099   0.00    1.3
2173 285477.000  -1227801.1933  -4655146.9415   4172376.5603   2   8   0.0234   0.0213   0.0192   0.0107  -0.0128  -0.0099   0.00    1.3
2173 285478.000  -1227801.1910  -4655146.9364   4172376.5575   2   8   0.0234   0.0212   0.0193   0.0107  -0.0128  -0.0097   0.00    1.3
2173 285479.000  -1227801.1921  -4655146.9363   4172376.5562   2   8   0.0233   0.0211   0.0191   0.0106  -0.0128  -0.0098   0.00    1.3
2173 285480.000  -1227801.1925  -4655146.9414   4172376.5570   2   8   0.0234   0.0211   0.0191   0.0105  -0.0128  -0.0097   0.00    1.3
2173 285481.000  -1227801.1936  -4655146.9469   4172376.5613   2   8   0.0233   0.0210   0.0191   0.0106  -0.0127  -0.0098   0.00    1.3
2173 285482.000  -1227801.1908  -4655146.9405   4172376.5584   2   8   0.0233   0.0210   0.0191   0.0106  -0.0127  -0.0098   0.00    1.3
2173 285483.000  -1227801.1922  -4655146.9418   4172376.5555   2   8   0.0232   0.0209   0.0190   0.0105  -0.0126  -0.0097   0.00    1.3
2173 285484.000  -1227801.1893  -4655146.9397   4172376.5541   2   8   0.0232   0.0208   0.0189   0.0105  -0.0126  -0.0097   0.00    1.3
2173 285485.000  -1227801.1905  -4655146.9430   4172376.5540   2   8   0.0232   0.0208   0.0189   0.0105  -0.0126  -0.0096   0.00    1.3
2173 285486.000  -1227801.1917  -4655146.9441   4172376.5543   2   8   0.0232   0.0207   0.0189   0.0103  -0.0126  -0.0096   0.00    1.3
2173 285487.000  -1227801.1910  -4655146.9477   4172376.5555   2   8   0.0231   0.0207   0.0188   0.0103  -0.0125  -0.0097   0.00    1.3
2173 285488.000  -1227801.1886  -4655146.9434   4172376.5526   2   8   0.0231   0.0206   0.0187   0.0104  -0.0125  -0.0096   0.00    1.3
2173 285489.000  -1227801.1879  -4655146.9413   4172376.5508   2   8   0.0231   0.0206   0.0186   0.0104  -0.0124  -0.0096   0.00    1.3
2173 285490.000  -1227801.1881  -4655146.9411   4172376.5486   2   8   0.0230   0.0205   0.0186   0.0104  -0.0123  -0.0096   0.00    1.3
2173 285491.000  -1227801.1897  -4655146.9456   4172376.5513   2   8   0.0230   0.0204   0.0186   0.0102  -0.0124  -0.0096   0.00    1.3
2173 285492.000  -1227801.1898  -4655146.9415   4172376.5485   2   8   0.0229   0.0204   0.0185   0.0103  -0.0123  -0.0096   0.00    1.3
2173 285493.000  -1227801.1866  -4655146.9396   4172376.5457   2   8   0.0228   0.0203   0.0184   0.0103  -0.0123  -0.0095   0.00    1.3
2173 285494.000  -1227801.1832  -4655146.9358   4172376.5434   2   8   0.0229   0.0202   0.0183   0.0102  -0.0123  -0.0096   0.00    1.3
2173 285495.000  -1227801.1863  -4655146.9404   4172376.5455   2   8   0.0229   0.0202   0.0184   0.0103  -0.0123  -0.0095   0.00    1.3
2173 285496.000  -1227801.1837  -4655146.9403   4172376.5422   2   8   0.0229   0.0202   0.0182   0.0101  -0.0122  -0.0096   0.00    1.3
2173 285497.000  -1227801.1854  -4655146.9465   4172376.5428   2   8   0.0228   0.0201   0.0183   0.0100  -0.0122  -0.0095   0.00    1.3
2173 285498.000  -1227801.1858  -4655146.9453   4172376.5469   2   8   0.0228   0.0201   0.0182   0.0102  -0.0121  -0.0094   0.00    1.3
2173 285499.000  -1227801.1880  -4655146.9493   4172376.5428   2   8   0.0227   0.0200   0.0182   0.0102  -0.0121  -0.0093   0.00    1.3
2173 285500.000  -1227801.1876  -4655146.9517   4172376.5459   2   8   0.0227   0.0199   0.0181   0.0100  -0.0121  -0.0094   0.00    1.3
2173 285501.000  -1227801.1885  -4655146.9468   4172376.5432   2   8   0.0227   0.0198   0.0180   0.0102  -0.0120  -0.0094   0.00    1.3
2173 285502.000  -1227801.1882  -4655146.9520   4172376.5442   2   8   0.0227   0.0198   0.0180   0.0099  -0.0120  -0.0094   0.00    1.4
2173 285503.000  -1227801.1873  -4655146.9529   4172376.5426   2   8   0.0226   0.0198   0.0179   0.0099  -0.0120  -0.0093   0.00    1.4
2173 285504.000  -1227801.1822  -4655146.9409   4172376.5388   2   8   0.0226   0.0197   0.0179   0.0100  -0.0119  -0.0093   0.00    1.4
2173 285505.000  -1227801.1817  -4655146.9340   4172376.5337   2   8   0.0226   0.0196   0.0178   0.0099  -0.0119  -0.0093   0.00    1.4
2173 285506.000  -1227801.1807  -4655146.9357   4172376.5348   2   8   0.0226   0.0196   0.0178   0.0098  -0.0119  -0.0093   0.00    1.4
2173 285507.000  -1227801.1823  -4655146.9396   4172376.5341   2   8   0.0226   0.0196   0.0177   0.0097  -0.0118  -0.0094   0.00    1.4
2173 285508.000  -1227801.1832  -4655146.9431   4172376.5364   2   8   0.0225   0.0195   0.0177   0.0098  -0.0118  -0.0093   0.00    1.4
2173 285509.000  -1227801.1884  -4655146.9519   4172376.5372   2   8   0.0224   0.0195   0.0177   0.0097  -0.0118  -0.0093   0.00    1.4
2173 285510.000  -1227801.1891  -4655146.9526   4172376.5377   2   8   0.0225   0.0194   0.0176   0.0098  -0.0118  -0.0092   0.00    1.4
2173 285511.000  -1227801.1875  -4655146.9503   4172376.5351   2   8   0.0224   0.0193   0.0176   0.0097  -0.0118  -0.0092   0.00    1.4
2173 285512.000  -1227801.1895  -4655146.9538   4172376.5368   2   8   0.0224   0.0193   0.0175   0.0097  -0.0117  -0.0091   0.00    1.4
2173 285513.000  -1227801.1866  -4655146.9539   4172376.5348   2   8   0.0224   0.0192   0.0174   0.0097  -0.0117  -0.0092   0.00    1.4
2173 285514.000  -1227801.1837  -4655146.9395   4172376.5302   2   8   0.0223   0.0192   0.0174   0.0097  -0.0117  -0.0092   0.00    1.4
