% program   : rnx2rtkp ver.2.4.3 b31
% inp file  : ngs/21_08_29_18_57_25_mifw.obs
% inp file  : ngs/21_08_29_18_57_25_mifw_SNMI.obs
% inp file  : ngs/21_08_29_18_57_25_brdc.nav
% obs start : 2021/08/29 18:00:00.0 GPST (week2173  64800.0s)
% obs end   : 2021/08/29 18:59:59.0 GPST (week2173  68399.0s)
% ref pos   :   568215.7093  -4690425.5631   4270219.8201
%
% (x/y/z-ecef=WGS84,Q=1:fix,2:float,3:sbas,4:dgps,5:single,6:ppp,ns=# of satellites)
%  GPST              x-ecef(m)      y-ecef(m)      z-ecef(m)   Q  ns   sdx(m)   sdy(m)   sdz(m)  sdxy(m)  sdyz(m)  sdzx(m) age(s)  ratio
2173  68221.000    568228.5844  -4690531.7551   4270317.1832   2   6   0.4891   1.2298   0.9072  -0.5163  -0.8282   0.2217 -30.00    1.3
2173  68222.000    568228.5907  -4690531.7610   4270317.1804   2   6   0.3476   0.8739   0.6447  -0.3669  -0.5883   0.1576 -29.00    1.3
2173  68223.000    568228.5906  -4690531.7603   4270317.1833   2   6   0.2846   0.7155   0.5277  -0.3006  -0.4816   0.1292 -28.00    1.3
2173  68224.000    568228.5922  -4690531.7641   4270317.1846   2   6   0.2470   0.6209   0.4578  -0.2609  -0.4179   0.1122 -27.00    1.3
2173  68225.000    568228.5932  -4690531.7636   4270317.1823   2   6   0.2213   0.5562   0.4099  -0.2339  -0.3743   0.1006 -26.00    1.3
2173  68226.000    568228.5948  -4690531.7696   4270317.1832   2   6   0.2023   0.5084   0.3746  -0.2138  -0.3420   0.0921 -25.00    1.3
2173  68227.000    568228.5944  -4690531.7671   4270317.1836   2   6   0.1875   0.4711   0.3470  -0.1983  -0.3169   0.0854 -24.00    1.3
2173  68228.000    568228.5951  -4690531.7682   4270317.1825   2   6   0.1755   0.4410   0.3248  -0.1857  -0.2966   0.0801 -23.00    1.3
2173  68229.000    568228.5982  -4690531.7696   4270317.1828   2   6   0.1656   0.4160   0.3063  -0.1752  -0.2798   0.0756 -22.00    1.3
2173  68230.000    568228.5975  -4690531.7755   4270317.1878   2   6   0.1572   0.3948   0.2906  -0.1663  -0.2654   0.0718 -21.00    1.3
2173  68231.000    568228.5981  -4690531.7755   4270317.1877   2   6   0.1499   0.3765   0.2770  -0.1587  -0.2531   0.0685 -20.00    1.3
2173  68232.000    568228.5979  -4690531.7810   4270317.1912   2   6   0.1435   0.3605   0.2652  -0.1520  -0.2423   0.0656 -19.00    1.3
2173  68233.000    568228.6004  -4690531.7831   4270317.1944   2   6   0.1379   0.3463   0.2547  -0.1460  -0.2327   0.0631 -18.00    1.3
2173  68234.000    568228.6012  -4690531.7848   4270317.1925   2   6   0.1329   0.3336   0.2453  -0.1407  -0.2241   0.0608 -17.00    1.3
2173  68235.000    568228.6010  -4690531.7855   4270317.1946   2   6   0.1284   0.3222   0.2369  -0.1359  -0.2164   0.0588 -16.00    1.2
2173  68236.000    568228.6019  -4690531.7872   4270317.1943   2   6   0.1242   0.3118   0.2292  -0.1316  -0.2094   0.0569 -15.00    1.2
2173  68237.000    568228.6030  -4690531.7918   4270317.1985   2   6   0.1205   0.3023   0.2223  -0.1276  -0.2030   0.0552 -14.00    1.1
2173  68238.000    568228.6028  -4690531.7897   4270317.1979   2   6   0.1171   0.2936   0.2158  -0.1240  -0.1971   0.0536 -13.00    1.0
2173  68239.000    568228.6039  -4690531.7911   4270317.1997   2   6   0.1139   0.2856   0.2099  -0.1206  -0.1917   0.0522 -12.00    1.2
2173  68240.000    568228.6043  -4690531.7900   4270317.2017   2   6   0.1109   0.2782   0.2045  -0.1175  -0.1867   0.0509 -11.00    1.3
2173  68241.000    568228.6039  -4690531.7862   4270317.1979   2   6   0.1082   0.2713   0.1994  -0.1146  -0.1820   0.0496 -10.00    1.5
2173  68242.000    568228.6031  -4690531.7792   4270317.1970   2   6   0.1057   0.2649   0.1946  -0.1119  -0.1777   0.0485  -9.00    1.8
2173  68243.000    568228.6020  -4690531.7745   4270317.1957   2   6   0.1033   0.2589   0.1902  -0.1094  -0.1736   0.0474  -8.00    2.1
2173  68244.000    568228.6036  -4690531.7754   4270317.1954   2   6   0.1011   0.2532   0.1860  -0.1071  -0.1698   0.0464  -7.00    2.5
2173  68245.000    568228.6224  -4690532.1567   4270317.5168   1   6   0.0080   0.0205   0.0144  -0.0090  -0.0140   0.0043  -6.00    3.0
2173  68246.000    568228.6216  -4690532.1553   4270317.5147   1   6   0.0071   0.0184   0.0130  -0.0080  -0.0125   0.0039  -5.00    3.5
2173  68247.000    568228.6204  -4690532.1573   4270317.5190   1   6   0.0065   0.0165   0.0118  -0.0071  -0.0112   0.0033  -4.00    4.0
2173  68248.000    568228.6222  -4690532.1614   4270317.5208   1   6   0.0058   0.0148   0.0106  -0.0064  -0.0100   0.0028  -3.00    4.4
2173  68249.000    568228.6233  -4690532.1655   4270317.5204   1   6   0.0053   0.0135   0.0098  -0.0059  -0.0091   0.0030  -2.00    4.8
2173  68250.000    568228.6238  -4690532.1682   4270317.5235   1   6   0.0051   0.0126   0.0093  -0.0054  -0.0085   0.0024  -1.00    5.2
2173  68251.000    568228.6244  -4690532.1659   4270317.5193   1   6   0.0051   0.0124   0.0091  -0.0052  -0.0083   0.0021   0.00    5.8
2173  68252.000    568228.6228  -4690532.1603   4270317.5165   1   6   0.0048   0.0123   0.0091  -0.0054  -0.0083   0.0022   0.00    6.2
2173  68253.000    568228.6237  -4690532.1668   4270317.5179   1   6   0.0050   0.0124   0.0091  -0.0052  -0.0082   0.0016   0.00    6.7
2173  68254.000    568228.6261  -4690532.1619   4270317.5205   1   6   0.0048   0.0123   0.0091  -0.0053  -0.0083   0.0020   0.00    6.8
2173  68255.000    568228.6265  -4690532.1619   4270317.5186   1   6   0.0048   0.0123   0.0090  -0.0053  -0.0083   0.0022   0.00    6.7
2173  68256.000    568228.6275  -4690532.1633   4270317.5165   1   6   0.0049   0.0123   0.0091  -0.0053  -0.0082   0.0025   0.00    6.7
2173  68257.000    568228.6251  -4690532.1589   4270317.5143   1   6   0.0050   0.0124   0.0091  -0.0051  -0.0082   0.0016   0.00    6.7
2173  68258.000    568228.6277  -4690532.1656   4270317.5177   1   6   0.0049   0.0124   0.0091  -0.0054  -0.0083   0.0025   0.00    6.7
2173  68259.000    568228.6267  -4690532.1658   4270317.5188   1   6   0.0045   0.0123   0.0091  -0.0052  -0.0083   0.0023   0.00    6.8
2173  68260.000    568228.6284  -4690532.1658   4270317.5179   1   6   0.0050   0.0124   0.0092  -0.0053  -0.0083   0.0028   0.00    7.0
2173  68261.000    568228.6275  -4690532.1705   4270317.5210   1   6   0.0049   0.0124   0.0090  -0.0052  -0.0082   0.0021   0.00    7.1
2173  68262.000    568228.6274  -4690532.1657   4270317.5195   1   6   0.0050   0.0123   0.0091  -0.0054  -0.0083   0.0025   0.00    7.1
2173  68263.000    568228.6266  -4690532.1649   4270317.5176   1   6   0.0049   0.0123   0.0091  -0.0052  -0.0082   0.0027   0.00    7.0
2173  68264.000    568228.6272  -4690532.1724   4270317.5170   1   6   0.0050   0.0123   0.0091  -0.0053  -0.0083   0.0023   0.00    6.9
2173  68265.000    568228.6277  -4690532.1751   4270317.5224   1   6   0.0049   0.0124   0.0091  -0.0053  -0.0082   0.0021   0.00    6.8
2173  68266.000    568228.6280  -4690532.1782   4270317.5261   1   6   0.0049   0.0124   0.0090  -0.0052  -0.0082   0.0015   0.00    6.8
2173  68267.000    568228.6279  -4690532.1716   4270317.5211   1   6   0.0048   0.0123   0.0090  -0.0054  -0.0082   0.0027   0.00    6.7
2173  68268.000    568228.6283  -4690532.1668   4270317.5182   1   6   0.0047   0.0124   0.0091  -0.0051  -0.0083   0.0024   0.00    6.7
2173  68269.000    568228.6276  -4690532.1696   4270317.5170   1   6   0.0050   0.0123   0.0091  -0.0052  -0.0082   0.0021   0.00    6.6
2173  68270.000    568228.6250  -4690532.1664   4270317.5219   1   6   0.0052   0.0123   0.0089  -0.0053  -0.0082   0.0023   0.00    6.5
2173  68271.000    568228.6297  -4690532.1699   4270317.5176   1   6   0.0050   0.0124   0.0090  -0.0052  -0.0082   0.0018   0.00    6.4
2173  68272.000    568228.6276  -4690532.1691   4270317.5189   1   6   0.0050   0.0124   0.0090  -0.0052  -0.0083   0.0018   0.00    6.2
2173  68273.000    568228.6301  -4690532.1695   4270317.5171   1   6   0.0052   0.0123   0.0090  -0.0053  -0.0083   0.0022   0.00    6.1
2173  68274.000    568228.6251  -4690532.1697   4270317.5191   1   6   0.0052   0.0124   0.0090  -0.0053  -0.0082   0.0019   0.00    6.0
2173  68275.000    568228.6229  -4690532.1654   4270317.5152   1   6   0.0050   0.0124   0.0091  -0.0051  -0.0082   0.0022   0.00    5.9
2173  68276.000    568228.6245  -4690532.1698   4270317.5213   1   6   0.0048   0.0124   0.0091  -0.0052  -0.0082   0.0025   0.00    5.7
2173  68277.000    568228.6257  -4690532.1706   4270317.5183   1   6   0.0051   0.0124   0.0090  -0.0053  -0.0082   0.0024   0.00    5.6
2173  68278.000    568228.6266  -4690532.1729   4270317.5188   1   6   0.0052   0.0124   0.0092  -0.0052  -0.0082   0.0021   0.00    5.5
2173  68279.000    568228.6260  -4690532.1649   4270317.5128   1   6   0.0049   0.0123   0.0090  -0.0053  -0.0083   0.0017   0.00    5.4
2173  68280.000    568228.6266  -4690532.1694   4270317.5206   1   6   0.0047   0.0124   0.0091  -0.0052  -0.0082   0.0019   0.00    5.3
2173  68281.000    568228.6245  -4690532.1740   4270317.5215   1   6   0.0050   0.0124   0.0091  -0.0054  -0.0082   0.0024   0.00    5.2
2173  68282.000    568228.6257  -4690532.1730   4270317.5192   1   6   0.0050   0.0124   0.0091  -0.0052  -0.0083   0.0014   0.00    5.2
2173  68283.000    568228.6262  -4690532.1710   4270317.5203   1   6   0.0049   0.0123   0.0090  -0.0053  -0.0082   0.0022   0.00    5.1
2173  68284.000    568228.6253  -4690532.1736   4270317.5172   1   6   0.0047   0.0124   0.0090  -0.0051  -0.0082   0.0017   0.00    5.1
2173  68285.000    568228.6256  -4690532.1648   4270317.5122   1   6   0.0050   0.0124   0.0089  -0.0051  -0.0082   0.0016   0.00    4.9
2173  68286.000    568228.6260  -4690532.1698   4270317.5183   1   6   0.0048   0.0124   0.0090  -0.0053  -0.0082   0.0022   0.00    4.9
2173  68287.000    568228.6273  -4690532.1733   4270317.5187   1   6   0.0049   0.0123   0.0091  -0.0053  -0.0082   0.0021   0.00    4.8
2173  68288.000    568228.6286  -4690532.1745   4270317.5179   1   6   0.0049   0.0124   0.0090  -0.0053  -0.0082   0.0027   0.00    4.8
2173  68289.000    568228.6272  -4690532.1685   4270317.5153   1   6   0.0050   0.0124   0.0090  -0.0054  -0.0083   0.0027   0.00    4.7
2173  68290.000    568228.6291  -4690532.1630   4270317.5130   1   6   0.0050   0.0123   0.0090  -0.0053  -0.0082   0.0027   0.00    4.7
2173  68291.000    568228.6305  -4690532.1673   4270317.5125   1   6   0.0053   0.0124   0.0091  -0.0054  -0.0082   0.0025   0.00    4.7
2173  68292.000    568228.6298  -4690532.1651   4270317.5121   1   6   0.0050   0.0124   0.0090  -0.0053  -0.0082   0.0019   0.00    4.6
2173  68293.000    568228.6318  -4690532.1663   4270317.5102   1   6   0.0053   0.0124   0.0090  -0.0052  -0.0082   0.0020   0.00    4.6
2173  68294.000    568228.6299  -4690532.1683   4270317.5164   1   6   0.0047   0.0123   0.0090  -0.0054  -0.0082   0.0029   0.00    4.7
2173  68295.000    568228.6309  -4690532.1643   4270317.5092   1   6   0.0051   0.0123   0.0090  -0.0053  -0.0082   0.0007   0.00    4.7
2173  68296.000    568228.6340  -4690532.1717   4270317.5137   1   6   0.0051   0.0124   0.0090  -0.0053  -0.0082   0.0020   0.00    4.7
2173  68297.000    568228.6297  -4690532.1707   4270317.5130   1   6   0.0048   0.0124   0.0090  -0.0053  -0.0082   0.0026   0.00    4.8
2173  68298.000    568228.6293  -4690532.1682   4270317.5085   1   6   0.0050   0.0124   0.0090  -0.0053  -0.0082   0.0025   0.00    4.9
2173  68299.000    568228.6306  -4690532.1640   4270317.5133   1   6   0.0049   0.0124   0.0091  -0.0053  -0.0082   0.0025   0.00    4.9
2173  68300.000    568228.6316  -4690532.1719   4270317.5115   1   6   0.0049   0.0123   0.0090  -0.0054  -0.0082   0.0028   0.00    4.9
2173  68301.000    568228.6317  -4690532.1737   4270317.5123   1   6   0.0048   0.0124   0.0091  -0.0052  -0.0082   0.0025   0.00    5.0
2173  68302.000    568228.6347  -4690532.1750   4270317.5141   1   6   0.0049   0.0124   0.0090  -0.0054  -0.0081   0.0024   0.00    5.0
2173  68303.000    568228.6322  -4690532.1765   4270317.5158   1   6   0.0050   0.0124   0.0090  -0.0053  -0.0082   0.0021   0.00    5.1
2173  68304.000    568228.6322  -4690532.1712   4270317.5134   1   6   0.0049   0.0123   0.0090  -0.0054  -0.0082   0.0018   0.00    5.2
2173  68305.000    568228.6323  -4690532.1708   4270317.5102   1   6   0.0052   0.0124   0.0089  -0.0053  -0.0082   0.0016   0.00    5.3
2173  68306.000    568228.6303  -4690532.1687   4270317.5081   1   6   0.0051   0.0123   0.0090  -0.0054  -0.0082   0.0023   0.00    5.4
2173  68307.000    568228.6332  -4690532.1707   4270317.5087   1   6   0.0048   0.0123   0.0090  -0.0054  -0.0082   0.0022   0.00    5.4
2173  68308.000    568228.6320  -4690532.1707   4270317.5104   1   6   0.0051   0.0124   0.0090  -0.0054  -0.0082   0.0018   0.00    5.5
2173  68309.000    568228.6315  -4690532.1713   4270317.5125   1   6   0.0051   0.0124   0.0090  -0.0053  -0.0082   0.0019   0.00    5.6
2173  68310.000    568228.6304  -4690532.1673   4270317.5119   1   6   0.0051   0.0124   0.0089  -0.0055  -0.0082   0.0024   0.00    5.7
2173  68311.000    568228.6327  -4690532.1746   4270317.5154   1   6   0.0048   0.0123   0.0091  -0.0053  -0.0082   0.0022   0.00    5.8
2173  68312.000    568228.6321  -4690532.1669   4270317.5126   1   6   0.0048   0.0123   0.0090  -0.0054  -0.0082   0.0028   0.00    5.9
2173  68313.000    568228.6319  -4690532.1690   4270317.5119   1   6   0.0048   0.0123   0.0090  -0.0055  -0.0082   0.0023   0.00    6.0
2173  68314.000    568228.6310  -4690532.1636   4270317.5096   1   6   0.0048   0.0123   0.0090  -0.0054  -0.0082   0.0023   0.00    6.1
2173  68315.000    568228.6362  -4690532.1674   4270317.5092   1   6   0.0052   0.0124   0.0089  -0.0053  -0.0082   0.0020   0.00    6.2
2173  68316.000    568228.6344  -4690532.1651   4270317.5071   1   6   0.0050   0.0124   0.0090  -0.0052  -0.0081   0.0029   0.00    6.3
2173  68317.000    568228.6347  -4690532.1674   4270317.5107   1   6   0.0050   0.0124   0.0090  -0.0053  -0.0081   0.0021   0.00    6.5
2173  68318.000    568228.6352  -4690532.1600   4270317.5076   1   6   0.0049   0.0124   0.0090  -0.0053  -0.0082   0.0019   0.00    6.6
2173  68319.000    568228.6365  -4690532.1678   4270317.5089   1   6   0.0047   0.0123   0.0090  -0.0055  -0.0082   0.0022   0.00    6.7
2173  68320.000    568228.6372  -4690532.1710   4270317.5104   1   6   0.0049   0.0124   0.0090  -0.0054  -0.0082   0.0026   0.00    6.9
2173  68321.000    568228.6378  -4690532.1706   4270317.5073   1   6   0.0051   0.0124   0.0089  -0.0053  -0.0081   0.0020   0.00    7.1
2173  68322.000    568228.6378  -4690532.1717   4270317.5071   1   6   0.0049   0.0124   0.0090  -0.0054  -0.0082   0.0026   0.00    7.2
2173  68323.000    568228.6385  -4690532.1669   4270317.5069   1   6   0.0051   0.0124   0.0090  -0.0052  -0.0082   0.0022   0.00    7.4
2173  68324.000    568228.6382  -4690532.1693   4270317.5084   1   6   0.0050   0.0124   0.0089  -0.0054  -0.0081   0.0024   0.00    7.5
2173  68325.000    568228.6371  -4690532.1689   4270317.5076   1   6   0.0048   0.0124   0.0090  -0.0054  -0.0082   0.0026   0.00    7.7
2173  68326.000    568228.6409  -4690532.1701   4270317.5074   1   6   0.0052   0.0124   0.0089  -0.0055  -0.0081   0.0026   0.00    7.8
2173  68327.000    568228.6413  -4690532.1740   4270317.5082   1   6   0.0051   0.0124   0.0091  -0.0053  -0.0081   0.0023   0.00    8.0
2173  68328.000    568228.6428  -4690532.1800   4270317.5155   1   6   0.0052   0.0124   0.0090  -0.0052  -0.0082   0.0020   0.00    8.2
2173  68329.000    568228.6406  -4690532.1746   4270317.5131   1   6   0.0051   0.0124   0.0091  -0.0052  -0.0081   0.0021   0.00    8.4
2173  68330.000    568228.6443  -4690532.1762   4270317.5127   1   6   0.0050   0.0124   0.0090  -0.0054  -0.0081   0.0028   0.00    8.6
2173  68331.000    568228.6405  -4690532.1745   4270317.5112   1   6   0.0046   0.0124   0.0089  -0.0053  -0.0081   0.0026   0.00    8.9
2173  68332.000    568228.6391  -4690532.1777   4270317.5184   1   6   0.0051   0.0124   0.0089  -0.0053  -0.0081   0.0024   0.00    9.1
2173  68333.000    568228.6405  -4690532.1792   4270317.5165   1   6   0.0048   0.0124   0.0090  -0.0052  -0.0081   0.0024   0.00    9.3
2173  68334.000    568228.6411  -4690532.1804   4270317.5174   1   6   0.0049   0.0123   0.0090  -0.0054  -0.0082   0.0028   0.00    9.5
2173  68335.000    568228.6403  -4690532.1802   4270317.5194   1   6   0.0049   0.0124   0.0091  -0.0055  -0.0082   0.0027   0.00    9.7
2173  68336.000    568228.6432  -4690532.1851   4270317.5171   1   6   0.0050   0.0124   0.0090  -0.0053  -0.0081   0.0018   0.00    9.9
2173  68337.000    568228.6426  -4690532.1858   4270317.5196   1   6   0.0051   0.0123   0.0089  -0.0056  -0.0081   0.0026   0.00   10.1
2173  68338.000    568228.6434  -4690532.1901   4270317.5209   1   6   0.0050   0.0124   0.0090  -0.0053  -0.0081   0.0018   0.00   10.3
2173  68339.000    568228.6401  -4690532.1773   4270317.5179   1   6   0.0050   0.0124   0.0089  -0.0054  -0.0082   0.0026   0.00   10.5
2173  68340.000    568228.6428  -4690532.1788   4270317.5185   1   6   0.0047   0.0124   0.0089  -0.0054  -0.0081   0.0022   0.00   10.7
2173  68341.000    568228.6437  -4690532.1816   4270317.5158   1   6   0.0048   0.0123   0.0090  -0.0053  -0.0081   0.0027   0.00   11.0
2173  68342.000    568228.6424  -4690532.1771   4270317.5158   1   6   0.0052   0.0125   0.0090  -0.0054  -0.0081   0.0030   0.00   11.2
2173  68343.000    568228.6457  -4690532.1808   4270317.5175   1   6   0.0049   0.0124   0.0089  -0.0054  -0.0081   0.0021   0.00   11.4
2173  68344.000    568228.6422  -4690532.1778   4270317.5140   1   6   0.0050   0.0123   0.0089  -0.0055  -0.0081   0.0025   0.00   11.6
2173  68345.000    568228.6429  -4690532.1808   4270317.5170   1   6   0.0052   0.0124   0.0090  -0.0053  -0.0082   0.0029   0.00   11.9
2173  68346.000    568228.6438  -4690532.1820   4270317.5196   1   6   0.0050   0.0124   0.0089  -0.0054  -0.0081   0.0018   0.00   12.1
2173  68347.000    568228.6448  -4690532.1795   4270317.5185   1   6   0.0052   0.0124   0.0089  -0.0052  -0.0081   0.0017   0.00   12.4
2173  68348.000    568228.6454  -4690532.1840   4270317.5198   1   6   0.0054   0.0124   0.0089  -0.0055  -0.0081   0.0026   0.00   12.6
2173  68349.000    568228.6413  -4690532.1744   4270317.5169   1   6   0.0047   0.0124   0.0090  -0.0055  -0.0081   0.0023   0.00   12.8
2173  68350.000    568228.6434  -4690532.1738   4270317.5220   1   6   0.0053   0.0124   0.0090  -0.0054  -0.0081   0.0027   0.00   13.1
2173  68351.000    568228.6395  -4690532.1717   4270317.5176   1   6   0.0050   0.0123   0.0089  -0.0057  -0.0082   0.0028   0.00   13.4
2173  68352.000    568228.6391  -4690532.1660   4270317.5166   1   6   0.0050   0.0124   0.0089  -0.0054  -0.0081   0.0011   0.00   13.6
2173  68353.000    568228.6385  -4690532.1654   4270317.5119   1   6   0.0049   0.0124   0.0089  -0.0055  -0.0081   0.0020   0.00   13.9
2173  68354.000    568228.6412  -4690532.1659   4270317.5123   1   6   0.0050   0.0123   0.0089  -0.0054  -0.0081   0.0023   0.00   14.2
2173  68355.000    568228.6389  -4690532.1698   4270317.5180   1   6   0.0052   0.0124   0.0089  -0.0054  -0.0081   0.0025   0.00   14.4
2173  68356.000    568228.6432  -4690532.1709   4270317.5178   1   6   0.0048   0.0124   0.0088  -0.0054  -0.0081   0.0028   0.00   14.7
2173  68357.000    568228.6416  -4690532.1737   4270317.5194   1   6   0.0049   0.0123   0.0089  -0.0056  -0.0081   0.0027   0.00   15.0
2173  68358.000    568228.6421  -4690532.1754   4270317.5164   1   6   0.0052   0.0124   0.0090  -0.0053  -0.0081   0.0018   0.00   15.3
2173  68359.000    568228.6388  -4690532.1742   4270317.5200   1   6   0.0048   0.0124   0.0089  -0.0054  -0.0080   0.0023   0.00   15.6
2173  68360.000    568228.6389  -4690532.1774   4270317.5213   1   6   0.0049   0.0124   0.0089  -0.0054  -0.0081   0.0023   0.00   15.9
2173  68361.000    568228.6426  -4690532.1808   4270317.5208   1   6   0.0050   0.0124   0.0089  -0.0053  -0.0081   0.0027   0.00   16.1
2173  68362.000    568228.6416  -4690532.1768   4270317.5181   1   6   0.0048   0.0124   0.0090  -0.0053  -0.0081   0.0028   0.00   16.4
2173  68363.000    568228.6420  -4690532.1779   4270317.5234   1   6   0.0051   0.0124   0.0088  -0.0055  -0.0081   0.0028   0.00   16.7
2173  68364.000    568228.6418  -4690532.1825   4270317.5233   1   6   0.0051   0.0124   0.0088  -0.0055  -0.0081   0.0024   0.00   16.9
2173  68365.000    568228.6386  -4690532.1750   4270317.5201   1   6   0.0050   0.0124   0.0089  -0.0054  -0.0081   0.0018   0.00   17.2
2173  68366.000    568228.6402  -4690532.1685   4270317.5153   1   6   0.0051   0.0123   0.0089  -0.0056  -0.0081   0.0020   0.00   17.4
2173  68367.000    568228.6386  -4690532.1742   4270317.5177   1   6   0.0051   0.0124   0.0088  -0.0055  -0.0081   0.0029   0.00   17.7
2173  68368.000    568228.6360  -4690532.1698   4270317.5156   1   6   0.0050   0.0123   0.0089  -0.0055  -0.0081   0.0018   0.00   17.9
2173  68369.000    568228.6406  -4690532.1700   4270317.5203   1   6   0.0049   0.0124   0.0090  -0.0054  -0.0081   0.0024   0.00   18.1
2173  68370.000    568228.6395  -4690532.1669   4270317.5164   1   6   0.0052   0.0124   0.0089  -0.0053  -0.0081   0.0022   0.00   18.4
2173  68371.000    568228.6398  -4690532.1674   4270317.5183   1   6   0.0050   0.0124   0.0088  -0.0056  -0.0081   0.0014   0.00   18.6
2173  68372.000    568228.6409  -4690532.1714   4270317.5154   1   6   0.0048   0.0124   0.0088  -0.0056  -0.0081   0.0025   0.00   18.8
2173  68373.000    568228.6395  -4690532.1687   4270317.5146   1   6   0.0049   0.0124   0.0090  -0.0054  -0.0081   0.0026   0.00   19.0
2173  68374.000    568228.6400  -4690532.1712   4270317.5145   1   6   0.0051   0.0124   0.0089  -0.0054  -0.0081   0.0015   0.00   19.2
2173  68375.000    568228.6388  -4690532.1667   4270317.5166   1   6   0.0052   0.0123   0.0088  -0.0056  -0.0081   0.0014   0.00   19.4
2173  68376.000    568228.6378  -4690532.1665   4270317.5117   1   6   0.0050   0.0124   0.0089  -0.0055  -0.0081   0.0027   0.00   19.6
2173  68377.000    568228.6398  -4690532.1671   4270317.5134   1   6   0.0046   0.0124   0.0089  -0.0055  -0.0081   0.0024   0.00   19.8
2173  68378.000    568228.6425  -4690532.1710   4270317.5220   1   6   0.0049   0.0124   0.0089  -0.0055  -0.0080   0.0024   0.00   20.0
2173  68379.000    568228.6430  -4690532.1753   4270317.5161   1   6   0.0049   0.0124   0.0089  -0.0055  -0.0080   0.0027   0.00   20.1
2173  68380.000    568228.6424  -4690532.1767   4270317.5196   1   6   0.0051   0.0124   0.0089  -0.0055  -0.0081   0.0027   0.00   20.2
2173  68381.000    568228.6441  -4690532.1794   4270317.5163   1   6   0.0050   0.0124   0.0089  -0.0055  -0.0081   0.0024   0.00   20.4
2173  68382.000    568228.6421  -4690532.1762   4270317.5206   1   6   0.0047   0.0124   0.0088  -0.0056  -0.0080   0.0026   0.00   20.5
2173  68383.000    568228.6431  -4690532.1801   4270317.5215   1   6   0.0052   0.0124   0.0090  -0.0056  -0.0081   0.0022   0.00   20.7
2173  68384.000    568228.6423  -4690532.1810   4270317.5207   1   6   0.0051   0.0124   0.0089  -0.0056  -0.0081   0.0026   0.00   20.8
2173  68385.000    568228.6424  -4690532.1770   4270317.5208   1   6   0.0051   0.0124   0.0089  -0.0054  -0.0081   0.0024   0.00   20.9
2173  68386.000    568228.6426  -4690532.1759   4270317.5181   1   6   0.0051   0.0124   0.0088  -0.0055  -0.0080   0.0029   0.00   21.0
2173  68387.000    568228.6446  -4690532.1733   4270317.5152   1   6   0.0049   0.0124   0.0089  -0.0054  -0.0081   0.0023   0.00   21.0
2173  68388.000    568228.6436  -4690532.1786   4270317.5221   1   6   0.0049   0.0124   0.0090  -0.0056  -0.0081   0.0020   0.00   21.0
2173  68389.000    568228.6448  -4690532.1750   4270317.5193   1   6   0.0054   0.0124   0.0089  -0.0054  -0.0080   0.0023   0.00   21.0
2173  68390.000    568228.6455  -4690532.1727   4270317.5138   1   6   0.0050   0.0124   0.0088  -0.0055  -0.0080   0.0023   0.00   21.1
2173  68391.000    568228.6460  -4690532.1722   4270317.5166   1   6   0.0048   0.0124   0.0089  -0.0054  -0.0081   0.0024   0.00   21.1
2173  68392.000    568228.6478  -4690532.1787   4270317.5165   1   6   0.0049   0.0124   0.0089  -0.0057  -0.0080   0.0029   0.00   21.2
2173  68393.000    568228.6497  -4690532.1786   4270317.5183   1   6   0.0049   0.0124   0.0088  -0.0054  -0.0081   0.0022   0.00   21.4
2173  68394.000    568228.6475  -4690532.1804   4270317.5198   1   6   0.0052   0.0124   0.0089  -0.0054  -0.0081   0.0026   0.00   21.5
2173  68395.000    568228.6468  -4690532.1849   4270317.5217   1   6   0.0052   0.0124   0.0088  -0.0056  -0.0080   0.0026   0.00   21.5
2173  68396.000    568228.6479  -4690532.1783   4270317.5189   1   6   0.0052   0.0124   0.0088  -0.0055  -0.0080   0.0023   0.00   21.5
2173  68397.000    568228.6480  -4690532.1774   4270317.5166   1   6   0.0051   0.0124   0.0088  -0.0054  -0.0081   0.0023   0.00   21.6
2173  68398.000    568228.6460  -4690532.1737   4270317.5164   1   6   0.0047   0.0124   0.0089  -0.0054  -0.0080   0.0032   0.00   21.6
2173  68399.000    568228.6481  -4690532.1742   4270317.5166   1   6   0.0049   0.0124   0.0088  -0.0056  -0.0080   0.0027   0.00   21.7
