% program   : rnx2rtkp ver.2.4.3 b31
% inp file  : ngs/21_08_31_21_54_03_garf.obs
% inp file  : ngs/21_08_31_21_54_03_garf_SW.obs
% inp file  : ngs/21_08_31_21_54_03_brdc.nav
% obs start : 2021/08/31 21:00:00.0 GPST (week2173 248400.0s)
% obs end   : 2021/08/31 21:59:59.0 GPST (week2173 251999.0s)
% ref pos   :   708072.7232  -4803697.1753   4121856.3428
%
% (x/y/z-ecef=WGS84,Q=1:fix,2:float,3:sbas,4:dgps,5:single,6:ppp,ns=# of satellites)
%  GPST              x-ecef(m)      y-ecef(m)      z-ecef(m)   Q  ns   sdx(m)   sdy(m)   sdz(m)  sdxy(m)  sdyz(m)  sdzx(m) age(s)  ratio
2173 251618.000    698558.0921  -4739152.3244   4197329.3358   2   5   0.6032   1.4943   0.9357  -0.6909  -0.9290   0.4318 -30.00    2.8
2173 251619.000    698557.9726  -4739152.6266   4197329.5201   1   5   0.0396   0.0926   0.0457  -0.0461  -0.0559   0.0276 -29.00    3.3
2173 251620.000    698557.9718  -4739152.6277   4197329.5185   1   5   0.0383   0.0895   0.0442  -0.0445  -0.0540   0.0266 -28.00    3.6
2173 251621.000    698557.9718  -4739152.6292   4197329.5192   1   5   0.0370   0.0863   0.0427  -0.0430  -0.0521   0.0257 -27.00    3.6
2173 251622.000    698557.9734  -4739152.6258   4197329.5165   1   5   0.0356   0.0832   0.0412  -0.0414  -0.0502   0.0248 -26.00    4.0
2173 251623.000    698557.9733  -4739152.6273   4197329.5175   1   5   0.0343   0.0801   0.0397  -0.0399  -0.0484   0.0238 -25.00    4.0
2173 251624.000    698557.9718  -4739152.6237   4197329.5149   1   5   0.0330   0.0770   0.0382  -0.0383  -0.0465   0.0229 -24.00    4.0
2173 251625.000    698557.9744  -4739152.6301   4197329.5190   1   5   0.0317   0.0739   0.0367  -0.0368  -0.0446   0.0220 -23.00    3.9
2173 251626.000    698557.9759  -4739152.6311   4197329.5159   1   5   0.0303   0.0708   0.0352  -0.0352  -0.0428   0.0211 -22.00    4.2
2173 251627.000    698557.9747  -4739152.6323   4197329.5154   1   5   0.0290   0.0677   0.0338  -0.0337  -0.0409   0.0202 -21.00    4.3
2173 251628.000    698557.9769  -4739152.6332   4197329.5169   1   5   0.0277   0.0647   0.0323  -0.0322  -0.0391   0.0192 -20.00    4.5
2173 251629.000    698557.9760  -4739152.6347   4197329.5168   1   5   0.0264   0.0616   0.0308  -0.0306  -0.0372   0.0183 -19.00    4.7
2173 251630.000    698557.9764  -4739152.6365   4197329.5170   1   5   0.0251   0.0585   0.0294  -0.0291  -0.0354   0.0174 -18.00    4.8
2173 251631.000    698557.9757  -4739152.6351   4197329.5137   1   5   0.0238   0.0555   0.0279  -0.0276  -0.0335   0.0165 -17.00    5.1
2173 251632.000    698557.9762  -4739152.6321   4197329.5123   1   5   0.0225   0.0525   0.0265  -0.0260  -0.0317   0.0156 -16.00    5.2
2173 251633.000    698557.9773  -4739152.6289   4197329.5109   1   5   0.0212   0.0494   0.0251  -0.0245  -0.0299   0.0147 -15.00    5.3
2173 251634.000    698557.9771  -4739152.6369   4197329.5146   1   5   0.0199   0.0464   0.0236  -0.0230  -0.0281   0.0138 -14.00    5.5
2173 251635.000    698557.9758  -4739152.6304   4197329.5119   1   5   0.0186   0.0435   0.0223  -0.0215  -0.0263   0.0129 -13.00    5.5
2173 251636.000    698557.9765  -4739152.6275   4197329.5097   1   5   0.0173   0.0405   0.0209  -0.0201  -0.0246   0.0120 -12.00    5.6
2173 251637.000    698557.9787  -4739152.6337   4197329.5124   1   5   0.0161   0.0376   0.0195  -0.0186  -0.0228   0.0112 -11.00    5.8
2173 251638.000    698557.9790  -4739152.6292   4197329.5102   1   5   0.0148   0.0348   0.0182  -0.0171  -0.0211   0.0103 -10.00    6.1
2173 251639.000    698557.9794  -4739152.6310   4197329.5108   1   5   0.0136   0.0319   0.0169  -0.0157  -0.0194   0.0095  -9.00    6.3
2173 251640.000    698557.9787  -4739152.6257   4197329.5076   1   5   0.0124   0.0292   0.0157  -0.0143  -0.0178   0.0086  -8.00    6.5
2173 251641.000    698557.9789  -4739152.6273   4197329.5079   1   5   0.0112   0.0266   0.0145  -0.0130  -0.0162   0.0078  -7.00    6.8
2173 251642.000    698557.9787  -4739152.6227   4197329.5076   1   5   0.0101   0.0240   0.0133  -0.0117  -0.0147   0.0071  -6.00    6.9
2173 251643.000    698557.9780  -4739152.6258   4197329.5088   1   5   0.0091   0.0216   0.0124  -0.0105  -0.0133   0.0064  -5.00    6.8
2173 251644.000    698557.9810  -4739152.6267   4197329.5093   1   5   0.0082   0.0195   0.0114  -0.0093  -0.0120   0.0058  -4.00    6.6
2173 251645.000    698557.9803  -4739152.6272   4197329.5085   1   5   0.0074   0.0176   0.0107  -0.0083  -0.0109   0.0053  -3.00    6.3
2173 251646.000    698557.9795  -4739152.6260   4197329.5091   1   5   0.0068   0.0162   0.0099  -0.0076  -0.0101   0.0049  -2.00    6.0
2173 251647.000    698557.9783  -4739152.6216   4197329.5047   1   5   0.0062   0.0152   0.0096  -0.0071  -0.0095   0.0045  -1.00    5.7
2173 251648.000    698557.9815  -4739152.6237   4197329.5082   1   5   0.0061   0.0149   0.0095  -0.0069  -0.0093   0.0044   0.00    5.2
2173 251649.000    698557.9826  -4739152.6271   4197329.5108   1   5   0.0062   0.0149   0.0094  -0.0069  -0.0093   0.0045   0.00    5.0
2173 251650.000    698557.9839  -4739152.6283   4197329.5094   1   5   0.0060   0.0149   0.0096  -0.0070  -0.0093   0.0041   0.00    4.7
2173 251651.000    698557.9833  -4739152.6247   4197329.5102   1   5   0.0060   0.0149   0.0096  -0.0069  -0.0093   0.0043   0.00    4.5
2173 251652.000    698557.9828  -4739152.6251   4197329.5113   1   5   0.0062   0.0149   0.0096  -0.0069  -0.0093   0.0044   0.00    4.2
2173 251653.000    698557.9843  -4739152.6300   4197329.5140   1   5   0.0062   0.0149   0.0095  -0.0069  -0.0093   0.0045   0.00    4.0
2173 251654.000    698557.9821  -4739152.6266   4197329.5118   1   5   0.0061   0.0149   0.0095  -0.0069  -0.0093   0.0044   0.00    3.8
2173 251655.000    698557.9710  -4739152.6250   4197329.5291   1   5   0.0060   0.0149   0.0095  -0.0069  -0.0093   0.0041   0.00    3.3
2173 251656.000    698557.9731  -4739152.3028   4197329.4643   2   5   0.0973   0.2384   0.1514  -0.1107  -0.1485   0.0698   0.00    2.9
2173 251657.000    698557.9694  -4739152.2963   4197329.4665   2   5   0.0961   0.2353   0.1495  -0.1093  -0.1466   0.0690   0.00    2.6
2173 251658.000    698557.9674  -4739152.2949   4197329.4685   2   5   0.0949   0.2324   0.1476  -0.1079  -0.1448   0.0681   0.00    2.3
2173 251659.000    698557.9681  -4739152.2985   4197329.4731   2   5   0.0938   0.2296   0.1458  -0.1066  -0.1430   0.0673   0.00    2.0
2173 251660.000    698557.9697  -4739152.3113   4197329.4753   2   5   0.0927   0.2268   0.1442  -0.1054  -0.1413   0.0665   0.00    1.8
2173 251661.000    698557.9731  -4739152.3238   4197329.4854   2   5   0.0916   0.2242   0.1425  -0.1041  -0.1397   0.0658   0.00    1.7
2173 251662.000    698557.9756  -4739152.3317   4197329.4939   2   5   0.0906   0.2216   0.1409  -0.1030  -0.1381   0.0650   0.00    1.5
2173 251663.000    698557.9749  -4739152.3383   4197329.4933   2   5   0.0896   0.2191   0.1394  -0.1018  -0.1366   0.0643   0.00    1.4
2173 251664.000    698557.9782  -4739152.3570   4197329.5036   2   5   0.0887   0.2167   0.1379  -0.1007  -0.1351   0.0637   0.00    1.3
2173 251665.000    698557.9820  -4739152.3713   4197329.5191   2   5   0.0877   0.2144   0.1364  -0.0996  -0.1336   0.0630   0.00    1.2
2173 251666.000    698557.9870  -4739152.3798   4197329.5251   2   5   0.0868   0.2121   0.1350  -0.0986  -0.1323   0.0624   0.00    1.1
2173 251667.000    698557.9839  -4739152.3819   4197329.5276   2   5   0.0860   0.2099   0.1337  -0.0976  -0.1309   0.0617   0.00    1.1
2173 251668.000    698557.9830  -4739152.3884   4197329.5342   2   5   0.0851   0.2078   0.1323  -0.0966  -0.1296   0.0611   0.00    1.0
2173 251669.000    698557.9862  -4739152.3832   4197329.5357   2   5   0.0843   0.2057   0.1310  -0.0957  -0.1283   0.0606   0.00    1.1
2173 251670.000    698557.9825  -4739152.3877   4197329.5415   2   5   0.0835   0.2037   0.1298  -0.0948  -0.1271   0.0600   0.00    1.1
2173 251671.000    698557.9814  -4739152.3810   4197329.5472   2   5   0.0827   0.2018   0.1286  -0.0939  -0.1259   0.0594   0.00    1.1
2173 251672.000    698557.9815  -4739152.3810   4197329.5534   2   5   0.0820   0.1999   0.1274  -0.0930  -0.1247   0.0589   0.00    1.2
2173 251673.000    698557.9813  -4739152.3790   4197329.5519   2   5   0.0813   0.1980   0.1263  -0.0921  -0.1236   0.0584   0.00    1.2
2173 251674.000    698557.9776  -4739152.3763   4197329.5518   2   5   0.0805   0.1962   0.1252  -0.0913  -0.1224   0.0579   0.00    1.3
2173 251675.000    698557.9841  -4739152.3786   4197329.5525   2   5   0.0799   0.1945   0.1241  -0.0905  -0.1214   0.0574   0.00    1.3
2173 251676.000    698557.9862  -4739152.3768   4197329.5516   2   5   0.0792   0.1928   0.1230  -0.0897  -0.1203   0.0569   0.00    1.3
2173 251677.000    698557.9895  -4739152.3765   4197329.5509   2   5   0.0785   0.1911   0.1220  -0.0889  -0.1193   0.0565   0.00    1.4
2173 251678.000    698557.9902  -4739152.3773   4197329.5531   2   5   0.0779   0.1895   0.1210  -0.0882  -0.1183   0.0560   0.00    1.4
2173 251679.000    698557.9927  -4739152.3781   4197329.5528   2   5   0.0772   0.1879   0.1200  -0.0875  -0.1173   0.0556   0.00    1.4
2173 251680.000    698557.9924  -4739152.3750   4197329.5543   2   5   0.0766   0.1863   0.1190  -0.0868  -0.1164   0.0551   0.00    1.5
2173 251681.000    698557.9915  -4739152.3706   4197329.5532   2   5   0.0760   0.1848   0.1181  -0.0861  -0.1154   0.0547   0.00    1.5
2173 251682.000    698557.9929  -4739152.3720   4197329.5513   2   5   0.0755   0.1833   0.1172  -0.0854  -0.1145   0.0543   0.00    1.5
2173 251683.000    698557.9942  -4739152.3728   4197329.5519   2   5   0.0749   0.1819   0.1163  -0.0847  -0.1136   0.0539   0.00    1.5
2173 251684.000    698557.9937  -4739152.3695   4197329.5524   2   5   0.0743   0.1805   0.1154  -0.0841  -0.1128   0.0535   0.00    1.6
2173 251685.000    698557.9922  -4739152.3631   4197329.5519   2   5   0.0738   0.1791   0.1145  -0.0834  -0.1119   0.0531   0.00    1.6
2173 251686.000    698557.9924  -4739152.3570   4197329.5491   2   5   0.0732   0.1777   0.1137  -0.0828  -0.1111   0.0527   0.00    1.6
2173 251687.000    698557.9920  -4739152.3505   4197329.5391   2   5   0.0727   0.1764   0.1129  -0.0822  -0.1103   0.0524   0.00    1.6
2173 251688.000    698557.9927  -4739152.3481   4197329.5405   2   5   0.0722   0.1751   0.1121  -0.0816  -0.1095   0.0520   0.00    1.6
2173 251689.000    698557.9940  -4739152.3390   4197329.5355   2   5   0.0717   0.1738   0.1113  -0.0810  -0.1087   0.0516   0.00    1.6
2173 251690.000    698557.9960  -4739152.3408   4197329.5421   2   5   0.0712   0.1726   0.1105  -0.0804  -0.1079   0.0513   0.00    1.6
2173 251691.000    698557.9981  -4739152.3380   4197329.5397   2   5   0.0707   0.1713   0.1098  -0.0799  -0.1072   0.0510   0.00    1.7
2173 251692.000    698557.9952  -4739152.3212   4197329.5326   2   5   0.0703   0.1701   0.1090  -0.0793  -0.1065   0.0507   0.00    1.7
2173 251693.000    698557.9952  -4739152.3139   4197329.5318   2   5   0.0698   0.1690   0.1083  -0.0788  -0.1057   0.0503   0.00    1.7
2173 251694.000    698558.0021  -4739152.3210   4197329.5404   2   5   0.0693   0.1678   0.1076  -0.0782  -0.1050   0.0500   0.00    1.7
2173 251695.000    698558.0006  -4739152.3193   4197329.5361   2   5   0.0689   0.1667   0.1069  -0.0777  -0.1044   0.0497   0.00    1.7
2173 251696.000    698558.0007  -4739152.3211   4197329.5381   2   5   0.0685   0.1656   0.1062  -0.0772  -0.1037   0.0494   0.00    1.7
2173 251697.000    698558.0000  -4739152.3254   4197329.5347   2   5   0.0680   0.1645   0.1056  -0.0767  -0.1030   0.0491   0.00    1.8
2173 251698.000    698558.0019  -4739152.3374   4197329.5458   2   5   0.0676   0.1634   0.1049  -0.0762  -0.1024   0.0488   0.00    1.8
2173 251699.000    698558.0029  -4739152.3397   4197329.5469   2   5   0.0672   0.1624   0.1042  -0.0758  -0.1017   0.0485   0.00    1.8
2173 251700.000    698558.0042  -4739152.3479   4197329.5497   2   5   0.0668   0.1613   0.1036  -0.0753  -0.1011   0.0482   0.00    1.8
2173 251701.000    698558.0082  -4739152.3513   4197329.5480   2   5   0.0664   0.1603   0.1030  -0.0748  -0.1005   0.0480   0.00    1.8
2173 251702.000    698558.0053  -4739152.3505   4197329.5509   2   5   0.0660   0.1593   0.1024  -0.0743  -0.0999   0.0477   0.00    1.8
2173 251703.000    698558.0011  -4739152.3435   4197329.5472   2   5   0.0656   0.1583   0.1018  -0.0739  -0.0993   0.0474   0.00    1.8
2173 251704.000    698558.0010  -4739152.3451   4197329.5620   2   5   0.0653   0.1574   0.1012  -0.0734  -0.0987   0.0472   0.00    1.8
2173 251705.000    698558.0018  -4739152.3503   4197329.5644   2   5   0.0649   0.1564   0.1006  -0.0730  -0.0981   0.0469   0.00    1.8
2173 251706.000    698558.0002  -4739152.3506   4197329.5704   2   5   0.0645   0.1555   0.1000  -0.0726  -0.0976   0.0466   0.00    1.8
2173 251707.000    698558.0005  -4739152.3540   4197329.5797   2   5   0.0642   0.1546   0.0995  -0.0722  -0.0970   0.0464   0.00    1.9
2173 251708.000    698557.9993  -4739152.3437   4197329.5699   2   5   0.0638   0.1537   0.0989  -0.0717  -0.0965   0.0461   0.00    1.9
2173 251709.000    698557.9985  -4739152.3492   4197329.5775   2   5   0.0635   0.1528   0.0984  -0.0713  -0.0959   0.0459   0.00    1.9
2173 251710.000    698558.0043  -4739152.3529   4197329.5831   2   5   0.0631   0.1519   0.0978  -0.0709  -0.0954   0.0457   0.00    1.9
2173 251711.000    698558.0042  -4739152.3503   4197329.5833   2   5   0.0628   0.1510   0.0973  -0.0705  -0.0949   0.0454   0.00    1.9
2173 251712.000    698558.0034  -4739152.3516   4197329.5861   2   5   0.0625   0.1502   0.0968  -0.0702  -0.0944   0.0452   0.00    1.9
2173 251713.000    698558.0045  -4739152.3524   4197329.5889   2   5   0.0621   0.1493   0.0963  -0.0698  -0.0939   0.0450   0.00    1.9
2173 251714.000    698558.0014  -4739152.3499   4197329.5878   2   5   0.0618   0.1485   0.0958  -0.0694  -0.0934   0.0448   0.00    1.9
2173 251715.000    698558.0036  -4739152.3552   4197329.5926   2   5   0.0615   0.1477   0.0953  -0.0690  -0.0929   0.0446   0.00    1.9
2173 251716.000    698558.0041  -4739152.3571   4197329.5964   2   5   0.0612   0.1469   0.0948  -0.0686  -0.0924   0.0443   0.00    2.0
2173 251717.000    698558.0061  -4739152.3603   4197329.5971   2   5   0.0609   0.1461   0.0943  -0.0683  -0.0920   0.0441   0.00    2.0
2173 251718.000    698558.0083  -4739152.3897   4197329.6079   2   5   0.0606   0.1453   0.0939  -0.0679  -0.0915   0.0439   0.00    2.0
2173 251719.000    698558.0085  -4739152.3904   4197329.6088   2   5   0.0603   0.1446   0.0934  -0.0676  -0.0910   0.0437   0.00    2.0
2173 251720.000    698558.0112  -4739152.3946   4197329.6115   2   5   0.0600   0.1438   0.0929  -0.0672  -0.0906   0.0435   0.00    2.0
2173 251721.000    698558.0093  -4739152.3917   4197329.6079   2   5   0.0597   0.1431   0.0925  -0.0669  -0.0902   0.0433   0.00    2.0
2173 251722.000    698558.0127  -4739152.4046   4197329.6134   2   5   0.0594   0.1423   0.0920  -0.0665  -0.0897   0.0431   0.00    2.0
2173 251723.000    698558.0148  -4739152.4115   4197329.6153   2   5   0.0591   0.1416   0.0916  -0.0662  -0.0893   0.0429   0.00    2.0
2173 251724.000    698558.0159  -4739152.4112   4197329.6148   2   5   0.0589   0.1409   0.0911  -0.0659  -0.0889   0.0428   0.00    1.9
2173 251725.000    698558.0180  -4739152.4244   4197329.6244   2   5   0.0586   0.1402   0.0907  -0.0655  -0.0884   0.0426   0.00    1.9
2173 251726.000    698558.0162  -4739152.4224   4197329.6192   2   5   0.0583   0.1395   0.0903  -0.0652  -0.0880   0.0424   0.00    1.9
2173 251727.000    698558.0176  -4739152.4234   4197329.6215   2   5   0.0581   0.1388   0.0899  -0.0649  -0.0876   0.0422   0.00    1.8
2173 251728.000    698558.0193  -4739152.4279   4197329.6249   2   5   0.0578   0.1381   0.0895  -0.0646  -0.0872   0.0420   0.00    1.8
2173 251729.000    698558.0197  -4739152.4299   4197329.6268   2   5   0.0575   0.1375   0.0891  -0.0643  -0.0868   0.0418   0.00    1.8
2173 251730.000    698558.0192  -4739152.4241   4197329.6199   2   5   0.0573   0.1368   0.0887  -0.0640  -0.0864   0.0417   0.00    1.8
2173 251731.000    698558.0223  -4739152.4330   4197329.6250   2   5   0.0570   0.1362   0.0883  -0.0637  -0.0861   0.0415   0.00    1.7
2173 251732.000    698558.0234  -4739152.4361   4197329.6302   2   5   0.0568   0.1355   0.0879  -0.0634  -0.0857   0.0413   0.00    1.7
2173 251733.000    698558.0256  -4739152.4537   4197329.6347   2   5   0.0565   0.1349   0.0875  -0.0631  -0.0853   0.0411   0.00    1.7
2173 251734.000    698558.0277  -4739152.4555   4197329.6374   2   5   0.0563   0.1343   0.0871  -0.0628  -0.0849   0.0410   0.00    1.6
2173 251735.000    698558.0306  -4739152.4598   4197329.6411   2   5   0.0561   0.1336   0.0867  -0.0625  -0.0846   0.0408   0.00    1.6
2173 251736.000    698558.0313  -4739152.4663   4197329.6425   2   5   0.0558   0.1330   0.0864  -0.0622  -0.0842   0.0407   0.00    1.6
2173 251737.000    698558.0313  -4739152.4675   4197329.6441   2   5   0.0556   0.1324   0.0860  -0.0620  -0.0839   0.0405   0.00    1.6
2173 251738.000    698558.0320  -4739152.4687   4197329.6465   2   5   0.0553   0.1318   0.0857  -0.0617  -0.0835   0.0404   0.00    1.5
2173 251739.000    698558.0333  -4739152.4728   4197329.6501   2   5   0.0551   0.1312   0.0853  -0.0614  -0.0832   0.0402   0.00    1.5
2173 251740.000    698558.0367  -4739152.4838   4197329.6554   2   5   0.0549   0.1306   0.0849  -0.0611  -0.0828   0.0401   0.00    1.5
2173 251741.000    698558.0366  -4739152.4779   4197329.6562   2   5   0.0547   0.1301   0.0846  -0.0609  -0.0825   0.0399   0.00    1.5
2173 251742.000    698558.0388  -4739152.4805   4197329.6553   2   5   0.0545   0.1295   0.0842  -0.0606  -0.0821   0.0398   0.00    1.5
2173 251743.000    698558.0396  -4739152.4923   4197329.6603   2   5   0.0542   0.1289   0.0839  -0.0604  -0.0818   0.0396   0.00    1.4
2173 251744.000    698558.0438  -4739152.4965   4197329.6618   2   5   0.0540   0.1284   0.0836  -0.0601  -0.0815   0.0395   0.00    1.4
2173 251745.000    698558.0430  -4739152.4930   4197329.6580   2   5   0.0538   0.1278   0.0832  -0.0598  -0.0812   0.0394   0.00    1.4
2173 251746.000    698558.0466  -4739152.4978   4197329.6620   2   5   0.0536   0.1273   0.0829  -0.0596  -0.0808   0.0392   0.00    1.4
2173 251747.000    698558.0438  -4739152.4851   4197329.6567   2   5   0.0534   0.1267   0.0826  -0.0593  -0.0805   0.0390   0.00    1.3
2173 251748.000    698558.0462  -4739152.4967   4197329.6546   2   5   0.0532   0.1262   0.0823  -0.0591  -0.0802   0.0389   0.00    1.3
2173 251749.000    698558.0445  -4739152.4925   4197329.6541   2   5   0.0530   0.1257   0.0819  -0.0589  -0.0799   0.0388   0.00    1.3
2173 251750.000    698558.0482  -4739152.5008   4197329.6605   2   5   0.0528   0.1251   0.0816  -0.0586  -0.0796   0.0387   0.00    1.3
2173 251751.000    698558.0501  -4739152.5089   4197329.6619   2   5   0.0526   0.1246   0.0813  -0.0584  -0.0793   0.0385   0.00    1.3
2173 251752.000    698558.0506  -4739152.5094   4197329.6598   2   5   0.0524   0.1241   0.0810  -0.0581  -0.0790   0.0384   0.00    1.2
2173 251753.000    698558.0511  -4739152.5094   4197329.6617   2   5   0.0522   0.1236   0.0807  -0.0579  -0.0787   0.0383   0.00    1.2
2173 251754.000    698558.0537  -4739152.5163   4197329.6623   2   5   0.0520   0.1231   0.0804  -0.0577  -0.0784   0.0382   0.00    1.2
2173 251755.000    698558.0514  -4739152.5193   4197329.6585   2   5   0.0518   0.1226   0.0801  -0.0574  -0.0782   0.0380   0.00    1.2
2173 251756.000    698558.0497  -4739152.5172   4197329.6575   2   5   0.0516   0.1221   0.0798  -0.0572  -0.0779   0.0379   0.00    1.2
2173 251757.000    698558.0532  -4739152.5312   4197329.6627   2   5   0.0514   0.1216   0.0795  -0.0570  -0.0776   0.0378   0.00    1.1
2173 251758.000    698558.0558  -4739152.5395   4197329.6617   2   5   0.0513   0.1212   0.0792  -0.0568  -0.0773   0.0376   0.00    1.1
2173 251759.000    698558.0570  -4739152.5384   4197329.6584   2   5   0.0511   0.1207   0.0790  -0.0566  -0.0770   0.0375   0.00    1.1
2173 251760.000    698558.0465  -4739152.4575   4197329.6234   2   5   0.0509   0.1202   0.0787  -0.0563  -0.0768   0.0374   0.00    1.1
2173 251761.000    698558.0463  -4739152.4621   4197329.6272   2   5   0.0507   0.1197   0.0784  -0.0561  -0.0765   0.0373   0.00    1.1
2173 251762.000    698558.0438  -4739152.4667   4197329.6325   2   5   0.0506   0.1193   0.0781  -0.0559  -0.0762   0.0372   0.00    1.1
2173 251763.000    698558.0455  -4739152.4705   4197329.6369   2   5   0.0504   0.1188   0.0778  -0.0557  -0.0760   0.0371   0.00    1.1
2173 251764.000    698558.0454  -4739152.4798   4197329.6419   2   5   0.0502   0.1184   0.0776  -0.0555  -0.0757   0.0370   0.00    1.1
2173 251765.000    698558.0478  -4739152.4839   4197329.6452   2   5   0.0500   0.1179   0.0773  -0.0553  -0.0755   0.0369   0.00    1.1
2173 251766.000    698558.0444  -4739152.4863   4197329.6493   2   5   0.0499   0.1175   0.0770  -0.0551  -0.0752   0.0368   0.00    1.1
2173 251767.000    698558.0426  -4739152.4975   4197329.6549   2   5   0.0497   0.1170   0.0768  -0.0549  -0.0750   0.0366   0.00    1.1
2173 251768.000    698558.0480  -4739152.4955   4197329.6522   2   5   0.0495   0.1166   0.0765  -0.0547  -0.0747   0.0365   0.00    1.1
2173 251769.000    698558.0478  -4739152.5080   4197329.6582   2   5   0.0494   0.1162   0.0762  -0.0545  -0.0745   0.0364   0.00    1.1
2173 251770.000    698558.0511  -4739152.5083   4197329.6607   2   5   0.0492   0.1157   0.0760  -0.0543  -0.0742   0.0363   0.00    1.1
2173 251771.000    698558.0537  -4739152.5110   4197329.6633   2   5   0.0490   0.1153   0.0757  -0.0541  -0.0740   0.0362   0.00    1.0
2173 251772.000    698558.0530  -4739152.5151   4197329.6675   2   5   0.0489   0.1149   0.0755  -0.0539  -0.0737   0.0361   0.00    1.0
2173 251773.000    698558.0543  -4739152.5276   4197329.6724   2   5   0.0487   0.1145   0.0753  -0.0537  -0.0735   0.0360   0.00    1.0
2173 251774.000    698558.0576  -4739152.5288   4197329.6723   2   5   0.0486   0.1141   0.0750  -0.0535  -0.0733   0.0359   0.00    1.0
2173 251775.000    698558.0605  -4739152.5450   4197329.6787   2   5   0.0484   0.1137   0.0747  -0.0533  -0.0730   0.0358   0.00    1.0
2173 251776.000    698558.0513  -4739152.5318   4197329.6894   2   5   0.0483   0.1133   0.0745  -0.0531  -0.0728   0.0357   0.00    1.0
2173 251777.000    698558.0549  -4739152.5460   4197329.6945   2   5   0.0481   0.1129   0.0743  -0.0529  -0.0726   0.0356   0.00    1.0
2173 251778.000    698558.0576  -4739152.5561   4197329.6938   2   5   0.0480   0.1125   0.0740  -0.0527  -0.0724   0.0355   0.00    1.0
2173 251779.000    698558.0585  -4739152.5614   4197329.6945   2   5   0.0478   0.1121   0.0738  -0.0526  -0.0721   0.0354   0.00    1.0
2173 251780.000    698558.0604  -4739152.5746   4197329.6933   2   5   0.0476   0.1117   0.0736  -0.0524  -0.0719   0.0353   0.00    1.0
2173 251781.000    698558.0619  -4739152.5842   4197329.7005   2   5   0.0475   0.1113   0.0733  -0.0522  -0.0717   0.0352   0.00    1.1
2173 251782.000    698558.0656  -4739152.5928   4197329.6989   2   5   0.0474   0.1109   0.0731  -0.0520  -0.0715   0.0351   0.00    1.1
2173 251783.000    698558.0686  -4739152.6101   4197329.7040   2   5   0.0472   0.1105   0.0729  -0.0519  -0.0713   0.0350   0.00    1.1
2173 251784.000    698558.0708  -4739152.6125   4197329.6995   2   5   0.0471   0.1101   0.0726  -0.0517  -0.0711   0.0349   0.00    1.1
2173 251785.000    698558.0740  -4739152.6292   4197329.7024   2   5   0.0469   0.1098   0.0724  -0.0515  -0.0708   0.0349   0.00    1.1
2173 251786.000    698558.0778  -4739152.6417   4197329.7037   2   5   0.0468   0.1094   0.0722  -0.0513  -0.0706   0.0348   0.00    1.1
2173 251787.000    698558.0778  -4739152.6485   4197329.7018   2   5   0.0467   0.1090   0.0720  -0.0512  -0.0704   0.0347   0.00    1.1
2173 251788.000    698558.0815  -4739152.6559   4197329.7008   2   5   0.0465   0.1087   0.0718  -0.0510  -0.0702   0.0346   0.00    1.1
2173 251789.000    698558.0831  -4739152.6716   4197329.7035   2   5   0.0464   0.1083   0.0716  -0.0508  -0.0700   0.0345   0.00    1.1
2173 251790.000    698558.0895  -4739152.6802   4197329.7054   2   5   0.0463   0.1079   0.0714  -0.0507  -0.0698   0.0344   0.00    1.2
2173 251791.000    698558.0940  -4739152.6920   4197329.7042   2   5   0.0461   0.1076   0.0711  -0.0505  -0.0696   0.0343   0.00    1.2
2173 251792.000    698558.0950  -4739152.7052   4197329.7072   2   5   0.0460   0.1072   0.0709  -0.0503  -0.0694   0.0343   0.00    1.2
2173 251793.000    698558.0967  -4739152.7108   4197329.7022   2   5   0.0458   0.1069   0.0707  -0.0502  -0.0692   0.0341   0.00    1.2
2173 251794.000    698558.0996  -4739152.7219   4197329.7024   2   5   0.0457   0.1065   0.0705  -0.0500  -0.0690   0.0341   0.00    1.2
2173 251795.000    698558.1062  -4739152.7358   4197329.7075   2   5   0.0456   0.1062   0.0703  -0.0498  -0.0688   0.0340   0.00    1.2
2173 251796.000    698558.1055  -4739152.7420   4197329.7017   2   5   0.0455   0.1058   0.0701  -0.0497  -0.0687   0.0339   0.00    1.2
2173 251797.000    698558.1103  -4739152.7479   4197329.7008   2   5   0.0453   0.1055   0.0699  -0.0495  -0.0685   0.0338   0.00    1.2
2173 251798.000    698558.1109  -4739152.7530   4197329.6964   2   5   0.0452   0.1052   0.0697  -0.0494  -0.0683   0.0337   0.00    1.2
2173 251799.000    698558.1139  -4739152.7635   4197329.6950   2   5   0.0451   0.1048   0.0695  -0.0492  -0.0681   0.0337   0.00    1.2
2173 251800.000    698558.1161  -4739152.7699   4197329.6903   2   5   0.0449   0.1045   0.0693  -0.0491  -0.0679   0.0335   0.00    1.2
2173 251801.000    698558.1185  -4739152.7868   4197329.6915   2   5   0.0448   0.1042   0.0691  -0.0489  -0.0677   0.0335   0.00    1.2
2173 251802.000    698558.1216  -4739152.7952   4197329.6867   2   5   0.0447   0.1038   0.0689  -0.0488  -0.0675   0.0334   0.00    1.3
2173 251803.000    698558.1261  -4739152.8085   4197329.6892   2   5   0.0446   0.1035   0.0687  -0.0486  -0.0674   0.0334   0.00    1.3
2173 251804.000    698558.1241  -4739152.8076   4197329.6814   2   5   0.0445   0.1032   0.0686  -0.0485  -0.0672   0.0333   0.00    1.3
2173 251805.000    698558.1265  -4739152.8140   4197329.6814   2   5   0.0443   0.1029   0.0684  -0.0483  -0.0670   0.0332   0.00    1.3
2173 251806.000    698558.1311  -4739152.8274   4197329.6809   2   5   0.0442   0.1026   0.0682  -0.0482  -0.0668   0.0331   0.00    1.3
2173 251807.000    698558.1320  -4739152.8307   4197329.6832   2   5   0.0441   0.1022   0.0680  -0.0480  -0.0667   0.0331   0.00    1.3
2173 251808.000    698558.1323  -4739152.8309   4197329.6764   2   5   0.0440   0.1019   0.0678  -0.0479  -0.0665   0.0330   0.00    1.3
2173 251809.000    698558.1348  -4739152.8457   4197329.6796   2   5   0.0439   0.1016   0.0676  -0.0477  -0.0663   0.0329   0.00    1.3
2173 251810.000    698558.1410  -4739152.8571   4197329.6787   2   5   0.0438   0.1013   0.0674  -0.0476  -0.0662   0.0329   0.00    1.3
2173 251811.000    698558.1439  -4739152.8706   4197329.6808   2   5   0.0437   0.1010   0.0673  -0.0475  -0.0660   0.0328   0.00    1.3
2173 251812.000    698558.1442  -4739152.8742   4197329.6761   2   5   0.0435   0.1007   0.0671  -0.0473  -0.0658   0.0327   0.00    1.3
2173 251813.000    698558.1467  -4739152.8866   4197329.6740   2   5   0.0434   0.1004   0.0669  -0.0472  -0.0657   0.0327   0.00    1.3
2173 251814.000    698558.1530  -4739152.9022   4197329.6754   2   5   0.0433   0.1001   0.0667  -0.0470  -0.0655   0.0325   0.00    1.3
2173 251815.000    698558.1538  -4739152.9080   4197329.6704   2   5   0.0432   0.0998   0.0665  -0.0469  -0.0653   0.0325   0.00    1.3
2173 251816.000    698558.1564  -4739152.9062   4197329.6796   2   5   0.0431   0.0995   0.0664  -0.0468  -0.0652   0.0324   0.00    1.3
2173 251817.000    698558.1558  -4739152.9173   4197329.6785   2   5   0.0430   0.0992   0.0662  -0.0466  -0.0650   0.0324   0.00    1.3
2173 251818.000    698558.1609  -4739152.9212   4197329.6744   2   5   0.0429   0.0989   0.0660  -0.0465  -0.0648   0.0323   0.00    1.3
2173 251819.000    698558.1598  -4739152.9228   4197329.6683   2   5   0.0428   0.0987   0.0658  -0.0464  -0.0647   0.0322   0.00    1.3
2173 251820.000    698558.1659  -4739152.9372   4197329.6722   2   5   0.0427   0.0984   0.0657  -0.0462  -0.0645   0.0322   0.00    1.3
2173 251821.000    698558.1665  -4739152.9416   4197329.6708   2   5   0.0426   0.0981   0.0655  -0.0461  -0.0644   0.0321   0.00    1.3
2173 251822.000    698558.1668  -4739152.9452   4197329.6711   2   5   0.0425   0.0978   0.0653  -0.0460  -0.0642   0.0320   0.00    1.3
2173 251823.000    698558.1697  -4739152.9535   4197329.6716   2   5   0.0424   0.0975   0.0652  -0.0458  -0.0641   0.0320   0.00    1.3
2173 251824.000    698558.1707  -4739152.9490   4197329.6690   2   5   0.0423   0.0972   0.0650  -0.0457  -0.0639   0.0319   0.00    1.3
2173 251825.000    698558.1714  -4739152.9565   4197329.6698   2   5   0.0421   0.0970   0.0649  -0.0456  -0.0638   0.0318   0.00    1.3
2173 251826.000    698558.1705  -4739152.9665   4197329.6731   2   5   0.0421   0.0967   0.0647  -0.0455  -0.0636   0.0318   0.00    1.3
2173 251827.000    698558.1654  -4739152.9669   4197329.6715   2   5   0.0419   0.0964   0.0646  -0.0453  -0.0635   0.0317   0.00    1.4
2173 251828.000    698558.1767  -4739152.9724   4197329.6666   2   5   0.0418   0.0962   0.0644  -0.0452  -0.0633   0.0317   0.00    1.4
2173 251829.000    698558.1776  -4739152.9768   4197329.6649   2   5   0.0418   0.0959   0.0642  -0.0451  -0.0632   0.0316   0.00    1.4
2173 251830.000    698558.1790  -4739152.9784   4197329.6635   2   5   0.0416   0.0956   0.0641  -0.0449  -0.0630   0.0315   0.00    1.4
2173 251831.000    698558.1792  -4739152.9840   4197329.6615   2   5   0.0415   0.0953   0.0639  -0.0448  -0.0629   0.0315   0.00    1.4
2173 251832.000    698558.1827  -4739152.9888   4197329.6609   2   5   0.0415   0.0951   0.0638  -0.0447  -0.0627   0.0314   0.00    1.4
2173 251833.000    698558.1824  -4739152.9846   4197329.6580   2   5   0.0413   0.0948   0.0636  -0.0446  -0.0626   0.0313   0.00    1.4
2173 251834.000    698558.1805  -4739152.9829   4197329.6578   2   5   0.0413   0.0946   0.0635  -0.0445  -0.0625   0.0313   0.00    1.4
2173 251835.000    698558.1889  -4739152.9873   4197329.6392   2   5   0.0412   0.0943   0.0633  -0.0444  -0.0623   0.0312   0.00    1.4
2173 251836.000    698558.1918  -4739152.9897   4197329.6335   2   5   0.0411   0.0941   0.0632  -0.0442  -0.0622   0.0312   0.00    1.4
2173 251837.000    698558.1935  -4739153.0000   4197329.6281   2   5   0.0410   0.0938   0.0630  -0.0441  -0.0620   0.0311   0.00    1.4
2173 251838.000    698558.1965  -4739153.0092   4197329.6248   2   5   0.0409   0.0935   0.0629  -0.0440  -0.0619   0.0310   0.00    1.4
2173 251839.000    698558.1992  -4739153.0238   4197329.6233   2   5   0.0408   0.0933   0.0627  -0.0439  -0.0618   0.0310   0.00    1.4
2173 251840.000    698558.2018  -4739153.0360   4197329.6183   2   5   0.0407   0.0930   0.0625  -0.0438  -0.0616   0.0310   0.00    1.4
2173 251841.000    698558.2048  -4739153.0428   4197329.6165   2   5   0.0406   0.0928   0.0624  -0.0437  -0.0615   0.0309   0.00    1.4
2173 251842.000    698558.2103  -4739153.0591   4197329.6129   2   5   0.0405   0.0925   0.0623  -0.0435  -0.0614   0.0308   0.00    1.3
2173 251843.000    698558.2114  -4739153.0600   4197329.6019   2   5   0.0404   0.0923   0.0621  -0.0434  -0.0612   0.0308   0.00    1.3
2173 251844.000    698558.2129  -4739153.0649   4197329.6003   2   5   0.0403   0.0921   0.0620  -0.0433  -0.0611   0.0307   0.00    1.3
2173 251845.000    698558.2164  -4739153.0666   4197329.5914   2   5   0.0402   0.0918   0.0619  -0.0432  -0.0610   0.0306   0.00    1.2
2173 251846.000    698558.2188  -4739153.0717   4197329.5854   2   5   0.0402   0.0916   0.0617  -0.0431  -0.0609   0.0306   0.00    1.2
2173 251847.000    698558.2183  -4739153.0767   4197329.5806   2   5   0.0401   0.0913   0.0616  -0.0430  -0.0607   0.0306   0.00    1.2
2173 251848.000    698558.2225  -4739153.0830   4197329.5752   2   5   0.0400   0.0911   0.0614  -0.0429  -0.0606   0.0305   0.00    1.2
2173 251849.000    698558.2245  -4739153.0914   4197329.5744   2   5   0.0399   0.0909   0.0613  -0.0428  -0.0605   0.0305   0.00    1.1
2173 251850.000    698558.2266  -4739153.0966   4197329.5673   2   5   0.0398   0.0906   0.0611  -0.0427  -0.0603   0.0304   0.00    1.1
2173 251851.000    698558.2280  -4739153.1035   4197329.5664   2   5   0.0397   0.0904   0.0610  -0.0426  -0.0602   0.0304   0.00    1.1
2173 251852.000    698558.2288  -4739153.1115   4197329.5627   2   5   0.0396   0.0902   0.0609  -0.0424  -0.0601   0.0302   0.00    1.1
2173 251853.000    698558.2334  -4739153.1143   4197329.5549   2   5   0.0395   0.0899   0.0607  -0.0423  -0.0600   0.0302   0.00    1.0
2173 251854.000    698558.2365  -4739153.1263   4197329.5511   2   5   0.0395   0.0897   0.0606  -0.0422  -0.0598   0.0302   0.00    1.0
2173 251855.000    698558.2400  -4739153.1346   4197329.5479   2   5   0.0394   0.0895   0.0605  -0.0421  -0.0597   0.0302   0.00    1.0
2173 251856.000    698558.2413  -4739153.1372   4197329.5428   2   5   0.0393   0.0893   0.0603  -0.0420  -0.0596   0.0301   0.00    1.0
2173 251857.000    698558.2433  -4739153.1460   4197329.5360   2   5   0.0392   0.0890   0.0602  -0.0419  -0.0595   0.0300   0.00    1.0
2173 251858.000    698558.2447  -4739153.1505   4197329.5361   2   5   0.0391   0.0888   0.0601  -0.0418  -0.0594   0.0299   0.00    1.1
2173 251859.000    698558.2455  -4739153.1569   4197329.5307   2   5   0.0391   0.0886   0.0599  -0.0417  -0.0592   0.0299   0.00    1.1
2173 251860.000    698558.2502  -4739153.1639   4197329.5272   2   5   0.0390   0.0884   0.0598  -0.0416  -0.0591   0.0299   0.00    1.1
2173 251861.000    698558.2529  -4739153.1806   4197329.5294   2   5   0.0389   0.0881   0.0597  -0.0415  -0.0590   0.0298   0.00    1.1
2173 251862.000    698558.2531  -4739153.1793   4197329.5225   2   5   0.0388   0.0879   0.0596  -0.0414  -0.0589   0.0298   0.00    1.1
2173 251863.000    698558.2573  -4739153.1946   4197329.5204   2   5   0.0387   0.0877   0.0594  -0.0413  -0.0588   0.0298   0.00    1.2
2173 251864.000    698558.2581  -4739153.1978   4197329.5160   2   5   0.0387   0.0875   0.0593  -0.0412  -0.0587   0.0297   0.00    1.2
2173 251865.000    698558.2610  -4739153.2067   4197329.5149   2   5   0.0386   0.0873   0.0592  -0.0411  -0.0585   0.0296   0.00    1.2
2173 251866.000    698558.2632  -4739153.2136   4197329.5099   2   5   0.0385   0.0871   0.0591  -0.0410  -0.0584   0.0296   0.00    1.2
2173 251867.000    698558.2675  -4739153.2197   4197329.5048   2   5   0.0384   0.0869   0.0589  -0.0409  -0.0583   0.0296   0.00    1.3
2173 251868.000    698558.2678  -4739153.2267   4197329.5055   2   5   0.0383   0.0866   0.0588  -0.0408  -0.0582   0.0295   0.00    1.3
2173 251869.000    698558.2708  -4739153.2291   4197329.4979   2   5   0.0383   0.0864   0.0587  -0.0407  -0.0581   0.0295   0.00    1.3
2173 251870.000    698558.2699  -4739153.2330   4197329.4931   2   5   0.0382   0.0862   0.0586  -0.0406  -0.0580   0.0294   0.00    1.3
2173 251871.000    698558.2743  -4739153.2335   4197329.4920   2   5   0.0381   0.0860   0.0584  -0.0405  -0.0579   0.0294   0.00    1.3
2173 251872.000    698558.2756  -4739153.2395   4197329.5037   2   5   0.0380   0.0858   0.0583  -0.0404  -0.0578   0.0293   0.00    1.4
2173 251873.000    698558.2776  -4739153.2418   4197329.5006   2   5   0.0379   0.0856   0.0582  -0.0403  -0.0577   0.0292   0.00    1.4
2173 251874.000    698558.2799  -4739153.2454   4197329.4988   2   5   0.0379   0.0854   0.0581  -0.0402  -0.0575   0.0292   0.00    1.4
2173 251875.000    698558.2819  -4739153.2455   4197329.4959   2   5   0.0378   0.0852   0.0580  -0.0401  -0.0574   0.0292   0.00    1.4
2173 251876.000    698558.2786  -4739153.2463   4197329.4915   2   5   0.0377   0.0850   0.0579  -0.0401  -0.0573   0.0292   0.00    1.4
2173 251877.000    698558.2801  -4739153.2486   4197329.4869   2   5   0.0377   0.0848   0.0577  -0.0400  -0.0572   0.0291   0.00    1.4
2173 251878.000    698558.2818  -4739153.2574   4197329.4886   2   5   0.0376   0.0846   0.0576  -0.0399  -0.0571   0.0291   0.00    1.5
2173 251879.000    698558.2815  -4739153.2563   4197329.4861   2   5   0.0375   0.0844   0.0575  -0.0398  -0.0570   0.0290   0.00    1.5
2173 251880.000    698558.2817  -4739153.2621   4197329.4808   2   5   0.0375   0.0842   0.0574  -0.0397  -0.0569   0.0290   0.00    1.5
2173 251881.000    698558.2856  -4739153.2676   4197329.4835   2   5   0.0374   0.0840   0.0573  -0.0396  -0.0568   0.0289   0.00    1.5
2173 251882.000    698558.2840  -4739153.2611   4197329.4737   2   5   0.0373   0.0838   0.0572  -0.0395  -0.0567   0.0289   0.00    1.5
2173 251883.000    698558.2892  -4739153.2759   4197329.4769   2   5   0.0373   0.0836   0.0570  -0.0394  -0.0566   0.0288   0.00    1.5
2173 251884.000    698558.2880  -4739153.2752   4197329.4717   2   5   0.0372   0.0834   0.0569  -0.0393  -0.0565   0.0288   0.00    1.5
2173 251885.000    698558.2903  -4739153.2799   4197329.4704   2   5   0.0371   0.0833   0.0568  -0.0392  -0.0564   0.0287   0.00    1.5
2173 251886.000    698558.2868  -4739153.2785   4197329.4678   2   5   0.0370   0.0831   0.0567  -0.0392  -0.0563   0.0287   0.00    1.5
2173 251887.000    698558.2839  -4739153.2794   4197329.4706   2   5   0.0370   0.0829   0.0566  -0.0391  -0.0562   0.0287   0.00    1.5
2173 251888.000    698558.2903  -4739153.2768   4197329.4603   2   5   0.0369   0.0827   0.0565  -0.0390  -0.0561   0.0286   0.00    1.5
2173 251889.000    698558.2915  -4739153.2833   4197329.4632   2   5   0.0368   0.0825   0.0564  -0.0389  -0.0560   0.0286   0.00    1.5
2173 251890.000    698558.2915  -4739153.2749   4197329.4549   2   5   0.0368   0.0823   0.0563  -0.0388  -0.0559   0.0285   0.00    1.5
2173 251891.000    698558.2900  -4739153.2769   4197329.4510   2   5   0.0367   0.0821   0.0562  -0.0387  -0.0558   0.0285   0.00    1.5
2173 251892.000    698558.2908  -4739153.2754   4197329.4529   2   5   0.0366   0.0820   0.0561  -0.0386  -0.0557   0.0284   0.00    1.5
2173 251893.000    698558.2926  -4739153.2851   4197329.4490   2   5   0.0365   0.0818   0.0559  -0.0386  -0.0556   0.0284   0.00    1.5
2173 251894.000    698558.2884  -4739153.2785   4197329.4468   2   5   0.0365   0.0816   0.0558  -0.0385  -0.0555   0.0284   0.00    1.5
2173 251895.000    698558.2929  -4739153.2893   4197329.4463   2   5   0.0364   0.0814   0.0558  -0.0384  -0.0554   0.0283   0.00    1.5
2173 251896.000    698558.2918  -4739153.2904   4197329.4462   2   5   0.0364   0.0812   0.0556  -0.0383  -0.0553   0.0283   0.00    1.5
2173 251897.000    698558.2942  -4739153.2966   4197329.4424   2   5   0.0363   0.0810   0.0555  -0.0382  -0.0552   0.0282   0.00    1.5
2173 251898.000    698558.2740  -4739153.2808   4197329.4367   2   5   0.0362   0.0809   0.0554  -0.0381  -0.0551   0.0282   0.00    1.6
2173 251899.000    698558.2739  -4739153.2816   4197329.4303   2   5   0.0361   0.0807   0.0553  -0.0381  -0.0550   0.0282   0.00    1.6
2173 251900.000    698558.2777  -4739153.2884   4197329.4247   2   5   0.0361   0.0805   0.0552  -0.0380  -0.0549   0.0281   0.00    1.6
2173 251901.000    698558.2793  -4739153.3005   4197329.4197   2   5   0.0360   0.0803   0.0551  -0.0379  -0.0548   0.0281   0.00    1.6
2173 251902.000    698558.2807  -4739153.3030   4197329.4139   2   5   0.0360   0.0802   0.0550  -0.0378  -0.0547   0.0281   0.00    1.6
2173 251903.000    698558.2838  -4739153.3103   4197329.4099   2   5   0.0359   0.0800   0.0549  -0.0377  -0.0547   0.0280   0.00    1.6
2173 251904.000    698558.2904  -4739153.3313   4197329.4103   2   5   0.0358   0.0798   0.0548  -0.0377  -0.0546   0.0280   0.00    1.6
2173 251905.000    698558.2902  -4739153.3344   4197329.3979   2   5   0.0358   0.0796   0.0547  -0.0376  -0.0545   0.0280   0.00    1.6
2173 251906.000    698558.2914  -4739153.3397   4197329.3991   2   5   0.0357   0.0795   0.0546  -0.0375  -0.0544   0.0279   0.00    1.6
2173 251907.000    698558.2954  -4739153.3560   4197329.3979   2   5   0.0356   0.0793   0.0545  -0.0374  -0.0543   0.0279   0.00    1.6
2173 251908.000    698558.2968  -4739153.3606   4197329.3910   2   5   0.0356   0.0791   0.0544  -0.0374  -0.0542   0.0278   0.00    1.6
2173 251909.000    698558.2980  -4739153.3702   4197329.3887   2   5   0.0355   0.0790   0.0543  -0.0373  -0.0541   0.0279   0.00    1.6
2173 251910.000    698558.3005  -4739153.3752   4197329.3780   2   5   0.0355   0.0788   0.0542  -0.0372  -0.0540   0.0278   0.00    1.7
2173 251911.000    698558.3046  -4739153.3843   4197329.3760   2   5   0.0354   0.0786   0.0541  -0.0371  -0.0539   0.0278   0.00    1.7
2173 251912.000    698558.3065  -4739153.3901   4197329.3697   2   5   0.0353   0.0785   0.0540  -0.0370  -0.0538   0.0277   0.00    1.7
2173 251913.000    698558.3079  -4739153.3969   4197329.3683   2   5   0.0353   0.0783   0.0539  -0.0370  -0.0538   0.0277   0.00    1.7
2173 251914.000    698558.3104  -4739153.3999   4197329.3592   2   5   0.0352   0.0781   0.0538  -0.0369  -0.0537   0.0277   0.00    1.7
2173 251915.000    698558.3148  -4739153.4148   4197329.3562   2   5   0.0352   0.0780   0.0537  -0.0368  -0.0536   0.0276   0.00    1.7
2173 251916.000    698558.3163  -4739153.4203   4197329.3506   2   5   0.0351   0.0778   0.0536  -0.0367  -0.0535   0.0275   0.00    1.7
2173 251917.000    698558.3184  -4739153.4246   4197329.3453   2   5   0.0350   0.0777   0.0535  -0.0367  -0.0534   0.0275   0.00    1.7
2173 251918.000    698558.3198  -4739153.4378   4197329.3446   2   5   0.0350   0.0775   0.0534  -0.0366  -0.0533   0.0275   0.00    1.7
2173 251919.000    698558.3221  -4739153.4495   4197329.3397   2   5   0.0350   0.0773   0.0533  -0.0365  -0.0532   0.0274   0.00    1.7
2173 251920.000    698558.3236  -4739153.4549   4197329.3344   2   5   0.0349   0.0772   0.0532  -0.0365  -0.0532   0.0275   0.00    1.7
2173 251921.000    698558.3225  -4739153.4619   4197329.3319   2   5   0.0348   0.0770   0.0531  -0.0364  -0.0531   0.0274   0.00    1.7
2173 251922.000    698558.3264  -4739153.4758   4197329.3307   2   5   0.0348   0.0769   0.0531  -0.0363  -0.0530   0.0273   0.00    1.7
2173 251923.000    698558.3293  -4739153.4788   4197329.3234   2   5   0.0347   0.0767   0.0530  -0.0363  -0.0529   0.0273   0.00    1.7
2173 251924.000    698558.3293  -4739153.4825   4197329.3221   2   5   0.0347   0.0765   0.0529  -0.0362  -0.0528   0.0273   0.00    1.7
2173 251925.000    698558.3306  -4739153.4875   4197329.3175   2   5   0.0346   0.0764   0.0528  -0.0361  -0.0527   0.0273   0.00    1.8
2173 251926.000    698558.3313  -4739153.4939   4197329.3111   2   5   0.0346   0.0762   0.0527  -0.0360  -0.0527   0.0272   0.00    1.8
2173 251927.000    698558.3364  -4739153.5057   4197329.3073   2   5   0.0345   0.0761   0.0526  -0.0360  -0.0526   0.0272   0.00    1.8
2173 251928.000    698558.3225  -4739153.4559   4197329.3062   2   5   0.0345   0.0759   0.0525  -0.0359  -0.0525   0.0272   0.00    1.8
2173 251929.000    698558.3254  -4739153.4584   4197329.3106   2   5   0.0344   0.0758   0.0524  -0.0358  -0.0524   0.0271   0.00    1.8
2173 251930.000    698558.3234  -4739153.4612   4197329.3093   2   5   0.0343   0.0756   0.0523  -0.0358  -0.0523   0.0271   0.00    1.8
2173 251931.000    698558.3231  -4739153.4597   4197329.3118   2   5   0.0342   0.0755   0.0523  -0.0357  -0.0523   0.0270   0.00    1.8
2173 251932.000    698558.3225  -4739153.4584   4197329.3125   2   5   0.0342   0.0753   0.0521  -0.0356  -0.0522   0.0270   0.00    1.8
2173 251933.000    698558.3206  -4739153.4536   4197329.3094   2   5   0.0342   0.0752   0.0520  -0.0355  -0.0521   0.0270   0.00    1.8
2173 251934.000    698558.3189  -4739153.4616   4197329.3146   2   5   0.0341   0.0750   0.0520  -0.0355  -0.0520   0.0269   0.00    1.8
2173 251935.000    698558.3182  -4739153.4603   4197329.3126   2   5   0.0341   0.0749   0.0519  -0.0354  -0.0519   0.0269   0.00    1.8
2173 251936.000    698558.3194  -4739153.4624   4197329.3147   2   5   0.0340   0.0747   0.0518  -0.0353  -0.0519   0.0270   0.00    1.8
2173 251937.000    698558.3178  -4739153.4579   4197329.3172   2   5   0.0340   0.0746   0.0517  -0.0353  -0.0518   0.0269   0.00    1.8
2173 251938.000    698558.3189  -4739153.4612   4197329.3186   2   5   0.0339   0.0744   0.0516  -0.0352  -0.0517   0.0268   0.00    1.8
2173 251939.000    698558.3173  -4739153.4510   4197329.3160   2   5   0.0338   0.0743   0.0516  -0.0351  -0.0516   0.0268   0.00    1.8
2173 251940.000    698558.3143  -4739153.4450   4197329.3198   2   5   0.0338   0.0742   0.0515  -0.0351  -0.0515   0.0268   0.00    1.8
2173 251941.000    698558.3155  -4739153.4518   4197329.3199   2   5   0.0337   0.0740   0.0514  -0.0350  -0.0515   0.0268   0.00    1.8
2173 251942.000    698558.3142  -4739153.4472   4197329.3195   2   5   0.0337   0.0739   0.0513  -0.0350  -0.0514   0.0267   0.00    1.8
2173 251943.000    698558.3114  -4739153.4520   4197329.3235   2   5   0.0337   0.0737   0.0512  -0.0349  -0.0513   0.0267   0.00    1.8
2173 251944.000    698558.3107  -4739153.4480   4197329.3198   2   5   0.0336   0.0736   0.0511  -0.0348  -0.0512   0.0266   0.00    1.8
2173 251945.000    698558.3110  -4739153.4503   4197329.3207   2   5   0.0335   0.0734   0.0511  -0.0348  -0.0512   0.0266   0.00    1.8
2173 251946.000    698558.3057  -4739153.4377   4197329.3202   2   5   0.0335   0.0733   0.0510  -0.0347  -0.0511   0.0266   0.00    1.8
2173 251947.000    698558.3024  -4739153.4497   4197329.3296   2   5   0.0334   0.0732   0.0509  -0.0346  -0.0510   0.0265   0.00    1.8
2173 251948.000    698558.3093  -4739153.4382   4197329.3216   2   5   0.0334   0.0730   0.0508  -0.0345  -0.0509   0.0266   0.00    1.8
2173 251949.000    698558.3085  -4739153.4408   4197329.3205   2   5   0.0333   0.0729   0.0507  -0.0345  -0.0509   0.0265   0.00    1.8
2173 251950.000    698558.3060  -4739153.4390   4197329.3224   2   5   0.0333   0.0728   0.0507  -0.0344  -0.0508   0.0265   0.00    1.8
2173 251951.000    698558.3039  -4739153.4349   4197329.3199   2   5   0.0332   0.0726   0.0506  -0.0344  -0.0507   0.0265   0.00    1.8
2173 251952.000    698558.3026  -4739153.4319   4197329.3208   2   5   0.0332   0.0725   0.0505  -0.0343  -0.0506   0.0264   0.00    1.8
2173 251953.000    698558.3014  -4739153.4286   4197329.3229   2   5   0.0332   0.0724   0.0504  -0.0342  -0.0506   0.0264   0.00    1.8
2173 251954.000    698558.3012  -4739153.4371   4197329.3227   2   5   0.0331   0.0722   0.0503  -0.0342  -0.0505   0.0264   0.00    1.8
2173 251955.000    698558.2762  -4739153.3975   4197329.3150   2   5   0.0331   0.0721   0.0503  -0.0341  -0.0504   0.0263   0.00    1.8
2173 251956.000    698558.2762  -4739153.4031   4197329.3158   2   5   0.0330   0.0719   0.0502  -0.0341  -0.0504   0.0263   0.00    1.8
2173 251957.000    698558.2769  -4739153.4069   4197329.3159   2   5   0.0330   0.0718   0.0501  -0.0340  -0.0503   0.0262   0.00    1.8
2173 251958.000    698558.2764  -4739153.3992   4197329.3103   2   5   0.0329   0.0717   0.0500  -0.0339  -0.0502   0.0263   0.00    1.8
2173 251959.000    698558.2749  -4739153.4030   4197329.3082   2   5   0.0329   0.0716   0.0499  -0.0339  -0.0502   0.0262   0.00    1.8
2173 251960.000    698558.2773  -4739153.4129   4197329.3121   2   5   0.0329   0.0714   0.0498  -0.0338  -0.0501   0.0262   0.00    1.8
2173 251961.000    698558.2788  -4739153.4087   4197329.3089   2   5   0.0328   0.0713   0.0498  -0.0338  -0.0500   0.0262   0.00    1.8
2173 251962.000    698558.2778  -4739153.4118   4197329.3078   2   5   0.0327   0.0712   0.0497  -0.0337  -0.0499   0.0261   0.00    1.8
2173 251963.000    698558.2731  -4739153.4073   4197329.3058   2   5   0.0327   0.0710   0.0496  -0.0337  -0.0499   0.0261   0.00    1.8
2173 251964.000    698558.2754  -4739153.4128   4197329.3089   2   5   0.0326   0.0709   0.0496  -0.0336  -0.0498   0.0261   0.00    1.8
2173 251965.000    698558.2752  -4739153.4115   4197329.3046   2   5   0.0326   0.0708   0.0495  -0.0335  -0.0497   0.0260   0.00    1.8
2173 251966.000    698558.2770  -4739153.4173   4197329.3064   2   5   0.0325   0.0706   0.0494  -0.0335  -0.0497   0.0260   0.00    1.8
2173 251967.000    698558.2767  -4739153.4182   4197329.3073   2   5   0.0325   0.0705   0.0493  -0.0334  -0.0496   0.0260   0.00    1.8
2173 251968.000    698558.2800  -4739153.4252   4197329.3069   2   5   0.0324   0.0704   0.0492  -0.0334  -0.0495   0.0260   0.00    1.8
2173 251969.000    698558.2803  -4739153.4308   4197329.3071   2   5   0.0324   0.0703   0.0492  -0.0333  -0.0495   0.0260   0.00    1.8
2173 251970.000    698558.2780  -4739153.4253   4197329.3008   2   5   0.0324   0.0701   0.0491  -0.0333  -0.0494   0.0259   0.00    1.8
2173 251971.000    698558.2815  -4739153.4379   4197329.3060   2   5   0.0323   0.0700   0.0490  -0.0332  -0.0493   0.0258   0.00    1.8
2173 251972.000    698558.2788  -4739153.4381   4197329.3026   2   5   0.0323   0.0699   0.0490  -0.0332  -0.0493   0.0258   0.00    1.8
2173 251973.000    698558.2756  -4739153.4375   4197329.2977   2   5   0.0322   0.0698   0.0489  -0.0331  -0.0492   0.0258   0.00    1.8
2173 251974.000    698558.2786  -4739153.4462   4197329.3024   2   5   0.0322   0.0696   0.0488  -0.0330  -0.0491   0.0257   0.00    1.8
2173 251975.000    698558.2791  -4739153.4515   4197329.3025   2   5   0.0321   0.0695   0.0487  -0.0330  -0.0491   0.0258   0.00    1.8
2173 251976.000    698558.2766  -4739153.4495   4197329.2986   2   5   0.0321   0.0694   0.0486  -0.0329  -0.0490   0.0258   0.00    1.8
2173 251977.000    698558.2801  -4739153.4518   4197329.3007   2   5   0.0321   0.0693   0.0486  -0.0329  -0.0489   0.0257   0.00    1.8
2173 251978.000    698558.2820  -4739153.4586   4197329.3000   2   5   0.0320   0.0692   0.0485  -0.0328  -0.0489   0.0257   0.00    1.8
2173 251979.000    698558.2805  -4739153.4558   4197329.3001   2   5   0.0320   0.0690   0.0484  -0.0328  -0.0488   0.0257   0.00    1.8
2173 251980.000    698558.2824  -4739153.4570   4197329.2999   2   5   0.0319   0.0689   0.0484  -0.0327  -0.0487   0.0256   0.00    1.8
2173 251981.000    698558.2843  -4739153.4613   4197329.3006   2   5   0.0319   0.0688   0.0483  -0.0326  -0.0487   0.0256   0.00    1.8
2173 251982.000    698558.2837  -4739153.4635   4197329.2998   2   5   0.0319   0.0687   0.0482  -0.0326  -0.0486   0.0256   0.00    1.8
2173 251983.000    698558.2843  -4739153.4668   4197329.3000   2   5   0.0318   0.0686   0.0482  -0.0325  -0.0485   0.0255   0.00    1.8
2173 251984.000    698558.2847  -4739153.4651   4197329.3159   2   5   0.0317   0.0684   0.0481  -0.0325  -0.0485   0.0255   0.00    1.8
2173 251985.000    698558.2819  -4739153.4577   4197329.3110   2   5   0.0317   0.0683   0.0480  -0.0325  -0.0484   0.0255   0.00    1.8
2173 251986.000    698558.2819  -4739153.4634   4197329.3175   2   5   0.0317   0.0682   0.0479  -0.0324  -0.0483   0.0255   0.00    1.8
2173 251987.000    698558.2845  -4739153.4625   4197329.3156   2   5   0.0316   0.0681   0.0479  -0.0323  -0.0483   0.0255   0.00    1.8
2173 251988.000    698558.2818  -4739153.4600   4197329.3158   2   5   0.0316   0.0680   0.0478  -0.0323  -0.0482   0.0254   0.00    1.8
2173 251989.000    698558.2825  -4739153.4603   4197329.3195   2   5   0.0315   0.0679   0.0477  -0.0322  -0.0482   0.0254   0.00    1.8
2173 251990.000    698558.2845  -4739153.4647   4197329.3229   2   5   0.0315   0.0677   0.0477  -0.0322  -0.0481   0.0254   0.00    1.8
2173 251991.000    698558.2816  -4739153.4594   4197329.3214   2   5   0.0315   0.0676   0.0476  -0.0321  -0.0480   0.0254   0.00    1.8
2173 251992.000    698558.2805  -4739153.4597   4197329.3248   2   5   0.0314   0.0675   0.0475  -0.0321  -0.0480   0.0253   0.00    1.8
2173 251993.000    698558.2815  -4739153.4624   4197329.3252   2   5   0.0314   0.0674   0.0474  -0.0320  -0.0479   0.0253   0.00    1.8
2173 251994.000    698558.2800  -4739153.4626   4197329.3234   2   5   0.0313   0.0673   0.0474  -0.0320  -0.0478   0.0253   0.00    1.8
2173 251995.000    698558.2796  -4739153.4670   4197329.3253   2   5   0.0313   0.0672   0.0473  -0.0319  -0.0478   0.0253   0.00    1.8
2173 251996.000    698558.2780  -4739153.4665   4197329.3292   2   5   0.0313   0.0671   0.0473  -0.0319  -0.0477   0.0253   0.00    1.8
2173 251997.000    698558.2775  -4739153.4676   4197329.3278   2   5   0.0312   0.0670   0.0472  -0.0318  -0.0477   0.0253   0.00    1.8
2173 251998.000    698558.2758  -4739153.4738   4197329.3318   2   5   0.0312   0.0668   0.0471  -0.0318  -0.0476   0.0252   0.00    1.8
2173 251999.000    698558.2777  -4739153.4709   4197329.3330   2   5   0.0312   0.0667   0.0471  -0.0317  -0.0475   0.0252   0.00    1.8
