% program   : rnx2rtkp ver.2.4.3 b31
% inp file  : ngs/21_08_31_18_18_24_okdt.obs
% inp file  : ngs/21_08_31_18_18_24_okdt_SW.obs
% inp file  : ngs/21_08_31_18_18_24_brdc.nav
% obs start : 2021/08/31 18:00:00.0 GPST (week2173 237600.0s)
% obs end   : 2021/08/31 18:59:59.0 GPST (week2173 241199.0s)
% ref pos   :  -686782.6115  -5211230.4450   3600696.6734
%
% (x/y/z-ecef=WGS84,Q=1:fix,2:float,3:sbas,4:dgps,5:single,6:ppp,ns=# of satellites)
%  GPST              x-ecef(m)      y-ecef(m)      z-ecef(m)   Q  ns   sdx(m)   sdy(m)   sdz(m)  sdxy(m)  sdyz(m)  sdzx(m) age(s)  ratio
2173 238679.000   -679343.0799  -5154773.3131   3682489.2972   2   7   0.4453   1.1024   1.1349   0.4119  -0.9684  -0.4833 -30.00    1.1
2173 238680.000   -679343.0778  -5154773.3161   3682489.2917   2   7   0.3165   0.7860   0.8094   0.2928  -0.6914  -0.3434 -29.00    1.1
2173 238681.000   -679343.0745  -5154773.3176   3682489.2847   2   7   0.2591   0.6439   0.6630   0.2396  -0.5665  -0.2811 -28.00    1.1
2173 238682.000   -679343.0747  -5154773.3214   3682489.2828   2   7   0.2248   0.5587   0.5753   0.2077  -0.4915  -0.2438 -27.00    1.1
2173 238683.000   -679343.0754  -5154773.3213   3682489.2850   2   7   0.2013   0.5004   0.5152   0.1860  -0.4401  -0.2183 -26.00    1.1
2173 238684.000   -679343.0765  -5154773.3220   3682489.2866   2   7   0.1839   0.4573   0.4707   0.1699  -0.4021  -0.1994 -25.00    1.1
2173 238685.000   -679343.0768  -5154773.3204   3682489.2838   2   7   0.1704   0.4236   0.4360   0.1573  -0.3725  -0.1847 -24.00    1.1
2173 238686.000   -679343.0783  -5154773.3197   3682489.2856   2   7   0.1595   0.3965   0.4080   0.1472  -0.3486  -0.1729 -23.00    1.1
2173 238687.000   -679343.0800  -5154773.3224   3682489.2896   2   7   0.1504   0.3740   0.3848   0.1387  -0.3287  -0.1630 -22.00    1.1
2173 238688.000   -679343.0814  -5154773.3262   3682489.2925   2   7   0.1427   0.3549   0.3651   0.1316  -0.3119  -0.1546 -21.00    1.1
2173 238689.000   -679343.0823  -5154773.3262   3682489.2944   2   7   0.1361   0.3384   0.3481   0.1254  -0.2974  -0.1474 -20.00    1.1
2173 238690.000   -679343.0827  -5154773.3283   3682489.2969   2   7   0.1303   0.3240   0.3332   0.1200  -0.2847  -0.1411 -19.00    1.1
2173 238691.000   -679343.0844  -5154773.3277   3682489.3001   2   7   0.1252   0.3113   0.3201   0.1153  -0.2735  -0.1355 -18.00    1.2
2173 238692.000   -679343.0843  -5154773.3283   3682489.3034   2   7   0.1206   0.2999   0.3083   0.1110  -0.2635  -0.1304 -17.00    1.2
2173 238693.000   -679343.0847  -5154773.3300   3682489.3070   2   7   0.1164   0.2897   0.2978   0.1072  -0.2545  -0.1259 -16.00    1.2
2173 238694.000   -679343.0836  -5154773.3279   3682489.3082   2   7   0.1127   0.2805   0.2882   0.1037  -0.2464  -0.1218 -15.00    1.2
2173 238695.000   -679343.0823  -5154773.3274   3682489.3108   2   7   0.1093   0.2720   0.2794   0.1005  -0.2389  -0.1181 -14.00    1.2
2173 238696.000   -679343.0824  -5154773.3269   3682489.3111   2   7   0.1061   0.2643   0.2714   0.0976  -0.2321  -0.1146 -13.00    1.2
2173 238697.000   -679343.0800  -5154773.3247   3682489.3146   2   7   0.1032   0.2571   0.2640   0.0949  -0.2258  -0.1114 -12.00    1.2
2173 238698.000   -679343.0805  -5154773.3253   3682489.3159   2   7   0.1005   0.2505   0.2571   0.0924  -0.2200  -0.1085 -11.00    1.2
2173 238699.000   -679343.0805  -5154773.3275   3682489.3208   2   7   0.0981   0.2444   0.2507   0.0900  -0.2146  -0.1057 -10.00    1.2
2173 238700.000   -679343.0795  -5154773.3289   3682489.3243   2   7   0.0957   0.2386   0.2448   0.0879  -0.2095  -0.1032  -9.00    1.3
2173 238701.000   -679343.0790  -5154773.3257   3682489.3226   2   7   0.0935   0.2333   0.2392   0.0859  -0.2048  -0.1008  -8.00    1.3
2173 238702.000   -679343.0794  -5154773.3265   3682489.3281   2   7   0.0915   0.2282   0.2339   0.0839  -0.2004  -0.0985  -7.00    1.4
2173 238703.000   -679343.0794  -5154773.3265   3682489.3294   2   7   0.0896   0.2235   0.2290   0.0821  -0.1962  -0.0964  -6.00    1.3
2173 238704.000   -679343.0771  -5154773.3200   3682489.3254   2   7   0.0878   0.2191   0.2243   0.0804  -0.1922  -0.0944  -5.00    1.3
2173 238705.000   -679343.0783  -5154773.3228   3682489.3298   2   7   0.0861   0.2149   0.2198   0.0788  -0.1884  -0.0924  -4.00    1.2
2173 238706.000   -679343.0781  -5154773.3241   3682489.3347   2   7   0.0845   0.2109   0.2156   0.0773  -0.1849  -0.0906  -3.00    1.1
2173 238707.000   -679343.0783  -5154773.3235   3682489.3389   2   7   0.0830   0.2071   0.2116   0.0759  -0.1815  -0.0889  -2.00    1.0
2173 238708.000   -679343.0805  -5154773.3292   3682489.3489   2   7   0.0815   0.2035   0.2078   0.0745  -0.1783  -0.0873  -1.00    1.0
2173 238709.000   -679343.0801  -5154773.3317   3682489.3529   2   7   0.0802   0.2001   0.2042   0.0732  -0.1752  -0.0857   0.00    1.1
2173 238710.000   -679343.0816  -5154773.3308   3682489.3554   2   7   0.0789   0.1969   0.2007   0.0719  -0.1723  -0.0843   0.00    1.1
2173 238711.000   -679343.0814  -5154773.3301   3682489.3588   2   7   0.0777   0.1938   0.1974   0.0708  -0.1695  -0.0829   0.00    1.2
2173 238712.000   -679343.0831  -5154773.3377   3682489.3641   2   7   0.0765   0.1909   0.1943   0.0696  -0.1669  -0.0815   0.00    1.2
2173 238713.000   -679343.0802  -5154773.3278   3682489.3574   2   7   0.0754   0.1881   0.1913   0.0685  -0.1643  -0.0803   0.00    1.2
2173 238714.000   -679343.0813  -5154773.3237   3682489.3558   2   7   0.0743   0.1854   0.1884   0.0675  -0.1619  -0.0790   0.00    1.2
2173 238715.000   -679343.0804  -5154773.3206   3682489.3530   2   7   0.0733   0.1828   0.1856   0.0665  -0.1595  -0.0778   0.00    1.2
2173 238716.000   -679343.0820  -5154773.3188   3682489.3466   2   7   0.0723   0.1803   0.1828   0.0655  -0.1572  -0.0766   0.00    1.2
2173 238717.000   -679343.0834  -5154773.3187   3682489.3462   2   7   0.0713   0.1779   0.1802   0.0645  -0.1550  -0.0755   0.00    1.3
2173 238718.000   -679343.0855  -5154773.3197   3682489.3475   2   7   0.0704   0.1756   0.1777   0.0636  -0.1529  -0.0744   0.00    1.4
2173 238719.000   -679343.0872  -5154773.3210   3682489.3457   2   7   0.0695   0.1733   0.1752   0.0627  -0.1508  -0.0734   0.00    1.4
2173 238720.000   -679343.0915  -5154773.3280   3682489.3574   2   7   0.0686   0.1711   0.1728   0.0619  -0.1488  -0.0723   0.00    1.5
2173 238721.000   -679343.0942  -5154773.3303   3682489.3616   2   7   0.0678   0.1690   0.1704   0.0611  -0.1469  -0.0713   0.00    1.6
2173 238722.000   -679343.0924  -5154773.3256   3682489.3564   2   7   0.0670   0.1670   0.1681   0.0602  -0.1450  -0.0704   0.00    1.6
2173 238723.000   -679343.0903  -5154773.3145   3682489.3390   2   7   0.0662   0.1650   0.1659   0.0594  -0.1431  -0.0694   0.00    1.7
2173 238724.000   -679343.0894  -5154773.3079   3682489.3314   2   7   0.0654   0.1631   0.1637   0.0586  -0.1413  -0.0684   0.00    1.7
2173 238725.000   -679343.0861  -5154773.2983   3682489.3121   2   7   0.0647   0.1612   0.1616   0.0579  -0.1396  -0.0675   0.00    1.7
2173 238726.000   -679343.0833  -5154773.2884   3682489.2957   2   7   0.0640   0.1594   0.1595   0.0572  -0.1378  -0.0667   0.00    1.7
2173 238727.000   -679343.0800  -5154773.2759   3682489.2758   2   7   0.0633   0.1577   0.1575   0.0564  -0.1362  -0.0658   0.00    1.7
2173 238728.000   -679343.0732  -5154773.2596   3682489.2472   2   7   0.0626   0.1560   0.1555   0.0557  -0.1345  -0.0649   0.00    1.7
2173 238729.000   -679343.0676  -5154773.2412   3682489.2222   2   7   0.0620   0.1543   0.1535   0.0550  -0.1329  -0.0640   0.00    1.7
2173 238730.000   -679343.0638  -5154773.2228   3682489.1992   2   7   0.0613   0.1527   0.1516   0.0544  -0.1314  -0.0632   0.00    1.8
2173 238731.000   -679343.0589  -5154773.2085   3682489.1749   2   7   0.0607   0.1511   0.1497   0.0537  -0.1299  -0.0624   0.00    1.8
2173 238732.000   -679343.0572  -5154773.2013   3682489.1624   2   7   0.0601   0.1495   0.1479   0.0531  -0.1283  -0.0616   0.00    1.8
2173 238733.000   -679343.0540  -5154773.1882   3682489.1453   2   7   0.0595   0.1480   0.1461   0.0524  -0.1269  -0.0608   0.00    1.8
2173 238734.000   -679343.0512  -5154773.1743   3682489.1274   2   7   0.0589   0.1466   0.1443   0.0518  -0.1254  -0.0601   0.00    1.9
2173 238735.000   -679343.0488  -5154773.1648   3682489.1124   2   7   0.0583   0.1451   0.1426   0.0512  -0.1240  -0.0593   0.00    1.9
2173 238736.000   -679343.0458  -5154773.1621   3682489.1042   2   7   0.0578   0.1437   0.1409   0.0506  -0.1226  -0.0586   0.00    1.9
2173 238737.000   -679343.0433  -5154773.1554   3682489.0960   2   7   0.0572   0.1423   0.1392   0.0500  -0.1213  -0.0578   0.00    1.9
2173 238738.000   -679343.0414  -5154773.1558   3682489.0929   2   7   0.0567   0.1410   0.1375   0.0494  -0.1200  -0.0571   0.00    1.8
2173 238739.000   -679343.0437  -5154773.1595   3682489.0968   2   7   0.0562   0.1397   0.1359   0.0488  -0.1186  -0.0564   0.00    1.8
2173 238740.000   -679343.0459  -5154773.1632   3682489.1037   2   7   0.0557   0.1384   0.1343   0.0483  -0.1174  -0.0557   0.00    1.8
2173 238741.000   -679343.0432  -5154773.1630   3682489.1033   2   7   0.0552   0.1371   0.1327   0.0477  -0.1161  -0.0550   0.00    1.8
2173 238742.000   -679343.0447  -5154773.1643   3682489.1045   2   7   0.0547   0.1359   0.1311   0.0472  -0.1149  -0.0543   0.00    1.8
2173 238743.000   -679343.0459  -5154773.1700   3682489.1113   2   7   0.0543   0.1347   0.1296   0.0467  -0.1136  -0.0537   0.00    1.8
2173 238744.000   -679343.0450  -5154773.1700   3682489.1117   2   7   0.0538   0.1335   0.1281   0.0461  -0.1124  -0.0530   0.00    1.8
2173 238745.000   -679343.0429  -5154773.1699   3682489.1088   2   7   0.0534   0.1323   0.1266   0.0456  -0.1113  -0.0524   0.00    1.8
2173 238746.000   -679343.0434  -5154773.1710   3682489.1070   2   7   0.0529   0.1312   0.1251   0.0451  -0.1101  -0.0517   0.00    1.7
2173 238747.000   -679343.0395  -5154773.1643   3682489.1006   2   7   0.0525   0.1301   0.1237   0.0446  -0.1090  -0.0511   0.00    1.7
2173 238748.000   -679343.0379  -5154773.1531   3682489.0908   2   7   0.0520   0.1290   0.1223   0.0442  -0.1078  -0.0505   0.00    1.7
2173 238749.000   -679343.0387  -5154773.1569   3682489.0970   2   7   0.0516   0.1279   0.1209   0.0437  -0.1068  -0.0499   0.00    1.7
2173 238750.000   -679343.0348  -5154773.1486   3682489.0878   2   7   0.0512   0.1269   0.1195   0.0432  -0.1057  -0.0493   0.00    1.6
2173 238751.000   -679343.0298  -5154773.1428   3682489.0804   2   7   0.0508   0.1258   0.1181   0.0427  -0.1046  -0.0487   0.00    1.6
2173 238752.000   -679343.0307  -5154773.1446   3682489.0806   2   7   0.0505   0.1248   0.1168   0.0422  -0.1036  -0.0481   0.00    1.6
2173 238753.000   -679343.0304  -5154773.1480   3682489.0838   2   7   0.0501   0.1238   0.1155   0.0418  -0.1025  -0.0475   0.00    1.5
2173 238754.000   -679343.0268  -5154773.1463   3682489.0821   2   7   0.0497   0.1229   0.1142   0.0413  -0.1015  -0.0469   0.00    1.5
2173 238755.000   -679343.0328  -5154773.1408   3682489.0908   2   7   0.0494   0.1219   0.1129   0.0409  -0.1005  -0.0463   0.00    1.5
2173 238756.000   -679343.0340  -5154773.1591   3682489.1137   2   7   0.0490   0.1209   0.1116   0.0405  -0.0995  -0.0458   0.00    1.4
2173 238757.000   -679343.0365  -5154773.1736   3682489.1302   2   7   0.0486   0.1200   0.1104   0.0401  -0.0986  -0.0452   0.00    1.4
2173 238758.000   -679343.0404  -5154773.1860   3682489.1499   2   7   0.0482   0.1191   0.1092   0.0397  -0.0976  -0.0447   0.00    1.4
2173 238759.000   -679343.0407  -5154773.1989   3682489.1603   2   7   0.0479   0.1182   0.1079   0.0392  -0.0967  -0.0442   0.00    1.3
2173 238760.000   -679343.0438  -5154773.2109   3682489.1761   2   7   0.0476   0.1173   0.1068   0.0388  -0.0958  -0.0437   0.00    1.3
2173 238761.000   -679343.0451  -5154773.2165   3682489.1873   2   7   0.0472   0.1165   0.1056   0.0384  -0.0948  -0.0431   0.00    1.3
2173 238762.000   -679343.0448  -5154773.2271   3682489.1987   2   7   0.0469   0.1156   0.1044   0.0380  -0.0940  -0.0427   0.00    1.3
2173 238763.000   -679343.0450  -5154773.2355   3682489.2067   2   7   0.0466   0.1148   0.1033   0.0376  -0.0931  -0.0421   0.00    1.3
2173 238764.000   -679343.0484  -5154773.2380   3682489.2171   2   7   0.0463   0.1140   0.1022   0.0372  -0.0922  -0.0416   0.00    1.2
2173 238765.000   -679343.0516  -5154773.2466   3682489.2279   2   7   0.0459   0.1132   0.1011   0.0369  -0.0914  -0.0411   0.00    1.2
2173 238766.000   -679343.0539  -5154773.2617   3682489.2431   2   7   0.0456   0.1124   0.1000   0.0365  -0.0905  -0.0407   0.00    1.2
2173 238767.000   -679343.0552  -5154773.2694   3682489.2535   2   7   0.0454   0.1116   0.0989   0.0361  -0.0897  -0.0402   0.00    1.2
2173 238768.000   -679343.0563  -5154773.2745   3682489.2631   2   7   0.0451   0.1108   0.0978   0.0357  -0.0889  -0.0397   0.00    1.2
2173 238769.000   -679343.0572  -5154773.2828   3682489.2743   2   7   0.0447   0.1101   0.0968   0.0354  -0.0881  -0.0393   0.00    1.2
2173 238770.000   -679343.0597  -5154773.2946   3682489.2887   2   7   0.0445   0.1093   0.0958   0.0351  -0.0873  -0.0388   0.00    1.1
2173 238771.000   -679343.0597  -5154773.2985   3682489.2957   2   7   0.0442   0.1086   0.0948   0.0347  -0.0865  -0.0383   0.00    1.1
2173 238772.000   -679343.0600  -5154773.3060   3682489.3007   2   7   0.0439   0.1079   0.0938   0.0344  -0.0858  -0.0379   0.00    1.1
2173 238773.000   -679343.0616  -5154773.3132   3682489.3061   2   7   0.0437   0.1071   0.0928   0.0341  -0.0850  -0.0375   0.00    1.1
2173 238774.000   -679343.0657  -5154773.3301   3682489.3187   2   7   0.0434   0.1064   0.0918   0.0337  -0.0843  -0.0370   0.00    1.1
2173 238775.000   -679343.0674  -5154773.3400   3682489.3229   2   7   0.0431   0.1058   0.0909   0.0334  -0.0835  -0.0366   0.00    1.1
2173 238776.000   -679343.0704  -5154773.3518   3682489.3303   2   7   0.0429   0.1051   0.0899   0.0330  -0.0828  -0.0362   0.00    1.1
2173 238777.000   -679343.0743  -5154773.3609   3682489.3348   2   7   0.0426   0.1044   0.0890   0.0327  -0.0821  -0.0358   0.00    1.1
2173 238778.000   -679343.0798  -5154773.3752   3682489.3503   2   7   0.0424   0.1038   0.0881   0.0324  -0.0814  -0.0354   0.00    1.1
2173 238779.000   -679343.0837  -5154773.3845   3682489.3626   2   7   0.0421   0.1031   0.0872   0.0322  -0.0808  -0.0350   0.00    1.1
2173 238780.000   -679343.0842  -5154773.3897   3682489.3632   2   7   0.0418   0.1025   0.0863   0.0319  -0.0801  -0.0346   0.00    1.1
2173 238781.000   -679343.0878  -5154773.3952   3682489.3721   2   7   0.0417   0.1019   0.0855   0.0315  -0.0794  -0.0342   0.00    1.1
2173 238782.000   -679343.0883  -5154773.4054   3682489.3823   2   7   0.0414   0.1012   0.0846   0.0313  -0.0788  -0.0338   0.00    1.1
2173 238783.000   -679343.0902  -5154773.4094   3682489.3895   2   7   0.0412   0.1006   0.0838   0.0309  -0.0781  -0.0334   0.00    1.1
2173 238784.000   -679343.0931  -5154773.4172   3682489.3987   2   7   0.0409   0.1000   0.0829   0.0306  -0.0775  -0.0331   0.00    1.2
2173 238785.000   -679343.0932  -5154773.4185   3682489.4036   2   7   0.0407   0.0994   0.0821   0.0304  -0.0769  -0.0327   0.00    1.2
2173 238786.000   -679343.0936  -5154773.4273   3682489.4118   2   7   0.0405   0.0989   0.0813   0.0301  -0.0763  -0.0324   0.00    1.2
2173 238787.000   -679343.0934  -5154773.4272   3682489.4105   2   7   0.0402   0.0983   0.0805   0.0299  -0.0757  -0.0320   0.00    1.2
2173 238788.000   -679343.0948  -5154773.4358   3682489.4155   2   7   0.0400   0.0977   0.0797   0.0296  -0.0751  -0.0317   0.00    1.2
2173 238789.000   -679343.0971  -5154773.4432   3682489.4165   2   7   0.0398   0.0972   0.0789   0.0293  -0.0745  -0.0313   0.00    1.2
2173 238790.000   -679343.0974  -5154773.4438   3682489.4133   2   7   0.0396   0.0966   0.0782   0.0290  -0.0739  -0.0309   0.00    1.2
2173 238791.000   -679343.0962  -5154773.4456   3682489.4134   2   7   0.0394   0.0961   0.0774   0.0288  -0.0733  -0.0306   0.00    1.2
2173 238792.000   -679343.1004  -5154773.4472   3682489.4125   2   7   0.0392   0.0955   0.0767   0.0286  -0.0728  -0.0303   0.00    1.2
2173 238793.000   -679343.0998  -5154773.4494   3682489.4125   2   7   0.0390   0.0950   0.0760   0.0283  -0.0722  -0.0299   0.00    1.2
2173 238794.000   -679343.1007  -5154773.4478   3682489.4116   2   7   0.0388   0.0945   0.0753   0.0281  -0.0717  -0.0297   0.00    1.2
2173 238795.000   -679343.0993  -5154773.4449   3682489.4076   2   7   0.0386   0.0940   0.0746   0.0279  -0.0712  -0.0293   0.00    1.2
2173 238796.000   -679343.0962  -5154773.4450   3682489.4037   2   7   0.0384   0.0935   0.0739   0.0277  -0.0706  -0.0290   0.00    1.2
2173 238797.000   -679343.0952  -5154773.4487   3682489.4058   2   7   0.0382   0.0930   0.0732   0.0274  -0.0701  -0.0288   0.00    1.2
2173 238798.000   -679343.0945  -5154773.4560   3682489.4138   2   7   0.0381   0.0925   0.0725   0.0271  -0.0696  -0.0284   0.00    1.2
2173 238799.000   -679343.0948  -5154773.4586   3682489.4169   2   7   0.0379   0.0920   0.0719   0.0269  -0.0691  -0.0281   0.00    1.2
2173 238800.000   -679343.0942  -5154773.4640   3682489.4200   2   7   0.0377   0.0915   0.0712   0.0267  -0.0686  -0.0278   0.00    1.2
2173 238801.000   -679343.0948  -5154773.4672   3682489.4269   2   7   0.0375   0.0910   0.0706   0.0264  -0.0681  -0.0275   0.00    1.2
2173 238802.000   -679343.0920  -5154773.4667   3682489.4239   2   7   0.0374   0.0905   0.0699   0.0262  -0.0676  -0.0272   0.00    1.2
2173 238803.000   -679343.0902  -5154773.4695   3682489.4223   2   7   0.0371   0.0901   0.0693   0.0261  -0.0672  -0.0269   0.00    1.2
2173 238804.000   -679343.0900  -5154773.4705   3682489.4224   2   7   0.0370   0.0896   0.0687   0.0259  -0.0667  -0.0267   0.00    1.2
2173 238805.000   -679343.0883  -5154773.4704   3682489.4232   2   7   0.0368   0.0892   0.0681   0.0257  -0.0662  -0.0264   0.00    1.2
2173 238806.000   -679343.0907  -5154773.4833   3682489.4264   2   7   0.0366   0.0888   0.0675   0.0254  -0.0658  -0.0261   0.00    1.1
2173 238807.000   -679343.0917  -5154773.4915   3682489.4318   2   7   0.0365   0.0883   0.0669   0.0253  -0.0653  -0.0259   0.00    1.1
2173 238808.000   -679343.0932  -5154773.4914   3682489.4343   2   7   0.0363   0.0879   0.0663   0.0251  -0.0649  -0.0256   0.00    1.1
2173 238809.000   -679343.0969  -5154773.5025   3682489.4450   2   7   0.0361   0.0874   0.0657   0.0249  -0.0645  -0.0254   0.00    1.1
2173 238810.000   -679343.0985  -5154773.5094   3682489.4561   2   7   0.0360   0.0870   0.0652   0.0247  -0.0640  -0.0251   0.00    1.1
2173 238811.000   -679343.0988  -5154773.5122   3682489.4675   2   7   0.0358   0.0866   0.0646   0.0245  -0.0636  -0.0248   0.00    1.1
2173 238812.000   -679343.1002  -5154773.5214   3682489.4802   2   7   0.0356   0.0862   0.0641   0.0243  -0.0632  -0.0246   0.00    1.1
2173 238813.000   -679343.1016  -5154773.5273   3682489.4924   2   7   0.0355   0.0858   0.0635   0.0241  -0.0628  -0.0243   0.00    1.1
2173 238814.000   -679343.1019  -5154773.5344   3682489.5041   2   7   0.0353   0.0854   0.0630   0.0239  -0.0624  -0.0241   0.00    1.1
2173 238815.000   -679343.0957  -5154773.5281   3682489.4829   2   7   0.0352   0.0850   0.0625   0.0238  -0.0620  -0.0239   0.00    1.1
2173 238816.000   -679343.0941  -5154773.5284   3682489.4772   2   7   0.0350   0.0846   0.0620   0.0236  -0.0616  -0.0237   0.00    1.1
2173 238817.000   -679343.0911  -5154773.5275   3682489.4697   2   7   0.0349   0.0842   0.0615   0.0234  -0.0612  -0.0235   0.00    1.1
2173 238818.000   -679343.0940  -5154773.5322   3682489.4731   2   7   0.0347   0.0838   0.0610   0.0232  -0.0608  -0.0232   0.00    1.1
2173 238819.000   -679343.0903  -5154773.5260   3682489.4615   2   7   0.0346   0.0834   0.0605   0.0231  -0.0605  -0.0230   0.00    1.1
2173 238820.000   -679343.0878  -5154773.5278   3682489.4574   2   7   0.0345   0.0831   0.0600   0.0229  -0.0601  -0.0228   0.00    1.1
2173 238821.000   -679343.0888  -5154773.5232   3682489.4497   2   7   0.0344   0.0827   0.0595   0.0226  -0.0597  -0.0225   0.00    1.1
2173 238822.000   -679343.0857  -5154773.5199   3682489.4443   2   7   0.0343   0.0823   0.0590   0.0225  -0.0594  -0.0223   0.00    1.1
2173 238823.000   -679343.0844  -5154773.5191   3682489.4392   2   7   0.0341   0.0820   0.0585   0.0224  -0.0590  -0.0221   0.00    1.1
2173 238824.000   -679343.0823  -5154773.5183   3682489.4340   2   7   0.0340   0.0816   0.0581   0.0222  -0.0587  -0.0219   0.00    1.1
2173 238825.000   -679343.0772  -5154773.5160   3682489.4256   2   7   0.0339   0.0813   0.0576   0.0221  -0.0583  -0.0217   0.00    1.0
2173 238826.000   -679343.0755  -5154773.5144   3682489.4183   2   7   0.0337   0.0809   0.0572   0.0219  -0.0580  -0.0215   0.00    1.0
2173 238827.000   -679343.0729  -5154773.5100   3682489.4055   2   7   0.0335   0.0805   0.0567   0.0217  -0.0576  -0.0212   0.00    1.0
2173 238828.000   -679343.0698  -5154773.5073   3682489.4004   2   7   0.0334   0.0802   0.0563   0.0216  -0.0573  -0.0211   0.00    1.0
2173 238829.000   -679343.0671  -5154773.5046   3682489.3913   2   7   0.0333   0.0799   0.0559   0.0215  -0.0570  -0.0208   0.00    1.0
2173 238830.000   -679343.0633  -5154773.4954   3682489.3771   2   7   0.0332   0.0795   0.0555   0.0213  -0.0566  -0.0207   0.00    1.0
2173 238831.000   -679343.0597  -5154773.4878   3682489.3671   2   7   0.0331   0.0792   0.0551   0.0213  -0.0563  -0.0205   0.00    1.0
2173 238832.000   -679343.0544  -5154773.4874   3682489.3575   2   7   0.0329   0.0789   0.0547   0.0210  -0.0560  -0.0203   0.00    1.0
2173 238833.000   -679343.0509  -5154773.4836   3682489.3513   2   7   0.0328   0.0785   0.0542   0.0209  -0.0557  -0.0201   0.00    1.0
2173 238834.000   -679343.0488  -5154773.4791   3682489.3434   2   7   0.0326   0.0782   0.0538   0.0208  -0.0554  -0.0199   0.00    1.0
2173 238835.000   -679343.0481  -5154773.4824   3682489.3411   2   7   0.0325   0.0779   0.0535   0.0207  -0.0551  -0.0198   0.00    1.1
2173 238836.000   -679343.0463  -5154773.4826   3682489.3366   2   7   0.0324   0.0776   0.0531   0.0206  -0.0548  -0.0197   0.00    1.1
2173 238837.000   -679343.0435  -5154773.4822   3682489.3339   2   7   0.0323   0.0773   0.0527   0.0204  -0.0545  -0.0195   0.00    1.1
2173 238838.000   -679343.0451  -5154773.4841   3682489.3356   2   7   0.0322   0.0770   0.0523   0.0202  -0.0542  -0.0192   0.00    1.1
2173 238839.000   -679343.0446  -5154773.4858   3682489.3343   2   7   0.0320   0.0767   0.0519   0.0202  -0.0539  -0.0191   0.00    1.1
2173 238840.000   -679343.0436  -5154773.4866   3682489.3324   2   7   0.0320   0.0764   0.0516   0.0200  -0.0536  -0.0189   0.00    1.1
2173 238841.000   -679343.0425  -5154773.4893   3682489.3282   2   7   0.0318   0.0760   0.0512   0.0199  -0.0534  -0.0187   0.00    1.1
2173 238842.000   -679343.0385  -5154773.4847   3682489.3250   2   7   0.0318   0.0758   0.0508   0.0197  -0.0531  -0.0185   0.00    1.1
2173 238843.000   -679343.0372  -5154773.4861   3682489.3238   2   7   0.0316   0.0755   0.0505   0.0196  -0.0528  -0.0184   0.00    1.1
2173 238844.000   -679343.0357  -5154773.4928   3682489.3270   2   7   0.0314   0.0752   0.0501   0.0196  -0.0525  -0.0183   0.00    1.1
2173 238845.000   -679343.0345  -5154773.4972   3682489.3258   2   7   0.0314   0.0749   0.0498   0.0193  -0.0522  -0.0181   0.00    1.1
2173 238846.000   -679343.0318  -5154773.4998   3682489.3298   2   7   0.0313   0.0746   0.0495   0.0192  -0.0520  -0.0180   0.00    1.1
2173 238847.000   -679343.0320  -5154773.4997   3682489.3303   2   7   0.0312   0.0743   0.0491   0.0192  -0.0517  -0.0179   0.00    1.1
2173 238848.000   -679343.0309  -5154773.5034   3682489.3313   2   7   0.0311   0.0740   0.0488   0.0191  -0.0514  -0.0177   0.00    1.2
2173 238849.000   -679343.0293  -5154773.5032   3682489.3304   2   7   0.0310   0.0738   0.0485   0.0189  -0.0512  -0.0174   0.00    1.2
2173 238850.000   -679343.0282  -5154773.5009   3682489.3248   2   7   0.0308   0.0735   0.0481   0.0188  -0.0510  -0.0173   0.00    1.2
2173 238851.000   -679343.0280  -5154773.5022   3682489.3237   2   7   0.0308   0.0732   0.0478   0.0186  -0.0507  -0.0172   0.00    1.2
2173 238852.000   -679343.0264  -5154773.4982   3682489.3207   2   7   0.0307   0.0729   0.0475   0.0186  -0.0505  -0.0171   0.00    1.2
2173 238853.000   -679343.0228  -5154773.4924   3682489.3129   2   7   0.0307   0.0727   0.0472   0.0184  -0.0502  -0.0169   0.00    1.2
2173 238854.000   -679343.0211  -5154773.4885   3682489.3068   2   7   0.0304   0.0724   0.0469   0.0184  -0.0500  -0.0168   0.00    1.2
2173 238855.000   -679343.0182  -5154773.4803   3682489.2970   2   7   0.0304   0.0722   0.0466   0.0182  -0.0497  -0.0166   0.00    1.2
2173 238856.000   -679343.0181  -5154773.4807   3682489.2977   2   7   0.0302   0.0719   0.0463   0.0182  -0.0495  -0.0165   0.00    1.2
2173 238857.000   -679343.0142  -5154773.4747   3682489.2872   2   7   0.0301   0.0716   0.0460   0.0181  -0.0493  -0.0163   0.00    1.2
2173 238858.000   -679343.0138  -5154773.4725   3682489.2828   2   7   0.0301   0.0714   0.0457   0.0180  -0.0490  -0.0163   0.00    1.2
2173 238859.000   -679343.0122  -5154773.4719   3682489.2799   2   7   0.0300   0.0711   0.0454   0.0178  -0.0488  -0.0161   0.00    1.2
2173 238860.000   -679343.0113  -5154773.4716   3682489.2762   2   7   0.0299   0.0709   0.0452   0.0178  -0.0486  -0.0160   0.00    1.2
2173 238861.000   -679343.0108  -5154773.4696   3682489.2729   2   7   0.0298   0.0706   0.0449   0.0177  -0.0484  -0.0158   0.00    1.3
2173 238862.000   -679343.0096  -5154773.4710   3682489.2718   2   7   0.0297   0.0704   0.0446   0.0175  -0.0481  -0.0157   0.00    1.3
2173 238863.000   -679343.0078  -5154773.4700   3682489.2689   2   7   0.0296   0.0701   0.0443   0.0175  -0.0479  -0.0156   0.00    1.3
2173 238864.000   -679343.0090  -5154773.4668   3682489.2654   2   7   0.0295   0.0699   0.0441   0.0174  -0.0477  -0.0154   0.00    1.3
2173 238865.000   -679343.0068  -5154773.4630   3682489.2567   2   7   0.0294   0.0696   0.0438   0.0173  -0.0475  -0.0154   0.00    1.3
2173 238866.000   -679343.0074  -5154773.4611   3682489.2545   2   7   0.0294   0.0694   0.0435   0.0171  -0.0473  -0.0152   0.00    1.3
2173 238867.000   -679343.0071  -5154773.4590   3682489.2501   2   7   0.0293   0.0692   0.0433   0.0171  -0.0471  -0.0151   0.00    1.3
2173 238868.000   -679343.0031  -5154773.4471   3682489.2388   2   7   0.0291   0.0689   0.0430   0.0169  -0.0469  -0.0150   0.00    1.3
2173 238869.000   -679343.0047  -5154773.4443   3682489.2363   2   7   0.0291   0.0687   0.0427   0.0169  -0.0466  -0.0149   0.00    1.3
2173 238870.000   -679343.0024  -5154773.4414   3682489.2288   2   7   0.0290   0.0685   0.0425   0.0169  -0.0465  -0.0148   0.00    1.3
2173 238871.000   -679343.0043  -5154773.4386   3682489.2286   2   7   0.0290   0.0682   0.0423   0.0167  -0.0463  -0.0146   0.00    1.3
2173 238872.000   -679343.0008  -5154773.4341   3682489.2174   2   7   0.0288   0.0680   0.0420   0.0166  -0.0461  -0.0145   0.00    1.3
2173 238873.000   -679342.9984  -5154773.4298   3682489.2116   2   7   0.0288   0.0678   0.0418   0.0165  -0.0459  -0.0144   0.00    1.3
2173 238874.000   -679342.9959  -5154773.4248   3682489.2062   2   7   0.0287   0.0675   0.0416   0.0163  -0.0457  -0.0143   0.00    1.3
2173 238875.000   -679342.9944  -5154773.4242   3682489.2052   2   7   0.0286   0.0673   0.0413   0.0163  -0.0455  -0.0142   0.00    1.3
2173 238876.000   -679342.9771  -5154773.4168   3682489.1893   2   7   0.0285   0.0671   0.0411   0.0163  -0.0453  -0.0141   0.00    1.3
2173 238877.000   -679342.9934  -5154773.4181   3682489.1994   2   7   0.0285   0.0669   0.0409   0.0161  -0.0451  -0.0139   0.00    1.3
2173 238878.000   -679342.9990  -5154773.4258   3682489.2061   2   7   0.0284   0.0667   0.0406   0.0162  -0.0449  -0.0139   0.00    1.3
2173 238879.000   -679343.0036  -5154773.4292   3682489.2082   2   7   0.0283   0.0665   0.0404   0.0160  -0.0447  -0.0138   0.00    1.2
2173 238880.000   -679343.0099  -5154773.4344   3682489.2120   2   7   0.0282   0.0662   0.0402   0.0159  -0.0446  -0.0137   0.00    1.2
2173 238881.000   -679343.0152  -5154773.4354   3682489.2144   2   7   0.0281   0.0660   0.0400   0.0159  -0.0444  -0.0135   0.00    1.2
2173 238882.000   -679343.0220  -5154773.4383   3682489.2192   2   7   0.0280   0.0658   0.0397   0.0159  -0.0442  -0.0135   0.00    1.2
2173 238883.000   -679343.0275  -5154773.4416   3682489.2201   2   7   0.0280   0.0656   0.0395   0.0157  -0.0440  -0.0134   0.00    1.1
2173 238884.000   -679343.0328  -5154773.4403   3682489.2205   2   7   0.0280   0.0654   0.0393   0.0156  -0.0439  -0.0132   0.00    1.1
2173 238885.000   -679343.0350  -5154773.4425   3682489.2189   2   7   0.0278   0.0652   0.0391   0.0155  -0.0437  -0.0132   0.00    1.1
2173 238886.000   -679343.0400  -5154773.4480   3682489.2230   2   7   0.0277   0.0650   0.0389   0.0156  -0.0435  -0.0131   0.00    1.1
2173 238887.000   -679343.0437  -5154773.4485   3682489.2234   2   7   0.0276   0.0648   0.0387   0.0155  -0.0433  -0.0130   0.00    1.0
2173 238888.000   -679343.0479  -5154773.4500   3682489.2251   2   7   0.0276   0.0646   0.0385   0.0153  -0.0432  -0.0129   0.00    1.0
2173 238889.000   -679343.0526  -5154773.4531   3682489.2281   2   7   0.0275   0.0644   0.0383   0.0152  -0.0430  -0.0128   0.00    1.0
2173 238890.000   -679343.0568  -5154773.4528   3682489.2301   2   7   0.0274   0.0642   0.0381   0.0151  -0.0428  -0.0127   0.00    1.0
2173 238891.000   -679343.0623  -5154773.4570   3682489.2336   2   7   0.0274   0.0640   0.0379   0.0151  -0.0427  -0.0126   0.00    1.0
2173 238892.000   -679343.0685  -5154773.4598   3682489.2384   2   7   0.0273   0.0638   0.0377   0.0150  -0.0425  -0.0125   0.00    1.0
2173 238893.000   -679343.0728  -5154773.4608   3682489.2385   2   7   0.0272   0.0636   0.0375   0.0150  -0.0424  -0.0124   0.00    1.1
2173 238894.000   -679343.0771  -5154773.4638   3682489.2403   2   7   0.0271   0.0634   0.0374   0.0149  -0.0422  -0.0124   0.00    1.1
2173 238895.000   -679343.0821  -5154773.4649   3682489.2442   2   7   0.0271   0.0632   0.0372   0.0149  -0.0420  -0.0123   0.00    1.1
2173 238896.000   -679343.0875  -5154773.4729   3682489.2470   2   7   0.0270   0.0630   0.0370   0.0147  -0.0419  -0.0122   0.00    1.1
2173 238897.000   -679343.0928  -5154773.4711   3682489.2484   2   7   0.0269   0.0628   0.0368   0.0147  -0.0417  -0.0121   0.00    1.1
2173 238898.000   -679343.0962  -5154773.4802   3682489.2524   2   7   0.0269   0.0626   0.0366   0.0146  -0.0416  -0.0120   0.00    1.2
2173 238899.000   -679343.1017  -5154773.4808   3682489.2571   2   7   0.0268   0.0624   0.0364   0.0147  -0.0414  -0.0119   0.00    1.2
2173 238900.000   -679343.1048  -5154773.4809   3682489.2565   2   7   0.0267   0.0622   0.0363   0.0145  -0.0413  -0.0119   0.00    1.2
2173 238901.000   -679343.1102  -5154773.4877   3682489.2610   2   7   0.0266   0.0621   0.0361   0.0145  -0.0411  -0.0119   0.00    1.2
2173 238902.000   -679343.1125  -5154773.4879   3682489.2599   2   7   0.0265   0.0619   0.0359   0.0144  -0.0409  -0.0117   0.00    1.2
2173 238903.000   -679343.1159  -5154773.4834   3682489.2598   2   7   0.0266   0.0617   0.0357   0.0144  -0.0408  -0.0116   0.00    1.3
2173 238904.000   -679343.1177  -5154773.4816   3682489.2545   2   7   0.0264   0.0615   0.0355   0.0143  -0.0406  -0.0115   0.00    1.3
2173 238905.000   -679343.1218  -5154773.4862   3682489.2584   2   7   0.0264   0.0613   0.0354   0.0141  -0.0405  -0.0115   0.00    1.3
2173 238906.000   -679343.1263  -5154773.4857   3682489.2608   2   7   0.0263   0.0611   0.0352   0.0142  -0.0404  -0.0114   0.00    1.3
2173 238907.000   -679343.1313  -5154773.4886   3682489.2639   2   7   0.0263   0.0610   0.0351   0.0140  -0.0402  -0.0113   0.00    1.3
2173 238908.000   -679343.1397  -5154773.4933   3682489.2718   2   7   0.0262   0.0608   0.0349   0.0141  -0.0401  -0.0113   0.00    1.4
2173 238909.000   -679343.1426  -5154773.4932   3682489.2725   2   7   0.0261   0.0606   0.0347   0.0138  -0.0400  -0.0111   0.00    1.4
2173 238910.000   -679343.1479  -5154773.4964   3682489.2767   2   7   0.0261   0.0605   0.0346   0.0138  -0.0398  -0.0110   0.00    1.4
2173 238911.000   -679343.1525  -5154773.5000   3682489.2807   2   7   0.0261   0.0603   0.0344   0.0137  -0.0397  -0.0110   0.00    1.4
2173 238912.000   -679343.1590  -5154773.5033   3682489.2815   2   7   0.0259   0.0601   0.0343   0.0137  -0.0396  -0.0110   0.00    1.5
2173 238913.000   -679343.1629  -5154773.5056   3682489.2853   2   7   0.0259   0.0599   0.0341   0.0138  -0.0394  -0.0109   0.00    1.5
2173 238914.000   -679343.1681  -5154773.5058   3682489.2861   2   7   0.0259   0.0598   0.0340   0.0136  -0.0393  -0.0108   0.00    1.5
2173 238915.000   -679343.1718  -5154773.5036   3682489.2834   2   7   0.0257   0.0596   0.0338   0.0136  -0.0391  -0.0107   0.00    1.5
2173 238916.000   -679343.1767  -5154773.5037   3682489.2887   2   7   0.0257   0.0594   0.0337   0.0136  -0.0390  -0.0106   0.00    1.6
2173 238917.000   -679343.1794  -5154773.5049   3682489.2883   2   7   0.0256   0.0593   0.0335   0.0135  -0.0389  -0.0105   0.00    1.6
2173 238918.000   -679343.1860  -5154773.5030   3682489.2878   2   7   0.0256   0.0591   0.0334   0.0134  -0.0387  -0.0105   0.00    1.6
2173 238919.000   -679343.1883  -5154773.5023   3682489.2878   2   7   0.0254   0.0589   0.0332   0.0133  -0.0386  -0.0105   0.00    1.6
2173 238920.000   -679343.1921  -5154773.5025   3682489.2912   2   7   0.0254   0.0587   0.0331   0.0135  -0.0385  -0.0105   0.00    1.6
2173 238921.000   -679343.1977  -5154773.5041   3682489.2951   2   7   0.0254   0.0586   0.0329   0.0132  -0.0384  -0.0103   0.00    1.7
2173 238922.000   -679343.2029  -5154773.5134   3682489.3023   2   7   0.0254   0.0584   0.0328   0.0131  -0.0382  -0.0103   0.00    1.7
2173 238923.000   -679343.2078  -5154773.5152   3682489.3076   2   7   0.0252   0.0583   0.0327   0.0132  -0.0381  -0.0103   0.00    1.7
2173 238924.000   -679343.2173  -5154773.5235   3682489.3193   2   7   0.0252   0.0581   0.0325   0.0131  -0.0380  -0.0102   0.00    1.8
2173 238925.000   -679343.2238  -5154773.5281   3682489.3272   2   7   0.0252   0.0580   0.0324   0.0130  -0.0378  -0.0100   0.00    1.8
2173 238926.000   -679343.2308  -5154773.5336   3682489.3366   2   7   0.0250   0.0578   0.0322   0.0131  -0.0377  -0.0102   0.00    1.8
2173 238927.000   -679343.2351  -5154773.5349   3682489.3420   2   7   0.0250   0.0576   0.0321   0.0130  -0.0376  -0.0099   0.00    1.8
2173 238928.000   -679343.2411  -5154773.5302   3682489.3422   2   7   0.0250   0.0575   0.0320   0.0127  -0.0375  -0.0098   0.00    1.9
2173 238929.000   -679343.2450  -5154773.5289   3682489.3411   2   7   0.0250   0.0573   0.0318   0.0128  -0.0374  -0.0097   0.00    1.9
2173 238930.000   -679343.2481  -5154773.5238   3682489.3388   2   7   0.0249   0.0572   0.0317   0.0128  -0.0373  -0.0098   0.00    1.9
2173 238931.000   -679343.2527  -5154773.5272   3682489.3446   2   7   0.0249   0.0570   0.0316   0.0128  -0.0371  -0.0098   0.00    2.0
2173 238932.000   -679343.2572  -5154773.5281   3682489.3457   2   7   0.0248   0.0568   0.0315   0.0128  -0.0370  -0.0098   0.00    2.0
2173 238933.000   -679343.2589  -5154773.5206   3682489.3405   2   7   0.0247   0.0567   0.0314   0.0126  -0.0369  -0.0096   0.00    2.0
2173 238934.000   -679343.2647  -5154773.5247   3682489.3453   2   7   0.0246   0.0566   0.0312   0.0127  -0.0368  -0.0095   0.00    2.0
2173 238935.000   -679343.2676  -5154773.5246   3682489.3438   2   7   0.0246   0.0564   0.0311   0.0126  -0.0367  -0.0095   0.00    2.1
2173 238936.000   -679343.2765  -5154773.5341   3682489.3369   2   7   0.0246   0.0562   0.0310   0.0126  -0.0366  -0.0095   0.00    2.1
2173 238937.000   -679343.2805  -5154773.5379   3682489.3428   2   7   0.0245   0.0561   0.0309   0.0125  -0.0364  -0.0094   0.00    2.1
2173 238938.000   -679343.2852  -5154773.5365   3682489.3469   2   7   0.0245   0.0560   0.0307   0.0122  -0.0364  -0.0091   0.00    2.1
2173 238939.000   -679343.2889  -5154773.5360   3682489.3471   2   7   0.0244   0.0558   0.0306   0.0123  -0.0362  -0.0093   0.00    2.2
2173 238940.000   -679343.2936  -5154773.5409   3682489.3589   2   7   0.0244   0.0557   0.0305   0.0123  -0.0361  -0.0092   0.00    2.2
2173 238941.000   -679343.2950  -5154773.5372   3682489.3524   2   7   0.0243   0.0555   0.0304   0.0122  -0.0360  -0.0091   0.00    2.2
2173 238942.000   -679343.2997  -5154773.5404   3682489.3593   2   7   0.0242   0.0553   0.0303   0.0123  -0.0359  -0.0092   0.00    2.3
2173 238943.000   -679343.3013  -5154773.5391   3682489.3564   2   7   0.0242   0.0552   0.0301   0.0123  -0.0358  -0.0091   0.00    2.3
2173 238944.000   -679343.3060  -5154773.5409   3682489.3615   2   7   0.0242   0.0551   0.0300   0.0121  -0.0357  -0.0089   0.00    2.3
2173 238945.000   -679343.3069  -5154773.5372   3682489.3576   2   7   0.0241   0.0549   0.0299   0.0120  -0.0356  -0.0089   0.00    2.3
2173 238946.000   -679343.3074  -5154773.5387   3682489.3575   2   7   0.0241   0.0548   0.0298   0.0120  -0.0355  -0.0089   0.00    2.3
2173 238947.000   -679343.3097  -5154773.5363   3682489.3556   2   7   0.0239   0.0546   0.0297   0.0121  -0.0354  -0.0089   0.00    2.4
2173 238948.000   -679343.3112  -5154773.5341   3682489.3535   2   7   0.0239   0.0545   0.0296   0.0120  -0.0353  -0.0088   0.00    2.4
2173 238949.000   -679343.3128  -5154773.5360   3682489.3582   2   7   0.0238   0.0543   0.0295   0.0120  -0.0351  -0.0088   0.00    2.4
2173 238950.000   -679343.3118  -5154773.5370   3682489.3565   2   7   0.0238   0.0542   0.0294   0.0118  -0.0351  -0.0087   0.00    2.4
2173 238951.000   -679343.3170  -5154773.5407   3682489.3625   2   7   0.0238   0.0541   0.0293   0.0118  -0.0350  -0.0086   0.00    2.4
2173 238952.000   -679343.3172  -5154773.5388   3682489.3615   2   7   0.0238   0.0540   0.0292   0.0118  -0.0349  -0.0085   0.00    2.4
2173 238953.000   -679343.3183  -5154773.5374   3682489.3575   2   7   0.0237   0.0538   0.0291   0.0118  -0.0348  -0.0086   0.00    2.5
2173 238954.000   -679343.3211  -5154773.5376   3682489.3596   2   7   0.0236   0.0537   0.0289   0.0117  -0.0347  -0.0085   0.00    2.5
2173 238955.000   -679343.3251  -5154773.5367   3682489.3625   2   7   0.0236   0.0535   0.0288   0.0116  -0.0346  -0.0085   0.00    2.5
2173 238956.000   -679343.3283  -5154773.5359   3682489.3615   2   7   0.0235   0.0534   0.0287   0.0117  -0.0345  -0.0085   0.00    2.5
2173 238957.000   -679343.3309  -5154773.5321   3682489.3618   2   7   0.0236   0.0533   0.0287   0.0115  -0.0344  -0.0082   0.00    2.5
2173 238958.000   -679343.3308  -5154773.5310   3682489.3614   2   7   0.0233   0.0531   0.0285   0.0116  -0.0343  -0.0084   0.00    2.5
2173 238959.000   -679343.3351  -5154773.5316   3682489.3634   2   7   0.0234   0.0530   0.0284   0.0115  -0.0341  -0.0083   0.00    2.5
2173 238960.000   -679343.3364  -5154773.5339   3682489.3625   2   7   0.0233   0.0529   0.0283   0.0114  -0.0341  -0.0083   0.00    2.5
2173 238961.000   -679343.3386  -5154773.5398   3682489.3675   2   7   0.0231   0.0527   0.0282   0.0116  -0.0340  -0.0084   0.00    2.6
2173 238962.000   -679343.3431  -5154773.5348   3682489.3668   2   7   0.0232   0.0526   0.0281   0.0113  -0.0339  -0.0081   0.00    2.6
2173 238963.000   -679343.3436  -5154773.5373   3682489.3694   2   7   0.0231   0.0525   0.0280   0.0115  -0.0338  -0.0083   0.00    2.6
2173 238964.000   -679343.3442  -5154773.5341   3682489.3648   2   7   0.0231   0.0523   0.0279   0.0113  -0.0337  -0.0082   0.00    2.6
2173 238965.000   -679343.3451  -5154773.5278   3682489.3605   2   7   0.0231   0.0522   0.0278   0.0112  -0.0336  -0.0081   0.00    2.6
2173 238966.000   -679343.3460  -5154773.5275   3682489.3609   2   7   0.0231   0.0521   0.0278   0.0112  -0.0335  -0.0080   0.00    2.6
2173 238967.000   -679343.3500  -5154773.5285   3682489.3621   2   7   0.0230   0.0519   0.0277   0.0112  -0.0334  -0.0079   0.00    2.6
2173 238968.000   -679343.3526  -5154773.5338   3682489.3675   2   7   0.0230   0.0518   0.0276   0.0110  -0.0333  -0.0079   0.00    2.6
2173 238969.000   -679343.3551  -5154773.5304   3682489.3605   2   7   0.0229   0.0517   0.0275   0.0110  -0.0332  -0.0079   0.00    2.6
2173 238970.000   -679343.3564  -5154773.5366   3682489.3697   2   7   0.0228   0.0516   0.0274   0.0112  -0.0332  -0.0079   0.00    2.6
2173 238971.000   -679343.3586  -5154773.5307   3682489.3659   2   7   0.0229   0.0515   0.0273   0.0110  -0.0331  -0.0077   0.00    2.6
2173 238972.000   -679343.3609  -5154773.5258   3682489.3598   2   7   0.0228   0.0513   0.0272   0.0109  -0.0329  -0.0078   0.00    2.6
2173 238973.000   -679343.3598  -5154773.5245   3682489.3600   2   7   0.0227   0.0512   0.0271   0.0111  -0.0328  -0.0077   0.00    2.6
2173 238974.000   -679343.3612  -5154773.5164   3682489.3533   2   7   0.0227   0.0511   0.0270   0.0110  -0.0328  -0.0076   0.00    2.6
2173 238975.000   -679343.3626  -5154773.5133   3682489.3537   2   7   0.0226   0.0509   0.0269   0.0110  -0.0327  -0.0077   0.00    2.6
2173 238976.000   -679343.3637  -5154773.5120   3682489.3501   2   7   0.0226   0.0508   0.0269   0.0108  -0.0326  -0.0076   0.00    2.6
2173 238977.000   -679343.3660  -5154773.5094   3682489.3487   2   7   0.0226   0.0507   0.0267   0.0108  -0.0325  -0.0076   0.00    2.6
2173 238978.000   -679343.3674  -5154773.5098   3682489.3470   2   7   0.0225   0.0506   0.0267   0.0106  -0.0325  -0.0075   0.00    2.6
2173 238979.000   -679343.3705  -5154773.5048   3682489.3454   2   7   0.0225   0.0505   0.0266   0.0108  -0.0324  -0.0073   0.00    2.6
2173 238980.000   -679343.3712  -5154773.5081   3682489.3501   2   7   0.0225   0.0503   0.0265   0.0107  -0.0323  -0.0076   0.00    2.6
2173 238981.000   -679343.3747  -5154773.5031   3682489.3557   2   7   0.0225   0.0502   0.0264   0.0107  -0.0322  -0.0073   0.00    2.6
2173 238982.000   -679343.3772  -5154773.4976   3682489.3571   2   7   0.0224   0.0501   0.0264   0.0107  -0.0321  -0.0074   0.00    2.6
2173 238983.000   -679343.3804  -5154773.4989   3682489.3637   2   7   0.0223   0.0500   0.0263   0.0105  -0.0320  -0.0073   0.00    2.6
2173 238984.000   -679343.3814  -5154773.5009   3682489.3704   2   7   0.0223   0.0498   0.0262   0.0106  -0.0320  -0.0073   0.00    2.6
2173 238985.000   -679343.3854  -5154773.4924   3682489.3744   2   7   0.0221   0.0497   0.0261   0.0107  -0.0319  -0.0073   0.00    2.6
2173 238986.000   -679343.3888  -5154773.5008   3682489.3794   2   7   0.0223   0.0497   0.0260   0.0103  -0.0318  -0.0070   0.00    2.6
2173 238987.000   -679343.3914  -5154773.5022   3682489.3840   2   7   0.0221   0.0495   0.0259   0.0106  -0.0317  -0.0074   0.00    2.6
2173 238988.000   -679343.3896  -5154773.4967   3682489.3785   2   7   0.0220   0.0494   0.0259   0.0104  -0.0316  -0.0071   0.00    2.6
2173 238989.000   -679343.3938  -5154773.4960   3682489.3783   2   7   0.0220   0.0493   0.0258   0.0105  -0.0315  -0.0072   0.00    2.6
2173 238990.000   -679343.3961  -5154773.5006   3682489.3785   2   7   0.0221   0.0492   0.0257   0.0105  -0.0314  -0.0071   0.00    2.6
2173 238991.000   -679343.3957  -5154773.5038   3682489.3773   2   7   0.0220   0.0490   0.0256   0.0103  -0.0314  -0.0071   0.00    2.6
2173 238992.000   -679343.4000  -5154773.5078   3682489.3823   2   7   0.0219   0.0489   0.0256   0.0104  -0.0313  -0.0071   0.00    2.6
2173 238993.000   -679343.4012  -5154773.5018   3682489.3803   2   7   0.0220   0.0488   0.0255   0.0102  -0.0312  -0.0069   0.00    2.6
2173 238994.000   -679343.4022  -5154773.5078   3682489.3826   2   7   0.0218   0.0487   0.0254   0.0103  -0.0311  -0.0070   0.00    2.7
2173 238995.000   -679343.4082  -5154773.5310   3682489.4052   2   7   0.0219   0.0486   0.0253   0.0102  -0.0310  -0.0069   0.00    2.7
2173 238996.000   -679343.4116  -5154773.5340   3682489.4064   2   7   0.0218   0.0485   0.0253   0.0101  -0.0310  -0.0070   0.00    2.7
2173 238997.000   -679343.4120  -5154773.5372   3682489.4094   2   7   0.0217   0.0484   0.0252   0.0101  -0.0309  -0.0069   0.00    2.7
2173 238998.000   -679343.4180  -5154773.5485   3682489.4130   2   7   0.0217   0.0483   0.0251   0.0101  -0.0308  -0.0069   0.00    2.7
2173 238999.000   -679343.4183  -5154773.5491   3682489.4111   2   7   0.0215   0.0481   0.0251   0.0103  -0.0307  -0.0068   0.00    2.7
2173 239000.000   -679343.4208  -5154773.5560   3682489.4159   2   7   0.0217   0.0480   0.0250   0.0099  -0.0307  -0.0066   0.00    2.7
2173 239001.000   -679343.4245  -5154773.5649   3682489.4209   2   7   0.0216   0.0479   0.0249   0.0099  -0.0306  -0.0066   0.00    2.7
2173 239002.000   -679343.4267  -5154773.5665   3682489.4181   2   7   0.0215   0.0478   0.0248   0.0100  -0.0305  -0.0067   0.00    2.7
2173 239003.000   -679343.4290  -5154773.5729   3682489.4216   2   7   0.0215   0.0477   0.0247   0.0100  -0.0304  -0.0068   0.00    2.7
2173 239004.000   -679343.4318  -5154773.5784   3682489.4222   2   7   0.0215   0.0476   0.0247   0.0100  -0.0304  -0.0066   0.00    2.7
2173 239005.000   -679343.4356  -5154773.5818   3682489.4235   2   7   0.0214   0.0475   0.0246   0.0100  -0.0303  -0.0067   0.00    2.7
2173 239006.000   -679343.4366  -5154773.5855   3682489.4226   2   7   0.0214   0.0474   0.0245   0.0099  -0.0302  -0.0066   0.00    2.6
2173 239007.000   -679343.4387  -5154773.5867   3682489.4224   2   7   0.0214   0.0473   0.0245   0.0098  -0.0301  -0.0064   0.00    2.6
2173 239008.000   -679343.4402  -5154773.5909   3682489.4222   2   7   0.0213   0.0472   0.0244   0.0099  -0.0301  -0.0067   0.00    2.6
2173 239009.000   -679343.4427  -5154773.5951   3682489.4251   2   7   0.0212   0.0470   0.0244   0.0100  -0.0300  -0.0066   0.00    2.6
2173 239010.000   -679343.4459  -5154773.5987   3682489.4223   2   7   0.0213   0.0469   0.0243   0.0099  -0.0299  -0.0065   0.00    2.6
2173 239011.000   -679343.4477  -5154773.5991   3682489.4201   2   7   0.0212   0.0468   0.0242   0.0098  -0.0299  -0.0064   0.00    2.6
2173 239012.000   -679343.4502  -5154773.6038   3682489.4216   2   7   0.0211   0.0467   0.0241   0.0096  -0.0298  -0.0064   0.00    2.6
2173 239013.000   -679343.4542  -5154773.6046   3682489.4183   2   7   0.0211   0.0467   0.0241   0.0098  -0.0297  -0.0065   0.00    2.6
2173 239014.000   -679343.4564  -5154773.6016   3682489.4181   2   7   0.0211   0.0465   0.0240   0.0098  -0.0297  -0.0063   0.00    2.6
2173 239015.000   -679343.4602  -5154773.6029   3682489.4205   2   7   0.0212   0.0465   0.0239   0.0096  -0.0296  -0.0063   0.00    2.6
2173 239016.000   -679343.4641  -5154773.6017   3682489.4125   2   7   0.0209   0.0463   0.0239   0.0097  -0.0295  -0.0064   0.00    2.6
2173 239017.000   -679343.4669  -5154773.6012   3682489.4134   2   7   0.0210   0.0462   0.0238   0.0097  -0.0294  -0.0064   0.00    2.5
2173 239018.000   -679343.4697  -5154773.6017   3682489.4134   2   7   0.0209   0.0461   0.0237   0.0096  -0.0294  -0.0064   0.00    2.5
2173 239019.000   -679343.4717  -5154773.6047   3682489.4120   2   7   0.0209   0.0460   0.0237   0.0095  -0.0293  -0.0061   0.00    2.5
2173 239020.000   -679343.4748  -5154773.6002   3682489.4094   2   7   0.0209   0.0459   0.0236   0.0093  -0.0292  -0.0059   0.00    2.5
2173 239021.000   -679343.4766  -5154773.6033   3682489.4077   2   7   0.0209   0.0458   0.0236   0.0097  -0.0292  -0.0065   0.00    2.5
2173 239022.000   -679343.4809  -5154773.6098   3682489.4120   2   7   0.0209   0.0458   0.0235   0.0095  -0.0291  -0.0062   0.00    2.5
2173 239023.000   -679343.4830  -5154773.6058   3682489.4077   2   7   0.0207   0.0456   0.0234   0.0093  -0.0290  -0.0062   0.00    2.5
2173 239024.000   -679343.4851  -5154773.6108   3682489.4077   2   7   0.0208   0.0455   0.0234   0.0092  -0.0290  -0.0059   0.00    2.5
2173 239025.000   -679343.4865  -5154773.6146   3682489.4094   2   7   0.0207   0.0454   0.0234   0.0094  -0.0289  -0.0062   0.00    2.5
2173 239026.000   -679343.4901  -5154773.6183   3682489.4127   2   7   0.0206   0.0453   0.0232   0.0093  -0.0288  -0.0060   0.00    2.4
2173 239027.000   -679343.4929  -5154773.6198   3682489.4142   2   7   0.0207   0.0452   0.0232   0.0094  -0.0287  -0.0061   0.00    2.4
2173 239028.000   -679343.4949  -5154773.6163   3682489.4104   2   7   0.0206   0.0451   0.0231   0.0092  -0.0287  -0.0060   0.00    2.4
2173 239029.000   -679343.4969  -5154773.6203   3682489.4159   2   7   0.0207   0.0450   0.0231   0.0093  -0.0286  -0.0059   0.00    2.4
2173 239030.000   -679343.4991  -5154773.6207   3682489.4179   2   7   0.0206   0.0449   0.0230   0.0092  -0.0286  -0.0059   0.00    2.4
2173 239031.000   -679343.5027  -5154773.6173   3682489.4168   2   7   0.0206   0.0449   0.0230   0.0093  -0.0285  -0.0058   0.00    2.4
2173 239032.000   -679343.5050  -5154773.6184   3682489.4181   2   7   0.0205   0.0447   0.0229   0.0092  -0.0284  -0.0060   0.00    2.4
2173 239033.000   -679343.5084  -5154773.6167   3682489.4151   2   7   0.0205   0.0446   0.0229   0.0090  -0.0284  -0.0059   0.00    2.4
2173 239034.000   -679343.5106  -5154773.6144   3682489.4141   2   7   0.0203   0.0445   0.0228   0.0093  -0.0283  -0.0058   0.00    2.4
2173 239035.000   -679343.5107  -5154773.6172   3682489.4137   2   7   0.0204   0.0444   0.0228   0.0091  -0.0283  -0.0059   0.00    2.4
2173 239036.000   -679343.5116  -5154773.6242   3682489.4173   2   7   0.0202   0.0444   0.0227   0.0092  -0.0282  -0.0059   0.00    2.3
2173 239037.000   -679343.5123  -5154773.6212   3682489.4125   2   7   0.0203   0.0443   0.0227   0.0091  -0.0281  -0.0057   0.00    2.3
2173 239038.000   -679343.5137  -5154773.6240   3682489.4115   2   7   0.0202   0.0442   0.0226   0.0091  -0.0281  -0.0060   0.00    2.3
2173 239039.000   -679343.5148  -5154773.6242   3682489.4073   2   7   0.0202   0.0441   0.0225   0.0090  -0.0280  -0.0057   0.00    2.3
2173 239040.000   -679343.5164  -5154773.6312   3682489.4097   2   7   0.0202   0.0440   0.0225   0.0091  -0.0279  -0.0057   0.00    2.3
2173 239041.000   -679343.5187  -5154773.6298   3682489.4075   2   7   0.0203   0.0439   0.0224   0.0088  -0.0279  -0.0055   0.00    2.3
2173 239042.000   -679343.5190  -5154773.6351   3682489.4055   2   7   0.0203   0.0438   0.0223   0.0087  -0.0278  -0.0054   0.00    2.3
2173 239043.000   -679343.5209  -5154773.6370   3682489.4074   2   7   0.0202   0.0437   0.0223   0.0088  -0.0277  -0.0055   0.00    2.3
2173 239044.000   -679343.5233  -5154773.6406   3682489.4095   2   7   0.0202   0.0436   0.0223   0.0087  -0.0277  -0.0056   0.00    2.2
2173 239045.000   -679343.5378  -5154773.6433   3682489.4681   2   7   0.0202   0.0436   0.0222   0.0087  -0.0276  -0.0054   0.00    2.3
2173 239046.000   -679343.5393  -5154773.6482   3682489.4744   2   7   0.0201   0.0434   0.0222   0.0088  -0.0276  -0.0056   0.00    2.3
2173 239047.000   -679343.5399  -5154773.6481   3682489.4776   2   7   0.0201   0.0433   0.0221   0.0087  -0.0275  -0.0055   0.00    2.3
2173 239048.000   -679343.5346  -5154773.6455   3682489.4778   2   7   0.0199   0.0432   0.0220   0.0089  -0.0274  -0.0058   0.00    2.3
2173 239049.000   -679343.5361  -5154773.6472   3682489.4807   2   7   0.0198   0.0431   0.0220   0.0087  -0.0274  -0.0055   0.00    2.3
2173 239050.000   -679343.5352  -5154773.6517   3682489.4833   2   7   0.0199   0.0431   0.0220   0.0087  -0.0273  -0.0056   0.00    2.3
2173 239051.000   -679343.5337  -5154773.6580   3682489.4897   2   7   0.0199   0.0430   0.0219   0.0087  -0.0272  -0.0054   0.00    2.3
2173 239052.000   -679343.5355  -5154773.6647   3682489.4972   2   7   0.0198   0.0429   0.0218   0.0087  -0.0272  -0.0055   0.00    2.3
2173 239053.000   -679343.5376  -5154773.6657   3682489.5000   2   7   0.0199   0.0428   0.0218   0.0087  -0.0272  -0.0053   0.00    2.3
2173 239054.000   -679343.5349  -5154773.6680   3682489.5020   2   7   0.0197   0.0427   0.0217   0.0087  -0.0271  -0.0056   0.00    2.3
2173 239055.000   -679343.5332  -5154773.6474   3682489.5111   2   7   0.0197   0.0426   0.0217   0.0087  -0.0270  -0.0056   0.00    2.4
2173 239056.000   -679343.5317  -5154773.6498   3682489.5127   2   7   0.0197   0.0425   0.0216   0.0088  -0.0270  -0.0055   0.00    2.4
2173 239057.000   -679343.5299  -5154773.6485   3682489.5121   2   7   0.0196   0.0424   0.0216   0.0086  -0.0269  -0.0054   0.00    2.4
2173 239058.000   -679343.5272  -5154773.6524   3682489.5147   2   7   0.0197   0.0424   0.0215   0.0085  -0.0269  -0.0053   0.00    2.4
2173 239059.000   -679343.5251  -5154773.6593   3682489.5173   2   7   0.0195   0.0422   0.0215   0.0086  -0.0268  -0.0054   0.00    2.4
2173 239060.000   -679343.5235  -5154773.6632   3682489.5251   2   7   0.0196   0.0422   0.0214   0.0084  -0.0267  -0.0051   0.00    2.4
2173 239061.000   -679343.5226  -5154773.6690   3682489.5268   2   7   0.0195   0.0421   0.0214   0.0086  -0.0267  -0.0052   0.00    2.4
2173 239062.000   -679343.5223  -5154773.6685   3682489.5280   2   7   0.0194   0.0420   0.0214   0.0085  -0.0266  -0.0053   0.00    2.4
2173 239063.000   -679343.5214  -5154773.6708   3682489.5281   2   7   0.0196   0.0419   0.0213   0.0083  -0.0266  -0.0052   0.00    2.4
2173 239064.000   -679343.5201  -5154773.6723   3682489.5318   2   7   0.0195   0.0418   0.0213   0.0084  -0.0265  -0.0053   0.00    2.4
2173 239065.000   -679343.5191  -5154773.6704   3682489.5324   2   7   0.0195   0.0418   0.0212   0.0084  -0.0265  -0.0052   0.00    2.5
2173 239066.000   -679343.5180  -5154773.6731   3682489.5350   2   7   0.0195   0.0417   0.0211   0.0082  -0.0264  -0.0051   0.00    2.5
2173 239067.000   -679343.5173  -5154773.6719   3682489.5376   2   7   0.0193   0.0416   0.0211   0.0084  -0.0264  -0.0049   0.00    2.5
2173 239068.000   -679343.5164  -5154773.6699   3682489.5368   2   7   0.0193   0.0415   0.0211   0.0083  -0.0263  -0.0052   0.00    2.5
2173 239069.000   -679343.5140  -5154773.6750   3682489.5405   2   7   0.0194   0.0414   0.0210   0.0086  -0.0263  -0.0052   0.00    2.5
2173 239070.000   -679343.5128  -5154773.6792   3682489.5424   2   7   0.0193   0.0413   0.0210   0.0083  -0.0262  -0.0050   0.00    2.5
2173 239071.000   -679343.5101  -5154773.6852   3682489.5500   2   7   0.0192   0.0412   0.0209   0.0085  -0.0261  -0.0052   0.00    2.5
2173 239072.000   -679343.5095  -5154773.6858   3682489.5497   2   7   0.0192   0.0411   0.0209   0.0084  -0.0261  -0.0051   0.00    2.5
2173 239073.000   -679343.5069  -5154773.6852   3682489.5492   2   7   0.0192   0.0411   0.0209   0.0084  -0.0261  -0.0052   0.00    2.5
2173 239074.000   -679343.5041  -5154773.6899   3682489.5547   2   7   0.0192   0.0410   0.0208   0.0083  -0.0260  -0.0052   0.00    2.5
2173 239075.000   -679343.5029  -5154773.6952   3682489.5593   2   7   0.0191   0.0409   0.0208   0.0084  -0.0259  -0.0049   0.00    2.5
2173 239076.000   -679343.5015  -5154773.6951   3682489.5588   2   7   0.0192   0.0408   0.0207   0.0082  -0.0259  -0.0050   0.00    2.5
2173 239077.000   -679343.4990  -5154773.6988   3682489.5629   2   7   0.0192   0.0408   0.0207   0.0081  -0.0258  -0.0050   0.00    2.6
2173 239078.000   -679343.4971  -5154773.7006   3682489.5651   2   7   0.0191   0.0407   0.0206   0.0081  -0.0258  -0.0050   0.00    2.6
2173 239079.000   -679343.4969  -5154773.6997   3682489.5695   2   7   0.0190   0.0406   0.0206   0.0082  -0.0257  -0.0051   0.00    2.6
2173 239080.000   -679343.4950  -5154773.7023   3682489.5727   2   7   0.0191   0.0405   0.0205   0.0081  -0.0257  -0.0047   0.00    2.6
2173 239081.000   -679343.4942  -5154773.7052   3682489.5730   2   7   0.0190   0.0404   0.0205   0.0083  -0.0256  -0.0050   0.00    2.6
2173 239082.000   -679343.4929  -5154773.7096   3682489.5785   2   7   0.0189   0.0404   0.0204   0.0082  -0.0256  -0.0049   0.00    2.6
2173 239083.000   -679343.4915  -5154773.7080   3682489.5777   2   7   0.0190   0.0403   0.0204   0.0080  -0.0255  -0.0048   0.00    2.6
2173 239084.000   -679343.4915  -5154773.7121   3682489.5817   2   7   0.0189   0.0402   0.0204   0.0080  -0.0255  -0.0048   0.00    2.6
2173 239085.000   -679343.4894  -5154773.7190   3682489.5840   2   7   0.0189   0.0401   0.0203   0.0081  -0.0254  -0.0049   0.00    2.6
2173 239086.000   -679343.4889  -5154773.7206   3682489.5872   2   7   0.0188   0.0400   0.0203   0.0081  -0.0254  -0.0048   0.00    2.6
2173 239087.000   -679343.4877  -5154773.7231   3682489.5878   2   7   0.0188   0.0400   0.0202   0.0081  -0.0253  -0.0052   0.00    2.7
2173 239088.000   -679343.4852  -5154773.7249   3682489.5919   2   7   0.0189   0.0399   0.0202   0.0081  -0.0253  -0.0047   0.00    2.7
2173 239089.000   -679343.4855  -5154773.7260   3682489.5942   2   7   0.0188   0.0398   0.0201   0.0077  -0.0252  -0.0045   0.00    2.7
2173 239090.000   -679343.4853  -5154773.7280   3682489.5983   2   7   0.0187   0.0397   0.0201   0.0078  -0.0252  -0.0049   0.00    2.7
2173 239091.000   -679343.4837  -5154773.7301   3682489.6007   2   7   0.0187   0.0397   0.0201   0.0077  -0.0251  -0.0048   0.00    2.7
2173 239092.000   -679343.4831  -5154773.7335   3682489.6056   2   7   0.0187   0.0396   0.0200   0.0079  -0.0251  -0.0047   0.00    2.7
2173 239093.000   -679343.4846  -5154773.7326   3682489.6101   2   7   0.0186   0.0395   0.0200   0.0081  -0.0250  -0.0049   0.00    2.7
2173 239094.000   -679343.4847  -5154773.7315   3682489.6132   2   7   0.0185   0.0394   0.0199   0.0082  -0.0249  -0.0049   0.00    2.7
2173 239095.000   -679343.4840  -5154773.7282   3682489.6137   2   7   0.0186   0.0394   0.0199   0.0079  -0.0249  -0.0048   0.00    2.7
2173 239096.000   -679343.4841  -5154773.7311   3682489.6153   2   7   0.0187   0.0393   0.0198   0.0076  -0.0248  -0.0045   0.00    2.7
2173 239097.000   -679343.4833  -5154773.7327   3682489.6223   2   7   0.0186   0.0392   0.0198   0.0077  -0.0248  -0.0045   0.00    2.7
2173 239098.000   -679343.4816  -5154773.7335   3682489.6242   2   7   0.0185   0.0391   0.0198   0.0079  -0.0248  -0.0047   0.00    2.7
2173 239099.000   -679343.4805  -5154773.7327   3682489.6245   2   7   0.0184   0.0391   0.0197   0.0076  -0.0247  -0.0047   0.00    2.8
2173 239100.000   -679343.4795  -5154773.7300   3682489.6247   2   7   0.0185   0.0390   0.0197   0.0076  -0.0247  -0.0047   0.00    2.8
2173 239101.000   -679343.4793  -5154773.7222   3682489.6228   2   7   0.0185   0.0389   0.0197   0.0077  -0.0246  -0.0046   0.00    2.8
2173 239102.000   -679343.4783  -5154773.7256   3682489.6239   2   7   0.0185   0.0388   0.0196   0.0075  -0.0246  -0.0047   0.00    2.8
2173 239103.000   -679343.4776  -5154773.7334   3682489.6316   2   7   0.0184   0.0388   0.0196   0.0075  -0.0245  -0.0042   0.00    2.8
2173 239104.000   -679343.4775  -5154773.7357   3682489.6306   2   7   0.0183   0.0387   0.0196   0.0079  -0.0245  -0.0047   0.00    2.8
2173 239105.000   -679343.4765  -5154773.7397   3682489.6324   2   7   0.0183   0.0386   0.0195   0.0078  -0.0244  -0.0046   0.00    2.8
2173 239106.000   -679343.4776  -5154773.7455   3682489.6393   2   7   0.0182   0.0385   0.0195   0.0078  -0.0244  -0.0048   0.00    2.8
2173 239107.000   -679343.4780  -5154773.7527   3682489.6464   2   7   0.0182   0.0384   0.0194   0.0077  -0.0243  -0.0046   0.00    2.8
2173 239108.000   -679343.4763  -5154773.7482   3682489.6472   2   7   0.0183   0.0384   0.0194   0.0075  -0.0243  -0.0046   0.00    2.8
2173 239109.000   -679343.4753  -5154773.7557   3682489.6553   2   7   0.0182   0.0383   0.0194   0.0078  -0.0243  -0.0046   0.00    2.8
2173 239110.000   -679343.4774  -5154773.7564   3682489.6573   2   7   0.0182   0.0382   0.0194   0.0076  -0.0242  -0.0047   0.00    2.8
2173 239111.000   -679343.4765  -5154773.7605   3682489.6585   2   7   0.0182   0.0382   0.0193   0.0076  -0.0242  -0.0046   0.00    2.8
