     2.11           OBSERVATION DATA    M (MIXED)           RINEX VERSION / TYPE
CONVBIN 2.4.3                           20210902 202157 UTC PGM / RUN BY / DATE 
log: logs/21_09_02_07_47_03_gacc_SNGA.rtcm                  COMMENT             
format: RTCM 3, station ID: 3488                            COMMENT             
3488                                                        MARKER NAME         
                                                            MARKER NUMBER       
                                                            OBSERVER / AGENCY   
1830063             LEICA GR25          4.50                REC # / TYPE / VERS 
                    GPPNULLANTENNA                          ANT # / TYPE        
   728269.1534 -5271196.0165  3504564.7181                  APPROX POSITION XYZ 
        0.0000        0.0000        0.0000                  ANTENNA: DELTA H/E/N
     1     1                                                WAVELENGTH FACT L1/2
     7    C1    L1    C2    L2    P2    C5    L5            # / TYPES OF OBSERV 
  2021     9     2     7    47   10.0000000     GPS         TIME OF FIRST OBS   
  2021     9     2     8    17    7.0000000     GPS         TIME OF LAST OBS    
                                                            END OF HEADER       
 21  9  2  7 47 10.0000000  0 19G 1G 7G 8G 9G14G17G21G27G30R13R14R17
                                R24E 2E11E25E36C11C12
  21693171.730   113998386.197    21693169.014    88829900.576    21693169.032  
  21693168.889    85128653.436  
  20097192.225   105611457.456    20097185.721    82294613.897    20097185.310  
                                
  22022780.708   115730494.005    22022777.545    90179589.550    22022776.884  
  22022776.866    86422105.889  
  24052535.857   126396928.916    24052532.372    98491098.107    24052532.158  
  24052533.534    94387307.419  
  22883234.383   120252208.011    22883228.700    93702995.664    22883228.522  
  22883233.132    89798721.680  
  23029438.353   121020514.622    23029432.689    94301675.056    23029432.331  
                                
  21427025.213   112599777.616                    87740057.014    21427018.083  
                                
  24677273.781   129679948.542    24677269.886   101049292.319    24677269.386  
  24677270.208    96838908.124  
  21299102.129   111927536.864    21299098.322    87216244.245    21299097.715  
  21299098.769    83582238.071  
  20471999.753   109319336.224    20471999.038    85026147.198    20471997.876  
                                
  20292985.826   108173033.210    20292985.593    84134580.795    20292984.753  
                                
  22071700.446   118110126.857    22071698.945    91863426.315    22071698.070  
                                
  19356650.148   103508707.221    19356648.718    80506766.426    19356647.503  
                                
  24168613.084   127006919.649                                                  
  24168611.761    94842823.229  
  23336532.291   122634305.525                                                  
  23336528.717    91577551.065  
  24491158.437   128701907.090                                                  
  24491158.812    96108567.633  
  24397926.970   128211972.086                                                  
  24397927.971    95742709.932  
                 122208561.914    23468869.578   122208561.914                  
                                
                 111508912.108    21414114.183   111508912.108                  
                                
 21  9  2  7 47 11.0000000  0 19G 1G 7G 8G 9G14G17G21G27G30R13R14R17
                                R24E 2E11E25E36C11C12
  21692646.703   113995627.123    21692643.987    88827750.641    21692644.005  
  21692643.862    85126593.078  
  20097178.573   105611385.685    20097172.069    82294557.974    20097171.658  
                                
  22023311.901   115733285.440    22023308.738    90181764.692    22023308.095  
  22023308.059    86424190.405  
  24053140.562   126400106.771    24053137.114    98493574.351    24053136.881  
  24053138.239    94389680.484  
  22882830.829   120250087.323    22882825.146    93701343.177    22882824.968  
  22882829.596    89797138.062  
  23028914.523   121017761.904    23028908.876    94299530.083    23028908.501  
                                
  21426968.282   112599478.452                    87739823.897    21426961.171  
                                
  24677948.105   129683491.939    24677944.173   101052053.405    24677943.709  
  24677944.513    96841554.143  
  21298705.240   111925451.261    21298701.451    87214619.095    21298700.826  
  21298701.880    83580680.640  
  20472218.809   109320505.907    20472218.076    85027056.950    20472216.897  
                                
  20292615.043   108171056.697    20292614.811    84133043.507    20292613.953  
                                
  22070918.444   118105942.158    22070916.926    91860171.549    22070916.068  
                                
  19356430.037   103507530.092    19356428.572    80505850.878    19356427.375  
                                
  24168416.524   127005886.700                                                  
  24168415.202    94842051.869  
  23336683.891   122635102.087                                                  
  23336680.318    91578145.893  
  24491288.827   128702592.324                                                  
  24491289.202    96109079.337  
  24397567.356   128210082.328                                                  
  24397568.357    95741298.755  
                 122205790.194    23468337.295   122205790.194                  
                                
                 111508773.567    21414087.594   111508773.567                  
                                
 21  9  2  7 47 12.0000000  0 19G 1G 7G 8G 9G14G17G21G27G30R13R14R17
                                R24E 2E11E25E36C11C12
  21692121.747   113992868.469    21692119.031    88825601.045    21692119.048  
  21692118.905    85124533.061  
  20097165.028   105611314.536    20097158.542    82294502.531    20097158.113  
                                
  22023843.165   115736077.128    22023839.984    90183940.033    22023839.341  
  22023839.305    86426275.093  
  24053745.322   126403284.656    24053741.837    98496050.618    24053741.623  
  24053742.999    94392053.577  
  22882427.292   120247966.756    22882421.628    93699690.785    22882421.431  
  22882426.059    89795554.515  
  23028390.782   121015009.570    23028385.135    94297385.403    23028384.742  
                                
  21426911.495   112599179.948                    87739591.294    21426904.365  
                                
  24678622.374   129687035.320    24678618.461   101054814.477    24678617.979  
  24678618.801    96844200.179  
  21298308.476   111923366.106    21298304.670    87212994.297    21298304.044  
  21298305.117    83579123.540  
  20472437.901   109321676.032    20472437.186    85027967.051    20472436.025  
                                
  20292244.315   108169080.454    20292244.065    84131506.432    20292243.207  
                                
  22070136.514   118101757.833    22070134.977    91856917.074    22070134.119  
                                
  19356210.087   103506353.862    19356208.622    80504936.035    19356207.425  
                                
  24168219.983   127004853.821                                                  
  24168218.661    94841280.568  
  23336835.564   122635899.119                                                  
  23336831.972    91578741.079  
  24491419.253   128703277.706                                                  
  24491419.628    96109591.148  
  24397207.831   128208192.998                                                  
  24397208.832    95739887.892  
                 122203018.858    23467805.102   122203018.858                  
                                
                 111508635.590    21414061.076   111508635.590                  
                                
 21  9  2  7 47 13.0000000  0 19G 1G 7G 8G 9G14G17G21G27G30R13R14R17
                                R24E 2E11E25E36C11C12
  21691596.880   113990110.281    21691594.146    88823451.807    21691594.182  
  21691594.021    85122473.371  
  20097151.609   105611243.977    20097145.104    82294447.551    20097144.693  
                                
  22024374.428   115738868.991    22024371.248    90186115.513    22024370.604  
  22024370.587    86428359.937  
  24054350.045   126406462.558    24054346.578    98498526.914    24054346.346  
  24054347.740    94394426.690  
  22882023.774   120245846.259    22882018.092    93698038.452    22882017.913  
  22882022.559    89793971.034  
  23027867.076   121012257.513    23027861.430    94295240.943    23027861.055  
                                
  21426854.796   112598882.049                    87739359.158    21426847.684  
                                
  24679296.662   129690578.676    24679292.749   101057575.524    24679292.248  
  24679293.070    96846846.189  
  21297911.748   111921281.374    21297907.942    87211369.832    21297907.334  
  21297908.388    83577566.762  
  20472657.136   109322846.636    20472656.421    85028877.521    20472655.242  
                                
  20291873.604   108167104.464    20291873.372    84129969.555    20291872.532  
                                
  22069354.619   118097573.812    22069353.100    91853662.836    22069352.225  
                                
  19355990.263   103505178.500    19355988.833    80504021.870    19355987.618  
                                
  24168023.442   127003821.007                                                  
  24168022.119    94840509.312  
  23336987.289   122636696.623                                                  
  23336983.734    91579336.640  
  24491549.715   128703963.214                                                  
  24491550.072    96110103.055  
  24396848.378   128206304.046                                                  
  24396849.379    95738477.316  
                 122200247.819    23467272.927   122200247.819                  
                                
                 111508498.143    21414034.684   111508498.143                  
                                
 21  9  2  7 47 14.0000000  0 19G 1G 7G 8G 9G14G17G21G27G30R13R14R17
                                R24E 2E11E25E36C11C12
  21691072.138   113987352.692    21691069.386    88821303.036    21691069.422  
  21691069.297    85120414.126  
  20097138.332   105611174.184    20097131.828    82294393.164    20097131.417  
                                
  22024905.782   115741661.257    22024902.601    90188291.300    22024901.940  
  22024901.922    86430445.060  
  24054954.822   126409640.636    24054951.338    98501003.343    24054951.123  
  24054952.481    94396799.924  
  22881620.309   120243725.985    22881614.609    93696386.295    22881614.431  
  22881619.076    89792387.723  
  23027343.478   121009505.939    23027337.814    94293096.862    23027337.456  
                                
  21426798.277   112598584.968                    87739127.674    21426791.147  
                                
  24679970.967   129694122.184    24679967.072   101060336.701    24679966.572  
  24679967.394    96849492.310  
  21297515.145   111919197.218    21297511.339    87209745.817    21297510.731  
  21297511.786    83576010.413  
  20472876.443   109324017.789    20472875.728    85029788.423    20472874.566  
                                
  20291503.000   108165128.903    20291502.750    84128433.008    20291501.910  
                                
  22068572.813   118093390.228    22068571.312    91850408.953    22068570.419  
                                
  19355770.670   103504004.202    19355769.205    80503108.534    19355768.008  
                                
  24167826.936   127002788.415                                                  
  24167825.614    94839738.217  
  23337139.194   122637494.778                                                  
  23337135.620    91579932.654  
  24491680.194   128704649.012                                                  
  24491680.587    96110615.166  
  24396489.014   128204415.658                                                  
  24396490.015    95737067.145  
                 122197477.253    23466740.877   122197477.253                  
                                
                 111508361.390    21414008.416   111508361.390                  
                                
 21  9  2  7 47 15.0000000  0 19G 1G 7G 8G 9G14G17G21G27G30R13R14R17
                                R24E 2E11E25E36C11C12
  21690547.450   113984595.504    21690544.716    88819154.577    21690544.752  
  21690544.609    85118355.185  
  20097125.162   105611104.949    20097118.640    82294339.212    20097118.247  
                                
  22025437.153   115744453.699    22025434.008    90190467.228    22025433.347  
  22025433.311    86432530.318  
  24055559.581   126412818.684    24055556.115    98503479.736    24055555.900  
  24055557.276    94399173.153  
  22881216.863   120241605.775    22881211.162    93694734.186    22881210.966  
  22881215.612    89790804.446  
  23026819.934   121006754.647    23026814.269    94290952.991    23026813.912  
                                
  21426741.846   112598288.454                    87738896.617    21426734.734  
                                
  24680645.291   129697665.653    24680641.360   101063097.840    24680640.895  
  24680641.699    96852138.401  
  21297118.631   111917113.463    21297114.825    87208122.112    21297114.200  
  21297115.272    83574454.365  
  20473095.856   109325189.408    20473095.142    85030699.679    20473093.962  
                                
  20291132.433   108163153.562    20291132.182    84126896.629    20291131.343  
                                
  22067791.062   118089206.972    22067789.543    91847155.315    22067788.685  
                                
  19355551.239   103502830.776    19355549.773    80502195.871    19355548.576  
                                
  24167630.448   127001755.845                                                  
  24167629.144    94838967.137  
  23337291.152   122638293.388                                                  
  23337287.596    91580529.007  
  24491810.727   128705334.892                                                  
  24491811.085    96111127.352  
  24396129.722   128202527.617                                                  
  24396130.722    95735657.246  
                 122194706.961    23466208.862   122194706.961                  
                                
                 111508225.167    21413982.274   111508225.167                  
                                
 21  9  2  7 47 16.0000000  0 19G 1G 7G 8G 9G14G17G21G27G30R13R14R17
                                R24E 2E11E25E36C11C12
  21690022.869   113981838.816    21690020.135    88817006.506    21690020.171  
  21690020.010    85116296.615  
  20097112.100   105611036.353    20097105.614    82294285.761    20097105.185  
                                
  22025968.595   115747246.398    22025965.433    90192643.358    22025964.772  
  22025964.754    86434615.776  
  24056164.358   126415996.833    24056160.910    98505956.215    24056160.677  
  24056162.053    94401546.433  
  22880813.416   120239485.692    22880807.716    93693082.175    22880807.537  
  22880812.165    89789221.260  
  23026296.443   121004003.746    23026290.814    94288809.431    23026290.457  
                                
  21426685.541   112597992.632                    87738666.106    21426678.447  
                                
  24681319.578   129701209.132    24681315.665   101065858.989    24681315.182  
  24681316.004    96854784.514  
  21296722.189   111915030.178    21296718.383    87206498.770    21296717.775  
  21296718.830    83572898.663  
  20473315.342   109326361.503    20473314.627    85031611.309    20473313.447  
                                
  20290761.901   108161178.510    20290761.668    84125360.480    20290760.828  
                                
  22067009.381   118085024.070    22067007.862    91843901.953    22067007.005  
                                
  19355331.968   103501658.287    19355330.521    80501283.936    19355329.323  
                                
  24167433.978   127000723.383                                                  
  24167432.656    94838196.145  
  23337443.235   122639092.506                                                  
  23337439.644    91581125.758  
  24491941.278   128706020.943                                                  
  24491941.654    96111639.656  
  24395770.536   128200640.012                                                  
  24395771.537    95734247.671  
                 122191937.038    23465676.937   122191937.038                  
                                
                 111508089.511    21413956.203   111508089.511                  
                                
 21  9  2  7 47 17.0000000  0 19G 1G 7G 8G 9G14G17G21G27G30R13R14R17
                                R24E 2E11E25E36C11C12
  21689498.360   113979082.468    21689495.626    88814858.706    21689495.661  
  21689495.501    85114238.310  
  20097099.145   105610968.274    20097092.659    82294232.715    20097092.230  
                                
  22026500.056   115750039.219    22026496.893    90194819.579    22026496.232  
  22026496.214    86436701.323  
  24056769.136   126419174.870    24056765.651    98508432.608    24056765.437  
  24056766.813    94403919.642  
  22880409.951   120237365.577    22880404.269    93691430.147    22880404.072  
  22880408.718    89787638.072  
  23025773.023   121001253.096    23025767.395    94286666.066    23025767.020  
                                
  21426629.343   112597697.341                    87738436.014    21426622.249  
                                
  24681993.884   129704752.525    24681989.953   101068620.078    24681989.488  
  24681990.292    96857430.546  
  21296325.801   111912947.227    21296322.012    87204875.692    21296321.405  
  21296322.477    83571343.217  
  20473534.898   109327533.924    20473534.183    85032523.196    20473533.004  
                                
  20290391.422   108159203.583    20290391.172    84123824.428    20290390.332  
                                
  22066227.754   118080841.415    22066226.218    91840648.784    22066225.360  
                                
  19355112.858   103500486.575    19355111.393    80500372.604    19355110.196  
                                
  24167237.490   126999690.882                                                  
  24167236.168    94837425.133  
  23337595.372   122639892.020                                                  
  23337591.799    91581722.797  
  24492071.847   128706707.020                                                  
  24492072.205    96112151.990  
  24395411.387   128198752.704                                                  
  24395412.405    95732838.311  
                 122189167.313    23465145.030   122189167.313                  
                                
                 111507954.314    21413930.257   111507954.314                  
                                
 21  9  2  7 47 18.0000000  0 19G 1G 7G 8G 9G14G17G21G27G30R13R14R17
                                R24E 2E11E25E36C11C12
  21688973.904   113976326.425    21688971.170    88812711.141    21688971.206  
  21688971.045    85112180.237  
  20097086.279   105610900.673    20097079.775    82294180.041    20097079.382  
                                
  22027031.516   115752832.142    22027028.354    90196995.878    22027027.728  
  22027027.710    86438786.950  
  24057373.859   126422352.828    24057370.410    98510908.941    24057370.178  
  24057371.554    94406292.794  
  22880006.504   120235245.414    22880000.804    93689778.072    22880000.625  
  22880005.271    89786054.854  
  23025249.622   120998502.597    23025243.975    94284522.819    23025243.618  
                                
  21426573.270   112597402.564                    87738206.318    21426566.158  
                                
  24682668.118   129708295.769    24682664.204   101071381.051    24682663.722  
  24682664.544    96860076.494  
  21295929.484   111910864.578    21295925.713    87203252.851    21295925.088  
  21295926.142    83569787.992  
  20473754.508   109328706.687    20473753.794    85033435.348    20473752.632  
                                
  20290020.944   108157228.760    20290020.711    84122288.457    20290019.854  
                                
  22065446.163   118076658.996    22065444.644    91837395.796    22065443.769  
                                
  19354893.873   103499315.588    19354892.426    80499461.834    19354891.229  
                                
  24167041.003   126998658.335                                                  
  24167039.698    94836654.081  
  23337747.581   122640691.909                                                  
  23337744.007    91582320.113  
  24492202.398   128707393.103                                                  
  24492202.756    96112664.331  
  24395052.291   128196865.666                                                  
  24395053.292    95731429.170  
                 122186397.803    23464613.176   122186397.803                  
                                
                 111507819.530    21413904.365   111507819.530                  
                                
 21  9  2  7 47 19.0000000  0 19G 1G 7G 8G 9G14G17G21G27G30R13R14R17
                                R24E 2E11E25E36C11C12
  21688449.537   113973570.793    21688446.785    88810563.893    21688446.803  
  21688446.678    85110122.457  
  20097073.521   105610833.609    20097067.017    82294127.786    20097066.606  
                                
  22027563.031   115755625.226    22027559.868    90199172.306    22027559.224  
  22027559.189    86440872.695  
  24057978.618   126425530.712    24057975.134    98513385.205    24057974.919  
  24057976.295    94408665.896  
  22879603.058   120233125.316    22879597.357    93688126.048    22879597.161  
  22879601.807    89784471.655  
  23024726.274   120995752.402    23024720.627    94282379.825    23024720.270  
                                
  21426517.268   112597108.368                    87737977.083    21426510.174  
                                
  24683342.370   129711838.963    24683338.456   101074141.988    24683337.956  
  24683338.778    96862722.388  
  21295533.256   111908782.300    21295529.450    87201630.298    21295528.824  
  21295529.896    83568233.046  
  20473974.208   109329879.841    20473973.493    85034347.817    20473972.314  
                                
  20289650.519   108155254.140    20289650.269    84120752.639    20289649.411  
                                
  22064664.626   118072476.837    22064663.107    91834143.008    22064662.214  
                                
  19354675.049   103498145.411    19354673.584    80498551.708    19354672.387  
                                
  24166844.515   126997625.788                                                  
  24166843.193    94835883.021  
  23337899.860   122641492.177                                                  
  23337896.287    91582917.725  
  24492332.967   128708079.259                                                  
  24492333.325    96113176.716  
  24394693.267   128194978.959                                                  
  24394694.267    95730020.270  
                 122183628.552    23464081.376   122183628.552                  
                                
                 111507685.229    21413878.580   111507685.229                  
                                
 21  9  2  7 47 20.0000000  0 19G 1G 7G 8G 9G14G17G21G27G30R13R14R17
                                R24E 2E11E25E36C11C12
  21687925.207   113970815.572    21687922.473    88808416.972    21687922.508  
  21687922.348    85108064.983  
  20097060.870   105610767.129    20097054.365    82294075.983    20097053.954  
                                
  22028094.598   115758418.501    22028091.418    90201348.883    22028090.774  
  22028090.756    86442958.573  
  24058583.342   126428708.626    24058579.893    98515861.497    24058579.661  
  24058581.019    94411038.994  
  22879199.629   120231005.262    22879193.928    93686474.057    22879193.732  
  22879198.378    89782888.489  
  23024202.962   120993002.475    23024197.333    94280237.019    23024196.976  
                                
  21426461.410   112596814.780                    87737748.313    21426454.298  
                                
  24684016.621   129715382.119    24684012.690   101076902.889    24684012.208  
  24684013.030    96865368.240  
  21295137.082   111906700.417    21295133.293    87200008.054    21295132.668  
  21295133.740    83566678.391  
  20474193.979   109331053.421    20474193.264    85035260.604    20474192.103  
                                
  20289280.112   108153279.727    20289279.880    84119216.985    20289279.040  
                                
  22063883.142   118068294.935    22063881.605    91830890.427    22063880.712  
                                
  19354456.386   103496976.097    19354454.921    80497642.243    19354453.723  
                                
  24166648.027   126996593.278                                                  
  24166646.741    94835111.985  
  23338052.230   122642292.897                                                  
  23338048.674    91583515.669  
  24492463.536   128708765.506                                                  
  24492463.929    96113689.171  
  24394334.314   128193092.628                                                  
  24394335.314    95728611.644  
                 122180859.580    23463549.612   122180859.580                  
                                
                 111507551.463    21413852.884   111507551.463                  
                                
 21  9  2  7 47 21.0000000  0 19G 1G 7G 8G 9G14G17G21G27G30R13R14R17
                                R24E 2E11E25E36C11C12
  21687401.001   113968060.824    21687398.285    88806270.412    21687398.303  
  21687398.160    85106007.865  
  20097048.326   105610701.280    20097041.839    82294024.670    20097041.428  
                                
  22028626.166   115761211.999    22028623.003    90203525.633    22028622.342  
  22028622.324    86445044.627  
  24059188.101   126431886.560    24059184.616    98518337.805    24059184.402  
  24059185.778    94413412.131  
  22878796.218   120228885.299    22878790.517    93684822.141    22878790.321  
  22878794.949    89781305.409  
  23023679.757   120990252.932    23023674.128    94278094.512    23023673.753  
                                
  21426405.658   112596521.843                    87737520.053    21426398.547  
                                
  24684690.873   129718925.292    24684686.942   101079663.796    24684686.477  
  24684687.264    96868014.110  
  21294740.997   111904619.001    21294737.191    87198386.172    21294736.583  
  21294737.655    83565124.091  
  20474413.858   109332227.461    20474413.125    85036173.746    20474411.963  
                                
  20288909.776   108151305.607    20288909.544    84117681.553    20288908.704  
                                
  22063101.694   118064113.359    22063100.157    91827638.090    22063099.299  
                                
  19354237.866   103495807.660    19354236.400    80496733.455    19354235.203  
                                
  24166451.575   126995560.869                                                  
  24166450.271    94834341.030  
  23338204.706   122643094.154                                                  
  23338201.150    91584114.002  
  24492594.159   128709451.920                                                  
  24492594.534    96114201.751  
  24393975.432   128191206.711                                                  
  24393976.451    95727203.332  
                 122178090.956    23463017.955   122178090.956                  
                                
                 111507418.237    21413827.296   111507418.237                  
                                
 21  9  2  7 47 22.0000000  0 19G 1G 7G 8G 9G14G17G21G27G30R13R14R17
                                R24E 2E11E25E36C11C12
  21686876.920   113965306.782    21686874.186    88804124.408    21686874.222  
  21686874.061    85103951.271  
  20097035.960   105610636.282    20097029.456    82293974.024    20097029.063  
                                
  22029157.841   115764005.987    22029154.678    90205702.767    22029154.035  
  22029154.017    86447131.042  
  24059792.878   126435064.782    24059789.429    98520814.343    24059789.197  
  24059790.573    94415785.479  
  22878392.860   120226765.692    22878387.160    93683170.498    22878386.963  
  22878391.609    89779722.580  
  23023156.641   120987503.944    23023150.995    94275952.445    23023150.637  
                                
  21426350.104   112596229.815                    87737292.499    21426342.974  
                                
  24685365.143   129722468.703    24685361.230   101082424.887    24685360.747  
  24685361.569    96870660.166  
  21294345.055   111902538.269    21294341.267    87196764.824    21294340.641  
  21294341.696    83563570.298  
  20474633.861   109333402.237    20474633.128    85037087.459    20474631.949  
                                
  20288539.548   108149332.001    20288539.298    84116146.527    20288538.440  
                                
  22062320.389   118059932.416    22062318.852    91824386.250    22062317.976  
                                
  19354019.595   103494640.391    19354018.130    80495825.583    19354016.933  
                                
  24166255.177   126994528.771                                                  
  24166253.854    94833570.307  
  23338357.325   122643896.145                                                  
  23338353.769    91584712.889  
  24492724.853   128710138.716                                                  
  24492725.228    96114714.616  
  24393616.676   128189321.454                                                  
  24393617.694    95725795.506  
                 122175322.895    23462486.352   122175322.895                  
                                
                 111507285.814    21413801.868   111507285.814                  
                                
 21  9  2  7 47 23.0000000  0 19G 1G 7G 8G 9G14G17G21G27G30R13R14R17
                                R24E 2E11E25E36C11C12
  21686353.001   113962553.501    21686350.267    88801978.992    21686350.285  
  21686350.142    85101895.252  
  20097023.756   105610572.215    20097017.269    82293924.101    20097016.858  
                                
  22029689.641   115766800.527    22029686.478    90207880.330    22029685.817  
  22029685.799    86449217.872  
  24060397.744   126438243.341    24060394.296    98523291.141    24060394.063  
  24060395.421    94418159.078  
  22877989.592   120224646.492    22877983.892    93681519.178    22877983.695  
  22877988.323    89778140.052  
  23022633.651   120984755.633    23022628.004    94273810.909    23022627.647  
                                
  21426294.692   112595938.721                    87737065.672    21426287.580  
                                
  24686039.502   129726012.434    24686035.589   101085186.233    24686035.106  
  24686035.928    96873306.449  
  21293949.238   111900458.294    21293945.450    87195144.060    21293944.825  
  21293945.897    83562017.065  
  20474854.007   109334577.792    20474853.275    85038001.774    20474852.113  
                                
  20288169.409   108147358.985    20288169.177    84114611.956    20288168.337  
                                
  22061539.209   118055752.143    22061537.672    91821134.927    22061536.796  
                                
  19353801.522   103493474.352    19353800.075    80494918.667    19353798.877  
                                
  24166058.850   126993497.060                                                  
  24166057.545    94832799.871  
  23338510.088   122644698.931                                                  
  23338506.532    91585312.372  
  24492855.636   128710825.952                                                  
  24492856.012    96115227.814  
  24393258.062   128187436.907                                                  
  24393259.081    95724388.214  
                 122172555.464    23461954.891   122172555.464                  
                                
                 111507154.255    21413776.601   111507154.255                  
                                
 21  9  2  7 47 24.0000000  0 18G 1G 7G 8G 9G14G17G21G30R13R14R17R24
                                E 2E11E25E36C11C12
  21685829.170   113959800.792    21685826.436    88799834.021    21685826.472  
  21685826.311    85099839.651  
  20097011.712   105610508.854    20097005.208    82293874.727    20097004.815  
                                
  22030221.494   115769595.401    22030218.332    90210058.152    22030217.670  
  22030217.653    86451304.957  
  24061002.629   126441422.050    24060999.180    98525768.064    24060998.966  
  24061000.341    94420532.781  
  22877586.360   120222527.450    22877580.659    93679867.977    22877580.463  
  22877585.109    89776557.662  
  23022110.731   120982007.731    23022105.103    94271669.679    23022104.745  
                                
  21426239.459   112595648.383                    87736839.428    21426232.347  
                                
  21293553.547   111898378.864    21293549.741    87193523.728    21293549.133  
  21293550.187    83560464.238  
  20475074.243   109335753.915    20475073.528    85038916.544    20475072.367  
                                
  20287799.360   108145386.356    20287799.109    84113077.687    20287798.252  
                                
  22060758.118   118051572.315    22060756.563    91817883.938    22060755.688  
                                
  19353583.663   103492309.332    19353582.215    80494012.540    19353581.018  
                                
  24165862.558   126992465.528                                                  
  24165861.254    94832029.565  
  23338662.975   122645502.339                                                  
  23338659.419    91585912.304  
  24492986.473   128711513.432                                                  
  24492986.831    96115741.194  
  24392899.556   128185552.874                                                  
  24392900.557    95722981.297  
                 122169788.504    23461423.538   122169788.504                  
                                
                 111507023.347    21413751.460   111507023.347                  
                                
 21  9  2  7 47 25.0000000  0 18G 1G 7G 8G 9G14G17G21G30R13R14R17R24
                                E 2E11E25E36C11C12
  21685305.393   113957048.294    21685302.659    88797689.211    21685302.695  
  21685302.534    85097784.209  
  20096999.740   105610445.869    20096993.235    82293825.648    20096992.824  
                                
  22030753.330   115772390.267    22030750.167    90212235.969    22030749.524  
  22030749.506    86453392.032  
  24061607.477   126444600.533    24061604.029    98528244.799    24061603.796  
  24061605.190    94422906.328  
  22877183.092   120220408.285    22877177.391    93678216.675    22877177.195  
  22877181.841    89774975.167  
  23021587.830   120979259.919    23021582.202    94269528.530    23021581.844  
                                
  21426184.279   112595358.445                    87736613.502    21426177.167  
                                
  21293157.873   111896299.617    21293154.067    87191903.532    21293153.441  
  21293154.531    83558911.558  
  20475294.550   109336930.251    20475293.835    85039831.472    20475292.674  
                                
  20287429.292   108143413.724    20287429.060    84111543.417    20287428.202  
                                
  22059977.027   118047392.571    22059975.490    91814633.025    22059974.615  
                                
  19353365.911   103491144.920    19353364.446    80493106.889    19353363.248  
                                
  24165666.232   126991433.817                                                  
  24165664.909    94831259.138  
  23338815.898   122646305.979                                                  
  23338812.342    91586512.427  
  24493117.275   128712200.815                                                  
  24493117.650    96116254.493  
  24392541.068   128183668.991                                                  
  24392542.068    95721574.508  
                 122167021.605    23460892.185   122167021.605                  
                                
                 111506892.753    21413726.389   111506892.753                  
                                
 21  9  2  7 47 26.0000000  0 18G 1G 7G 8G 9G14G17G21G30R13R14R17R24
                                E 2E11E25E36C11C12
  21684781.634   113954295.913    21684778.900    88795544.496    21684778.918  
  21684778.775    85095728.860  
  20096987.803   105610383.157    20096981.299    82293776.777    20096980.888  
                                
  22031285.166   115775185.035    22031282.003    90214413.709    22031281.342  
  22031281.324    86455479.031  
  24062212.290   126447778.714    24062208.806    98530721.299    24062208.609  
  24062209.967    94425279.636  
  22876779.770   120218288.854    22876774.070    93676565.172    22876773.891  
  22876778.537    89773392.494  
  23021064.947   120976512.119    23021059.318    94267387.391    23021058.961  
                                
  21426129.171   112595068.801                    87736387.803    21426122.041  
                                
  21292762.235   111894220.475    21292758.429    87190283.420    21292757.821  
  21292758.876    83557358.950  
  20475514.840   109338106.700    20475514.125    85040746.488    20475512.963  
                                
  20287059.225   108141440.982    20287058.957    84110009.062    20287058.117  
                                
  22059195.936   118043212.784    22059194.382    91811382.078    22059193.524  
                                
  19353148.266   103489981.049    19353146.819    80492201.656    19353145.604  
                                
  24165469.851   126990401.848                                                  
  24165468.547    94830488.509  
  23338968.857   122647109.748                                                  
  23338965.283    91587112.659  
  24493248.022   128712887.986                                                  
  24493248.415    96116767.643  
  24392182.562   128181785.180                                                  
  24392183.598    95720167.764  
                 122164254.668    23460360.814   122164254.668                  
                                
                 111506762.392    21413701.355   111506762.392                  
                                
 21  9  2  7 47 27.0000000  0 18G 1G 7G 8G 9G14G17G21G30R13R14R17R24
                                E 2E11E25E36C11C12
  21684257.947   113951543.829    21684255.213    88793400.013    21684255.231  
  21684255.088    85093673.739  
  20096975.956   105610320.917    20096969.452    82293728.276    20096969.059  
                                
  22031817.002   115777979.892    22031813.839    90216591.517    22031813.196  
  22031813.178    86457566.103  
  24062817.049   126450956.783    24062813.601    98533197.707    24062813.368  
  24062814.762    94427652.871  
  22876376.466   120216169.419    22876370.766    93674913.669    22876370.569  
  22876375.197    89771809.784  
  23020542.081   120973764.527    23020536.471    94265246.413    23020536.113  
                                
  21426074.152   112594779.669                    87736162.506    21426067.023  
                                
  21292366.633   111892141.636    21292362.844    87188663.545    21292362.219  
  21292363.291    83555806.572  
  20475735.236   109339283.465    20475734.503    85041661.749    20475733.324  
                                
  20286689.157   108139468.338    20286688.907    84108474.784    20286688.067  
                                
  22058414.881   118039033.216    22058413.345    91808131.298    22058412.487  
                                
  19352930.747   103488817.928    19352929.281    80491297.006    19352928.084  
                                
  24165273.453   126989369.820                                                  
  24165272.166    94829717.841  
  23339121.869   122647913.886                                                  
  23339118.296    91587713.146  
  24493378.806   128713575.161                                                  
  24493379.163    96117280.790  
  24391824.163   128179901.634                                                  
  24391825.163    95718761.222  
                 122161487.959    23459829.496   122161487.959                  
                                
                 111506632.438    21413676.410   111506632.438                  
                                
 21  9  2  7 47 28.0000000  0 18G 1G 7G 8G 9G14G17G21G30R13R14R17R24
                                E 2E11E25E36C11C12
  21683734.295   113948792.012    21683731.526    88791255.740    21683731.579  
  21683731.436    85091618.815  
  20096964.198   105610259.094    20096957.712    82293680.102    20096957.283  
                                
  22032348.855   115780774.781    22032345.692    90218769.355    22032345.049  
  22032345.031    86459653.187  
  24063421.773   126454134.673    24063418.324    98535673.983    24063418.110  
  24063419.486    94430025.969  
  22875973.126   120214049.837    22875967.426    93673262.047    22875967.212  
  22875971.858    89770226.984  
  23020019.252   120971017.059    23020013.641    94263105.531    23020013.283  
                                
  21426019.205   112594490.990                    87735937.563    21426012.093  
                                
  21291971.084   111890063.028    21291967.296    87187043.850    21291966.688  
  21291967.742    83554254.362  
  20475955.650   109340460.495    20475954.918    85042577.220    20475953.756  
                                
  20286319.090   108137495.747    20286318.857    84106940.551    20286318.018  
                                
  22057633.862   118034853.822    22057632.325    91804880.656    22057631.468  
                                
  19352713.370   103487655.487    19352711.905    80490392.883    19352710.707  
                                
  24165077.054   126988337.668                                                  
  24165075.768    94828947.073  
  23339274.953   122648718.295                                                  
  23339271.379    91588313.843  
  24493509.535   128714262.268                                                  
  24493509.928    96117793.892  
  24391465.764   128178018.288                                                  
  24391466.764    95717354.820  
                 122158721.353    23459298.196   122158721.353                  
                                
                 111506502.833    21413651.500   111506502.833                  
                                
 21  9  2  7 47 29.0000000  0 18G 1G 7G 8G 9G14G17G21G30R13R14R17R24
                                E 2E11E25E36C11C12
  21683210.661   113946040.306    21683207.892    88789111.560    21683207.945  
  21683207.785    85089563.961  
  20096952.476   105610197.515    20096945.972    82293632.116    20096945.579  
                                
  22032880.673   115783569.523    22032877.528    90220947.071    22032876.867  
  22032876.849    86461740.176  
  24064026.461   126457312.217    24064022.994    98538149.996    24064022.779  
  24064024.173    94432398.826  
  22875569.733   120211930.012    22875564.015    93671610.238    22875563.836  
  22875568.465    89768643.993  
  23019496.422   120968269.529    23019490.811    94260964.590    23019490.454  
                                
  21425964.329   112594202.578                    87735712.824    21425957.217  
                                
  21291575.571   111887984.505    21291571.765    87185424.220    21291571.139  
  21291572.212    83552702.219  
  20476176.065   109341637.615    20476175.350    85043492.748    20476174.189  
                                
  20285949.022   108135523.059    20285948.790    84105406.240    20285947.950  
                                
  22056852.843   118030674.409    22056851.324    91801630.008    22056850.449  
                                
  19352496.083   103486493.599    19352494.635    80489489.192    19352493.438  
                                
  24164880.584   126987305.206                                                  
  24164879.262    94828176.089  
  23339428.055   122649522.841                                                  
  23339424.481    91588914.636  
  24493640.265   128714949.146                                                  
  24493640.623    96118306.820  
  24391107.383   128176134.985                                                  
  24391108.401    95715948.462  
                 122155954.722    23458766.897   122155954.722                  
                                
                 111506373.414    21413626.644   111506373.414                  
                                
 21  9  2  7 47 30.0000000  0 18G 1G 7G 8G 9G14G17G21G30R13R14R17R24
                                E 2E11E25E36C11C12
  21682687.099   113943289.076    21682684.365    88786967.745    21682684.383  
  21682684.240    85087509.493  
  20096940.879   105610136.605    20096934.375    82293584.654    20096933.982  
                                
  22033412.545   115786364.565    22033409.400    90223125.026    22033408.738  
  22033408.738    86463827.389  
  24064631.148   126460489.855    24064627.700    98540626.073    24064627.467  
  24064628.843    94434771.737  
  22875166.358   120209810.311    22875160.640    93669958.522    22875160.461  
  22875165.107    89767061.110  
  23018973.682   120965522.442    23018968.053    94258823.998    23018967.695  
                                
  21425909.579   112593914.870                    87735488.638    21425902.485  
                                
  21291180.112   111885906.467    21291176.341    87183804.972    21291175.716  
  21291176.770    83551150.446  
  20476396.604   109342815.248    20476395.872    85044408.689    20476394.710  
                                
  20285579.026   108133550.715    20285578.776    84103872.193    20285577.936  
                                
  22056071.895   118026495.346    22056070.358    91798379.626    22056069.501  
                                
  19352278.992   103485332.655    19352277.527    80488586.233    19352276.329  
                                
  24164684.114   126986272.885                                                  
  24164682.828    94827405.202  
  23339581.246   122650327.931                                                  
  23339577.672    91589515.846  
  24493770.995   128715636.215                                                  
  24493771.370    96118819.896  
  24390749.091   128174252.128                                                  
  24390750.091    95714542.435  
                 122153188.480    23458235.686   122153188.480                  
                                
                 111506244.617    21413601.896   111506244.617                  
                                
 21  9  2  7 47 31.0000000  0 18G 1G 7G 8G 9G14G17G21G30R13R14R17R24
                                E 2E11E25E36C11C12
  21682163.644   113940538.256    21682160.892    88784824.251    21682160.928  
  21682160.767    85085455.296  
  20096929.389   105610076.228    20096922.885    82293537.609    20096922.492  
                                
  22033944.452   115789159.753    22033941.325    90225303.095    22033940.664  
  22033940.646    86465914.707  
  24065235.836   126463667.452    24065232.369    98543102.122    24065232.155  
  24065233.531    94437144.620  
  22874763.000   120207690.635    22874757.300    93668306.825    22874757.104  
  22874761.732    89765478.233  
  23018450.959   120962775.570    23018445.348    94256683.575    23018444.991  
                                
  21425854.935   112593627.716                    87735264.878    21425847.823  
                                
  21290784.760   111883828.807    21290780.953    87182186.016    21290780.346  
  21290781.418    83549598.946  
  20476617.215   109343993.280    20476616.483    85045324.937    20476615.321  
                                
  20285209.030   108131578.539    20285208.798    84102338.285    20285207.958  
                                
  22055290.983   118022316.549    22055289.446    91795129.450    22055288.571  
                                
  19352062.044   103484172.525    19352060.579    80487683.912    19352059.381  
                                
  24164487.680   126985240.561                                                  
  24164486.376    94826634.308  
  23339734.527   122651133.454                                                  
  23339730.971    91590117.373  
  24493901.760   128716323.357                                                  
  24493902.118    96119333.021  
  24390390.853   128172369.621                                                  
  24390391.853    95713136.665  
                 122150422.495    23457704.494   122150422.495                  
                                
                 111506116.280    21413577.272   111506116.280                  
                                
 21  9  2  7 47 32.0000000  0 18G 1G 7G 8G 9G14G17G21G30R13R14R17R24
                                E 2E11E25E36C11C12
  21681640.242   113937787.789    21681637.491    88782681.034    21681637.508  
  21681637.365    85083401.385  
  20096918.007   105610016.395    20096911.502    82293490.986    20096911.092  
                                
  22034476.395   115791955.091    22034473.232    90227481.280    22034472.589  
  22034472.571    86468002.120  
  24065840.506   126466845.020    24065837.039    98545578.140    24065836.825  
  24065838.201    94439517.455  
  22874359.643   120205570.986    22874353.943    93666655.153    22874353.746  
  22874358.392    89763895.361  
  23017928.308   120960028.988    23017922.697    94254543.384    23017922.340  
                                
  21425800.399   112593341.147                    87735041.579    21425793.305  
                                
  21290389.461   111881751.508    21290385.673    87180567.341    21290385.047  
  21290386.102    83548047.706  
  20476837.880   109345171.691    20476837.165    85046241.476    20476836.004  
                                
  20284839.106   108129606.558    20284838.838    84100804.525    20284837.998  
                                
  22054510.125   118018138.008    22054508.588    91791879.475    22054507.712  
                                
  19351845.239   103483013.223    19351843.792    80486782.235    19351842.595  
                                
  24164291.246   126984208.245                                                  
  24164289.941    94825863.417  
  23339887.914   122651939.412                                                  
  23339884.358    91590719.199  
  24494032.526   128717010.552                                                  
  24494032.901    96119846.175  
  24390032.686   128170487.425                                                  
  24390033.704    95711731.126  
                 122147656.750    23457173.355   122147656.750                  
                                
                 111505988.419    21413552.720   111505988.419                  
                                
 21  9  2  7 47 33.0000000  0 18G 1G 7G 8G 9G14G17G21G30R13R14R17R24
                                E 2E11E25E36C11C12
  21681116.984   113935037.988    21681114.214    88780538.332    21681114.268  
  21681114.107    85081347.951  
  20096906.767   105609957.360    20096900.263    82293444.982    20096899.870  
                                
  22035008.409   115794750.837    22035005.264    90229659.783    22035004.603  
  22035004.585    86470089.861  
  24066445.229   126470022.760    24066441.763    98548054.295    24066441.548  
  24066442.924    94441890.447  
  22873956.339   120203451.613    22873950.639    93665003.691    22873950.442  
  22873955.088    89762312.701  
  23017405.746   120957282.896    23017400.118    94252403.565    23017399.778  
                                
  21425746.041   112593055.411                    87734818.921    21425738.929  
                                
  21289994.288   111879674.834    21289990.499    87178949.154    21289989.874  
  21289990.928    83546496.945  
  20477058.687   109346350.758    20477057.973    85047158.528    20477056.793  
                                
  20284469.253   108127635.049    20284469.002    84099271.123    20284468.181  
                                
  22053729.373   118013960.009    22053727.837    91788629.917    22053726.961  
                                
  19351628.649   103481854.996    19351627.201    80485881.387    19351626.004  
                                
  24164094.848   126983176.182                                                  
  24164093.543    94825092.718  
  23340041.409   122652746.022                                                  
  23340037.853    91591321.541  
  24494163.363   128717698.079                                                  
  24494163.720    96120359.588  
  24389674.626   128168605.842                                                  
  24389675.645    95710326.035  
                 122144891.512    23456642.324   122144891.512                  
                                
                 111505861.306    21413528.311   111505861.306                  
                                
 21  9  2  7 47 34.0000000  0 18G 1G 7G 8G 9G14G17G21G30R13R14R17R24
                                E 2E11E25E36C11C12
  21680593.850   113932288.900    21680591.081    88778396.188    21680591.098  
  21680590.973    85079295.067  
  20096895.724   105609899.214    20096889.220    82293399.669    20096888.827  
                                
  22035540.531   115797547.079    22035537.368    90231838.671    22035536.725  
  22035536.707    86472177.970  
  24067049.989   126473200.797    24067046.522    98550530.687    24067046.308  
  24067047.701    94444263.674  
  22873553.107   120201332.551    22873547.389    93663352.483    22873547.210  
  22873551.856    89760730.322  
  23016883.310   120954537.420    23016877.681    94250264.236    23016877.324  
                                
  21425691.827   112592770.576                    87734596.971    21425684.733  
                                
  21289599.239   111877598.870    21289595.451    87177331.511    21289594.843  
  21289595.898    83544946.708  
  20477279.620   109347530.529    20477278.905    85048076.112    20477277.744  
                                
  20284099.507   108125664.054    20284099.257    84097738.127    20284098.417  
                                
  22052948.729   118009782.613    22052947.193    91785380.829    22052946.299  
                                
  19351412.291   103480697.933    19351410.825    80484981.443    19351409.628  
                                
  24163898.503   126982144.465                                                  
  24163897.216    94824322.287  
  23340195.029   122653553.362                                                  
  23340191.473    91591924.438  
  24494294.271   128718386.001                                                  
  24494294.629    96120873.303  
  24389316.710   128166724.899                                                  
  24389317.711    95708921.456  
                 122142126.872    23456111.399   122142126.872                  
                                
                 111505734.998    21413504.027   111505734.998                  
                                
 21  9  2  7 47 35.0000000  0 18G 1G 7G 8G 9G14G17G21G30R13R14R17R24
                                E 2E11E25E36C11C12
  21680070.770   113929540.217    21680068.018    88776254.361    21680068.054  
  21680067.893    85077242.492  
  20096884.753   105609841.628    20096878.248    82293354.802    20096877.855  
                                
  22036072.670   115800343.520    22036069.525    90234017.718    22036068.864  
  22036068.846    86474266.220  
  24067654.748   126476378.866    24067651.281    98553007.109    24067651.085  
  24067652.461    94446636.897  
  22873149.892   120199213.592    22873144.174    93661701.350    22873143.978  
  22873148.624    89759147.974  
  23016360.909   120951792.270    23016355.298    94248125.158    23016354.941  
                                
  21425637.755   112592486.342                    87734375.491    21425630.643  
                                
  21289204.280   111875523.311    21289200.492    87175714.192    21289199.867  
  21289200.921    83543396.777  
  20477500.642   109348710.747    20477499.927    85048994.059    20477498.748  
                                
  20283729.797   108123693.267    20283729.529    84096205.293    20283728.689  
                                
  22052168.121   118005605.510    22052166.584    91782131.976    22052165.727  
                                
  19351196.058   103479541.718    19351194.592    80484082.162    19351193.395  
                                
  24163702.194   126981112.787                                                  
  24163700.907    94823551.871  
  23340348.739   122654361.172                                                  
  23340345.183    91592527.675  
  24494425.216   128719074.033                                                  
  24494425.573    96121387.088  
  24388958.847   128164844.351                                                  
  24388959.848    95707517.145  
                 122139362.524    23455580.528   122139362.524                  
                                
                 111505609.214    21413479.904   111505609.214                  
                                
 21  9  2  7 47 36.0000000  0 18G 1G 7G 8G 9G14G17G21G30R13R14R17R24
                                E 2E11E25E36C11C12
  21679547.851   113926792.282    21679545.099    88774113.113    21679545.135  
  21679544.974    85075190.458  
  20096873.960   105609784.917    20096867.455    82293310.611    20096867.062  
                                
  22036604.899   115803140.431    22036601.736    90236197.131    22036601.093  
  22036601.075    86476354.822  
  24068259.578   126479557.203    24068256.112    98555483.739    24068255.915  
  24068257.291    94449010.321  
