% program   : rnx2rtkp ver.2.4.3 b31
% inp file  : ngs/21_08_28_19_51_20_txda.obs
% inp file  : ngs/21_08_28_19_51_20_txda_SW.obs
% inp file  : ngs/21_08_28_19_51_20_brdc.nav
% obs start : 2021/08/28 19:00:00.0 GPST (week2172 586800.0s)
% obs end   : 2021/08/28 19:59:59.0 GPST (week2172 590399.0s)
% ref pos   :  -629792.3738  -5383136.1008   3351193.7836
%
% (x/y/z-ecef=WGS84,Q=1:fix,2:float,3:sbas,4:dgps,5:single,6:ppp,ns=# of satellites)
%  GPST              x-ecef(m)      y-ecef(m)      z-ecef(m)   Q  ns   sdx(m)   sdy(m)   sdz(m)  sdxy(m)  sdyz(m)  sdzx(m) age(s)  ratio
2172 589855.000   -623612.6109  -5330303.6879   3435421.1628   2   8   0.4928   1.0806   0.5480   0.4834  -0.5290  -0.2073 -30.00    1.2
2172 589856.000   -623612.5343  -5330303.6488   3435421.1412   2   8   0.3505   0.7692   0.3901   0.3436  -0.3758  -0.1467 -29.00    1.4
2172 589857.000   -623612.5617  -5330303.6055   3435421.1373   2   8   0.2870   0.6298   0.3194   0.2813  -0.3075  -0.1200 -28.00    1.3
2172 589858.000   -623612.6187  -5330303.6058   3435421.1916   2   8   0.2490   0.5464   0.2771   0.2440  -0.2668  -0.1041 -27.00    1.3
2172 589859.000   -623612.6026  -5330303.5943   3435421.2010   2   8   0.2230   0.4893   0.2482   0.2185  -0.2389  -0.0932 -26.00    1.4
2172 589860.000   -623612.5887  -5330303.5029   3435421.2002   2   8   0.2037   0.4471   0.2268   0.1997  -0.2183  -0.0852 -25.00    1.4
2172 589861.000   -623612.5823  -5330303.4712   3435421.2130   2   8   0.1887   0.4142   0.2101   0.1850  -0.2023  -0.0790 -24.00    1.4
2172 589862.000   -623612.5652  -5330303.4874   3435421.1958   2   8   0.1766   0.3876   0.1967   0.1731  -0.1893  -0.0739 -23.00    1.4
2172 589863.000   -623612.5584  -5330303.4581   3435421.1697   2   8   0.1666   0.3656   0.1855   0.1633  -0.1786  -0.0697 -22.00    1.4
2172 589864.000   -623612.5533  -5330303.4273   3435421.1691   2   8   0.1581   0.3469   0.1761   0.1549  -0.1694  -0.0662 -21.00    1.3
2172 589865.000   -623612.5656  -5330303.4637   3435421.1838   2   8   0.1508   0.3308   0.1679   0.1477  -0.1616  -0.0631 -20.00    1.3
2172 589866.000   -623612.5729  -5330303.4475   3435421.1747   2   8   0.1443   0.3167   0.1608   0.1414  -0.1547  -0.0604 -19.00    1.3
2172 589867.000   -623612.5753  -5330303.4356   3435421.1848   2   8   0.1387   0.3042   0.1544   0.1358  -0.1486  -0.0580 -18.00    1.3
2172 589868.000   -623612.5799  -5330303.4398   3435421.1903   2   8   0.1336   0.2931   0.1488   0.1308  -0.1431  -0.0559 -17.00    1.3
2172 589869.000   -623612.5926  -5330303.4617   3435421.1970   2   8   0.1290   0.2831   0.1437   0.1263  -0.1382  -0.0539 -16.00    1.3
2172 589870.000   -623612.5969  -5330303.4820   3435421.2045   2   8   0.1249   0.2740   0.1391   0.1223  -0.1338  -0.0522 -15.00    1.2
2172 589871.000   -623612.6000  -5330303.4651   3435421.1952   2   8   0.1211   0.2657   0.1350   0.1185  -0.1297  -0.0506 -14.00    1.1
2172 589872.000   -623612.6044  -5330303.4634   3435421.1959   2   8   0.1176   0.2581   0.1311   0.1151  -0.1260  -0.0491 -13.00    1.1
2172 589873.000   -623612.6040  -5330303.4367   3435421.1892   2   8   0.1145   0.2510   0.1276   0.1119  -0.1225  -0.0477 -12.00    1.0
2172 589874.000   -623612.6010  -5330303.4343   3435421.1918   2   8   0.1115   0.2445   0.1243   0.1090  -0.1193  -0.0464 -11.00    1.0
2172 589875.000   -623612.5987  -5330303.4344   3435421.1904   2   8   0.1087   0.2385   0.1212   0.1063  -0.1163  -0.0452 -10.00    1.1
2172 589876.000   -623612.5885  -5330303.4305   3435421.1825   2   8   0.1062   0.2328   0.1184   0.1037  -0.1136  -0.0441  -9.00    1.1
2172 589877.000   -623612.5866  -5330303.4307   3435421.1781   2   8   0.1038   0.2275   0.1157   0.1013  -0.1110  -0.0431  -8.00    1.1
2172 589878.000   -623612.5731  -5330303.4060   3435421.1768   2   8   0.1016   0.2226   0.1132   0.0991  -0.1085  -0.0421  -7.00    1.2
2172 589879.000   -623612.5592  -5330303.3946   3435421.1673   2   8   0.0994   0.2179   0.1109   0.0970  -0.1062  -0.0412  -6.00    1.2
2172 589880.000   -623612.5480  -5330303.3677   3435421.1568   2   8   0.0975   0.2135   0.1087   0.0950  -0.1041  -0.0404  -5.00    1.1
2172 589881.000   -623612.5403  -5330303.3447   3435421.1466   2   8   0.0956   0.2093   0.1066   0.0931  -0.1020  -0.0395  -4.00    1.1
2172 589882.000   -623612.5360  -5330303.3374   3435421.1446   2   8   0.0938   0.2053   0.1046   0.0913  -0.1001  -0.0388  -3.00    1.1
2172 589883.000   -623612.5259  -5330303.3324   3435421.1363   2   8   0.0922   0.2016   0.1027   0.0896  -0.0982  -0.0380  -2.00    1.0
2172 589884.000   -623612.5170  -5330303.3151   3435421.1269   2   8   0.0906   0.1981   0.1010   0.0880  -0.0965  -0.0374  -1.00    1.0
2172 589885.000   -623612.5093  -5330303.3023   3435421.1182   2   8   0.0891   0.1947   0.0993   0.0865  -0.0949  -0.0367   0.00    1.0
2172 589886.000   -623612.5006  -5330303.2849   3435421.1079   2   8   0.0877   0.1915   0.0977   0.0851  -0.0933  -0.0361   0.00    1.0
2172 589887.000   -623612.4944  -5330303.2796   3435421.1020   2   8   0.0863   0.1885   0.0962   0.0837  -0.0918  -0.0355   0.00    1.0
2172 589888.000   -623612.4898  -5330303.2566   3435421.0917   2   8   0.0850   0.1856   0.0947   0.0824  -0.0904  -0.0350   0.00    1.1
2172 589889.000   -623612.4887  -5330303.2435   3435421.0823   2   8   0.0837   0.1828   0.0934   0.0812  -0.0890  -0.0344   0.00    1.1
2172 589890.000   -623612.4894  -5330303.2301   3435421.0792   2   8   0.0826   0.1801   0.0920   0.0800  -0.0877  -0.0339   0.00    1.1
2172 589891.000   -623612.4895  -5330303.2282   3435421.0722   2   8   0.0814   0.1775   0.0907   0.0788  -0.0864  -0.0334   0.00    1.1
2172 589892.000   -623612.4902  -5330303.2215   3435421.0708   2   8   0.0804   0.1750   0.0895   0.0776  -0.0852  -0.0329   0.00    1.2
2172 589893.000   -623612.4930  -5330303.2224   3435421.0698   2   8   0.0793   0.1726   0.0883   0.0766  -0.0840  -0.0325   0.00    1.2
2172 589894.000   -623612.4908  -5330303.2247   3435421.0663   2   8   0.0782   0.1703   0.0872   0.0755  -0.0829  -0.0320   0.00    1.2
2172 589895.000   -623612.4902  -5330303.2216   3435421.0636   2   8   0.0772   0.1680   0.0861   0.0745  -0.0818  -0.0316   0.00    1.2
2172 589896.000   -623612.4840  -5330303.2135   3435421.0640   2   8   0.0763   0.1659   0.0850   0.0735  -0.0807  -0.0311   0.00    1.2
2172 589897.000   -623612.4853  -5330303.2085   3435421.0630   2   8   0.0754   0.1638   0.0840   0.0725  -0.0797  -0.0307   0.00    1.2
2172 589898.000   -623612.4822  -5330303.2021   3435421.0592   2   8   0.0745   0.1617   0.0830   0.0716  -0.0787  -0.0303   0.00    1.3
2172 589899.000   -623612.4852  -5330303.2114   3435421.0613   2   8   0.0737   0.1597   0.0820   0.0707  -0.0777  -0.0300   0.00    1.3
2172 589900.000   -623612.4867  -5330303.2163   3435421.0620   2   8   0.0728   0.1578   0.0811   0.0698  -0.0768  -0.0296   0.00    1.3
2172 589901.000   -623612.4853  -5330303.2193   3435421.0592   2   8   0.0720   0.1559   0.0801   0.0689  -0.0758  -0.0292   0.00    1.3
2172 589902.000   -623612.4928  -5330303.2408   3435421.0603   2   8   0.0712   0.1541   0.0792   0.0681  -0.0750  -0.0288   0.00    1.3
2172 589903.000   -623612.4965  -5330303.2581   3435421.0600   2   8   0.0705   0.1523   0.0784   0.0673  -0.0741  -0.0285   0.00    1.3
2172 589904.000   -623612.5044  -5330303.2691   3435421.0613   2   8   0.0697   0.1506   0.0775   0.0665  -0.0732  -0.0282   0.00    1.3
2172 589905.000   -623612.5057  -5330303.2889   3435421.0569   2   8   0.0690   0.1489   0.0767   0.0657  -0.0724  -0.0278   0.00    1.3
2172 589906.000   -623612.5105  -5330303.3041   3435421.0572   2   8   0.0683   0.1472   0.0759   0.0650  -0.0716  -0.0274   0.00    1.3
2172 589907.000   -623612.5043  -5330303.3080   3435421.0605   2   8   0.0676   0.1456   0.0751   0.0642  -0.0708  -0.0271   0.00    1.4
2172 589908.000   -623612.5095  -5330303.3162   3435421.0603   2   8   0.0670   0.1440   0.0744   0.0635  -0.0700  -0.0268   0.00    1.4
2172 589909.000   -623612.5086  -5330303.3201   3435421.0617   2   8   0.0663   0.1425   0.0736   0.0628  -0.0692  -0.0265   0.00    1.4
2172 589910.000   -623612.5094  -5330303.3262   3435421.0606   2   8   0.0657   0.1409   0.0729   0.0621  -0.0685  -0.0262   0.00    1.4
2172 589911.000   -623612.5098  -5330303.3284   3435421.0621   2   8   0.0650   0.1395   0.0722   0.0614  -0.0677  -0.0260   0.00    1.4
2172 589912.000   -623612.5110  -5330303.3309   3435421.0611   2   8   0.0645   0.1380   0.0715   0.0607  -0.0670  -0.0257   0.00    1.4
2172 589913.000   -623612.5105  -5330303.3295   3435421.0609   2   8   0.0639   0.1366   0.0709   0.0600  -0.0663  -0.0254   0.00    1.4
2172 589914.000   -623612.5104  -5330303.3375   3435421.0648   2   8   0.0633   0.1352   0.0702   0.0594  -0.0656  -0.0251   0.00    1.4
2172 589915.000   -623612.5104  -5330303.3387   3435421.0612   2   8   0.0627   0.1338   0.0695   0.0587  -0.0650  -0.0248   0.00    1.4
2172 589916.000   -623612.5139  -5330303.3394   3435421.0593   2   8   0.0622   0.1325   0.0689   0.0581  -0.0643  -0.0246   0.00    1.4
2172 589917.000   -623612.5117  -5330303.3277   3435421.0574   2   8   0.0617   0.1311   0.0683   0.0575  -0.0636  -0.0243   0.00    1.4
2172 589918.000   -623612.5087  -5330303.3223   3435421.0516   2   8   0.0612   0.1299   0.0677   0.0569  -0.0630  -0.0240   0.00    1.4
2172 589919.000   -623612.5087  -5330303.3108   3435421.0431   2   8   0.0606   0.1286   0.0671   0.0562  -0.0624  -0.0238   0.00    1.5
2172 589920.000   -623612.5095  -5330303.3011   3435421.0379   2   8   0.0601   0.1273   0.0665   0.0556  -0.0617  -0.0235   0.00    1.5
2172 589921.000   -623612.5083  -5330303.2974   3435421.0340   2   8   0.0596   0.1261   0.0659   0.0551  -0.0611  -0.0233   0.00    1.5
2172 589922.000   -623612.5061  -5330303.2894   3435421.0293   2   8   0.0591   0.1249   0.0653   0.0545  -0.0605  -0.0230   0.00    1.5
2172 589923.000   -623612.5039  -5330303.2722   3435421.0234   2   8   0.0587   0.1237   0.0648   0.0539  -0.0599  -0.0228   0.00    1.5
2172 589924.000   -623612.5036  -5330303.2664   3435421.0205   2   8   0.0582   0.1225   0.0643   0.0534  -0.0593  -0.0225   0.00    1.5
2172 589925.000   -623612.5028  -5330303.2537   3435421.0116   2   8   0.0578   0.1214   0.0637   0.0528  -0.0588  -0.0223   0.00    1.5
2172 589926.000   -623612.5010  -5330303.2418   3435421.0077   2   8   0.0573   0.1202   0.0632   0.0523  -0.0582  -0.0221   0.00    1.5
2172 589927.000   -623612.4967  -5330303.2239   3435421.0001   2   8   0.0568   0.1191   0.0627   0.0517  -0.0576  -0.0218   0.00    1.5
2172 589928.000   -623612.4911  -5330303.2076   3435420.9867   2   8   0.0564   0.1180   0.0621   0.0512  -0.0571  -0.0216   0.00    1.5
2172 589929.000   -623612.4884  -5330303.1944   3435420.9825   2   8   0.0560   0.1169   0.0617   0.0507  -0.0565  -0.0214   0.00    1.5
2172 589930.000   -623612.4862  -5330303.1755   3435420.9799   2   8   0.0556   0.1158   0.0612   0.0501  -0.0560  -0.0212   0.00    1.5
2172 589931.000   -623612.4852  -5330303.1608   3435420.9772   2   8   0.0552   0.1148   0.0607   0.0496  -0.0555  -0.0210   0.00    1.5
2172 589932.000   -623612.4820  -5330303.1465   3435420.9709   2   8   0.0548   0.1137   0.0602   0.0491  -0.0550  -0.0208   0.00    1.5
2172 589933.000   -623612.4809  -5330303.1383   3435420.9651   2   8   0.0544   0.1127   0.0597   0.0486  -0.0544  -0.0205   0.00    1.5
2172 589934.000   -623612.4778  -5330303.1224   3435420.9615   2   8   0.0540   0.1117   0.0593   0.0482  -0.0539  -0.0204   0.00    1.5
2172 589935.000   -623612.4754  -5330303.1148   3435420.9581   2   8   0.0536   0.1107   0.0588   0.0477  -0.0534  -0.0201   0.00    1.5
2172 589936.000   -623612.4758  -5330303.1100   3435420.9620   2   8   0.0533   0.1097   0.0583   0.0472  -0.0529  -0.0199   0.00    1.5
2172 589937.000   -623612.4744  -5330303.1137   3435420.9625   2   8   0.0529   0.1087   0.0579   0.0467  -0.0525  -0.0197   0.00    1.5
2172 589938.000   -623612.4741  -5330303.1066   3435420.9576   2   8   0.0525   0.1078   0.0575   0.0463  -0.0520  -0.0195   0.00    1.5
2172 589939.000   -623612.4732  -5330303.0914   3435420.9502   2   8   0.0521   0.1068   0.0570   0.0458  -0.0515  -0.0193   0.00    1.5
2172 589940.000   -623612.4696  -5330303.0800   3435420.9466   2   8   0.0518   0.1059   0.0566   0.0453  -0.0510  -0.0192   0.00    1.5
2172 589941.000   -623612.4763  -5330303.0917   3435420.9427   2   8   0.0514   0.1050   0.0562   0.0449  -0.0506  -0.0190   0.00    1.5
2172 589942.000   -623612.4810  -5330303.1047   3435420.9481   2   8   0.0511   0.1041   0.0558   0.0444  -0.0501  -0.0188   0.00    1.4
2172 589943.000   -623612.4833  -5330303.1098   3435420.9551   2   8   0.0508   0.1032   0.0554   0.0440  -0.0497  -0.0186   0.00    1.4
2172 589944.000   -623612.4845  -5330303.1143   3435420.9528   2   8   0.0505   0.1023   0.0550   0.0436  -0.0492  -0.0184   0.00    1.4
2172 589945.000   -623612.4885  -5330303.1312   3435420.9606   2   8   0.0501   0.1014   0.0546   0.0431  -0.0488  -0.0182   0.00    1.4
2172 589946.000   -623612.4887  -5330303.1192   3435420.9539   2   8   0.0497   0.1005   0.0542   0.0427  -0.0483  -0.0181   0.00    1.4
2172 589947.000   -623612.4876  -5330303.1224   3435420.9555   2   8   0.0495   0.0997   0.0538   0.0423  -0.0479  -0.0179   0.00    1.4
2172 589948.000   -623612.4909  -5330303.1242   3435420.9552   2   8   0.0492   0.0988   0.0534   0.0418  -0.0475  -0.0178   0.00    1.4
2172 589949.000   -623612.4946  -5330303.1207   3435420.9535   2   8   0.0489   0.0980   0.0531   0.0414  -0.0471  -0.0176   0.00    1.3
2172 589950.000   -623612.4932  -5330303.1204   3435420.9567   2   8   0.0485   0.0972   0.0527   0.0410  -0.0467  -0.0174   0.00    1.3
2172 589951.000   -623612.4921  -5330303.1239   3435420.9556   2   8   0.0483   0.0964   0.0523   0.0406  -0.0462  -0.0173   0.00    1.3
2172 589952.000   -623612.4934  -5330303.1266   3435420.9596   2   8   0.0480   0.0955   0.0519   0.0402  -0.0458  -0.0171   0.00    1.3
2172 589953.000   -623612.4929  -5330303.1320   3435420.9621   2   8   0.0477   0.0948   0.0516   0.0398  -0.0454  -0.0169   0.00    1.3
2172 589954.000   -623612.4941  -5330303.1321   3435420.9633   2   8   0.0474   0.0940   0.0512   0.0394  -0.0450  -0.0168   0.00    1.3
2172 589955.000   -623612.4953  -5330303.1283   3435420.9632   2   8   0.0471   0.0932   0.0508   0.0390  -0.0446  -0.0166   0.00    1.3
2172 589956.000   -623612.4946  -5330303.1248   3435420.9606   2   8   0.0469   0.0924   0.0505   0.0386  -0.0442  -0.0164   0.00    1.3
2172 589957.000   -623612.4945  -5330303.1266   3435420.9613   2   8   0.0466   0.0917   0.0501   0.0382  -0.0439  -0.0163   0.00    1.3
2172 589958.000   -623612.4951  -5330303.1230   3435420.9610   2   8   0.0463   0.0909   0.0498   0.0378  -0.0435  -0.0161   0.00    1.3
2172 589959.000   -623612.4944  -5330303.1153   3435420.9567   2   8   0.0460   0.0902   0.0495   0.0375  -0.0431  -0.0160   0.00    1.2
2172 589960.000   -623612.4912  -5330303.1128   3435420.9514   2   8   0.0458   0.0895   0.0491   0.0371  -0.0427  -0.0157   0.00    1.2
2172 589961.000   -623612.4913  -5330303.1031   3435420.9478   2   8   0.0455   0.0887   0.0488   0.0367  -0.0424  -0.0157   0.00    1.2
2172 589962.000   -623612.4903  -5330303.0953   3435420.9468   2   8   0.0453   0.0880   0.0485   0.0364  -0.0420  -0.0156   0.00    1.2
2172 589963.000   -623612.4889  -5330303.0892   3435420.9426   2   8   0.0451   0.0873   0.0482   0.0360  -0.0417  -0.0155   0.00    1.2
2172 589964.000   -623612.4838  -5330303.0846   3435420.9425   2   8   0.0448   0.0866   0.0478   0.0357  -0.0413  -0.0153   0.00    1.2
2172 589965.000   -623612.4802  -5330303.0787   3435420.9415   2   8   0.0444   0.0859   0.0476   0.0354  -0.0409  -0.0152   0.00    1.2
2172 589966.000   -623612.4784  -5330303.0760   3435420.9418   2   8   0.0443   0.0852   0.0472   0.0349  -0.0406  -0.0150   0.00    1.2
2172 589967.000   -623612.4802  -5330303.0754   3435420.9419   2   8   0.0440   0.0845   0.0469   0.0346  -0.0403  -0.0149   0.00    1.2
2172 589968.000   -623612.4794  -5330303.0728   3435420.9403   2   8   0.0437   0.0839   0.0466   0.0343  -0.0399  -0.0148   0.00    1.2
2172 589969.000   -623612.4792  -5330303.0777   3435420.9411   2   8   0.0436   0.0832   0.0463   0.0339  -0.0396  -0.0146   0.00    1.2
2172 589970.000   -623612.4790  -5330303.0663   3435420.9390   2   8   0.0433   0.0826   0.0460   0.0336  -0.0393  -0.0145   0.00    1.2
2172 589971.000   -623612.4774  -5330303.0662   3435420.9368   2   8   0.0431   0.0819   0.0457   0.0332  -0.0389  -0.0143   0.00    1.2
2172 589972.000   -623612.4813  -5330303.0704   3435420.9389   2   8   0.0429   0.0813   0.0454   0.0329  -0.0386  -0.0142   0.00    1.2
2172 589973.000   -623612.4785  -5330303.0712   3435420.9372   2   8   0.0426   0.0806   0.0451   0.0326  -0.0383  -0.0141   0.00    1.2
2172 589974.000   -623612.4748  -5330303.0679   3435420.9337   2   8   0.0424   0.0800   0.0448   0.0323  -0.0379  -0.0139   0.00    1.1
2172 589975.000   -623612.4782  -5330303.0737   3435420.9352   2   8   0.0422   0.0794   0.0446   0.0319  -0.0377  -0.0139   0.00    1.1
2172 589976.000   -623612.4761  -5330303.0738   3435420.9317   2   8   0.0419   0.0788   0.0443   0.0316  -0.0374  -0.0138   0.00    1.1
2172 589977.000   -623612.4757  -5330303.0735   3435420.9316   2   8   0.0418   0.0782   0.0440   0.0313  -0.0371  -0.0136   0.00    1.1
2172 589978.000   -623612.4776  -5330303.0750   3435420.9325   2   8   0.0416   0.0776   0.0437   0.0309  -0.0367  -0.0135   0.00    1.1
2172 589979.000   -623612.4763  -5330303.0743   3435420.9319   2   8   0.0413   0.0770   0.0434   0.0307  -0.0364  -0.0134   0.00    1.1
2172 589980.000   -623612.4765  -5330303.0777   3435420.9316   2   8   0.0411   0.0764   0.0432   0.0304  -0.0362  -0.0134   0.00    1.1
2172 589981.000   -623612.4811  -5330303.0796   3435420.9296   2   8   0.0410   0.0758   0.0429   0.0301  -0.0358  -0.0132   0.00    1.1
2172 589982.000   -623612.4804  -5330303.0802   3435420.9294   2   8   0.0408   0.0753   0.0427   0.0297  -0.0356  -0.0131   0.00    1.1
2172 589983.000   -623612.4773  -5330303.0809   3435420.9292   2   8   0.0405   0.0747   0.0424   0.0295  -0.0353  -0.0131   0.00    1.1
2172 589984.000   -623612.4782  -5330303.0779   3435420.9272   2   8   0.0403   0.0741   0.0421   0.0292  -0.0350  -0.0130   0.00    1.1
2172 589985.000   -623612.4812  -5330303.0799   3435420.9269   2   8   0.0402   0.0736   0.0419   0.0289  -0.0347  -0.0129   0.00    1.1
2172 589986.000   -623612.4792  -5330303.0821   3435420.9295   2   8   0.0400   0.0730   0.0416   0.0286  -0.0344  -0.0127   0.00    1.1
2172 589987.000   -623612.4803  -5330303.0749   3435420.9240   2   8   0.0399   0.0725   0.0413   0.0283  -0.0342  -0.0126   0.00    1.1
2172 589988.000   -623612.4772  -5330303.0760   3435420.9249   2   8   0.0396   0.0720   0.0411   0.0280  -0.0339  -0.0126   0.00    1.1
2172 589989.000   -623612.4740  -5330303.0721   3435420.9253   2   8   0.0394   0.0714   0.0408   0.0278  -0.0336  -0.0124   0.00    1.1
2172 589990.000   -623612.4711  -5330303.0713   3435420.9229   2   8   0.0392   0.0709   0.0406   0.0275  -0.0333  -0.0124   0.00    1.1
2172 589991.000   -623612.4664  -5330303.0695   3435420.9247   2   8   0.0390   0.0704   0.0403   0.0272  -0.0331  -0.0123   0.00    1.1
2172 589992.000   -623612.4633  -5330303.0580   3435420.9188   2   8   0.0389   0.0699   0.0401   0.0268  -0.0328  -0.0122   0.00    1.1
2172 589993.000   -623612.4609  -5330303.0528   3435420.9199   2   8   0.0387   0.0694   0.0399   0.0266  -0.0326  -0.0121   0.00    1.1
2172 589994.000   -623612.4599  -5330303.0404   3435420.9143   2   8   0.0385   0.0689   0.0396   0.0264  -0.0323  -0.0120   0.00    1.1
2172 589995.000   -623612.4597  -5330303.0393   3435420.9121   2   8   0.0384   0.0684   0.0394   0.0261  -0.0321  -0.0119   0.00    1.0
2172 589996.000   -623612.4520  -5330303.0500   3435420.9172   2   8   0.0382   0.0679   0.0391   0.0258  -0.0318  -0.0118   0.00    1.0
2172 589997.000   -623612.4583  -5330303.0516   3435420.9383   2   8   0.0381   0.0674   0.0390   0.0256  -0.0315  -0.0116   0.00    1.0
2172 589998.000   -623612.4598  -5330303.0722   3435420.9571   2   8   0.0379   0.0670   0.0387   0.0253  -0.0313  -0.0116   0.00    1.0
2172 589999.000   -623612.4622  -5330303.0986   3435420.9775   2   8   0.0377   0.0665   0.0385   0.0252  -0.0311  -0.0116   0.00    1.1
2172 590000.000   -623612.4632  -5330303.1133   3435420.9914   2   8   0.0376   0.0661   0.0382   0.0249  -0.0309  -0.0114   0.00    1.1
2172 590001.000   -623612.4640  -5330303.1343   3435421.0108   2   8   0.0374   0.0656   0.0380   0.0246  -0.0306  -0.0115   0.00    1.1
2172 590002.000   -623612.4665  -5330303.1569   3435421.0332   2   8   0.0373   0.0652   0.0378   0.0244  -0.0304  -0.0113   0.00    1.1
2172 590003.000   -623612.4703  -5330303.1814   3435421.0503   2   8   0.0371   0.0647   0.0377   0.0241  -0.0302  -0.0113   0.00    1.1
2172 590004.000   -623612.4712  -5330303.1966   3435421.0667   2   8   0.0369   0.0643   0.0374   0.0240  -0.0300  -0.0112   0.00    1.1
2172 590005.000   -623612.4717  -5330303.2180   3435421.0846   2   8   0.0369   0.0639   0.0372   0.0236  -0.0298  -0.0111   0.00    1.2
2172 590006.000   -623612.4732  -5330303.2367   3435421.1008   2   8   0.0366   0.0634   0.0370   0.0234  -0.0296  -0.0112   0.00    1.2
2172 590007.000   -623612.4777  -5330303.2586   3435421.1214   2   8   0.0365   0.0630   0.0368   0.0232  -0.0294  -0.0111   0.00    1.2
2172 590008.000   -623612.4766  -5330303.2669   3435421.1329   2   8   0.0364   0.0626   0.0366   0.0230  -0.0292  -0.0110   0.00    1.2
2172 590009.000   -623612.4795  -5330303.2861   3435421.1514   2   8   0.0362   0.0622   0.0364   0.0228  -0.0290  -0.0110   0.00    1.2
2172 590010.000   -623612.4791  -5330303.3019   3435421.1636   2   8   0.0361   0.0618   0.0362   0.0225  -0.0288  -0.0110   0.00    1.2
2172 590011.000   -623612.4826  -5330303.3137   3435421.1761   2   8   0.0359   0.0614   0.0360   0.0224  -0.0286  -0.0109   0.00    1.2
2172 590012.000   -623612.4832  -5330303.3336   3435421.1900   2   8   0.0357   0.0610   0.0358   0.0222  -0.0284  -0.0108   0.00    1.3
2172 590013.000   -623612.4852  -5330303.3536   3435421.2053   2   8   0.0356   0.0606   0.0356   0.0219  -0.0282  -0.0108   0.00    1.3
2172 590014.000   -623612.4890  -5330303.3686   3435421.2166   2   8   0.0354   0.0602   0.0354   0.0217  -0.0280  -0.0108   0.00    1.3
2172 590015.000   -623612.4929  -5330303.3880   3435421.2328   2   8   0.0354   0.0598   0.0352   0.0214  -0.0278  -0.0107   0.00    1.3
2172 590016.000   -623612.4958  -5330303.4041   3435421.2458   2   8   0.0352   0.0594   0.0350   0.0213  -0.0276  -0.0105   0.00    1.3
2172 590017.000   -623612.5007  -5330303.4237   3435421.2626   2   8   0.0350   0.0590   0.0348   0.0211  -0.0274  -0.0106   0.00    1.2
2172 590018.000   -623612.5003  -5330303.4397   3435421.2724   2   8   0.0349   0.0587   0.0346   0.0209  -0.0272  -0.0106   0.00    1.2
2172 590019.000   -623612.5032  -5330303.4526   3435421.2847   2   8   0.0349   0.0583   0.0344   0.0206  -0.0270  -0.0105   0.00    1.2
2172 590020.000   -623612.5042  -5330303.4644   3435421.2986   2   8   0.0347   0.0579   0.0343   0.0204  -0.0269  -0.0104   0.00    1.2
2172 590021.000   -623612.5056  -5330303.4772   3435421.3082   2   8   0.0346   0.0576   0.0341   0.0201  -0.0267  -0.0104   0.00    1.2
2172 590022.000   -623612.5062  -5330303.4801   3435421.3142   2   8   0.0344   0.0572   0.0339   0.0200  -0.0265  -0.0103   0.00    1.2
2172 590023.000   -623612.5067  -5330303.4933   3435421.3241   2   8   0.0343   0.0568   0.0337   0.0198  -0.0263  -0.0103   0.00    1.2
2172 590024.000   -623612.5084  -5330303.5051   3435421.3296   2   8   0.0342   0.0565   0.0335   0.0196  -0.0262  -0.0102   0.00    1.1
2172 590025.000   -623612.5105  -5330303.5192   3435421.3379   2   8   0.0341   0.0561   0.0333   0.0194  -0.0260  -0.0101   0.00    1.1
2172 590026.000   -623612.5112  -5330303.5261   3435421.3467   2   8   0.0339   0.0558   0.0332   0.0193  -0.0258  -0.0101   0.00    1.1
2172 590027.000   -623612.5078  -5330303.5300   3435421.3564   2   8   0.0337   0.0554   0.0330   0.0191  -0.0256  -0.0101   0.00    1.1
2172 590028.000   -623612.5099  -5330303.5337   3435421.3638   2   8   0.0337   0.0551   0.0328   0.0188  -0.0255  -0.0101   0.00    1.1
2172 590029.000   -623612.5097  -5330303.5406   3435421.3729   2   8   0.0335   0.0548   0.0327   0.0186  -0.0253  -0.0100   0.00    1.1
2172 590030.000   -623612.5085  -5330303.5449   3435421.3818   2   8   0.0335   0.0544   0.0325   0.0184  -0.0251  -0.0100   0.00    1.1
2172 590031.000   -623612.5071  -5330303.5556   3435421.3883   2   8   0.0334   0.0541   0.0323   0.0182  -0.0250  -0.0099   0.00    1.1
2172 590032.000   -623612.5096  -5330303.5625   3435421.3956   2   8   0.0332   0.0538   0.0322   0.0180  -0.0248  -0.0098   0.00    1.1
2172 590033.000   -623612.5090  -5330303.5687   3435421.4064   2   8   0.0330   0.0534   0.0320   0.0179  -0.0247  -0.0099   0.00    1.1
2172 590034.000   -623612.5103  -5330303.5774   3435421.4160   2   8   0.0330   0.0531   0.0318   0.0176  -0.0245  -0.0099   0.00    1.1
2172 590035.000   -623612.5087  -5330303.5817   3435421.4203   2   8   0.0329   0.0528   0.0317   0.0175  -0.0243  -0.0098   0.00    1.0
2172 590036.000   -623612.5104  -5330303.5885   3435421.4271   2   8   0.0327   0.0525   0.0316   0.0173  -0.0242  -0.0098   0.00    1.0
2172 590037.000   -623612.5106  -5330303.5946   3435421.4370   2   8   0.0327   0.0522   0.0314   0.0170  -0.0240  -0.0098   0.00    1.0
2172 590038.000   -623612.5109  -5330303.6001   3435421.4428   2   8   0.0325   0.0519   0.0312   0.0169  -0.0239  -0.0098   0.00    1.0
2172 590039.000   -623612.5091  -5330303.6051   3435421.4459   2   8   0.0324   0.0516   0.0311   0.0167  -0.0237  -0.0097   0.00    1.0
2172 590040.000   -623612.5065  -5330303.6081   3435421.4530   2   8   0.0323   0.0513   0.0309   0.0166  -0.0236  -0.0097   0.00    1.0
2172 590041.000   -623612.5051  -5330303.6051   3435421.4576   2   8   0.0321   0.0509   0.0308   0.0164  -0.0234  -0.0097   0.00    1.0
2172 590042.000   -623612.5029  -5330303.6024   3435421.4578   2   8   0.0321   0.0507   0.0306   0.0162  -0.0233  -0.0096   0.00    1.0
2172 590043.000   -623612.5032  -5330303.6010   3435421.4622   2   8   0.0319   0.0504   0.0304   0.0160  -0.0231  -0.0096   0.00    1.0
2172 590044.000   -623612.5024  -5330303.6043   3435421.4678   2   8   0.0319   0.0501   0.0303   0.0159  -0.0230  -0.0095   0.00    1.0
2172 590045.000   -623612.5028  -5330303.6072   3435421.4737   2   8   0.0318   0.0498   0.0301   0.0157  -0.0228  -0.0095   0.00    1.0
2172 590046.000   -623612.5004  -5330303.6065   3435421.4748   2   8   0.0316   0.0495   0.0300   0.0156  -0.0227  -0.0094   0.00    1.0
2172 590047.000   -623612.5045  -5330303.6106   3435421.4773   2   8   0.0315   0.0492   0.0298   0.0153  -0.0226  -0.0094   0.00    1.0
2172 590048.000   -623612.4983  -5330303.6104   3435421.4783   2   8   0.0314   0.0489   0.0296   0.0152  -0.0224  -0.0094   0.00    1.0
2172 590049.000   -623612.5001  -5330303.6111   3435421.4793   2   8   0.0314   0.0487   0.0296   0.0150  -0.0223  -0.0093   0.00    1.1
2172 590050.000   -623612.4981  -5330303.6084   3435421.4772   2   8   0.0313   0.0484   0.0294   0.0148  -0.0221  -0.0093   0.00    1.1
2172 590051.000   -623612.4953  -5330303.6049   3435421.4810   2   8   0.0312   0.0481   0.0292   0.0147  -0.0220  -0.0093   0.00    1.1
2172 590052.000   -623612.4951  -5330303.6052   3435421.4798   2   8   0.0310   0.0478   0.0291   0.0146  -0.0219  -0.0092   0.00    1.1
2172 590053.000   -623612.5007  -5330303.6089   3435421.4756   2   8   0.0310   0.0476   0.0289   0.0144  -0.0218  -0.0092   0.00    1.1
2172 590054.000   -623612.5026  -5330303.6164   3435421.4778   2   8   0.0308   0.0473   0.0288   0.0142  -0.0216  -0.0092   0.00    1.1
2172 590055.000   -623612.5040  -5330303.6257   3435421.4836   2   8   0.0308   0.0470   0.0286   0.0140  -0.0215  -0.0092   0.00    1.1
2172 590056.000   -623612.5045  -5330303.6311   3435421.4901   2   8   0.0307   0.0468   0.0285   0.0138  -0.0214  -0.0092   0.00    1.1
2172 590057.000   -623612.5021  -5330303.6193   3435421.4868   2   8   0.0306   0.0465   0.0284   0.0136  -0.0212  -0.0091   0.00    1.1
2172 590058.000   -623612.5060  -5330303.6206   3435421.4826   2   8   0.0305   0.0463   0.0283   0.0135  -0.0211  -0.0091   0.00    1.1
2172 590059.000   -623612.5067  -5330303.6173   3435421.4798   2   8   0.0304   0.0460   0.0281   0.0133  -0.0209  -0.0091   0.00    1.1
2172 590060.000   -623612.5056  -5330303.6121   3435421.4807   2   8   0.0303   0.0458   0.0280   0.0132  -0.0208  -0.0090   0.00    1.1
2172 590061.000   -623612.5057  -5330303.6111   3435421.4743   2   8   0.0302   0.0455   0.0279   0.0130  -0.0207  -0.0090   0.00    1.1
2172 590062.000   -623612.5043  -5330303.6078   3435421.4720   2   8   0.0301   0.0453   0.0277   0.0129  -0.0206  -0.0090   0.00    1.1
2172 590063.000   -623612.4994  -5330303.6009   3435421.4672   2   8   0.0300   0.0450   0.0276   0.0127  -0.0205  -0.0090   0.00    1.1
2172 590064.000   -623612.4984  -5330303.5960   3435421.4655   2   8   0.0298   0.0448   0.0275   0.0127  -0.0203  -0.0089   0.00    1.1
2172 590065.000   -623612.4946  -5330303.5938   3435421.4623   2   8   0.0299   0.0445   0.0273   0.0123  -0.0202  -0.0089   0.00    1.1
2172 590066.000   -623612.4916  -5330303.5861   3435421.4594   2   8   0.0298   0.0443   0.0272   0.0122  -0.0201  -0.0088   0.00    1.1
2172 590067.000   -623612.4881  -5330303.5759   3435421.4554   2   8   0.0297   0.0440   0.0271   0.0122  -0.0200  -0.0089   0.00    1.1
2172 590068.000   -623612.4871  -5330303.5711   3435421.4533   2   8   0.0297   0.0439   0.0269   0.0118  -0.0199  -0.0088   0.00    1.1
2172 590069.000   -623612.4846  -5330303.5627   3435421.4465   2   8   0.0295   0.0436   0.0268   0.0119  -0.0197  -0.0089   0.00    1.1
2172 590070.000   -623612.4804  -5330303.5511   3435421.4411   2   8   0.0295   0.0434   0.0267   0.0116  -0.0197  -0.0088   0.00    1.1
2172 590071.000   -623612.4802  -5330303.5513   3435421.4414   2   8   0.0293   0.0431   0.0266   0.0114  -0.0195  -0.0089   0.00    1.1
2172 590072.000   -623612.4777  -5330303.5411   3435421.4380   2   8   0.0291   0.0429   0.0265   0.0115  -0.0194  -0.0089   0.00    1.1
2172 590073.000   -623612.4752  -5330303.5301   3435421.4297   2   8   0.0291   0.0427   0.0263   0.0112  -0.0193  -0.0088   0.00    1.1
2172 590074.000   -623612.4721  -5330303.5243   3435421.4267   2   8   0.0291   0.0425   0.0262   0.0111  -0.0192  -0.0087   0.00    1.1
2172 590075.000   -623612.4715  -5330303.5172   3435421.4236   2   8   0.0291   0.0423   0.0261   0.0109  -0.0191  -0.0087   0.00    1.1
2172 590076.000   -623612.4702  -5330303.5075   3435421.4151   2   8   0.0289   0.0421   0.0260   0.0107  -0.0190  -0.0088   0.00    1.1
2172 590077.000   -623612.4697  -5330303.5051   3435421.4110   2   8   0.0288   0.0418   0.0258   0.0106  -0.0189  -0.0086   0.00    1.1
2172 590078.000   -623612.4646  -5330303.4949   3435421.4065   2   8   0.0288   0.0416   0.0257   0.0104  -0.0187  -0.0087   0.00    1.1
2172 590079.000   -623612.4641  -5330303.4920   3435421.3995   2   8   0.0287   0.0414   0.0256   0.0102  -0.0187  -0.0085   0.00    1.1
2172 590080.000   -623612.4612  -5330303.4797   3435421.3937   2   8   0.0287   0.0412   0.0255   0.0101  -0.0186  -0.0087   0.00    1.1
2172 590081.000   -623612.4571  -5330303.4703   3435421.3871   2   8   0.0285   0.0410   0.0254   0.0099  -0.0184  -0.0085   0.00    1.1
2172 590082.000   -623612.4548  -5330303.4586   3435421.3827   2   8   0.0285   0.0408   0.0252   0.0096  -0.0183  -0.0086   0.00    1.1
2172 590083.000   -623612.4538  -5330303.4555   3435421.3723   2   8   0.0284   0.0406   0.0252   0.0096  -0.0183  -0.0086   0.00    1.1
2172 590084.000   -623612.4521  -5330303.4416   3435421.3624   2   8   0.0284   0.0404   0.0251   0.0093  -0.0181  -0.0085   0.00    1.1
2172 590085.000   -623612.4498  -5330303.4383   3435421.3579   2   8   0.0281   0.0402   0.0248   0.0094  -0.0180  -0.0085   0.00    1.0
2172 590086.000   -623612.4480  -5330303.4320   3435421.3516   2   8   0.0282   0.0400   0.0249   0.0092  -0.0179  -0.0084   0.00    1.0
2172 590087.000   -623612.4488  -5330303.4228   3435421.3409   2   8   0.0281   0.0398   0.0247   0.0090  -0.0178  -0.0084   0.00    1.0
2172 590088.000   -623612.4466  -5330303.4172   3435421.3360   2   8   0.0280   0.0396   0.0246   0.0090  -0.0177  -0.0086   0.00    1.0
2172 590089.000   -623612.4446  -5330303.4132   3435421.3299   2   8   0.0279   0.0394   0.0245   0.0087  -0.0176  -0.0084   0.00    1.0
2172 590090.000   -623612.4429  -5330303.4038   3435421.3256   2   8   0.0279   0.0392   0.0244   0.0085  -0.0175  -0.0084   0.00    1.0
2172 590091.000   -623612.4403  -5330303.3933   3435421.3212   2   8   0.0278   0.0390   0.0243   0.0084  -0.0174  -0.0085   0.00    1.0
2172 590092.000   -623612.4388  -5330303.3839   3435421.3117   2   8   0.0277   0.0389   0.0242   0.0083  -0.0173  -0.0083   0.00    1.0
2172 590093.000   -623612.4357  -5330303.3765   3435421.3062   2   8   0.0276   0.0387   0.0241   0.0082  -0.0173  -0.0084   0.00    1.0
2172 590094.000   -623612.4301  -5330303.3607   3435421.2981   2   8   0.0275   0.0385   0.0240   0.0082  -0.0171  -0.0083   0.00    1.0
2172 590095.000   -623612.4305  -5330303.3531   3435421.2913   2   8   0.0275   0.0383   0.0239   0.0077  -0.0171  -0.0085   0.00    1.0
2172 590096.000   -623612.4295  -5330303.3482   3435421.2851   2   8   0.0274   0.0381   0.0238   0.0078  -0.0170  -0.0084   0.00    1.0
2172 590097.000   -623612.4286  -5330303.3380   3435421.2771   2   8   0.0273   0.0379   0.0237   0.0078  -0.0169  -0.0083   0.00    1.0
2172 590098.000   -623612.4263  -5330303.3340   3435421.2698   2   8   0.0272   0.0378   0.0236   0.0077  -0.0167  -0.0083   0.00    1.0
2172 590099.000   -623612.4256  -5330303.3225   3435421.2648   2   8   0.0272   0.0376   0.0234   0.0074  -0.0167  -0.0084   0.00    1.0
2172 590100.000   -623612.4235  -5330303.3172   3435421.2543   2   8   0.0272   0.0374   0.0233   0.0070  -0.0166  -0.0082   0.00    1.0
2172 590101.000   -623612.4229  -5330303.3106   3435421.2493   2   8   0.0271   0.0372   0.0233   0.0071  -0.0165  -0.0083   0.00    1.0
2172 590102.000   -623612.4172  -5330303.3004   3435421.2406   2   8   0.0270   0.0371   0.0232   0.0068  -0.0165  -0.0082   0.00    1.1
2172 590103.000   -623612.4158  -5330303.2926   3435421.2339   2   8   0.0270   0.0369   0.0230   0.0067  -0.0163  -0.0082   0.00    1.1
2172 590104.000   -623612.4130  -5330303.2797   3435421.2269   2   8   0.0269   0.0367   0.0229   0.0067  -0.0163  -0.0082   0.00    1.1
2172 590105.000   -623612.4092  -5330303.2637   3435421.2194   2   8   0.0268   0.0366   0.0228   0.0063  -0.0162  -0.0082   0.00    1.1
2172 590106.000   -623612.4065  -5330303.2500   3435421.2124   2   8   0.0268   0.0364   0.0228   0.0063  -0.0161  -0.0082   0.00    1.1
2172 590107.000   -623612.4049  -5330303.2337   3435421.2049   2   8   0.0267   0.0362   0.0227   0.0063  -0.0160  -0.0081   0.00    1.1
2172 590108.000   -623612.4014  -5330303.2422   3435421.2007   2   8   0.0267   0.0361   0.0226   0.0056  -0.0160  -0.0082   0.00    1.1
2172 590109.000   -623612.4057  -5330303.2337   3435421.1931   2   8   0.0266   0.0359   0.0225   0.0057  -0.0159  -0.0081   0.00    1.1
2172 590110.000   -623612.4049  -5330303.2323   3435421.1906   2   8   0.0265   0.0358   0.0224   0.0053  -0.0158  -0.0081   0.00    1.1
2172 590111.000   -623612.4026  -5330303.2226   3435421.1823   2   8   0.0264   0.0356   0.0223   0.0052  -0.0157  -0.0081   0.00    1.1
2172 590112.000   -623612.4021  -5330303.2324   3435421.1848   2   8   0.0264   0.0355   0.0222   0.0052  -0.0156  -0.0080   0.00    1.1
2172 590113.000   -623612.4027  -5330303.2258   3435421.1763   2   8   0.0265   0.0353   0.0221   0.0049  -0.0155  -0.0082   0.00    1.1
2172 590114.000   -623612.4052  -5330303.2211   3435421.1720   2   8   0.0262   0.0351   0.0220   0.0051  -0.0155  -0.0082   0.00    1.1
2172 590115.000   -623612.4028  -5330303.2196   3435421.1693   2   8   0.0262   0.0350   0.0219   0.0048  -0.0154  -0.0081   0.00    1.1
2172 590116.000   -623612.4036  -5330303.2196   3435421.1617   2   8   0.0261   0.0348   0.0218   0.0045  -0.0153  -0.0081   0.00    1.2
2172 590117.000   -623612.4038  -5330303.2181   3435421.1590   2   8   0.0261   0.0347   0.0217   0.0044  -0.0152  -0.0080   0.00    1.2
2172 590118.000   -623612.3942  -5330303.2110   3435421.1443   2   8   0.0259   0.0345   0.0217   0.0046  -0.0151  -0.0080   0.00    1.2
2172 590119.000   -623612.3962  -5330303.2178   3435421.1498   2   8   0.0260   0.0344   0.0216   0.0038  -0.0151  -0.0080   0.00    1.2
2172 590120.000   -623612.3934  -5330303.2161   3435421.1477   2   8   0.0259   0.0343   0.0215   0.0036  -0.0150  -0.0079   0.00    1.2
2172 590121.000   -623612.3930  -5330303.2177   3435421.1498   2   8   0.0259   0.0341   0.0214   0.0037  -0.0149  -0.0080   0.00    1.2
2172 590122.000   -623612.3911  -5330303.2193   3435421.1529   2   8   0.0258   0.0339   0.0213   0.0036  -0.0148  -0.0079   0.00    1.2
2172 590123.000   -623612.3906  -5330303.2259   3435421.1546   2   8   0.0257   0.0338   0.0212   0.0033  -0.0148  -0.0080   0.00    1.2
2172 590124.000   -623612.3920  -5330303.2255   3435421.1531   2   8   0.0256   0.0337   0.0212   0.0029  -0.0147  -0.0079   0.00    1.2
2172 590125.000   -623612.3910  -5330303.2293   3435421.1555   2   8   0.0255   0.0335   0.0210   0.0029  -0.0146  -0.0079   0.00    1.2
2172 590126.000   -623612.3885  -5330303.2319   3435421.1578   2   8   0.0256   0.0334   0.0209   0.0025  -0.0145  -0.0079   0.00    1.2
2172 590127.000   -623612.3886  -5330303.2322   3435421.1575   2   8   0.0255   0.0332   0.0209   0.0021  -0.0145  -0.0079   0.00    1.2
2172 590128.000   -623612.3916  -5330303.2395   3435421.1606   2   8   0.0255   0.0331   0.0208   0.0014  -0.0144  -0.0079   0.00    1.2
2172 590129.000   -623612.3887  -5330303.2376   3435421.1577   2   8   0.0253   0.0330   0.0207   0.0014  -0.0144  -0.0080   0.00    1.2
2172 590130.000   -623612.3892  -5330303.2405   3435421.1567   2   8   0.0254   0.0328   0.0206   0.0012  -0.0143  -0.0079   0.00    1.2
2172 590131.000   -623612.3887  -5330303.2429   3435421.1584   2   8   0.0253   0.0327   0.0206  -0.0018  -0.0142  -0.0078   0.00    1.2
2172 590132.000   -623612.3898  -5330303.2491   3435421.1583   2   8   0.0252   0.0326   0.0205  -0.0020  -0.0142  -0.0078   0.00    1.2
2172 590133.000   -623612.3877  -5330303.2431   3435421.1553   2   8   0.0251   0.0324   0.0204  -0.0020  -0.0141  -0.0077   0.00    1.3
2172 590134.000   -623612.3875  -5330303.2442   3435421.1578   2   8   0.0253   0.0324   0.0203  -0.0027  -0.0140  -0.0077   0.00    1.3
2172 590135.000   -623612.3844  -5330303.2453   3435421.1556   2   8   0.0251   0.0322   0.0202  -0.0026  -0.0140  -0.0078   0.00    1.3
2172 590136.000   -623612.3842  -5330303.2431   3435421.1565   2   8   0.0249   0.0320   0.0202  -0.0025  -0.0139  -0.0078   0.00    1.3
2172 590137.000   -623612.3821  -5330303.2368   3435421.1538   2   8   0.0249   0.0319   0.0201  -0.0029  -0.0138  -0.0078   0.00    1.3
2172 590138.000   -623612.3803  -5330303.2394   3435421.1537   2   8   0.0250   0.0318   0.0201  -0.0032  -0.0138  -0.0078   0.00    1.3
2172 590139.000   -623612.3788  -5330303.2382   3435421.1562   2   8   0.0249   0.0317   0.0200  -0.0035  -0.0137  -0.0078   0.00    1.3
2172 590140.000   -623612.3755  -5330303.2305   3435421.1542   2   8   0.0248   0.0316   0.0199  -0.0035  -0.0136  -0.0078   0.00    1.3
2172 590141.000   -623612.3714  -5330303.2305   3435421.1527   2   8   0.0249   0.0315   0.0198  -0.0041  -0.0135  -0.0078   0.00    1.3
2172 590142.000   -623612.3729  -5330303.2335   3435421.1510   2   8   0.0248   0.0314   0.0198  -0.0038  -0.0135  -0.0077   0.00    1.3
2172 590143.000   -623612.3717  -5330303.2359   3435421.1501   2   8   0.0246   0.0312   0.0197  -0.0039  -0.0134  -0.0078   0.00    1.3
2172 590144.000   -623612.3684  -5330303.2302   3435421.1471   2   8   0.0246   0.0311   0.0196  -0.0041  -0.0134  -0.0078   0.00    1.3
2172 590145.000   -623612.3678  -5330303.2306   3435421.1439   2   8   0.0246   0.0310   0.0195  -0.0041  -0.0133  -0.0077   0.00    1.3
2172 590146.000   -623612.3662  -5330303.2259   3435421.1405   2   8   0.0244   0.0308   0.0194  -0.0041  -0.0132  -0.0077   0.00    1.3
2172 590147.000   -623612.3620  -5330303.2289   3435421.1395   2   8   0.0244   0.0307   0.0195  -0.0043  -0.0133  -0.0075   0.00    1.3
2172 590148.000   -623612.3630  -5330303.2239   3435421.1364   2   8   0.0244   0.0306   0.0193  -0.0046  -0.0131  -0.0077   0.00    1.3
2172 590149.000   -623612.3602  -5330303.2202   3435421.1346   2   8   0.0244   0.0305   0.0192  -0.0048  -0.0131  -0.0077   0.00    1.3
2172 590150.000   -623612.3585  -5330303.2228   3435421.1344   2   8   0.0244   0.0304   0.0192  -0.0049  -0.0130  -0.0077   0.00    1.3
2172 590151.000   -623612.3588  -5330303.2199   3435421.1329   2   8   0.0243   0.0303   0.0191  -0.0050  -0.0129  -0.0077   0.00    1.3
2172 590152.000   -623612.3574  -5330303.2169   3435421.1277   2   8   0.0242   0.0302   0.0189  -0.0049  -0.0129  -0.0076   0.00    1.3
2172 590153.000   -623612.3528  -5330303.2132   3435421.1263   2   8   0.0241   0.0300   0.0189  -0.0051  -0.0128  -0.0077   0.00    1.3
2172 590154.000   -623612.3518  -5330303.2069   3435421.1208   2   8   0.0242   0.0299   0.0189  -0.0052  -0.0128  -0.0075   0.00    1.3
2172 590155.000   -623612.3509  -5330303.2077   3435421.1186   2   8   0.0241   0.0298   0.0188  -0.0052  -0.0127  -0.0076   0.00    1.3
2172 590156.000   -623612.3494  -5330303.2031   3435421.1182   2   8   0.0240   0.0297   0.0188  -0.0052  -0.0127  -0.0076   0.00    1.3
2172 590157.000   -623612.3476  -5330303.1999   3435421.1127   2   8   0.0239   0.0296   0.0187  -0.0054  -0.0126  -0.0077   0.00    1.3
2172 590158.000   -623612.3453  -5330303.2022   3435421.1126   2   8   0.0240   0.0295   0.0187  -0.0057  -0.0125  -0.0078   0.00    1.3
2172 590159.000   -623612.3480  -5330303.2009   3435421.1088   2   8   0.0239   0.0294   0.0185  -0.0057  -0.0126  -0.0076   0.00    1.3
2172 590160.000   -623612.3449  -5330303.1985   3435421.1059   2   8   0.0239   0.0293   0.0185  -0.0058  -0.0125  -0.0076   0.00    1.3
2172 590161.000   -623612.3456  -5330303.1934   3435421.1023   2   8   0.0237   0.0292   0.0184  -0.0057  -0.0124  -0.0075   0.00    1.3
2172 590162.000   -623612.3433  -5330303.1881   3435421.1002   2   8   0.0238   0.0291   0.0183  -0.0059  -0.0124  -0.0076   0.00    1.3
2172 590163.000   -623612.3422  -5330303.1890   3435421.0969   2   8   0.0237   0.0290   0.0182  -0.0059  -0.0124  -0.0076   0.00    1.3
2172 590164.000   -623612.3365  -5330303.1808   3435421.0944   2   8   0.0237   0.0289   0.0182  -0.0060  -0.0122  -0.0075   0.00    1.3
2172 590165.000   -623612.3331  -5330303.1670   3435421.0867   2   8   0.0237   0.0288   0.0184  -0.0059  -0.0122  -0.0070   0.00    1.0
2172 590166.000   -623612.3289  -5330303.1691   3435421.0920   2   8   0.0236   0.0287   0.0182  -0.0062  -0.0121  -0.0073   0.00    1.0
2172 590167.000   -623612.3293  -5330303.1715   3435421.1005   2   8   0.0234   0.0286   0.0181  -0.0060  -0.0121  -0.0075   0.00    1.0
2172 590168.000   -623612.3266  -5330303.1636   3435421.1007   2   8   0.0235   0.0285   0.0180  -0.0061  -0.0120  -0.0074   0.00    1.0
2172 590169.000   -623612.3268  -5330303.1712   3435421.1108   2   8   0.0235   0.0284   0.0179  -0.0062  -0.0120  -0.0073   0.00    1.0
2172 590170.000   -623612.3263  -5330303.1689   3435421.1120   2   8   0.0234   0.0283   0.0178  -0.0062  -0.0119  -0.0074   0.00    1.0
2172 590171.000   -623612.3261  -5330303.1705   3435421.1209   2   8   0.0234   0.0282   0.0178  -0.0064  -0.0119  -0.0074   0.00    1.0
2172 590172.000   -623612.3262  -5330303.1733   3435421.1265   2   8   0.0232   0.0281   0.0177  -0.0062  -0.0118  -0.0075   0.00    1.0
2172 590173.000   -623612.3261  -5330303.1724   3435421.1310   2   8   0.0232   0.0280   0.0176  -0.0063  -0.0118  -0.0075   0.00    1.0
2172 590174.000   -623612.3226  -5330303.1740   3435421.1386   2   8   0.0233   0.0279   0.0176  -0.0063  -0.0117  -0.0075   0.00    1.0
2172 590175.000   -623612.3423  -5330303.1866   3435421.1438   2   8   0.0232   0.0278   0.0176  -0.0065  -0.0118  -0.0076   0.00    1.0
2172 590176.000   -623612.3442  -5330303.1939   3435421.1508   2   8   0.0231   0.0277   0.0175  -0.0065  -0.0117  -0.0075   0.00    1.1
2172 590177.000   -623612.3468  -5330303.2000   3435421.1587   2   8   0.0231   0.0276   0.0174  -0.0068  -0.0117  -0.0076   0.00    1.1
2172 590178.000   -623612.3472  -5330303.2065   3435421.1653   2   8   0.0230   0.0276   0.0173  -0.0067  -0.0115  -0.0075   0.00    1.1
2172 590179.000   -623612.3482  -5330303.2150   3435421.1709   2   8   0.0230   0.0275   0.0173  -0.0066  -0.0115  -0.0075   0.00    1.1
2172 590180.000   -623612.3476  -5330303.2128   3435421.1750   2   8   0.0230   0.0274   0.0173  -0.0067  -0.0114  -0.0074   0.00    1.1
2172 590181.000   -623612.3443  -5330303.2216   3435421.1809   2   8   0.0230   0.0273   0.0172  -0.0068  -0.0115  -0.0074   0.00    1.1
2172 590182.000   -623612.3406  -5330303.2128   3435421.1837   2   8   0.0230   0.0273   0.0171  -0.0070  -0.0114  -0.0074   0.00    1.1
2172 590183.000   -623612.3398  -5330303.2114   3435421.1893   2   8   0.0228   0.0271   0.0171  -0.0068  -0.0114  -0.0073   0.00    1.1
2172 590184.000   -623612.3381  -5330303.2137   3435421.1976   2   8   0.0228   0.0270   0.0170  -0.0068  -0.0113  -0.0074   0.00    1.1
2172 590185.000   -623612.3359  -5330303.2133   3435421.2022   2   8   0.0228   0.0269   0.0170  -0.0069  -0.0113  -0.0073   0.00    1.1
2172 590186.000   -623612.3359  -5330303.2177   3435421.2082   2   8   0.0228   0.0268   0.0170  -0.0068  -0.0111  -0.0075   0.00    1.1
2172 590187.000   -623612.3336  -5330303.2194   3435421.2134   2   8   0.0227   0.0268   0.0169  -0.0071  -0.0112  -0.0074   0.00    1.1
2172 590188.000   -623612.3369  -5330303.2229   3435421.2157   2   8   0.0227   0.0267   0.0168  -0.0070  -0.0111  -0.0074   0.00    1.1
2172 590189.000   -623612.3312  -5330303.2201   3435421.2198   2   8   0.0226   0.0266   0.0167  -0.0072  -0.0111  -0.0073   0.00    1.1
2172 590190.000   -623612.3348  -5330303.2269   3435421.2262   2   8   0.0225   0.0265   0.0167  -0.0071  -0.0111  -0.0074   0.00    1.1
2172 590191.000   -623612.3354  -5330303.2296   3435421.2325   2   8   0.0225   0.0264   0.0167  -0.0071  -0.0110  -0.0073   0.00    1.1
2172 590192.000   -623612.3339  -5330303.2265   3435421.2356   2   8   0.0225   0.0264   0.0166  -0.0071  -0.0110  -0.0074   0.00    1.1
2172 590193.000   -623612.3337  -5330303.2324   3435421.2403   2   8   0.0224   0.0263   0.0165  -0.0071  -0.0110  -0.0073   0.00    1.1
2172 590194.000   -623612.3344  -5330303.2310   3435421.2430   2   8   0.0224   0.0262   0.0165  -0.0072  -0.0109  -0.0073   0.00    1.1
2172 590195.000   -623612.3329  -5330303.2302   3435421.2464   2   8   0.0224   0.0261   0.0164  -0.0072  -0.0109  -0.0072   0.00    1.1
2172 590196.000   -623612.3300  -5330303.2318   3435421.2494   2   8   0.0224   0.0261   0.0163  -0.0073  -0.0108  -0.0073   0.00    1.1
2172 590197.000   -623612.3315  -5330303.2264   3435421.2537   2   8   0.0223   0.0259   0.0163  -0.0072  -0.0108  -0.0073   0.00    1.1
2172 590198.000   -623612.3292  -5330303.2259   3435421.2563   2   8   0.0223   0.0259   0.0163  -0.0073  -0.0107  -0.0073   0.00    1.1
2172 590199.000   -623612.3287  -5330303.2279   3435421.2590   2   8   0.0222   0.0258   0.0162  -0.0075  -0.0107  -0.0074   0.00    1.1
2172 590200.000   -623612.3268  -5330303.2242   3435421.2628   2   8   0.0222   0.0258   0.0162  -0.0074  -0.0107  -0.0073   0.00    1.1
2172 590201.000   -623612.3255  -5330303.2249   3435421.2664   2   8   0.0221   0.0256   0.0161  -0.0074  -0.0106  -0.0074   0.00    1.1
2172 590202.000   -623612.3249  -5330303.2296   3435421.2679   2   8   0.0221   0.0256   0.0161  -0.0074  -0.0106  -0.0073   0.00    1.1
2172 590203.000   -623612.3235  -5330303.2266   3435421.2704   2   8   0.0221   0.0255   0.0161  -0.0074  -0.0105  -0.0074   0.00    1.1
2172 590204.000   -623612.3219  -5330303.2240   3435421.2727   2   8   0.0220   0.0254   0.0160  -0.0074  -0.0105  -0.0073   0.00    1.1
2172 590205.000   -623612.3220  -5330303.2242   3435421.2756   2   8   0.0220   0.0254   0.0158  -0.0076  -0.0105  -0.0072   0.00    1.1
2172 590206.000   -623612.3210  -5330303.2212   3435421.2765   2   8   0.0220   0.0253   0.0160  -0.0076  -0.0104  -0.0072   0.00    1.1
2172 590207.000   -623612.3175  -5330303.2144   3435421.2792   2   8   0.0219   0.0252   0.0158  -0.0075  -0.0103  -0.0072   0.00    1.1
2172 590208.000   -623612.3140  -5330303.2139   3435421.2821   2   8   0.0218   0.0251   0.0158  -0.0074  -0.0103  -0.0072   0.00    1.1
2172 590209.000   -623612.3146  -5330303.2125   3435421.2814   2   8   0.0219   0.0251   0.0157  -0.0076  -0.0103  -0.0072   0.00    1.1
2172 590210.000   -623612.3109  -5330303.2074   3435421.2838   2   8   0.0218   0.0250   0.0157  -0.0075  -0.0103  -0.0073   0.00    1.1
2172 590211.000   -623612.3080  -5330303.2109   3435421.2868   2   8   0.0218   0.0249   0.0157  -0.0075  -0.0102  -0.0074   0.00    1.1
2172 590212.000   -623612.3107  -5330303.2098   3435421.2885   2   8   0.0216   0.0248   0.0156  -0.0072  -0.0102  -0.0073   0.00    1.1
2172 590213.000   -623612.3081  -5330303.2059   3435421.2874   2   8   0.0217   0.0248   0.0156  -0.0077  -0.0102  -0.0072   0.00    1.1
2172 590214.000   -623612.3070  -5330303.2085   3435421.2907   2   8   0.0216   0.0247   0.0155  -0.0076  -0.0101  -0.0073   0.00    1.1
2172 590215.000   -623612.3063  -5330303.2086   3435421.2932   2   8   0.0217   0.0247   0.0154  -0.0077  -0.0101  -0.0072   0.00    1.1
2172 590216.000   -623612.3054  -5330303.2091   3435421.2946   2   8   0.0216   0.0246   0.0155  -0.0076  -0.0100  -0.0073   0.00    1.1
2172 590217.000   -623612.3051  -5330303.2039   3435421.2925   2   8   0.0215   0.0245   0.0153  -0.0076  -0.0100  -0.0070   0.00    1.1
2172 590218.000   -623612.3029  -5330303.1976   3435421.2923   2   8   0.0217   0.0245   0.0154  -0.0078  -0.0099  -0.0072   0.00    1.1
2172 590219.000   -623612.2986  -5330303.1984   3435421.2910   2   8   0.0215   0.0244   0.0153  -0.0077  -0.0100  -0.0073   0.00    1.1
2172 590220.000   -623612.2993  -5330303.1975   3435421.2945   2   8   0.0215   0.0243   0.0152  -0.0078  -0.0100  -0.0073   0.00    1.1
2172 590221.000   -623612.3043  -5330303.1905   3435421.2858   2   8   0.0215   0.0242   0.0152  -0.0078  -0.0099  -0.0073   0.00    1.1
2172 590222.000   -623612.2987  -5330303.1877   3435421.2901   2   8   0.0214   0.0242   0.0152  -0.0079  -0.0099  -0.0071   0.00    1.1
2172 590223.000   -623612.3020  -5330303.1899   3435421.2903   2   8   0.0214   0.0241   0.0151  -0.0079  -0.0099  -0.0071   0.00    1.1
2172 590224.000   -623612.3013  -5330303.1916   3435421.2919   2   8   0.0213   0.0240   0.0151  -0.0079  -0.0098  -0.0072   0.00    1.1
2172 590225.000   -623612.3019  -5330303.1904   3435421.2937   2   8   0.0213   0.0240   0.0150  -0.0079  -0.0097  -0.0071   0.00    1.1
2172 590226.000   -623612.3022  -5330303.1921   3435421.2960   2   8   0.0212   0.0239   0.0150  -0.0078  -0.0097  -0.0072   0.00    1.1
2172 590227.000   -623612.3064  -5330303.1920   3435421.2981   2   8   0.0212   0.0238   0.0149  -0.0078  -0.0097  -0.0073   0.00    1.1
2172 590228.000   -623612.3017  -5330303.1903   3435421.2928   2   8   0.0213   0.0238   0.0149  -0.0079  -0.0097  -0.0071   0.00    1.1
2172 590229.000   -623612.3022  -5330303.1912   3435421.2982   2   8   0.0212   0.0237   0.0148  -0.0079  -0.0097  -0.0070   0.00    1.1
2172 590230.000   -623612.3016  -5330303.1942   3435421.2994   2   8   0.0211   0.0237   0.0148  -0.0077  -0.0097  -0.0072   0.00    1.1
2172 590231.000   -623612.3021  -5330303.1905   3435421.3010   2   8   0.0211   0.0236   0.0148  -0.0079  -0.0096  -0.0071   0.00    1.1
2172 590232.000   -623612.2997  -5330303.1876   3435421.3004   2   8   0.0212   0.0235   0.0148  -0.0080  -0.0095  -0.0072   0.00    1.1
2172 590233.000   -623612.3003  -5330303.1884   3435421.3018   2   8   0.0212   0.0235   0.0146  -0.0079  -0.0095  -0.0073   0.00    1.1
2172 590234.000   -623612.2976  -5330303.1898   3435421.3029   2   8   0.0210   0.0234   0.0146  -0.0080  -0.0095  -0.0071   0.00    1.1
2172 590235.000   -623612.2956  -5330303.1827   3435421.2985   2   8   0.0210   0.0234   0.0146  -0.0079  -0.0095  -0.0070   0.00    1.1
2172 590236.000   -623612.2939  -5330303.1833   3435421.3002   2   8   0.0210   0.0233   0.0146  -0.0080  -0.0094  -0.0068   0.00    1.1
2172 590237.000   -623612.2962  -5330303.1810   3435421.3024   2   8   0.0209   0.0232   0.0146  -0.0080  -0.0094  -0.0071   0.00    1.1
2172 590238.000   -623612.2950  -5330303.1822   3435421.3045   2   8   0.0210   0.0232   0.0146  -0.0081  -0.0093  -0.0070   0.00    1.1
2172 590239.000   -623612.2938  -5330303.1789   3435421.3015   2   8   0.0209   0.0231   0.0145  -0.0081  -0.0093  -0.0071   0.00    1.1
2172 590240.000   -623612.3083  -5330303.1984   3435421.2957   2   8   0.0209   0.0231   0.0144  -0.0083  -0.0093  -0.0070   0.00    1.1
2172 590241.000   -623612.3107  -5330303.2022   3435421.2968   2   8   0.0207   0.0230   0.0144  -0.0080  -0.0093  -0.0071   0.00    1.1
2172 590242.000   -623612.3109  -5330303.1976   3435421.2959   2   8   0.0208   0.0230   0.0144  -0.0082  -0.0093  -0.0071   0.00    1.1
2172 590243.000   -623612.3082  -5330303.1971   3435421.2968   2   8   0.0207   0.0229   0.0143  -0.0080  -0.0092  -0.0071   0.00    1.1
2172 590244.000   -623612.3084  -5330303.1970   3435421.2947   2   8   0.0207   0.0229   0.0144  -0.0082  -0.0092  -0.0070   0.00    1.1
2172 590245.000   -623612.3091  -5330303.1894   3435421.2956   2   8   0.0208   0.0228   0.0143  -0.0082  -0.0091  -0.0069   0.00    1.1
2172 590246.000   -623612.3072  -5330303.1909   3435421.2992   2   8   0.0206   0.0227   0.0142  -0.0081  -0.0092  -0.0071   0.00    1.1
2172 590247.000   -623612.3033  -5330303.1870   3435421.2958   2   8   0.0207   0.0227   0.0142  -0.0080  -0.0091  -0.0070   0.00    1.1
2172 590248.000   -623612.3077  -5330303.1921   3435421.2987   2   8   0.0205   0.0226   0.0142  -0.0080  -0.0091  -0.0070   0.00    1.1
2172 590249.000   -623612.3040  -5330303.1812   3435421.2975   2   8   0.0206   0.0226   0.0140  -0.0082  -0.0091  -0.0069   0.00    1.1
2172 590250.000   -623612.3056  -5330303.1799   3435421.2958   2   8   0.0205   0.0226   0.0140  -0.0082  -0.0091  -0.0070   0.00    1.1
2172 590251.000   -623612.3074  -5330303.1857   3435421.2982   2   8   0.0207   0.0225   0.0140  -0.0083  -0.0090  -0.0070   0.00    1.1
2172 590252.000   -623612.3044  -5330303.1782   3435421.3000   2   8   0.0204   0.0224   0.0139  -0.0080  -0.0089  -0.0071   0.00    1.1
2172 590253.000   -623612.3039  -5330303.1781   3435421.2986   2   8   0.0205   0.0224   0.0140  -0.0081  -0.0089  -0.0070   0.00    1.1
2172 590254.000   -623612.3059  -5330303.1816   3435421.2999   2   8   0.0204   0.0223   0.0139  -0.0082  -0.0088  -0.0070   0.00    1.1
2172 590255.000   -623612.3029  -5330303.1782   3435421.2987   2   8   0.0204   0.0222   0.0138  -0.0083  -0.0089  -0.0070   0.00    1.0
2172 590256.000   -623612.3035  -5330303.1750   3435421.2993   2   8   0.0204   0.0222   0.0138  -0.0082  -0.0089  -0.0069   0.00    1.0
2172 590257.000   -623612.3024  -5330303.1707   3435421.2966   2   8   0.0205   0.0221   0.0137  -0.0083  -0.0089  -0.0070   0.00    1.0
2172 590258.000   -623612.3023  -5330303.1709   3435421.2963   2   8   0.0202   0.0221   0.0138  -0.0082  -0.0088  -0.0071   0.00    1.0
2172 590259.000   -623612.3011  -5330303.1713   3435421.2972   2   8   0.0203   0.0220   0.0137  -0.0082  -0.0088  -0.0071   0.00    1.0
2172 590260.000   -623612.3012  -5330303.1662   3435421.2973   2   8   0.0203   0.0220   0.0136  -0.0083  -0.0088  -0.0070   0.00    1.0
2172 590261.000   -623612.3021  -5330303.1666   3435421.2977   2   8   0.0202   0.0219   0.0137  -0.0083  -0.0087  -0.0069   0.00    1.0
2172 590262.000   -623612.2984  -5330303.1557   3435421.2906   2   8   0.0201   0.0219   0.0137  -0.0081  -0.0087  -0.0070   0.00    1.0
2172 590263.000   -623612.2980  -5330303.1586   3435421.2916   2   8   0.0201   0.0218   0.0135  -0.0081  -0.0087  -0.0070   0.00    1.0
2172 590264.000   -623612.2952  -5330303.1524   3435421.2927   2   8   0.0201   0.0217   0.0136  -0.0081  -0.0087  -0.0069   0.00    1.0
2172 590265.000   -623612.2955  -5330303.1476   3435421.2912   2   8   0.0202   0.0217   0.0136  -0.0083  -0.0087  -0.0069   0.00    1.0
2172 590266.000   -623612.2944  -5330303.1507   3435421.2895   2   8   0.0201   0.0217   0.0135  -0.0083  -0.0086  -0.0071   0.00    1.0
2172 590267.000   -623612.2947  -5330303.1487   3435421.2896   2   8   0.0200   0.0216   0.0134  -0.0081  -0.0086  -0.0070   0.00    1.0
2172 590268.000   -623612.2945  -5330303.1486   3435421.2881   2   8   0.0200   0.0216   0.0134  -0.0083  -0.0086  -0.0069   0.00    1.0
2172 590269.000   -623612.2979  -5330303.1500   3435421.2893   2   8   0.0200   0.0215   0.0135  -0.0082  -0.0085  -0.0068   0.00    1.0
2172 590270.000   -623612.2936  -5330303.1457   3435421.2885   2   8   0.0200   0.0215   0.0133  -0.0083  -0.0085  -0.0069   0.00    1.0
2172 590271.000   -623612.2957  -5330303.1440   3435421.2846   2   8   0.0199   0.0214   0.0133  -0.0082  -0.0085  -0.0069   0.00    1.0
2172 590272.000   -623612.2939  -5330303.1430   3435421.2835   2   8   0.0199   0.0214   0.0134  -0.0083  -0.0085  -0.0069   0.00    1.0
2172 590273.000   -623612.2951  -5330303.1409   3435421.2820   2   8   0.0199   0.0214   0.0133  -0.0083  -0.0085  -0.0069   0.00    1.0
2172 590274.000   -623612.2951  -5330303.1403   3435421.2829   2   8   0.0199   0.0213   0.0132  -0.0084  -0.0084  -0.0069   0.00    1.0
2172 590275.000   -623612.2939  -5330303.1379   3435421.2805   2   8   0.0198   0.0213   0.0132  -0.0083  -0.0084  -0.0068   0.00    1.0
2172 590276.000   -623612.2924  -5330303.1304   3435421.2787   2   8   0.0199   0.0213   0.0132  -0.0085  -0.0083  -0.0069   0.00    1.0
2172 590277.000   -623612.2975  -5330303.1305   3435421.2726   2   8   0.0198   0.0212   0.0131  -0.0084  -0.0083  -0.0070   0.00    1.0
2172 590278.000   -623612.2994  -5330303.1294   3435421.2735   2   8   0.0198   0.0211   0.0131  -0.0085  -0.0084  -0.0068   0.00    1.0
2172 590279.000   -623612.2977  -5330303.1290   3435421.2724   2   8   0.0196   0.0211   0.0131  -0.0082  -0.0083  -0.0069   0.00    1.0
2172 590280.000   -623612.3010  -5330303.1282   3435421.2706   2   8   0.0198   0.0211   0.0130  -0.0084  -0.0084  -0.0068   0.00    1.0
2172 590281.000   -623612.3057  -5330303.1370   3435421.2704   2   8   0.0196   0.0210   0.0129  -0.0082  -0.0083  -0.0069   0.00    1.0
2172 590282.000   -623612.3057  -5330303.1371   3435421.2721   2   8   0.0198   0.0210   0.0130  -0.0085  -0.0082  -0.0068   0.00    1.0
2172 590283.000   -623612.3066  -5330303.1389   3435421.2699   2   8   0.0196   0.0209   0.0129  -0.0084  -0.0082  -0.0068   0.00    1.0
2172 590284.000   -623612.3096  -5330303.1433   3435421.2694   2   8   0.0197   0.0209   0.0128  -0.0085  -0.0082  -0.0069   0.00    1.0
2172 590285.000   -623612.3071  -5330303.1408   3435421.2694   2   8   0.0196   0.0208   0.0129  -0.0084  -0.0082  -0.0069   0.00    1.0
2172 590286.000   -623612.3078  -5330303.1413   3435421.2682   2   8   0.0196   0.0207   0.0128  -0.0083  -0.0082  -0.0069   0.00    1.0
2172 590287.000   -623612.3119  -5330303.1403   3435421.2675   2   8   0.0194   0.0207   0.0129  -0.0083  -0.0082  -0.0068   0.00    1.0
