     2.11           OBSERVATION DATA    M (MIXED)           RINEX VERSION / TYPE
CONVBIN 2.4.3                           20210831 165226 UTC PGM / RUN BY / DATE 
log: logs/21_08_31_07_17_52_txlm_SNTX.rtcm                  COMMENT             
format: RTCM 3, station ID: 3926                            COMMENT             
3926                                                        MARKER NAME         
                                                            MARKER NUMBER       
                                                            OBSERVER / AGENCY   
1701199             LEICA GR10          4.50                REC # / TYPE / VERS 
                    GPPNULLANTENNA                          ANT # / TYPE        
  -487017.6916 -5540267.5675  3111851.2058                  APPROX POSITION XYZ 
        0.0000        0.0000        0.0000                  ANTENNA: DELTA H/E/N
     1     1                                                WAVELENGTH FACT L1/2
     7    C1    L1    C2    L2    P2    C5    L5            # / TYPES OF OBSERV 
  2021     8    31     7    17   59.0000000     GPS         TIME OF FIRST OBS   
  2021     8    31     7    47   56.0000000     GPS         TIME OF LAST OBS    
                                                            END OF HEADER       
 21  8 31  7 17 59.0000000  0 19G 1G 4G 7G 8G 9G14G17G21G27G30R 1R 2
                                R12R21R22E 1E 4E26E31
  23333950.110   122620735.201    23333948.412    95548616.708    23333948.090  
  23333948.805    91567426.343  
  24143867.078   126876877.320    24143863.701    98865083.549    24143863.182  
  24143868.364    94745724.694  
  20464705.189   107542751.338    20464700.167    83799523.775    20464699.596  
                                
  21718055.131   114129149.961    21718053.237    88931793.324    21718052.236  
  21718052.558    85226302.648  
  21993005.555   115574024.406    21993002.982    90057668.443    21993002.446  
  21993004.269    86305272.708  
  22784119.933   119731357.942    22784115.770    93297142.487    22784115.144  
  22784120.755    89409783.285  
  23301839.958   122451995.684    23301835.330    95417116.429    23301834.543  
                                
  22578868.455   118652754.418                    92456666.718    22578862.380  
                                
  24266971.548   127523796.044    24266968.957    99369177.875    24266968.242  
  24266969.279    95228798.847  
  22000092.606   115611266.465    22000090.176    90086687.193    22000089.140  
  22000090.980    86333082.498  
  23008654.893   122994446.506    23008655.464    95662349.639    23008654.732  
                                
  21587656.651   115195872.157    21587656.633    89596789.034    21587656.008  
                                
  21011761.020   112241055.689    21011760.627    87298597.442    21011759.198  
                                
  20817516.842   111398737.241    20817514.788    86643454.167    20817513.555  
                                
  20345460.338   108605449.065    20345459.838    84470902.593    20345458.015  
                                
  24838036.413   130524762.829                                                  
  24838036.592    97469790.109  
  25058520.554   131683414.430                                                  
  25058520.840    98335017.484  
  25176685.062   132304373.356                                                  
  25176687.313    98798728.167  
  24973927.563   131238875.202                                                  
  24973929.064    98003061.877  
 21  8 31  7 18  0.0000000  0 19G 1G 4G 7G 8G 9G14G17G21G27G30R 1R 2
                                R12R21R22E 1E 4E26E31
  23333392.757   122617806.290    23333391.077    95546334.435    23333390.738  
  23333391.452    91565239.156  
  24144568.133   126880561.267    24144564.720    98867954.158    24144564.202  
  24144569.384    94748475.693  
  20464508.147   107541715.827    20464503.126    83798716.881    20464502.536  
                                
  21718546.922   114131734.256    21718545.010    88933807.063    21718544.010  
  21718544.331    85228232.479  
  21993542.680   115576847.011    21993540.107    90059867.871    21993539.571  
  21993541.394    86307380.495  
  22783789.178   119729619.789    22783785.014    93295788.079    22783784.389  
  22783789.982    89408485.307  
  23301204.517   122448656.381    23301199.889    95414514.371    23301199.103  
                                
  22578642.019   118651564.487                    92455739.495    22578635.961  
                                
  24267661.542   127527421.969    24267658.951    99372003.271    24267658.219  
  24267659.237    95231506.503  
  21999625.063   115608809.451    21999622.615    90084772.637    21999621.561  
  21999623.401    86331247.710  
  23009350.891   122998167.037    23009351.481    95665243.388    23009350.730  
                                
  21587857.052   115196941.500    21587857.034    89597620.747    21587856.426  
                                
  21011503.939   112239682.494    21011503.545    87297529.402    21011502.134  
                                
  20817729.931   111399877.543    20817727.876    86644341.065    20817726.643  
                                
  20344963.097   108602794.817    20344962.614    84468838.178    20344960.774  
                                
  24838179.651   130525515.518                                                  
  24838179.830    97470352.182  
  25058886.065   131685335.193                                                  
  25058886.369    98336451.814  
  25176539.036   132303606.033                                                  
  25176541.305    98798155.159  
  24973781.698   131238108.771                                                  
  24973783.217    98002489.544  
 21  8 31  7 18  1.0000000  0 19G 1G 4G 7G 8G 9G14G17G21G27G30R 1R 2
                                R12R21R22E 1E 4E26E31
  23332835.422   122614877.411    23332833.724    95544052.189    23332833.403  
  23332834.100    91563052.009  
  24145269.135   126884245.165    24145265.758    98870824.728    24145265.239  
  24145270.421    94751226.649  
  20464311.159   107540680.556    20464306.120    83797910.177    20464305.530  
                                
  21719038.749   114134318.883    21719036.855    88935821.061    21719035.855  
  21719036.176    85230162.553  
  21994079.877   115579669.894    21994077.286    90062067.525    21994076.750  
  21994078.572    86309488.489  
  22783458.422   119727881.700    22783454.277    93294433.720    22783453.651  
  22783459.262    89407187.397  
  23300569.113   122445317.246    23300564.449    95411912.447    23300563.698  
                                
  22578415.636   118650374.911                    92454812.553    22578409.579  
                                
  24268351.537   127531047.923    24268348.928    99374828.692    24268348.213  
  24268349.232    95234214.211  
  21999157.520   115606352.505    21999155.054    90082858.134    21999154.036  
  21999155.876    86329412.984  
  23010046.889   123001887.548    23010047.461    95668137.121    23010046.729  
                                
  21588057.578   115198011.534    21588057.560    89598452.991    21588056.935  
                                
  21011246.857   112238309.231    21011246.464    87296461.309    21011245.070  
                                
  20817943.179   111401018.621    20817941.125    86645228.573    20817939.892  
                                
  20344465.980   108600141.207    20344465.498    84466774.259    20344463.675  
                                
  24838322.872   130526268.140                                                  
  24838323.050    97470914.200  
  25059251.612   131687256.174                                                  
  25059251.916    98337886.312  
  25176393.100   132302839.054                                                  
  25176395.333    98797582.421  
  24973635.834   131237342.302                                                  
  24973637.370    98001917.179  
 21  8 31  7 18  2.0000000  0 19G 1G 4G 7G 8G 9G14G17G21G27G30R 1R 2
                                R12R21R22E 1E 4E26E31
  23332278.034   122611948.297    23332276.336    95541769.763    23332276.014  
  23332276.711    91560864.681  
  24145970.101   126887928.755    24145966.724    98873695.053    24145966.206  
  24145971.388    94753977.369  
  20464114.135   107539645.298    20464109.114    83797103.482    20464108.542  
                                
  21719530.594   114136903.563    21719528.718    88937835.095    21719527.717  
  21719528.003    85232092.665  
  21994617.055   115582492.772    21994614.464    90064267.167    21994613.928  
  21994615.751    86311596.475  
  22783127.649   119726143.468    22783123.485    93293079.256    22783122.878  
  22783128.489    89405889.356  
  23299933.672   122441978.029    23299929.027    95409310.466    23299928.240  
                                
  22578189.307   118649185.433                    92453885.686    22578183.214  
                                
  24269041.496   127534673.678    24269038.905    99377653.955    24269038.172  
  24269039.208    95236921.755  
  21998689.942   115603895.377    21998687.494    90080943.486    21998686.457  
  21998688.298    86327578.109  
  23010742.834   123005607.772    23010743.406    95671030.630    23010742.674  
                                
  21588258.176   115199081.977    21588258.158    89599285.560    21588257.550  
                                
  21010989.722   112236935.619    21010989.329    87295392.948    21010987.899  
                                
  20818156.500   111402160.219    20818154.463    86646116.476    20818153.230  
                                
  20343968.936   108597487.894    20343968.435    84464710.574    20343966.613  
                                
  24838466.020   130527020.427                                                  
  24838466.199    97471475.971  
  25059617.141   131689177.117                                                  
  25059617.444    98339320.785  
  25176247.164   132302072.159                                                  
  25176249.397    98797009.729  
  24973489.933   131236575.510                                                  
  24973491.470    98001344.568  
 21  8 31  7 18  3.0000000  0 19G 1G 4G 7G 8G 9G14G17G21G27G30R 1R 2
                                R12R21R22E 1E 4E26E31
  23331720.663   122609019.266    23331718.948    95539487.396    23331718.644  
  23331719.341    91558677.418  
  24146671.085   126891612.333    24146667.708    98876565.357    24146667.189  
  24146672.371    94756728.088  
  20463917.200   107538610.332    20463912.179    83796297.006    20463911.589  
                                
  21720022.511   114139488.586    21720020.634    88939849.398    21720019.634  
  21720019.920    85234023.048  
  21995154.269   115585315.967    21995151.696    90066467.055    21995151.160  
  21995152.983    86313704.712  
  22782796.911   119724405.347    22782792.730    93291724.876    22782792.122  
  22782797.733    89404591.411  
  23299298.286   122438638.999    23299293.622    95406708.620    23299292.854  
                                
  22577963.014   118647996.365                    92452959.138    22577956.956  
                                
  24269731.472   127538299.514    24269728.881    99380479.278    24269728.166  
  24269729.185    95239629.376  
  21998222.399   115601438.351    21998219.951    90079028.912    21998218.914  
  21998220.755    86325743.331  
  23011438.779   123009328.005    23011439.369    95673924.143    23011438.618  
                                
  21588458.898   115200153.134    21588458.898    89600118.676    21588458.291  
                                
  21010732.586   112235562.037    21010732.193    87294324.602    21010730.782  
                                
  20818370.017   111403302.651    20818367.962    86647005.029    20818366.729  
                                
  20343471.998   108594835.247    20343471.516    84462647.397    20343469.693  
                                
  24838609.169   130527772.661                                                  
  24838609.348    97472037.710  
  25059982.741   131691098.312                                                  
  25059983.045    98340755.446  
  25176101.299   132301305.643                                                  
  25176103.532    98796437.346  
  24973344.015   131235808.706                                                  
  24973345.533    98000771.966  
 21  8 31  7 18  4.0000000  0 19G 1G 4G 7G 8G 9G14G17G21G27G30R 1R 2
                                R12R21R22E 1E 4E26E31
  23331163.275   122606090.311    23331161.595    95537205.094    23331161.291  
  23331161.988    91556490.207  
  24147372.033   126895295.875    24147368.656    98879435.650    24147368.138  
  24147373.337    94759478.797  
  20463720.319   107537575.707    20463715.280    83795490.805    20463714.709  
                                
  21720514.498   114142073.979    21720512.622    88941863.986    21720511.604  
  21720511.925    85235953.696  
  21995691.573   115588139.466    21995689.000    90068667.182    21995688.464  
  21995690.287    86315813.158  
  22782466.191   119722667.367    22782462.010    93290370.597    22782461.384  
  22782467.013    89403293.555  
  23298662.935   122435300.166    23298658.271    95404106.926    23298657.520  
                                
  22577736.828   118646807.687                    92452032.898    22577730.770  
                                
  24270421.467   127541925.468    24270418.876    99383304.697    24270418.143  
  24270419.162    95242337.062  
  21997754.873   115598981.449    21997752.408    90077114.445    21997751.389  
  21997753.230    86323908.618  
  23012134.724   123013048.232    23012135.296    95676817.648    23012134.563  
                                
  21588659.782   115201225.004    21588659.782    89600952.352    21588659.157  
                                
  21010475.451   112234188.482    21010475.040    87293256.279    21010473.646  
                                
  20818583.659   111404445.958    20818581.640    86647894.268    20818580.371  
                                
  20342975.204   108592183.276    20342974.703    84460584.755    20342972.881  
                                
  24838752.300   130528524.883                                                  
  24838752.497    97472599.428  
  25060348.413   131693019.792                                                  
  25060348.698    98342190.310  
  25175955.505   132300539.543                                                  
  25175957.757    98795865.241  
  24973198.096   131235041.903                                                  
  24973199.615    98000199.348  
 21  8 31  7 18  5.0000000  0 19G 1G 4G 7G 8G 9G14G17G21G27G30R 1R 2
                                R12R21R22E 1E 4E26E31
  23330605.993   122603161.640    23330604.296    95534923.015    23330603.974  
  23330604.671    91554303.219  
  24148073.035   126898979.612    24148069.658    98882306.094    24148069.139  
  24148074.321    94762229.650  
  20463523.528   107536541.584    20463518.489    83794684.995    20463517.935  
                                
  21721006.593   114144659.947    21721004.699    88943879.021    21721003.699  
  21721004.020    85237884.776  
  21996228.966   115590963.480    21996226.375    90070867.712    21996225.839  
  21996227.680    86317922.006  
  22782135.507   119720929.692    22782131.343    93289016.560    22782130.736  
  22782136.347    89401995.954  
  23298027.655   122431961.741    23298022.991    95401505.553    23298022.223  
                                
  22577510.749   118645619.638                    92451107.138    22577504.692  
                                
  24271111.515   127545551.713    24271108.924    99386130.342    24271108.191  
  24271109.227    95245044.972  
  21997287.384   115596524.855    21997284.936    90075200.216    21997283.900  
  21997285.740    86322074.159  
  23012830.705   123016768.638    23012831.276    95679711.297    23012830.544  
                                
  21588860.809   115202297.783    21588860.809    89601786.735    21588860.183  
                                
  21010218.352   112232815.090    21010217.941    87292188.088    21010216.529  
                                
  20818797.515   111405590.288    20818795.460    86648784.300    20818794.227  
                                
  20342478.570   108589532.196    20342478.087    84458522.804    20342476.247  
                                
  24838895.467   130529277.264                                                  
  24838895.663    97473161.280  
  25060714.120   131694941.721                                                  
  25060714.424    98343625.532  
  25175809.819   132299774.010                                                  
  25175812.053    98795293.592  
  24973052.213   131234275.293                                                  
  24973053.732    97999626.882  
 21  8 31  7 18  6.0000000  0 19G 1G 4G 7G 8G 9G14G17G21G27G30R 1R 2
                                R12R21R22E 1E 4E26E31
  23330048.784   122600233.457    23330047.068    95532641.311    23330046.764  
  23330047.479    91552116.606  
  24148774.090   126902663.768    24148770.713    98885176.879    24148770.195  
  24148775.395    94764980.809  
  20463326.879   107535508.212    20463321.876    83793879.772    20463321.286  
                                
  21721498.831   114147246.719    21721496.955    88945894.685    21721495.954  
  21721496.276    85239816.452  
  21996766.502   115593788.233    21996763.911    90073068.816    21996763.393  
  21996765.198    86320031.397  
  22781804.966   119719192.596    22781800.784    93287662.983    22781800.177  
  22781805.788    89400698.780  
  23297392.483   122428623.976    23297387.837    95398904.700    23297387.087  
                                
  22577284.831   118644432.416                    92450182.032    22577278.773  
                                
  24271801.670   127549178.480    24271799.079    99388956.399    24271798.346  
  24271799.365    95247753.277  
  21996820.020   115594068.807    21996817.554    90073286.412    21996816.535  
  21996818.376    86320240.097  
  23013526.775   123020489.486    23013527.346    95682605.285    23013526.614  
                                
  21589062.067   115203371.708    21589062.067    89602622.011    21589061.442  
                                
  21009961.306   112231442.117    21009960.913    87291120.219    21009959.519  
                                
  20819011.604   111406735.869    20819009.549    86649675.306    20819008.316  
                                
  20341982.133   108586882.220    20341981.650    84456461.709    20341979.827  
                                
  24839038.740   130530030.053                                                  
  24839038.919    97473723.421  
  25061079.988   131696864.351                                                  
  25061080.292    98345061.258  
  25175664.312   132299009.311                                                  
  25175666.545    98794722.542  
  24972906.402   131233509.102                                                  
  24972907.921    97999054.735  
 21  8 31  7 18  7.0000000  0 19G 1G 4G 7G 8G 9G14G17G21G27G30R 1R 2
                                R12R21R22E 1E 4E26E31
  23329491.627   122597305.605    23329489.930    95530359.862    23329489.608  
  23329490.323    91549930.201  
  24149475.217   126906348.138    24149471.822    98888047.816    24149471.304  
  24149476.504    94767732.105  
  20463130.338   107534475.363    20463125.317    83793074.954    20463124.745  
                                
  21721991.194   114149834.043    21721989.318    88947910.786    21721988.318  
  21721988.603    85241748.542  
  21997304.127   115596613.496    21997301.554    90075270.320    21997301.018  
  21997302.823    86322141.172  
  22781474.460   119717455.837    22781470.297    93286309.662    22781469.689  
  22781475.300    89399401.837  
  23296757.418   122425286.622    23296752.754    95396304.173    23296752.004  
                                
  22577059.038   118643245.810                    92449257.400    22577052.963  
                                
  24272491.879   127552805.555    24272489.288    99391782.691    24272488.555  
  24272489.574    95250461.800  
  21996352.709   115591613.079    21996350.261    90071372.860    21996349.207  
  21996351.047    86318406.268  
  23014222.862   123024210.534    23014223.452    95685499.436    23014222.701  
                                
  21589263.487   115204446.546    21589263.469    89603457.998    21589262.879  
                                
  21009704.331   112230069.382    21009703.938    87290052.539    21009702.509  
                                
  20819225.872   111407882.517    20819223.834    86650567.150    20819222.584  
                                
  20341485.874   108584233.131    20341485.392    84454401.311    20341483.569  
                                
  24839182.014   130530783.003                                                  
  24839182.211    97474285.691  
  25061445.928   131698787.465                                                  
  25061446.250    98346497.343  
  25175518.911   132298245.189                                                  
  25175521.145    98794151.934  
  24972760.662   131232743.118                                                  
  24972762.181    97998482.720  
 21  8 31  7 18  8.0000000  0 19G 1G 4G 7G 8G 9G14G17G21G27G30R 1R 2
                                R12R21R22E 1E 4E26E31
  23328934.489   122594377.906    23328932.810    95528078.544    23328932.488  
  23328933.185    91547743.954  
  24150176.344   126910032.596    24150172.949    98890918.827    24150172.431  
  24150177.630    94770483.495  
  20462933.868   107533442.939    20462928.847    83792270.468    20462928.275  
                                
  21722483.629   114152421.833    21722481.753    88949927.246    21722480.752  
  21722481.074    85243680.992  
  21997841.860   115599439.176    21997839.251    90077472.156    21997838.733  
  21997840.555    86324251.260  
  22781144.008   119715719.309    22781139.845    93284956.526    22781139.237  
  22781144.848    89398105.090  
  23296122.389   122421949.558    23296117.725    95393703.862    23296116.974  
                                
  22576833.317   118642059.700                    92448333.165    22576827.259  
                                
  24273182.106   127556432.824    24273179.515    99394609.139    24273178.800  
  24273179.818    95253170.490  
  21995885.434   115589157.567    21995882.986    90069459.476    21995881.950  
  21995883.790    86316572.609  
  23014918.986   123027931.677    23014919.558    95688393.661    23014918.825  
                                
  21589465.067   115205522.191    21589465.050    89604294.611    21589464.442  
                                
  21009447.375   112228696.748    21009446.982    87288984.937    21009445.552  
                                
  20819440.318   111409030.116    20819438.298    86651459.729    20819437.048  
                                
  20340989.741   108581584.830    20340989.258    84452341.519    20340987.453  
                                
  24839325.306   130531536.032                                                  
  24839325.485    97474848.022  
  25061811.957   131700710.931                                                  
  25061812.261    98347933.711  
  25175373.601   132297481.584                                                  
  25175375.834    98793581.709  
  24972614.905   131231977.224                                                  
  24972616.424    97997910.798  
 21  8 31  7 18  9.0000000  0 19G 1G 4G 7G 8G 9G14G17G21G27G30R 1R 2
                                R12R21R22E 1E 4E26E31
  23328377.369   122591450.286    23328375.689    95525797.287    23328375.367  
  23328376.082    91545557.742  
  24150877.453   126913717.028    24150874.076    98893789.813    24150873.557  
  24150878.722    94773234.848  
  20462737.487   107532410.814    20462732.448    83791466.220    20462731.859  
                                
  21722976.153   114155009.975    21722974.241    88951943.980    21722973.240  
  21722973.562    85245613.689  
  21998379.610   115602265.159    21998377.019    90079674.217    21998376.501  
  21998378.324    86326361.565  
  22780813.574   119713982.894    22780809.411    93283603.484    22780808.786  
  22780814.414    89396808.418  
  23295487.395   122418612.715    23295482.767    95391103.721    23295481.981  
                                
  22576607.702   118640874.021                    92447409.267    22576601.609  
                                
  24273872.386   127560060.204    24273869.777    99397435.669    24273869.062  
  24273870.081    95255879.226  
  21995418.177   115586702.153    21995415.729    90067546.169    21995414.710  
  21995416.551    86314739.016  
  23015615.091   123031652.817    23015615.681    95691287.888    23015614.949  
                                
  21589666.755   115206598.512    21589666.737    89605131.752    21589666.148  
                                
  21009190.400   112227324.061    21009189.989    87287917.292    21009188.578  
                                
  20819654.925   111410178.539    20819652.905    86652352.952    20819651.637  
                                
  20340493.750   108578937.154    20340493.268    84450282.218    20340491.445  
                                
  24839468.616   130532289.024                                                  
  24839468.794    97475410.315  
  25062178.040   131702634.665                                                  
  25062178.361    98349370.257  
  25175228.343   132296718.328                                                  
  25175230.595    98793011.756  
  24972469.165   131231211.318                                                  
  24972470.684    97997338.851  
 21  8 31  7 18 10.0000000  0 19G 1G 4G 7G 8G 9G14G17G21G27G30R 1R 2
                                R12R21R22E 1E 4E26E31
  23327820.284   122588522.681    23327818.587    95523516.036    23327818.265  
  23327818.962    91543371.535  
  24151578.562   126917401.360    24151575.167    98896660.717    24151574.649  
  24151579.848    94775986.139  
  20462541.107   107531378.930    20462536.068    83790662.152    20462535.514  
                                
  21723468.695   114157598.411    21723466.818    88953960.943    21723465.818  
  21723466.121    85247546.605  
  21998917.414   115605091.367    21998914.841    90081876.458    21998914.305  
  21998916.128    86328472.043  
  22780483.158   119712246.551    22780478.995    93282250.496    22780478.369  
  22780483.998    89395511.790  
  23294852.455   122415275.998    23294847.791    95388503.684    23294847.041  
                                
  22576382.124   118639688.651                    92446485.599    22576376.030  
                                
  24274562.648   127563687.564    24274560.057    99400262.176    24274559.343  
  24274560.361    95258587.976  
  21994950.938   115584246.789    21994948.508    90065632.898    21994947.453  
  21994949.294    86312905.460  
  23016311.215   123035373.865    23016311.769    95694182.032    23016311.054  
                                
  21589868.568   115207675.466    21589868.568    89605969.382    21589867.960  
                                
  21008933.426   112225951.266    21008933.015    87286849.562    21008931.603  
                                
  20819869.675   111411327.715    20819867.655    86653246.758    20819866.387  
                                
  20339997.867   108576290.090    20339997.384    84448223.390    20339995.562  
                                
  24839611.854   130533041.897                                                  
  24839612.032    97475972.530  
  25062544.140   131704558.592                                                  
  25062544.462    98350806.953  
  25175083.175   132295955.416                                                  
  25175085.427    98792442.038  
  24972323.407   131230445.327                                                  
  24972324.926    97996766.836  
 21  8 31  7 18 11.0000000  0 19G 1G 4G 7G 8G 9G14G17G21G27G30R 1R 2
                                R12R21R22E 1E 4E26E31
  23327263.146   122585594.902    23327261.448    95521234.655    23327261.127  
  23327261.824    91541185.209  
  24152279.617   126921085.446    24152276.240    98899531.435    24152275.722  
  24152280.904    94778737.231  
  20462344.762   107530347.108    20462339.723    83789858.139    20462339.169  
                                
  21723961.272   114160186.944    21723959.396    88955977.987    21723958.395  
  21723958.699    85249479.601  
  21999455.236   115607917.628    21999452.663    90084078.746    21999452.127  
  21999453.950    86330582.567  
  22780152.707   119710510.065    22780148.543    93280897.388    22780147.935  
  22780153.546    89394215.063  
  23294217.479   122411939.207    23294212.833    95385903.583    23294212.065  
                                
  22576156.581   118638503.442                    92445562.064    22576150.505  
                                
  24275252.911   127567314.800    24275250.302    99403088.592    24275249.569  
  24275250.588    95261296.624  
  21994483.681   115581791.274    21994481.215    90063719.510    21994480.196  
  21994482.037    86311071.806  
  23017007.267   123039094.674    23017007.839    95697075.990    23017007.124  
                                
  21590070.488   115208752.821    21590070.470    89606807.328    21590069.844  
                                
  21008676.380   112224578.209    21008675.987    87285781.631    21008674.557  
                                
  20820084.514   111412477.444    20820082.495    86654140.994    20820081.262  
                                
  20339502.055   108573643.413    20339501.573    84446164.866    20339499.750  
                                
  24839755.092   130533794.492                                                  
  24839755.270    97476534.528  
  25062910.259   131706482.519                                                  
  25062910.580    98352243.656  
  25174938.025   132295192.632                                                  
  25174940.259    98791872.429  
  24972177.578   131229679.069                                                  
  24972179.097    97996194.646  
 21  8 31  7 18 12.0000000  0 19G 1G 4G 7G 8G 9G14G17G21G27G30R 1R 2
                                R12R21R22E 1E 4E26E31
  23326705.972   122582667.018    23326704.274    95518953.191    23326703.953  
  23326704.650    91538998.815  
  24152980.655   126924769.334    24152977.277    98902401.989    24152976.741  
  24152981.923    94781488.191  
  20462148.435   107529315.420    20462143.414    83789054.224    20462142.842  
                                
  21724453.903   114162775.644    21724452.009    88957995.155    21724451.008  
  21724451.312    85251412.725  
  21999993.094   115610744.033    21999990.503    90086281.135    21999989.967  
  21999991.789    86332693.192  
  22779822.273   119708773.540    22779818.091    93279544.252    22779817.484  
  22779823.095    89392918.313  
  23293582.521   122408602.484    23293577.875    95383303.544    23293577.107  
                                
  22575931.074   118637318.447                    92444638.691    22575924.998  
                                
  24275943.120   127570941.934    24275940.511    99405914.925    24275939.796  
  24275940.815    95264005.209  
  21994016.388   115579335.699    21994013.940    90061806.074    21994012.904  
  21994014.744    86309238.097  
  23017703.283   123042815.280    23017703.855    95699969.792    23017703.140  
                                
  21590272.479   115209830.713    21590272.461    89607645.688    21590271.854  
                                
  21008419.298   112223205.017    21008418.923    87284713.586    21008417.512  
                                
  20820299.514   111413627.851    20820297.477    86655035.755    20820296.226  
                                
  20339006.333   108570997.219    20339005.850    84444106.713    20339004.028  
                                
  24839898.258   130534546.885                                                  
  24839898.437    97477096.380  
  25063276.377   131708406.546                                                  
  25063276.699    98353680.425  
  25174792.911   132294430.066                                                  
  25174795.145    98791302.980  
  24972031.731   131228912.641                                                  
  24972033.250    97995622.313  
 21  8 31  7 18 13.0000000  0 19G 1G 4G 7G 8G 9G14G17G21G27G30R 1R 2
                                R12R21R22E 1E 4E26E31
  23326148.834   122579739.222    23326147.136    95516671.792    23326146.814  
  23326147.511    91536812.465  
  24153681.657   126928453.197    24153678.279    98905272.531    24153677.761  
  24153682.961    94784239.125  
  20461952.162   107528284.032    20461947.141    83788250.543    20461946.569  
                                
  21724946.588   114165364.711    21724944.694    88960012.603    21724943.693  
  21724944.015    85253346.099  
  22000531.005   115613570.732    22000528.414    90088483.753    22000527.860  
  22000529.700    86334804.036  
  22779491.839   119707037.122    22779487.675    93278191.196    22779487.050  
  22779492.678    89391621.636  
  23292947.599   122405265.934    23292942.953    95380703.637    23292942.167  
                                
  22575705.656   118636133.848                    92443715.625    22575699.581  
                                
  24276633.364   127574569.168    24276630.773    99408741.339    24276630.023  
  24276631.059    95266713.842  
  21993549.131   115576880.228    21993546.683    90059892.719    21993545.646  
  21993547.487    86307404.460  
  23018399.300   123046535.887    23018399.907    95702863.590    23018399.157  
                                
  21590474.614   115210909.299    21590474.596    89608484.586    21590473.970  
                                
  21008162.253   112221831.829    21008161.842    87283645.553    21008160.448  
                                
  20820514.657   111414779.101    20820512.620    86655931.171    20820511.387  
                                
  20338510.753   108568351.689    20338510.253    84442049.081    20338508.430  
                                
  24840041.425   130535299.222                                                  
  24840041.604    97477658.190  
  25063642.567   131710330.813                                                  
  25063642.871    98355117.385  
  25174647.868   132293667.869                                                  
  25174650.120    98790733.807  
  24971885.884   131228146.187                                                  
  24971887.403    97995049.958  
 21  8 31  7 18 14.0000000  0 19G 1G 4G 7G 8G 9G14G17G21G27G30R 1R 2
                                R12R21R22E 1E 4E26E31
  23325591.749   122576811.599    23325590.051    95514390.513    23325589.730  
  23325590.427    91534626.251  
  24154382.694   126932137.139    24154379.317    98908143.128    24154378.799  
  24154383.998    94786990.127  
  20461755.996   107527253.066    20461750.957    83787447.191    20461750.385  
                                
  21725439.344   114167954.212    21725437.468    88962030.394    21725436.467  
  21725436.771    85255279.826  
  22001068.970   115616397.826    22001066.397    90090686.681    22001065.860  
  22001067.665    86336915.180  
  22779161.458   119705300.929    22779157.295    93276838.312    22779156.669  
  22779162.298    89390325.129  
  23292312.731   122401929.701    23292308.085    95378103.975    23292307.334  
                                
  22575480.346   118634949.763                    92442792.966    22575474.252  
                                
  24277323.645   127578196.563    24277321.036    99411567.878    24277320.321  
  24277321.340    95269422.631  
  21993081.927   115574424.961    21993079.461    90057979.519    21993078.425  
  21993080.283    86305570.991  
  23019095.352   123050256.576    23019095.924    95705757.469    23019095.209  
                                
  21590676.891   115211988.684    21590676.873    89609324.110    21590676.266  
                                
  21007905.207   112220458.712    21007904.814    87282577.580    21007903.384  
                                
  20820729.979   111415931.317    20820727.942    86656827.339    20820726.691  
                                
  20338015.281   108565706.911    20338014.781    84439992.032    20338012.958  
                                
  24840184.592   130536051.626                                                  
  24840184.770    97478220.057  
  25064008.828   131712255.450                                                  
  25064009.114    98356554.605  
  25174502.932   132292906.166                                                  
  25174505.148    98790165.005  
  24971740.055   131227379.823                                                  
  24971741.574    97994477.672  
 21  8 31  7 18 15.0000000  0 19G 1G 4G 7G 8G 9G14G17G21G27G30R 1R 2
                                R12R21R22E 1E 4E26E31
  23325034.664   122573884.141    23325032.967    95512109.374    23325032.645  
  23325033.342    91532440.153  
  24155083.749   126935821.171    24155080.372    98911013.803    24155079.854  
  24155085.054    94789741.184  
  20461559.883   107526222.497    20461554.844    83786644.150    20461554.272  
                                
  21725932.207   114170544.168    21725930.331    88964048.539    21725929.331  
  21725929.652    85257213.891  
  22001607.042   115619225.326    22001604.433    90092889.930    22001603.915  
  22001605.737    86339026.627  
  22778831.114   119703564.974    22778826.950    93275485.617    22778826.343  
  22778831.953    89389028.798  
  23291677.916   122398593.758    23291673.288    95375504.539    23291672.519  
                                
  22575255.107   118633766.180                    92441870.696    22575249.013  
                                
  24278013.961   127581824.169    24278011.352    99414394.582    24278010.637  
  24278011.656    95272131.546  
  21992614.742   115571969.916    21992612.276    90056066.497    21992611.239  
  21992613.098    86303737.668  
  23019791.404   123053977.373    23019791.993    95708651.422    23019791.261  
                                
  21590879.329   115213068.867    21590879.293    89610164.253    21590878.686  
                                
  21007648.179   112219085.663    21007647.768    87281509.654    21007646.356  
                                
  20820945.461   111417084.443    20820943.442    86657724.213    20820942.191  
                                
  20337519.987   108563062.965    20337519.487    84437935.631    20337517.664  
                                
  24840327.794   130536804.095                                                  
  24840327.973    97478781.957  
  25064375.125   131714180.434                                                  
  25064375.429    98357992.097  
  25174358.068   132292144.949                                                  
  25174360.302    98789596.557  
  24971594.226   131226613.548                                                  
  24971595.745    97993905.451  
 21  8 31  7 18 16.0000000  0 19G 1G 4G 7G 8G 9G14G17G21G27G30R 1R 2
                                R12R21R22E 1E 4E26E31
  23324477.633   122570956.958    23324475.936    95509828.453    23324475.632  
  23324476.329    91530254.274  
  24155784.841   126939505.389    24155781.463    98913884.622    24155780.927  
  24155786.127    94792492.388  
  20461363.878   107525192.470    20461358.839    83785841.531    20461358.267  
                                
  21726425.178   114173134.713    21726423.284    88966067.144    21726422.301  
  21726422.605    85259148.381  
  22002145.203   115622053.339    22002142.594    90095093.574    22002142.058  
  22002143.899    86341138.450  
  22778500.840   119701829.341    22778496.677    93274133.179    22778496.052  
  22778501.680    89387732.703  
  23291043.190   122395258.235    23291038.544    95372905.428    23291037.794  
                                
  22575030.011   118632583.204                    92440948.889    22575023.917  
                                
  24278704.331   127585452.077    24278701.722    99417221.514    24278701.007  
  24278702.026    95274840.697  
  21992147.610   115569515.177    21992145.162    90054153.715    21992144.143  
  21992145.984    86301904.585  
  23020487.492   123057698.344    23020488.063    95711545.513    23020487.349  
                                
  21591081.910   115214149.980    21591081.892    89611005.116    21591081.303  
                                
  21007391.186   112217712.818    21007390.775    87280441.881    21007389.364  
                                
  20821161.158   111418238.565    20821159.103    86658621.863    20821157.870  
                                
  20337024.819   108560419.844    20337024.336    84435879.873    20337022.532  
                                
  24840471.014   130537556.731                                                  
  24840471.193    97479343.994  
  25064741.530   131716105.907                                                  
  25064741.833    98359429.946  
  25174213.329   132291384.314                                                  
  25174215.545    98789028.553  
  24971448.451   131225847.469                                                  
  24971449.970    97993333.375  
 21  8 31  7 18 17.0000000  0 19G 1G 4G 7G 8G 9G14G17G21G27G30R 1R 2
                                R12R21R22E 1E 4E26E31
  23323920.656   122568030.028    23323918.958    95507547.732    23323918.637  
  23323919.333    91528068.591  
  24156485.949   126943189.756    24156482.554    98916755.553    24156482.036  
  24156487.236    94795243.697  
  20461167.962   107524162.907    20461162.941    83785039.277    20461162.351  
                                
  21726918.238   114175725.787    21726916.362    88968086.156    21726915.361  
  21726915.683    85261083.265  
  22002683.436   115624881.830    22002680.845    90097297.591    22002680.309  
  22002682.114    86343250.640  
  22778170.621   119700094.014    22778166.440    93272780.978    22778165.832  
  22778171.461    89386436.837  
  23290408.536   122391923.076    23290403.890    95370306.603    23290403.122  
                                
  22574805.004   118631400.809                    92440027.540    22574798.928  
                                
  24279394.736   127589080.223    24279392.163    99420048.641    24279391.412  
  24279392.431    95277550.037  
  21991680.549   115567060.731    21991678.083    90052241.160    21991677.047  
  21991678.905    86300071.720  
  23021183.615   123061419.508    23021184.187    95714439.747    23021183.472  
                                
  21591284.688   115215232.005    21591284.670    89611846.693    21591284.062  
                                
  21007134.194   112216340.154    21007133.819    87279374.251    21007132.407  
                                
  20821376.998   111419393.687    20821374.979    86659520.289    20821373.746  
                                
  20336529.847   108557777.590    20336529.365    84433824.789    20336527.542  
                                
  24840614.270   130538309.508                                                  
  24840614.449    97479906.131  
  25065108.005   131718031.798                                                  
  25065108.327    98360868.111  
  25174068.679   132290624.242                                                  
  25174070.931    98788460.971  
  24971302.693   131225081.543                                                  
  24971304.230    97992761.417  
 21  8 31  7 18 18.0000000  0 19G 1G 4G 7G 8G 9G14G17G21G27G30R 1R 2
                                R12R21R22E 1E 4E26E31
  23323363.750   122565103.394    23323362.052    95505267.234    23323361.731  
  23323362.428    91525883.111  
  24157187.094   126946874.326    24157183.717    98919626.651    24157183.181  
  24157188.417    94797995.168  
  20460972.117   107523133.846    20460967.096    83784237.411    20460966.524  
                                
  21727411.423   114178317.407    21727409.547    88970105.593    21727408.546  
  21727408.868    85263018.570  
  22003221.758   115627710.817    22003219.167    90099501.997    22003218.649  
  22003220.472    86345363.197  
  22777840.455   119698358.980    22777836.274    93271428.999    22777835.666  
  22777841.295    89385141.211  
  23289773.954   122388588.322    23289769.290    95367708.095    23289768.539  
                                
  22574580.104   118630218.995                    92439106.646    22574574.029  
                                
  24280085.213   127592708.678    24280082.640    99422876.004    24280081.889  
  24280082.908    95280259.600  
  21991213.542   115564606.578    21991211.094    90050328.833    21991210.040  
  21991211.898    86298239.078  
  23021879.757   123065140.851    23021880.364    95717334.127    23021879.614  
                                
  21591487.626   115216314.953    21591487.626    89612688.986    21591487.001  
                                
  21006877.291   112214967.691    21006876.880    87278306.775    21006875.468  
                                
  20821593.070   111420549.859    20821591.033    86660419.536    20821589.782  
                                
  20336035.018   108555136.166    20336034.518    84431770.348    20336032.695  
                                
  24840757.544   130539062.438                                                  
  24840757.723    97480468.388  
  25065474.588   131719958.146                                                  
  25065474.892    98362306.624  
  25173924.155   132289864.754                                                  
  25173926.371    98787893.829  
  24971156.971   131224315.793                                                  
  24971158.490    97992189.601  
 21  8 31  7 18 19.0000000  0 19G 1G 4G 7G 8G 9G14G17G21G27G30R 1R 2
                                R12R21R22E 1E 4E26E31
  23322806.862   122562177.021    23322805.182    95502986.936    23322804.860  
  23322805.575    91523697.830  
  24157888.275   126950559.037    24157884.880    98922497.867    24157884.361  
  24157889.579    94800746.744  
  20460776.398   107522105.284    20460771.377    83783435.934    20460770.787  
                                
  21727904.697   114180909.590    21727902.821    88972125.480    21727901.821  
  21727902.142    85264954.293  
  22003760.205   115630540.309    22003757.614    90101706.796    22003757.060  
  22003758.901    86347476.130  
  22777510.343   119696624.290    22777506.179    93270077.297    22777505.554  
  22777511.182    89383845.816  
  23289139.425   122385253.958    23289134.796    95365109.899    23289134.028  
                                
  22574355.348   118629037.789                    92438186.224    22574349.236  
                                
  24280775.743   127596337.425    24280773.152    99425703.602    24280772.420  
  24280773.438    95282969.374  
  21990746.589   115562152.737    21990744.141    90048416.749    21990743.105  
  21990744.945    86296406.664  
  23022575.952   123068862.395    23022576.541    95720228.666    23022575.826  
                                
  21591690.744   115217398.816    21591690.744    89613531.996    21591690.118  
                                
  21006620.388   112213595.388    21006619.995    87277239.431    21006618.566  
                                
  20821809.321   111421707.106    20821807.302    86661319.624    20821806.033  
                                
  20335540.368   108552495.623    20335539.867    84429716.592    20335538.045  
                                
  24840900.853   130539815.523                                                  
  24840901.032    97481030.757  
  25065841.243   131721884.949                                                  
  25065841.547    98363745.462  
  25173779.755   132289105.844                                                  
  25173781.971    98787327.102  
  24971011.285   131223550.239                                                  
  24971012.822    97991617.922  
 21  8 31  7 18 20.0000000  0 19G 1G 4G 7G 8G 9G14G17G21G27G30R 1R 2
                                R12R21R22E 1E 4E26E31
  23322249.974   122559250.419    23322248.276    95500706.470    23322247.954  
  23322248.651    91521512.381  
  24158589.384   126954243.451    24158586.006    98925368.842    24158585.488  
  24158590.688    94803498.088  
  20460580.679   107521076.754    20460575.639    83782634.480    20460575.086  
                                
  21728397.972   114183501.817    21728396.096    88974145.395    21728395.113  
  21728395.417    85266890.041  
  22004298.671   115633369.837    22004296.062    90103911.620    22004295.526  
  22004297.366    86349589.064  
  22777180.230   119694889.429    22777176.049    93268725.460    22777175.424  
  22777181.034    89382550.297  
  23288504.913   122381919.500    23288500.267    95362511.618    23288499.499  
                                
  22574130.591   118627856.691                    92437265.892    22574124.480  
                                
  24281466.238   127599965.971    24281463.629    99428531.040    24281462.915  
  24281463.933    95285678.980  
  21990279.600   115559698.704    21990277.134    90046504.514    21990276.116  
  21990277.956    86294574.105  
  23023272.075   123072583.619    23023272.665    95723122.956    23023271.950  
                                
  21591893.932   115218483.076    21591893.914    89614375.313    21591893.307  
                                
  21006363.432   112212222.790    21006363.056    87276171.857    21006361.609  
                                
  20822025.662   111422864.891    20822023.642    86662220.121    20822022.409  
                                
  20335045.753   108549855.415    20335045.253    84427663.094    20335043.448  
                                
  24841044.092   130540568.297                                                  
  24841044.306    97481592.882  
  25066207.897   131723811.728                                                  
  25066208.219    98365184.289  
  25173635.338   132288347.028                                                  
  25173637.571    98786760.452  
  24970865.563   131222784.374                                                  
  24970867.082    97991046.003  
 21  8 31  7 18 21.0000000  0 19G 1G 4G 7G 8G 9G14G17G21G27G30R 1R 2
                                R12R21R22E 1E 4E26E31
  23321693.050   122556323.903    23321691.370    95498426.065    23321691.048  
  23321691.763    91519327.002  
  24159290.511   126957927.859    24159287.115    98928239.805    24159286.615  
  24159291.815    94806249.421  
  20460385.013   107520048.511    20460379.974    83781833.254    20460379.420  
                                
  21728891.336   114186094.394    21728889.459    88976165.582    21728888.459  
  21728888.780    85268826.049  
  22004837.136   115636199.607    22004834.545    90106116.634    22004834.009  
  22004835.831    86351702.220  
  22776850.100   119693154.660    22776845.919    93267373.698    22776845.311  
  22776850.922    89381254.867  
  23287870.438   122378585.251    23287865.774    95359913.497    23287865.006  
                                
  22573905.906   118626675.989                    92436345.863    22573899.813  
                                
  24282156.751   127603594.610    24282154.142    99431358.544    24282153.427  
  24282154.428    95288388.672  
  21989812.629   115557244.775    21989810.181    90044592.363    21989809.162  
  21989811.003    86292741.623  
  23023968.199   123076304.810    23023968.788    95726017.218    23023968.073  
                                
  21592097.246   115219567.985    21592097.228    89615219.132    21592096.621  
                                
  21006106.475   112210850.157    21006106.082    87275104.248    21006104.652  
                                
  20822242.180   111424023.468    20822240.161    86663121.234    20822238.910  
                                
  20334551.282   108547215.865    20334550.781    84425610.114    20334548.959  
                                
  24841187.330   130541321.000                                                  
  24841187.526    97482154.970  
  25066574.588   131725738.745                                                  
  25066574.909    98366623.299  
  25173491.010   132287588.587                                                  
  25173493.243    98786194.086  
  24970719.824   131222018.504                                                  
  24970721.342    97990474.089  
 21  8 31  7 18 22.0000000  0 19G 1G 4G 7G 8G 9G14G17G21G27G30R 1R 2
                                R12R21R22E 1E 4E26E31
  23321136.180   122553397.474    23321134.500    95496145.731    23321134.178  
  23321134.875    91517141.675  
  24159991.619   126961612.238    24159988.242    98931110.754    24159987.724  
  24159992.924    94809000.747  
  20460189.418   107519020.600    20460184.361    83781032.285    20460183.808  
                                
  21729384.753   114188687.340    21729382.894    88978186.058    21729381.894  
  21729382.198    85270762.329  
  22005375.690   115639029.736    22005373.117    90108321.924    22005372.581  
  22005374.404    86353815.619  
  22776520.006   119691420.055    22776515.824    93266022.055    22776515.235  
  22776520.845    89379959.536  
  23287235.981   122375251.195    23287231.335    95357315.536    23287230.566  
                                
  22573681.310   118625495.698                    92435426.155    22573675.199  
                                
  24282847.281   127607223.316    24282844.690    99434186.103    24282843.940  
  24282844.958    95291098.418  
  21989345.693   115554790.977    21989343.227    90042680.313    21989342.209  
  21989344.049    86290909.237  
  23024664.322   123080026.031    23024664.930    95728911.505    23024664.179  
                                
  21592300.685   115220653.580    21592300.685    89616063.483    21592300.059  
                                
  21005849.519   112209477.535    21005849.125    87274036.658    21005847.696  
                                
  20822458.842   111425182.887    20822456.823    86664023.005    20822455.590  
                                
  20334056.917   108544576.965    20334056.435    84423557.636    20334054.612  
                                
  24841330.586   130542073.701                                                  
  24841330.764    97482717.048  
  25066941.367   131727666.056                                                  
  25066941.671    98368062.518  
  25173346.789   132286830.563                                                  
  25173349.005    98785628.023  
  24970574.084   131221252.627                                                  
  24970575.603    97989902.164  
 21  8 31  7 18 23.0000000  0 19G 1G 4G 7G 8G 9G14G17G21G27G30R 1R 2
                                R12R21R22E 1E 4E26E31
  23320579.291   122550470.984    23320577.612    95493865.349    23320577.290  
  23320577.987    91514956.311  
  24160692.693   126965296.462    24160689.315    98933981.571    24160688.797  
  24160694.015    94811751.962  
  20459993.842   107517992.865    20459988.803    83780231.450    20459988.249  
                                
  21729878.242   114191280.503    21729876.348    88980206.700    21729875.347  
  21729875.669    85272698.793  
  22005914.280   115641860.006    22005911.671    90110527.331    22005911.153  
  22005912.976    86355929.139  
  22776189.929   119689685.423    22776185.748    93264670.396    22776185.122  
  22776190.751    89378664.197  
  23286601.541   122371917.213    23286596.895    95354717.630    23286596.144  
                                
  22573456.750   118624315.680                    92434506.658    22573450.657  
                                
  24283537.794   127610851.967    24283535.203    99437013.621    24283534.470  
  24283535.471    95293808.143  
  21988878.740   115552337.133    21988876.292    90040768.226    21988875.256  
  21988877.114    86289076.832  
  23025360.428   123083747.073    23025361.017    95731805.654    23025360.285  
                                
  21592504.231   115221739.720    21592504.213    89616908.258    21592503.588  
                                
  21005592.526   112208104.779    21005592.151    87272968.959    21005590.721  
                                
  20822675.629   111426342.994    20822673.610    86664925.310    20822672.377  
                                
  20333562.678   108541938.661    20333562.195    84421505.619    20333560.373  
                                
  24841473.770   130542826.220                                                  
  24841473.949    97483278.994  
  25067308.129   131729593.475                                                  
  25067308.451    98369501.829  
  25173202.568   132286072.774                                                  
  25173204.784    98785062.146  
  24970428.308   131220486.590                                                  
  24970429.827    97989330.129  
 21  8 31  7 18 24.0000000  0 19G 1G 4G 7G 8G 9G14G17G21G27G30R 1R 2
                                R12R21R22E 1E 4E26E31
  23320022.403   122547544.505    23320020.706    95491584.981    23320020.384  
  23320021.099    91512770.969  
  24161393.766   126968980.632    24161390.389    98936852.355    24161389.871  
  24161395.088    94814503.132  
  20459798.319   107516965.395    20459793.298    83779430.823    20459792.708  
                                
  21730371.748   114193873.978    21730369.872    88982227.589    21730368.889  
  21730369.193    85274635.483  
  22006452.906   115644690.528    22006450.297    90112732.937    22006449.779  
  22006451.602    86358042.847  
  22775859.852   119687950.879    22775855.671    93263318.799    22775855.081  
  22775860.692    89377368.912  
  23285967.155   122368583.404    23285962.491    95352119.847    23285961.723  
                                
  22573232.262   118623135.994                    92433587.431    22573226.168  
                                
  24284228.307   127614480.677    24284225.716    99439841.184    24284224.983  
  24284225.984    95296517.876  
  21988411.805   115549883.365    21988409.339    90038856.199    21988408.302  
  21988410.161    86287244.473  
  23026056.516   123087468.082    23026057.087    95734699.767    23026056.355  
                                
  21592707.884   115222826.527    21592707.866    89617753.544    21592707.259  
