% program   : rnx2rtkp ver.2.4.3 b31
% inp file  : ngs/21_08_29_03_22_47_ict5.obs
% inp file  : ngs/21_08_29_03_22_47_ict5_VZ.obs
% inp file  : ngs/21_08_29_03_22_47_brdc.nav
% obs start : 2021/08/29 03:00:00.0 GPST (week2173  10800.0s)
% obs end   : 2021/08/29 03:59:59.0 GPST (week2173  14399.0s)
% ref pos   :  -664220.9145  -5008559.0846   3880393.7613
%
% (x/y/z-ecef=WGS84,Q=1:fix,2:float,3:sbas,4:dgps,5:single,6:ppp,ns=# of satellites)
%  GPST              x-ecef(m)      y-ecef(m)      z-ecef(m)   Q  ns   sdx(m)   sdy(m)   sdz(m)  sdxy(m)  sdyz(m)  sdzx(m) age(s)  ratio
2173  12146.000   -669786.1895  -5002658.2650   3887010.3614   2   7   0.5041   0.9651   0.9113   0.3793  -0.8102  -0.4411 -30.00    1.2
2173  12147.000   -669786.1819  -5002658.2603   3887010.3515   2   7   0.3587   0.6871   0.6479   0.2700  -0.5765  -0.3138 -29.00    1.1
2173  12148.000   -669786.1879  -5002658.2617   3887010.3561   2   7   0.2937   0.5626   0.5303   0.2210  -0.4719  -0.2569 -28.00    1.2
2173  12149.000   -669786.1868  -5002658.2663   3887010.3545   2   7   0.2547   0.4880   0.4600   0.1917  -0.4093  -0.2228 -27.00    1.2
2173  12150.000   -669786.1900  -5002658.2637   3887010.3587   2   7   0.2281   0.4370   0.4119   0.1716  -0.3665  -0.1995 -26.00    1.2
2173  12151.000   -669786.1893  -5002658.2644   3887010.3552   2   7   0.2084   0.3993   0.3763   0.1567  -0.3348  -0.1822 -25.00    1.1
2173  12152.000   -669786.1913  -5002658.2668   3887010.3592   2   7   0.1931   0.3699   0.3486   0.1452  -0.3102  -0.1688 -24.00    1.1
2173  12153.000   -669786.1912  -5002658.2620   3887010.3566   2   7   0.1807   0.3462   0.3262   0.1358  -0.2902  -0.1579 -23.00    1.1
2173  12154.000   -669786.1937  -5002658.2625   3887010.3559   2   7   0.1705   0.3265   0.3075   0.1281  -0.2737  -0.1489 -22.00    1.1
2173  12155.000   -669786.1951  -5002658.2628   3887010.3566   2   7   0.1618   0.3098   0.2918   0.1215  -0.2596  -0.1413 -21.00    1.1
2173  12156.000   -669786.1946  -5002658.2553   3887010.3507   2   7   0.1543   0.2954   0.2782   0.1158  -0.2475  -0.1347 -20.00    1.1
2173  12157.000   -669786.1950  -5002658.2495   3887010.3489   2   7   0.1477   0.2828   0.2662   0.1109  -0.2370  -0.1289 -19.00    1.1
2173  12158.000   -669786.1957  -5002658.2481   3887010.3469   2   7   0.1419   0.2717   0.2557   0.1065  -0.2276  -0.1239 -18.00    1.1
2173  12159.000   -669786.1960  -5002658.2473   3887010.3452   2   7   0.1367   0.2618   0.2463   0.1026  -0.2192  -0.1193 -17.00    1.1
2173  12160.000   -669786.1955  -5002658.2461   3887010.3461   2   7   0.1321   0.2528   0.2378   0.0990  -0.2117  -0.1152 -16.00    1.1
2173  12161.000   -669786.1976  -5002658.2457   3887010.3472   2   7   0.1278   0.2447   0.2301   0.0958  -0.2049  -0.1115 -15.00    1.0
2173  12162.000   -669786.1954  -5002658.2420   3887010.3430   2   7   0.1240   0.2374   0.2231   0.0929  -0.1987  -0.1081 -14.00    1.0
2173  12163.000   -669786.1969  -5002658.2368   3887010.3403   2   7   0.1204   0.2306   0.2166   0.0902  -0.1929  -0.1050 -13.00    1.0
2173  12164.000   -669786.1991  -5002658.2348   3887010.3396   2   7   0.1172   0.2243   0.2107   0.0878  -0.1877  -0.1021 -12.00    1.0
2173  12165.000   -669786.1989  -5002658.2345   3887010.3370   2   7   0.1142   0.2186   0.2052   0.0855  -0.1828  -0.0995 -11.00    1.0
2173  12166.000   -669786.2007  -5002658.2318   3887010.3338   2   7   0.1114   0.2132   0.2000   0.0834  -0.1782  -0.0970 -10.00    1.0
2173  12167.000   -669786.2021  -5002658.2317   3887010.3345   2   7   0.1088   0.2082   0.1953   0.0814  -0.1740  -0.0947  -9.00    1.0
2173  12168.000   -669786.2040  -5002658.2318   3887010.3343   2   7   0.1063   0.2035   0.1908   0.0795  -0.1700  -0.0925  -8.00    1.0
2173  12169.000   -669786.2028  -5002658.2276   3887010.3288   2   7   0.1041   0.1991   0.1866   0.0778  -0.1663  -0.0905  -7.00    1.0
2173  12170.000   -669786.2048  -5002658.2258   3887010.3267   2   7   0.1019   0.1950   0.1826   0.0761  -0.1628  -0.0886  -6.00    1.0
2173  12171.000   -669786.2056  -5002658.2258   3887010.3248   2   7   0.0999   0.1911   0.1789   0.0746  -0.1595  -0.0868  -5.00    1.0
2173  12172.000   -669786.2062  -5002658.2251   3887010.3235   2   7   0.0980   0.1874   0.1754   0.0731  -0.1564  -0.0851  -4.00    1.1
2173  12173.000   -669786.2078  -5002658.2249   3887010.3262   2   7   0.0962   0.1839   0.1720   0.0717  -0.1534  -0.0835  -3.00    1.2
2173  12174.000   -669786.2087  -5002658.2234   3887010.3209   2   7   0.0945   0.1806   0.1688   0.0704  -0.1506  -0.0820  -2.00    1.2
2173  12175.000   -669786.2064  -5002658.2189   3887010.3162   2   7   0.0929   0.1775   0.1659   0.0691  -0.1479  -0.0805  -1.00    1.3
2173  12176.000   -669786.2082  -5002658.2205   3887010.3172   2   7   0.0913   0.1745   0.1630   0.0680  -0.1454  -0.0792   0.00    1.3
2173  12177.000   -669786.2043  -5002658.2174   3887010.3136   2   7   0.0899   0.1717   0.1603   0.0669  -0.1430  -0.0778   0.00    1.3
2173  12178.000   -669786.2080  -5002658.2183   3887010.3123   2   7   0.0885   0.1690   0.1577   0.0658  -0.1407  -0.0766   0.00    1.3
2173  12179.000   -669786.2025  -5002658.2152   3887010.3168   2   7   0.0872   0.1665   0.1553   0.0647  -0.1385  -0.0754   0.00    1.3
2173  12180.000   -669786.1994  -5002658.2083   3887010.3059   2   7   0.0859   0.1640   0.1529   0.0637  -0.1364  -0.0743   0.00    1.4
2173  12181.000   -669786.2006  -5002658.2048   3887010.3026   2   7   0.0847   0.1616   0.1506   0.0628  -0.1344  -0.0731   0.00    1.4
2173  12182.000   -669786.1970  -5002658.2078   3887010.3061   2   7   0.0836   0.1593   0.1484   0.0619  -0.1324  -0.0721   0.00    1.4
2173  12183.000   -669786.1974  -5002658.2115   3887010.3082   2   7   0.0825   0.1571   0.1463   0.0610  -0.1305  -0.0711   0.00    1.4
2173  12184.000   -669786.1998  -5002658.2136   3887010.3096   2   7   0.0814   0.1550   0.1443   0.0601  -0.1287  -0.0701   0.00    1.4
2173  12185.000   -669786.1955  -5002658.2051   3887010.2972   2   7   0.0804   0.1530   0.1423   0.0593  -0.1269  -0.0691   0.00    1.5
2173  12186.000   -669786.2044  -5002658.2090   3887010.3027   2   7   0.0794   0.1510   0.1404   0.0585  -0.1252  -0.0682   0.00    1.5
2173  12187.000   -669786.1971  -5002658.1984   3887010.2943   2   7   0.0784   0.1491   0.1385   0.0577  -0.1236  -0.0673   0.00    1.5
2173  12188.000   -669786.1981  -5002658.2085   3887010.3034   2   7   0.0774   0.1473   0.1367   0.0570  -0.1220  -0.0664   0.00    1.5
2173  12189.000   -669786.1999  -5002658.2011   3887010.3066   2   7   0.0765   0.1455   0.1350   0.0562  -0.1204  -0.0656   0.00    1.5
2173  12190.000   -669786.2019  -5002658.1997   3887010.3057   2   7   0.0757   0.1437   0.1332   0.0555  -0.1189  -0.0647   0.00    1.5
2173  12191.000   -669786.2025  -5002658.1961   3887010.3100   2   7   0.0748   0.1421   0.1316   0.0548  -0.1174  -0.0639   0.00    1.6
2173  12192.000   -669786.2034  -5002658.2067   3887010.3192   2   7   0.0740   0.1404   0.1300   0.0541  -0.1160  -0.0631   0.00    1.6
2173  12193.000   -669786.2047  -5002658.2206   3887010.3305   2   7   0.0732   0.1388   0.1284   0.0535  -0.1146  -0.0624   0.00    1.6
2173  12194.000   -669786.2060  -5002658.2321   3887010.3404   2   7   0.0725   0.1372   0.1268   0.0528  -0.1132  -0.0616   0.00    1.6
2173  12195.000   -669786.2091  -5002658.2258   3887010.3393   2   7   0.0717   0.1357   0.1253   0.0522  -0.1119  -0.0609   0.00    1.6
2173  12196.000   -669786.2046  -5002658.2241   3887010.3332   2   7   0.0710   0.1343   0.1239   0.0516  -0.1105  -0.0602   0.00    1.6
2173  12197.000   -669786.2032  -5002658.2282   3887010.3346   2   7   0.0703   0.1328   0.1224   0.0510  -0.1093  -0.0595   0.00    1.6
2173  12198.000   -669786.2066  -5002658.2261   3887010.3406   2   7   0.0696   0.1314   0.1210   0.0504  -0.1080  -0.0588   0.00    1.6
2173  12199.000   -669786.2049  -5002658.2341   3887010.3490   2   7   0.0689   0.1300   0.1196   0.0498  -0.1068  -0.0582   0.00    1.5
2173  12200.000   -669786.2027  -5002658.2428   3887010.3498   2   7   0.0683   0.1287   0.1183   0.0492  -0.1056  -0.0575   0.00    1.5
2173  12201.000   -669786.2036  -5002658.2493   3887010.3633   2   7   0.0676   0.1274   0.1170   0.0487  -0.1044  -0.0569   0.00    1.5
2173  12202.000   -669786.2047  -5002658.2542   3887010.3668   2   7   0.0670   0.1261   0.1157   0.0482  -0.1032  -0.0562   0.00    1.5
2173  12203.000   -669786.2068  -5002658.2693   3887010.3839   2   7   0.0664   0.1249   0.1144   0.0476  -0.1021  -0.0556   0.00    1.5
2173  12204.000   -669786.2029  -5002658.2772   3887010.3905   2   7   0.0658   0.1236   0.1131   0.0471  -0.1010  -0.0550   0.00    1.5
2173  12205.000   -669786.1960  -5002658.2831   3887010.3926   2   7   0.0652   0.1224   0.1119   0.0465  -0.0999  -0.0544   0.00    1.5
2173  12206.000   -669786.1937  -5002658.2680   3887010.3823   2   7   0.0647   0.1212   0.1107   0.0461  -0.0988  -0.0538   0.00    1.5
2173  12207.000   -669786.1887  -5002658.2774   3887010.3831   2   7   0.0642   0.1201   0.1095   0.0455  -0.0977  -0.0533   0.00    1.5
2173  12208.000   -669786.1865  -5002658.2795   3887010.3868   2   7   0.0636   0.1189   0.1083   0.0451  -0.0967  -0.0527   0.00    1.4
2173  12209.000   -669786.1896  -5002658.2834   3887010.3941   2   7   0.0631   0.1178   0.1072   0.0446  -0.0957  -0.0521   0.00    1.4
2173  12210.000   -669786.1872  -5002658.2927   3887010.4053   2   7   0.0626   0.1167   0.1061   0.0441  -0.0947  -0.0516   0.00    1.4
2173  12211.000   -669786.1830  -5002658.2890   3887010.3992   2   7   0.0621   0.1156   0.1050   0.0436  -0.0937  -0.0511   0.00    1.4
2173  12212.000   -669786.1825  -5002658.2964   3887010.4044   2   7   0.0616   0.1146   0.1039   0.0431  -0.0927  -0.0505   0.00    1.4
2173  12213.000   -669786.1826  -5002658.3125   3887010.4150   2   7   0.0611   0.1135   0.1028   0.0427  -0.0918  -0.0500   0.00    1.4
2173  12214.000   -669786.1785  -5002658.3160   3887010.4181   2   7   0.0606   0.1125   0.1017   0.0423  -0.0908  -0.0495   0.00    1.4
2173  12215.000   -669786.1781  -5002658.3210   3887010.4201   2   7   0.0602   0.1115   0.1007   0.0418  -0.0899  -0.0490   0.00    1.4
2173  12216.000   -669786.1838  -5002658.3314   3887010.4305   2   7   0.0597   0.1106   0.0996   0.0413  -0.0889  -0.0485   0.00    1.4
2173  12217.000   -669786.1826  -5002658.3346   3887010.4343   2   7   0.0593   0.1096   0.0986   0.0410  -0.0880  -0.0480   0.00    1.4
2173  12218.000   -669786.1819  -5002658.3252   3887010.4293   2   7   0.0588   0.1086   0.0976   0.0405  -0.0871  -0.0475   0.00    1.4
2173  12219.000   -669786.1836  -5002658.3409   3887010.4418   2   7   0.0584   0.1077   0.0966   0.0401  -0.0863  -0.0470   0.00    1.4
2173  12220.000   -669786.1796  -5002658.3411   3887010.4412   2   7   0.0580   0.1068   0.0956   0.0397  -0.0854  -0.0466   0.00    1.4
2173  12221.000   -669786.1806  -5002658.3516   3887010.4514   2   7   0.0576   0.1059   0.0947   0.0393  -0.0845  -0.0461   0.00    1.4
2173  12222.000   -669786.1802  -5002658.3522   3887010.4568   2   7   0.0572   0.1050   0.0937   0.0389  -0.0837  -0.0456   0.00    1.4
2173  12223.000   -669786.1838  -5002658.3558   3887010.4600   2   7   0.0568   0.1041   0.0928   0.0385  -0.0829  -0.0452   0.00    1.4
2173  12224.000   -669786.1847  -5002658.3549   3887010.4572   2   7   0.0564   0.1032   0.0919   0.0381  -0.0820  -0.0448   0.00    1.3
2173  12225.000   -669786.1875  -5002658.3677   3887010.4676   2   7   0.0560   0.1024   0.0910   0.0377  -0.0812  -0.0443   0.00    1.3
2173  12226.000   -669786.1878  -5002658.3687   3887010.4686   2   7   0.0556   0.1015   0.0901   0.0373  -0.0804  -0.0439   0.00    1.3
2173  12227.000   -669786.1881  -5002658.3720   3887010.4713   2   7   0.0553   0.1007   0.0892   0.0370  -0.0796  -0.0434   0.00    1.3
2173  12228.000   -669786.1922  -5002658.3780   3887010.4744   2   7   0.0549   0.0999   0.0883   0.0366  -0.0788  -0.0430   0.00    1.3
2173  12229.000   -669786.1899  -5002658.3691   3887010.4678   2   7   0.0545   0.0991   0.0875   0.0362  -0.0781  -0.0426   0.00    1.3
2173  12230.000   -669786.1875  -5002658.3714   3887010.4658   2   7   0.0542   0.0983   0.0866   0.0359  -0.0773  -0.0422   0.00    1.3
2173  12231.000   -669786.1927  -5002658.3683   3887010.4619   2   7   0.0539   0.0975   0.0858   0.0355  -0.0766  -0.0418   0.00    1.3
2173  12232.000   -669786.1928  -5002658.3692   3887010.4656   2   7   0.0535   0.0968   0.0850   0.0352  -0.0758  -0.0414   0.00    1.3
2173  12233.000   -669786.1887  -5002658.3704   3887010.4651   2   7   0.0532   0.0960   0.0841   0.0348  -0.0751  -0.0410   0.00    1.3
2173  12234.000   -669786.1897  -5002658.3715   3887010.4727   2   7   0.0529   0.0952   0.0833   0.0345  -0.0743  -0.0406   0.00    1.3
2173  12235.000   -669786.1911  -5002658.3687   3887010.4767   2   7   0.0525   0.0945   0.0825   0.0342  -0.0736  -0.0402   0.00    1.3
2173  12236.000   -669786.1908  -5002658.3640   3887010.4699   2   7   0.0522   0.0938   0.0817   0.0338  -0.0729  -0.0398   0.00    1.3
2173  12237.000   -669786.1934  -5002658.3694   3887010.4781   2   7   0.0519   0.0931   0.0809   0.0335  -0.0722  -0.0395   0.00    1.3
2173  12238.000   -669786.1918  -5002658.3620   3887010.4800   2   7   0.0516   0.0923   0.0801   0.0332  -0.0716  -0.0390   0.00    1.3
2173  12239.000   -669786.1903  -5002658.3662   3887010.4809   2   7   0.0512   0.0916   0.0794   0.0329  -0.0709  -0.0387   0.00    1.3
2173  12240.000   -669786.1947  -5002658.3716   3887010.4861   2   7   0.0510   0.0910   0.0787   0.0325  -0.0702  -0.0383   0.00    1.3
2173  12241.000   -669786.1929  -5002658.3610   3887010.4787   2   7   0.0507   0.0903   0.0779   0.0322  -0.0695  -0.0380   0.00    1.3
2173  12242.000   -669786.1955  -5002658.3677   3887010.4852   2   7   0.0504   0.0896   0.0772   0.0319  -0.0689  -0.0377   0.00    1.3
2173  12243.000   -669786.1971  -5002658.3681   3887010.4868   2   7   0.0501   0.0890   0.0765   0.0316  -0.0682  -0.0373   0.00    1.3
2173  12244.000   -669786.2031  -5002658.3669   3887010.4901   2   7   0.0499   0.0883   0.0758   0.0313  -0.0676  -0.0370   0.00    1.2
2173  12245.000   -669786.2020  -5002658.3609   3887010.4871   2   7   0.0496   0.0877   0.0750   0.0310  -0.0670  -0.0366   0.00    1.2
2173  12246.000   -669786.2041  -5002658.3611   3887010.4937   2   7   0.0493   0.0870   0.0744   0.0307  -0.0663  -0.0363   0.00    1.2
2173  12247.000   -669786.2075  -5002658.3626   3887010.4918   2   7   0.0490   0.0864   0.0737   0.0304  -0.0657  -0.0359   0.00    1.2
2173  12248.000   -669786.2087  -5002658.3656   3887010.4966   2   7   0.0487   0.0858   0.0730   0.0302  -0.0651  -0.0356   0.00    1.2
2173  12249.000   -669786.2081  -5002658.3715   3887010.4998   2   7   0.0485   0.0852   0.0723   0.0298  -0.0645  -0.0353   0.00    1.2
2173  12250.000   -669786.2096  -5002658.3723   3887010.4991   2   7   0.0482   0.0846   0.0717   0.0296  -0.0639  -0.0350   0.00    1.2
2173  12251.000   -669786.2128  -5002658.3732   3887010.5020   2   7   0.0480   0.0840   0.0710   0.0293  -0.0633  -0.0346   0.00    1.2
2173  12252.000   -669786.2117  -5002658.3755   3887010.5060   2   7   0.0477   0.0834   0.0703   0.0291  -0.0627  -0.0343   0.00    1.2
2173  12253.000   -669786.2130  -5002658.3717   3887010.5005   2   7   0.0475   0.0828   0.0697   0.0288  -0.0622  -0.0340   0.00    1.2
2173  12254.000   -669786.2152  -5002658.3778   3887010.5089   2   7   0.0472   0.0822   0.0691   0.0285  -0.0616  -0.0337   0.00    1.2
2173  12255.000   -669786.2149  -5002658.3744   3887010.5054   2   7   0.0470   0.0817   0.0685   0.0283  -0.0610  -0.0334   0.00    1.2
2173  12256.000   -669786.2169  -5002658.3780   3887010.5119   2   7   0.0467   0.0811   0.0678   0.0280  -0.0605  -0.0331   0.00    1.2
2173  12257.000   -669786.2195  -5002658.3797   3887010.5141   2   7   0.0465   0.0805   0.0672   0.0277  -0.0599  -0.0329   0.00    1.2
2173  12258.000   -669786.2194  -5002658.3714   3887010.5110   2   7   0.0463   0.0800   0.0666   0.0275  -0.0594  -0.0326   0.00    1.2
2173  12259.000   -669786.2240  -5002658.3779   3887010.5216   2   7   0.0460   0.0794   0.0660   0.0273  -0.0589  -0.0322   0.00    1.2
2173  12260.000   -669786.2258  -5002658.3815   3887010.5261   2   7   0.0458   0.0789   0.0655   0.0270  -0.0583  -0.0320   0.00    1.2
2173  12261.000   -669786.2285  -5002658.3840   3887010.5325   2   7   0.0457   0.0784   0.0649   0.0267  -0.0578  -0.0317   0.00    1.2
2173  12262.000   -669786.2280  -5002658.3827   3887010.5344   2   7   0.0454   0.0779   0.0643   0.0265  -0.0573  -0.0314   0.00    1.2
2173  12263.000   -669786.2343  -5002658.3875   3887010.5407   2   7   0.0452   0.0774   0.0637   0.0263  -0.0568  -0.0311   0.00    1.2
2173  12264.000   -669786.2348  -5002658.3811   3887010.5349   2   7   0.0450   0.0769   0.0632   0.0260  -0.0563  -0.0309   0.00    1.1
2173  12265.000   -669786.2350  -5002658.3752   3887010.5349   2   7   0.0447   0.0764   0.0626   0.0258  -0.0558  -0.0306   0.00    1.1
2173  12266.000   -669786.2364  -5002658.3853   3887010.5433   2   7   0.0446   0.0759   0.0621   0.0256  -0.0553  -0.0303   0.00    1.1
2173  12267.000   -669786.2395  -5002658.3854   3887010.5441   2   7   0.0444   0.0754   0.0615   0.0254  -0.0549  -0.0301   0.00    1.1
2173  12268.000   -669786.2385  -5002658.3792   3887010.5399   2   7   0.0442   0.0749   0.0610   0.0252  -0.0544  -0.0298   0.00    1.1
2173  12269.000   -669786.2420  -5002658.3798   3887010.5464   2   7   0.0439   0.0744   0.0605   0.0249  -0.0539  -0.0296   0.00    1.1
2173  12270.000   -669786.2440  -5002658.3870   3887010.5548   2   7   0.0437   0.0740   0.0600   0.0247  -0.0534  -0.0293   0.00    1.1
2173  12271.000   -669786.2454  -5002658.3857   3887010.5549   2   7   0.0435   0.0735   0.0594   0.0245  -0.0530  -0.0291   0.00    1.1
2173  12272.000   -669786.2460  -5002658.3890   3887010.5627   2   7   0.0433   0.0730   0.0589   0.0243  -0.0525  -0.0288   0.00    1.1
2173  12273.000   -669786.2514  -5002658.3848   3887010.5651   2   7   0.0431   0.0726   0.0584   0.0241  -0.0521  -0.0286   0.00    1.1
2173  12274.000   -669786.2532  -5002658.3880   3887010.5711   2   6   0.0431   0.0725   0.0580   0.0234  -0.0516  -0.0284   0.00    1.5
2173  12275.000   -669786.2555  -5002658.3822   3887010.5688   2   6   0.0430   0.0721   0.0577   0.0232  -0.0513  -0.0283   0.00    1.5
2173  12276.000   -669786.2543  -5002658.3886   3887010.5738   2   6   0.0428   0.0718   0.0574   0.0230  -0.0509  -0.0282   0.00    1.5
2173  12277.000   -669786.2578  -5002658.3900   3887010.5760   2   6   0.0427   0.0715   0.0571   0.0227  -0.0506  -0.0281   0.00    1.5
2173  12278.000   -669786.2585  -5002658.3950   3887010.5809   2   6   0.0426   0.0712   0.0568   0.0226  -0.0503  -0.0279   0.00    1.5
2173  12279.000   -669786.2619  -5002658.3886   3887010.5756   2   6   0.0424   0.0709   0.0565   0.0223  -0.0500  -0.0278   0.00    1.5
2173  12280.000   -669786.2621  -5002658.3818   3887010.5750   2   6   0.0422   0.0705   0.0562   0.0222  -0.0497  -0.0277   0.00    1.5
2173  12281.000   -669786.2637  -5002658.3937   3887010.5831   2   6   0.0421   0.0702   0.0559   0.0220  -0.0494  -0.0276   0.00    1.5
2173  12282.000   -669786.2636  -5002658.3932   3887010.5847   2   6   0.0420   0.0699   0.0557   0.0217  -0.0491  -0.0275   0.00    1.5
2173  12283.000   -669786.2613  -5002658.3954   3887010.5852   2   6   0.0419   0.0696   0.0554   0.0216  -0.0488  -0.0274   0.00    1.5
2173  12284.000   -669786.2637  -5002658.3926   3887010.5904   2   6   0.0417   0.0693   0.0551   0.0213  -0.0485  -0.0273   0.00    1.5
2173  12285.000   -669786.2656  -5002658.3950   3887010.5882   2   6   0.0416   0.0690   0.0549   0.0211  -0.0482  -0.0272   0.00    1.5
2173  12286.000   -669786.2676  -5002658.3959   3887010.5913   2   6   0.0415   0.0687   0.0546   0.0210  -0.0479  -0.0270   0.00    1.5
2173  12287.000   -669786.2695  -5002658.3912   3887010.5907   2   6   0.0414   0.0684   0.0543   0.0208  -0.0476  -0.0269   0.00    1.5
2173  12288.000   -669786.2704  -5002658.3898   3887010.5921   2   6   0.0412   0.0681   0.0540   0.0206  -0.0473  -0.0268   0.00    1.5
2173  12289.000   -669786.2705  -5002658.3845   3887010.5908   2   6   0.0411   0.0677   0.0537   0.0204  -0.0470  -0.0267   0.00    1.5
2173  12290.000   -669786.2684  -5002658.3799   3887010.5871   2   6   0.0410   0.0674   0.0535   0.0202  -0.0467  -0.0266   0.00    1.5
2173  12291.000   -669786.2685  -5002658.3778   3887010.5892   2   6   0.0409   0.0671   0.0532   0.0201  -0.0464  -0.0265   0.00    1.5
2173  12292.000   -669786.2684  -5002658.3805   3887010.5884   2   6   0.0408   0.0668   0.0530   0.0198  -0.0461  -0.0264   0.00    1.6
2173  12293.000   -669786.2711  -5002658.3684   3887010.5853   2   6   0.0406   0.0665   0.0527   0.0196  -0.0458  -0.0263   0.00    1.6
2173  12294.000   -669786.2736  -5002658.3698   3887010.5855   2   6   0.0405   0.0662   0.0524   0.0195  -0.0456  -0.0262   0.00    1.6
2173  12295.000   -669786.2719  -5002658.3663   3887010.5796   2   6   0.0404   0.0660   0.0521   0.0193  -0.0453  -0.0261   0.00    1.6
2173  12296.000   -669786.2694  -5002658.3572   3887010.5753   2   6   0.0403   0.0657   0.0519   0.0191  -0.0450  -0.0260   0.00    1.6
2173  12297.000   -669786.2693  -5002658.3578   3887010.5762   2   6   0.0401   0.0654   0.0516   0.0190  -0.0447  -0.0259   0.00    1.6
2173  12298.000   -669786.2733  -5002658.3535   3887010.5788   2   6   0.0400   0.0651   0.0514   0.0187  -0.0444  -0.0258   0.00    1.6
2173  12299.000   -669786.2715  -5002658.3577   3887010.5796   2   6   0.0399   0.0648   0.0511   0.0186  -0.0441  -0.0257   0.00    1.6
2173  12300.000   -669786.2712  -5002658.3511   3887010.5733   2   6   0.0398   0.0645   0.0509   0.0184  -0.0438  -0.0256   0.00    1.6
2173  12301.000   -669786.2755  -5002658.3542   3887010.5785   2   6   0.0397   0.0642   0.0506   0.0182  -0.0436  -0.0255   0.00    1.6
2173  12302.000   -669786.2742  -5002658.3590   3887010.5799   2   6   0.0396   0.0639   0.0504   0.0180  -0.0433  -0.0254   0.00    1.6
2173  12303.000   -669786.2737  -5002658.3555   3887010.5813   2   6   0.0395   0.0637   0.0501   0.0179  -0.0430  -0.0253   0.00    1.6
2173  12304.000   -669786.2755  -5002658.3597   3887010.5842   2   6   0.0394   0.0634   0.0499   0.0177  -0.0427  -0.0252   0.00    1.6
2173  12305.000   -669786.2776  -5002658.3548   3887010.5826   2   6   0.0393   0.0631   0.0497   0.0175  -0.0424  -0.0252   0.00    1.6
2173  12306.000   -669786.2727  -5002658.3468   3887010.5768   2   6   0.0392   0.0628   0.0494   0.0174  -0.0422  -0.0250   0.00    1.6
2173  12307.000   -669786.2711  -5002658.3362   3887010.5730   2   6   0.0391   0.0625   0.0492   0.0172  -0.0419  -0.0249   0.00    1.6
2173  12308.000   -669786.2728  -5002658.3365   3887010.5724   2   6   0.0390   0.0623   0.0489   0.0170  -0.0416  -0.0249   0.00    1.6
2173  12309.000   -669786.2705  -5002658.3357   3887010.5726   2   6   0.0389   0.0620   0.0487   0.0169  -0.0414  -0.0248   0.00    1.6
2173  12310.000   -669786.2731  -5002658.3266   3887010.5714   2   6   0.0388   0.0617   0.0484   0.0167  -0.0411  -0.0247   0.00    1.6
2173  12311.000   -669786.2730  -5002658.3222   3887010.5698   2   6   0.0387   0.0615   0.0482   0.0165  -0.0408  -0.0247   0.00    1.6
2173  12312.000   -669786.2729  -5002658.3172   3887010.5634   2   6   0.0385   0.0612   0.0480   0.0164  -0.0406  -0.0246   0.00    1.6
2173  12313.000   -669786.2711  -5002658.3143   3887010.5643   2   6   0.0385   0.0609   0.0477   0.0162  -0.0403  -0.0244   0.00    1.7
2173  12314.000   -669786.2694  -5002658.3144   3887010.5629   2   6   0.0384   0.0606   0.0475   0.0161  -0.0400  -0.0243   0.00    1.7
2173  12315.000   -669786.2701  -5002658.3116   3887010.5639   2   6   0.0383   0.0604   0.0473   0.0159  -0.0398  -0.0242   0.00    1.7
2173  12316.000   -669786.2718  -5002658.3011   3887010.5573   2   6   0.0381   0.0601   0.0470   0.0157  -0.0395  -0.0242   0.00    1.7
2173  12317.000   -669786.2724  -5002658.3035   3887010.5604   2   6   0.0381   0.0599   0.0468   0.0156  -0.0393  -0.0241   0.00    1.7
2173  12318.000   -669786.2705  -5002658.3074   3887010.5595   2   6   0.0380   0.0596   0.0466   0.0154  -0.0390  -0.0240   0.00    1.7
2173  12319.000   -669786.2714  -5002658.2991   3887010.5562   2   6   0.0379   0.0593   0.0464   0.0152  -0.0388  -0.0240   0.00    1.7
2173  12320.000   -669786.2737  -5002658.2915   3887010.5558   2   6   0.0378   0.0591   0.0462   0.0150  -0.0385  -0.0239   0.00    1.7
2173  12321.000   -669786.2739  -5002658.2913   3887010.5525   2   6   0.0377   0.0589   0.0460   0.0149  -0.0383  -0.0238   0.00    1.7
2173  12322.000   -669786.2722  -5002658.2919   3887010.5532   2   6   0.0376   0.0586   0.0457   0.0148  -0.0380  -0.0237   0.00    1.7
2173  12323.000   -669786.2722  -5002658.2903   3887010.5533   2   6   0.0375   0.0583   0.0455   0.0146  -0.0378  -0.0237   0.00    1.7
2173  12324.000   -669786.2753  -5002658.2932   3887010.5571   2   6   0.0374   0.0581   0.0453   0.0145  -0.0375  -0.0236   0.00    1.7
2173  12325.000   -669786.2767  -5002658.2930   3887010.5582   2   6   0.0373   0.0579   0.0451   0.0143  -0.0373  -0.0235   0.00    1.7
2173  12326.000   -669786.2750  -5002658.2875   3887010.5540   2   6   0.0372   0.0576   0.0449   0.0142  -0.0370  -0.0234   0.00    1.7
2173  12327.000   -669786.2761  -5002658.2879   3887010.5558   2   6   0.0371   0.0574   0.0447   0.0141  -0.0368  -0.0234   0.00    1.7
2173  12328.000   -669786.2784  -5002658.2865   3887010.5560   2   6   0.0371   0.0571   0.0445   0.0139  -0.0365  -0.0233   0.00    1.7
2173  12329.000   -669786.2754  -5002658.2861   3887010.5576   2   6   0.0370   0.0569   0.0442   0.0137  -0.0363  -0.0232   0.00    1.7
2173  12330.000   -669786.2781  -5002658.2920   3887010.5639   2   6   0.0369   0.0566   0.0441   0.0136  -0.0361  -0.0232   0.00    1.7
2173  12331.000   -669786.2767  -5002658.2863   3887010.5591   2   6   0.0368   0.0564   0.0438   0.0134  -0.0358  -0.0231   0.00    1.7
2173  12332.000   -669786.2775  -5002658.2857   3887010.5638   2   6   0.0367   0.0562   0.0436   0.0133  -0.0356  -0.0230   0.00    1.7
2173  12333.000   -669786.2800  -5002658.2844   3887010.5645   2   6   0.0366   0.0559   0.0434   0.0132  -0.0354  -0.0229   0.00    1.7
2173  12334.000   -669786.2798  -5002658.2810   3887010.5620   2   6   0.0365   0.0557   0.0433   0.0130  -0.0351  -0.0229   0.00    1.7
2173  12335.000   -669786.2816  -5002658.2734   3887010.5611   2   6   0.0365   0.0555   0.0430   0.0129  -0.0349  -0.0228   0.00    1.8
2173  12336.000   -669786.2812  -5002658.2661   3887010.5566   2   6   0.0364   0.0553   0.0429   0.0126  -0.0347  -0.0227   0.00    1.8
2173  12337.000   -669786.2812  -5002658.2779   3887010.5673   2   6   0.0363   0.0550   0.0427   0.0126  -0.0344  -0.0226   0.00    1.8
2173  12338.000   -669786.2874  -5002658.2739   3887010.5666   2   6   0.0362   0.0548   0.0425   0.0124  -0.0342  -0.0226   0.00    1.8
2173  12339.000   -669786.2839  -5002658.2700   3887010.5665   2   6   0.0362   0.0546   0.0423   0.0123  -0.0340  -0.0225   0.00    1.8
2173  12340.000   -669786.2893  -5002658.2660   3887010.5635   2   6   0.0361   0.0543   0.0421   0.0122  -0.0338  -0.0225   0.00    1.8
2173  12341.000   -669786.2883  -5002658.2654   3887010.5670   2   6   0.0360   0.0541   0.0419   0.0120  -0.0335  -0.0225   0.00    1.8
2173  12342.000   -669786.2914  -5002658.2687   3887010.5729   2   6   0.0359   0.0539   0.0417   0.0119  -0.0334  -0.0223   0.00    1.8
2173  12343.000   -669786.2934  -5002658.2765   3887010.5784   2   6   0.0359   0.0537   0.0415   0.0117  -0.0331  -0.0223   0.00    1.8
2173  12344.000   -669786.2960  -5002658.2703   3887010.5764   2   6   0.0357   0.0535   0.0413   0.0116  -0.0329  -0.0222   0.00    1.8
2173  12345.000   -669786.2973  -5002658.2676   3887010.5760   2   6   0.0357   0.0532   0.0412   0.0115  -0.0327  -0.0221   0.00    1.8
2173  12346.000   -669786.3032  -5002658.2683   3887010.5771   2   6   0.0356   0.0530   0.0410   0.0114  -0.0325  -0.0221   0.00    1.8
2173  12347.000   -669786.3022  -5002658.2645   3887010.5786   2   6   0.0355   0.0528   0.0408   0.0112  -0.0322  -0.0220   0.00    1.8
2173  12348.000   -669786.3036  -5002658.2639   3887010.5794   2   6   0.0355   0.0526   0.0406   0.0110  -0.0320  -0.0219   0.00    1.8
2173  12349.000   -669786.3047  -5002658.2606   3887010.5767   2   6   0.0354   0.0524   0.0404   0.0109  -0.0318  -0.0219   0.00    1.8
2173  12350.000   -669786.3094  -5002658.2625   3887010.5807   2   6   0.0353   0.0522   0.0403   0.0108  -0.0316  -0.0218   0.00    1.9
2173  12351.000   -669786.3100  -5002658.2595   3887010.5790   2   6   0.0352   0.0520   0.0401   0.0106  -0.0314  -0.0218   0.00    1.9
2173  12352.000   -669786.3130  -5002658.2623   3887010.5855   2   6   0.0352   0.0518   0.0399   0.0105  -0.0312  -0.0217   0.00    1.9
2173  12353.000   -669786.3140  -5002658.2645   3887010.5860   2   6   0.0350   0.0516   0.0398   0.0104  -0.0310  -0.0217   0.00    1.9
2173  12354.000   -669786.3150  -5002658.2544   3887010.5833   2   6   0.0350   0.0514   0.0396   0.0101  -0.0308  -0.0216   0.00    1.9
2173  12355.000   -669786.3161  -5002658.2470   3887010.5814   2   6   0.0349   0.0512   0.0394   0.0102  -0.0306  -0.0215   0.00    1.9
2173  12356.000   -669786.3169  -5002658.2433   3887010.5810   2   6   0.0349   0.0510   0.0393   0.0100  -0.0304  -0.0215   0.00    1.9
2173  12357.000   -669786.3189  -5002658.2501   3887010.5850   2   6   0.0348   0.0508   0.0391   0.0100  -0.0302  -0.0214   0.00    1.9
2173  12358.000   -669786.3225  -5002658.2453   3887010.5843   2   6   0.0347   0.0506   0.0389   0.0097  -0.0300  -0.0214   0.00    1.9
2173  12359.000   -669786.3204  -5002658.2468   3887010.5845   2   6   0.0347   0.0504   0.0388   0.0096  -0.0298  -0.0213   0.00    1.9
2173  12360.000   -669786.3201  -5002658.2464   3887010.5869   2   6   0.0346   0.0502   0.0386   0.0094  -0.0296  -0.0213   0.00    1.9
2173  12361.000   -669786.3220  -5002658.2436   3887010.5899   2   6   0.0345   0.0500   0.0384   0.0093  -0.0294  -0.0212   0.00    1.9
2173  12362.000   -669786.3251  -5002658.2462   3887010.5928   2   6   0.0345   0.0498   0.0383   0.0092  -0.0292  -0.0212   0.00    1.9
2173  12363.000   -669786.3232  -5002658.2486   3887010.5950   2   6   0.0344   0.0496   0.0381   0.0091  -0.0290  -0.0211   0.00    1.9
2173  12364.000   -669786.3281  -5002658.2467   3887010.5970   2   6   0.0344   0.0494   0.0380   0.0089  -0.0288  -0.0210   0.00    1.9
2173  12365.000   -669786.3326  -5002658.2433   3887010.5956   2   6   0.0343   0.0493   0.0378   0.0088  -0.0286  -0.0210   0.00    1.9
2173  12366.000   -669786.3368  -5002658.2380   3887010.5974   2   6   0.0342   0.0491   0.0377   0.0087  -0.0284  -0.0209   0.00    1.9
2173  12367.000   -669786.3366  -5002658.2385   3887010.5946   2   6   0.0341   0.0489   0.0375   0.0085  -0.0283  -0.0209   0.00    2.0
2173  12368.000   -669786.3374  -5002658.2357   3887010.5971   2   6   0.0341   0.0487   0.0374   0.0084  -0.0281  -0.0209   0.00    2.0
2173  12369.000   -669786.3411  -5002658.2393   3887010.6009   2   6   0.0340   0.0486   0.0372   0.0082  -0.0279  -0.0208   0.00    2.0
2173  12370.000   -669786.3431  -5002658.2337   3887010.6000   2   6   0.0339   0.0483   0.0370   0.0080  -0.0277  -0.0208   0.00    2.0
2173  12371.000   -669786.3412  -5002658.2345   3887010.6044   2   6   0.0339   0.0482   0.0369   0.0080  -0.0275  -0.0207   0.00    2.0
2173  12372.000   -669786.3435  -5002658.2407   3887010.6105   2   6   0.0338   0.0480   0.0368   0.0078  -0.0273  -0.0207   0.00    2.0
2173  12373.000   -669786.3450  -5002658.2309   3887010.6080   2   6   0.0338   0.0478   0.0366   0.0076  -0.0271  -0.0206   0.00    2.0
2173  12374.000   -669786.3466  -5002658.2333   3887010.6098   2   6   0.0337   0.0476   0.0365   0.0076  -0.0270  -0.0206   0.00    2.0
2173  12375.000   -669786.3474  -5002658.2264   3887010.6083   2   6   0.0336   0.0475   0.0363   0.0073  -0.0268  -0.0205   0.00    2.0
2173  12376.000   -669786.3497  -5002658.2368   3887010.6151   2   6   0.0336   0.0473   0.0362   0.0073  -0.0266  -0.0205   0.00    2.0
2173  12377.000   -669786.3517  -5002658.2310   3887010.6150   2   6   0.0335   0.0471   0.0360   0.0072  -0.0265  -0.0204   0.00    2.0
2173  12378.000   -669786.3522  -5002658.2397   3887010.6206   2   6   0.0334   0.0470   0.0359   0.0071  -0.0263  -0.0204   0.00    2.0
2173  12379.000   -669786.3543  -5002658.2367   3887010.6215   2   6   0.0334   0.0468   0.0358   0.0068  -0.0261  -0.0204   0.00    2.0
2173  12380.000   -669786.3572  -5002658.2355   3887010.6238   2   6   0.0333   0.0466   0.0356   0.0068  -0.0260  -0.0203   0.00    2.0
2173  12381.000   -669786.3614  -5002658.2320   3887010.6227   2   6   0.0333   0.0464   0.0355   0.0066  -0.0258  -0.0202   0.00    2.1
2173  12382.000   -669786.3620  -5002658.2296   3887010.6238   2   6   0.0332   0.0463   0.0353   0.0066  -0.0256  -0.0202   0.00    2.1
2173  12383.000   -669786.3634  -5002658.2319   3887010.6304   2   6   0.0331   0.0461   0.0352   0.0065  -0.0255  -0.0201   0.00    2.1
2173  12384.000   -669786.3654  -5002658.2268   3887010.6288   2   6   0.0331   0.0460   0.0351   0.0063  -0.0253  -0.0201   0.00    2.1
2173  12385.000   -669786.3646  -5002658.2375   3887010.6339   2   6   0.0330   0.0458   0.0349   0.0061  -0.0251  -0.0201   0.00    2.1
2173  12386.000   -669786.3672  -5002658.2347   3887010.6384   2   6   0.0330   0.0457   0.0348   0.0058  -0.0250  -0.0200   0.00    2.1
2173  12387.000   -669786.3692  -5002658.2314   3887010.6395   2   6   0.0329   0.0455   0.0347   0.0057  -0.0248  -0.0200   0.00    2.1
2173  12388.000   -669786.3674  -5002658.2375   3887010.6394   2   6   0.0329   0.0453   0.0346   0.0057  -0.0246  -0.0200   0.00    2.1
2173  12389.000   -669786.3693  -5002658.2281   3887010.6402   2   6   0.0328   0.0452   0.0344   0.0055  -0.0245  -0.0200   0.00    2.1
2173  12390.000   -669786.3696  -5002658.2310   3887010.6437   2   6   0.0327   0.0450   0.0343   0.0055  -0.0243  -0.0198   0.00    2.1
2173  12391.000   -669786.3722  -5002658.2321   3887010.6472   2   6   0.0327   0.0449   0.0342   0.0052  -0.0241  -0.0199   0.00    2.1
2173  12392.000   -669786.3730  -5002658.2336   3887010.6506   2   6   0.0326   0.0447   0.0340   0.0051  -0.0240  -0.0198   0.00    2.1
2173  12393.000   -669786.3753  -5002658.2315   3887010.6487   2   6   0.0326   0.0446   0.0339   0.0049  -0.0238  -0.0198   0.00    2.2
2173  12394.000   -669786.3753  -5002658.2306   3887010.6501   2   6   0.0325   0.0444   0.0338   0.0047  -0.0237  -0.0197   0.00    2.2
2173  12395.000   -669786.3777  -5002658.2332   3887010.6544   2   6   0.0324   0.0442   0.0336   0.0048  -0.0235  -0.0196   0.00    2.2
2173  12396.000   -669786.3805  -5002658.2294   3887010.6531   2   6   0.0324   0.0441   0.0335   0.0043  -0.0234  -0.0196   0.00    2.2
2173  12397.000   -669786.3810  -5002658.2345   3887010.6562   2   6   0.0324   0.0440   0.0334   0.0042  -0.0232  -0.0196   0.00    2.2
2173  12398.000   -669786.3806  -5002658.2363   3887010.6615   2   6   0.0323   0.0438   0.0333   0.0042  -0.0231  -0.0195   0.00    2.2
2173  12399.000   -669786.3830  -5002658.2240   3887010.6562   2   6   0.0323   0.0437   0.0332   0.0038  -0.0229  -0.0195   0.00    2.2
2173  12400.000   -669786.3846  -5002658.2312   3887010.6635   2   6   0.0322   0.0435   0.0330   0.0039  -0.0228  -0.0194   0.00    2.2
2173  12401.000   -669786.3859  -5002658.2243   3887010.6609   2   6   0.0322   0.0433   0.0329   0.0037  -0.0227  -0.0194   0.00    2.2
2173  12402.000   -669786.3858  -5002658.2254   3887010.6655   2   6   0.0321   0.0432   0.0328   0.0034  -0.0225  -0.0194   0.00    2.2
2173  12403.000   -669786.3878  -5002658.2282   3887010.6687   2   6   0.0320   0.0431   0.0327   0.0031  -0.0223  -0.0194   0.00    2.2
2173  12404.000   -669786.3893  -5002658.2311   3887010.6702   2   6   0.0320   0.0430   0.0326   0.0030  -0.0222  -0.0193   0.00    2.2
2173  12405.000   -669786.3869  -5002658.2223   3887010.6644   2   6   0.0319   0.0428   0.0325   0.0028  -0.0220  -0.0193   0.00    2.2
2173  12406.000   -669786.3883  -5002658.2228   3887010.6714   2   6   0.0319   0.0427   0.0324   0.0021  -0.0219  -0.0193   0.00    2.3
2173  12407.000   -669786.3904  -5002658.2240   3887010.6696   2   6   0.0318   0.0425   0.0323   0.0023  -0.0218  -0.0192   0.00    2.3
2173  12408.000   -669786.3908  -5002658.2236   3887010.6718   2   6   0.0318   0.0424   0.0321   0.0024  -0.0217  -0.0192   0.00    2.3
2173  12409.000   -669786.3918  -5002658.2277   3887010.6736   2   6   0.0317   0.0423   0.0320   0.0018  -0.0215  -0.0191   0.00    2.3
2173  12410.000   -669786.3916  -5002658.2318   3887010.6816   2   6   0.0317   0.0421   0.0320   0.0009  -0.0213  -0.0191   0.00    2.3
2173  12411.000   -669786.3939  -5002658.2254   3887010.6740   2   6   0.0317   0.0420   0.0318  -0.0007  -0.0212  -0.0191   0.00    2.3
2173  12412.000   -669786.3947  -5002658.2308   3887010.6785   2   6   0.0316   0.0418   0.0317  -0.0013  -0.0211  -0.0190   0.00    2.3
2173  12413.000   -669786.3968  -5002658.2277   3887010.6810   2   6   0.0315   0.0417   0.0316  -0.0014  -0.0209  -0.0190   0.00    2.3
2173  12414.000   -669786.3978  -5002658.2279   3887010.6796   2   6   0.0315   0.0416   0.0315  -0.0019  -0.0208  -0.0190   0.00    2.3
2173  12415.000   -669786.3982  -5002658.2316   3887010.6825   2   6   0.0315   0.0415   0.0314  -0.0022  -0.0207  -0.0189   0.00    2.3
2173  12416.000   -669786.4009  -5002658.2252   3887010.6796   2   6   0.0314   0.0413   0.0313  -0.0023  -0.0206  -0.0189   0.00    2.3
2173  12417.000   -669786.4003  -5002658.2353   3887010.6834   2   6   0.0314   0.0412   0.0312  -0.0027  -0.0204  -0.0189   0.00    2.3
2173  12418.000   -669786.4026  -5002658.2303   3887010.6810   2   6   0.0313   0.0411   0.0311  -0.0027  -0.0202  -0.0188   0.00    2.3
2173  12419.000   -669786.4000  -5002658.2306   3887010.6799   2   6   0.0312   0.0409   0.0310  -0.0031  -0.0201  -0.0188   0.00    2.3
2173  12420.000   -669786.4029  -5002658.2305   3887010.6813   2   6   0.0312   0.0408   0.0309  -0.0031  -0.0200  -0.0187   0.00    2.3
2173  12421.000   -669786.4027  -5002658.2302   3887010.6818   2   6   0.0312   0.0407   0.0308  -0.0031  -0.0199  -0.0187   0.00    2.3
2173  12422.000   -669786.4034  -5002658.2298   3887010.6834   2   6   0.0311   0.0406   0.0307  -0.0033  -0.0197  -0.0187   0.00    2.4
2173  12423.000   -669786.4055  -5002658.2242   3887010.6804   2   6   0.0310   0.0404   0.0306  -0.0035  -0.0196  -0.0187   0.00    2.4
2173  12424.000   -669786.4076  -5002658.2303   3887010.6860   2   6   0.0310   0.0403   0.0305  -0.0035  -0.0195  -0.0186   0.00    2.4
2173  12425.000   -669786.4086  -5002658.2282   3887010.6872   2   6   0.0310   0.0402   0.0304  -0.0038  -0.0194  -0.0186   0.00    2.4
2173  12426.000   -669786.4089  -5002658.2301   3887010.6861   2   6   0.0309   0.0401   0.0303  -0.0039  -0.0193  -0.0185   0.00    2.4
2173  12427.000   -669786.4096  -5002658.2387   3887010.6913   2   6   0.0309   0.0399   0.0302  -0.0040  -0.0191  -0.0186   0.00    2.4
2173  12428.000   -669786.4102  -5002658.2365   3887010.6908   2   6   0.0308   0.0398   0.0301  -0.0041  -0.0190  -0.0185   0.00    2.4
2173  12429.000   -669786.4114  -5002658.2315   3887010.6857   2   6   0.0308   0.0397   0.0300  -0.0042  -0.0189  -0.0184   0.00    2.4
2173  12430.000   -669786.4096  -5002658.2322   3887010.6845   2   6   0.0307   0.0396   0.0299  -0.0044  -0.0188  -0.0185   0.00    2.4
2173  12431.000   -669786.4096  -5002658.2304   3887010.6850   2   6   0.0307   0.0395   0.0298  -0.0045  -0.0186  -0.0184   0.00    2.4
2173  12432.000   -669786.4121  -5002658.2247   3887010.6840   2   6   0.0307   0.0394   0.0297  -0.0046  -0.0185  -0.0184   0.00    2.4
2173  12433.000   -669786.4118  -5002658.2228   3887010.6839   2   6   0.0306   0.0392   0.0296  -0.0045  -0.0184  -0.0183   0.00    2.4
2173  12434.000   -669786.4133  -5002658.2292   3887010.6880   2   6   0.0306   0.0391   0.0295  -0.0048  -0.0183  -0.0183   0.00    2.4
2173  12435.000   -669786.4089  -5002658.2309   3887010.6881   2   6   0.0305   0.0390   0.0294  -0.0049  -0.0182  -0.0183   0.00    2.4
2173  12436.000   -669786.4121  -5002658.2282   3887010.6836   2   6   0.0305   0.0389   0.0294  -0.0050  -0.0180  -0.0183   0.00    2.4
2173  12437.000   -669786.4121  -5002658.2262   3887010.6870   2   6   0.0304   0.0388   0.0293  -0.0051  -0.0179  -0.0182   0.00    2.5
2173  12438.000   -669786.4108  -5002658.2245   3887010.6891   2   6   0.0304   0.0387   0.0292  -0.0051  -0.0178  -0.0182   0.00    2.5
2173  12439.000   -669786.4132  -5002658.2232   3887010.6881   2   6   0.0304   0.0386   0.0291  -0.0050  -0.0177  -0.0181   0.00    2.5
2173  12440.000   -669786.4140  -5002658.2209   3887010.6873   2   6   0.0303   0.0384   0.0290  -0.0051  -0.0176  -0.0181   0.00    2.5
2173  12441.000   -669786.4139  -5002658.2276   3887010.6902   2   6   0.0303   0.0383   0.0289  -0.0053  -0.0175  -0.0181   0.00    2.5
2173  12442.000   -669786.4147  -5002658.2181   3887010.6854   2   6   0.0302   0.0383   0.0288  -0.0055  -0.0174  -0.0181   0.00    2.5
2173  12443.000   -669786.4122  -5002658.2189   3887010.6844   2   6   0.0302   0.0382   0.0287  -0.0055  -0.0172  -0.0181   0.00    2.5
2173  12444.000   -669786.4118  -5002658.2158   3887010.6797   2   6   0.0302   0.0380   0.0287  -0.0056  -0.0171  -0.0181   0.00    2.5
2173  12445.000   -669786.4126  -5002658.2144   3887010.6824   2   6   0.0301   0.0379   0.0286  -0.0056  -0.0170  -0.0180   0.00    2.5
2173  12446.000   -669786.4135  -5002658.2137   3887010.6838   2   6   0.0301   0.0378   0.0285  -0.0058  -0.0169  -0.0180   0.00    2.5
2173  12447.000   -669786.4128  -5002658.2150   3887010.6881   2   6   0.0300   0.0377   0.0284  -0.0058  -0.0168  -0.0180   0.00    2.5
2173  12448.000   -669786.4115  -5002658.2142   3887010.6840   2   6   0.0300   0.0376   0.0283  -0.0058  -0.0167  -0.0180   0.00    2.6
2173  12449.000   -669786.4165  -5002658.2113   3887010.6823   2   6   0.0300   0.0375   0.0282  -0.0058  -0.0167  -0.0179   0.00    2.6
2173  12450.000   -669786.4164  -5002658.2090   3887010.6845   2   6   0.0299   0.0374   0.0282  -0.0059  -0.0165  -0.0179   0.00    2.6
2173  12451.000   -669786.4164  -5002658.2045   3887010.6829   2   6   0.0299   0.0373   0.0280  -0.0058  -0.0164  -0.0178   0.00    2.6
2173  12452.000   -669786.4149  -5002658.1994   3887010.6792   2   6   0.0298   0.0372   0.0280  -0.0060  -0.0163  -0.0178   0.00    2.6
2173  12453.000   -669786.4163  -5002658.2045   3887010.6850   2   6   0.0298   0.0371   0.0279  -0.0061  -0.0162  -0.0178   0.00    2.6
2173  12454.000   -669786.4146  -5002658.2061   3887010.6842   2   6   0.0297   0.0370   0.0278  -0.0061  -0.0161  -0.0178   0.00    2.6
2173  12455.000   -669786.4170  -5002658.2035   3887010.6829   2   6   0.0297   0.0369   0.0277  -0.0062  -0.0160  -0.0177   0.00    2.6
2173  12456.000   -669786.4158  -5002658.2014   3887010.6828   2   6   0.0297   0.0368   0.0277  -0.0062  -0.0159  -0.0177   0.00    2.6
2173  12457.000   -669786.4178  -5002658.1998   3887010.6813   2   6   0.0296   0.0367   0.0276  -0.0062  -0.0158  -0.0177   0.00    2.6
2173  12458.000   -669786.4168  -5002658.1995   3887010.6802   2   6   0.0296   0.0366   0.0275  -0.0062  -0.0157  -0.0177   0.00    2.6
2173  12459.000   -669786.4175  -5002658.1945   3887010.6793   2   6   0.0295   0.0365   0.0275  -0.0062  -0.0156  -0.0176   0.00    2.7
2173  12460.000   -669786.4164  -5002658.1979   3887010.6824   2   6   0.0295   0.0364   0.0274  -0.0063  -0.0155  -0.0176   0.00    2.7
2173  12461.000   -669786.4158  -5002658.1938   3887010.6810   2   6   0.0295   0.0363   0.0273  -0.0065  -0.0153  -0.0176   0.00    2.7
2173  12462.000   -669786.4167  -5002658.1927   3887010.6818   2   6   0.0294   0.0362   0.0272  -0.0065  -0.0152  -0.0176   0.00    2.7
2173  12463.000   -669786.4166  -5002658.1925   3887010.6817   2   6   0.0294   0.0361   0.0271  -0.0065  -0.0152  -0.0175   0.00    2.7
2173  12464.000   -669786.4185  -5002658.1954   3887010.6834   2   6   0.0294   0.0360   0.0271  -0.0067  -0.0151  -0.0175   0.00    2.7
2173  12465.000   -669786.4203  -5002658.1889   3887010.6801   2   6   0.0293   0.0359   0.0270  -0.0066  -0.0150  -0.0175   0.00    2.7
2173  12466.000   -669786.4192  -5002658.1912   3887010.6839   2   6   0.0293   0.0359   0.0269  -0.0067  -0.0149  -0.0175   0.00    2.7
2173  12467.000   -669786.4186  -5002658.1919   3887010.6840   2   6   0.0292   0.0357   0.0269  -0.0067  -0.0148  -0.0174   0.00    2.7
2173  12468.000   -669786.4166  -5002658.1918   3887010.6860   2   6   0.0292   0.0357   0.0268  -0.0067  -0.0146  -0.0175   0.00    2.7
2173  12469.000   -669786.4205  -5002658.1916   3887010.6864   2   6   0.0292   0.0356   0.0267  -0.0069  -0.0146  -0.0174   0.00    2.7
2173  12470.000   -669786.4221  -5002658.1924   3887010.6886   2   6   0.0291   0.0355   0.0266  -0.0068  -0.0145  -0.0174   0.00    2.8
2173  12471.000   -669786.4213  -5002658.1897   3887010.6875   2   6   0.0291   0.0354   0.0266  -0.0069  -0.0144  -0.0173   0.00    2.8
2173  12472.000   -669786.4245  -5002658.1889   3887010.6885   2   6   0.0291   0.0353   0.0265  -0.0068  -0.0144  -0.0173   0.00    2.8
2173  12473.000   -669786.4245  -5002658.1844   3887010.6870   2   6   0.0290   0.0352   0.0264  -0.0069  -0.0142  -0.0173   0.00    2.8
2173  12474.000   -669786.4203  -5002658.1884   3887010.6848   2   6   0.0290   0.0351   0.0264  -0.0069  -0.0141  -0.0172   0.00    2.8
2173  12475.000   -669786.4191  -5002658.1899   3887010.6859   2   6   0.0290   0.0350   0.0263  -0.0071  -0.0141  -0.0173   0.00    2.8
2173  12476.000   -669786.4205  -5002658.1896   3887010.6856   2   6   0.0289   0.0349   0.0262  -0.0069  -0.0140  -0.0172   0.00    2.8
2173  12477.000   -669786.4229  -5002658.1862   3887010.6863   2   6   0.0289   0.0349   0.0262  -0.0070  -0.0139  -0.0172   0.00    2.8
2173  12478.000   -669786.4242  -5002658.1911   3887010.6876   2   6   0.0288   0.0348   0.0261  -0.0070  -0.0138  -0.0172   0.00    2.8
2173  12479.000   -669786.4240  -5002658.1781   3887010.6809   2   6   0.0288   0.0347   0.0260  -0.0071  -0.0137  -0.0172   0.00    2.8
2173  12480.000   -669786.4223  -5002658.1866   3887010.6853   2   6   0.0288   0.0346   0.0260  -0.0071  -0.0136  -0.0172   0.00    2.8
2173  12481.000   -669786.4253  -5002658.1792   3887010.6824   2   6   0.0288   0.0345   0.0259  -0.0071  -0.0135  -0.0171   0.00    2.8
2173  12482.000   -669786.4239  -5002658.1846   3887010.6848   2   6   0.0287   0.0344   0.0258  -0.0073  -0.0135  -0.0171   0.00    2.8
2173  12483.000   -669786.4247  -5002658.1831   3887010.6861   2   6   0.0287   0.0343   0.0257  -0.0073  -0.0134  -0.0171   0.00    2.8
2173  12484.000   -669786.4246  -5002658.1778   3887010.6793   2   6   0.0286   0.0343   0.0257  -0.0072  -0.0133  -0.0171   0.00    2.9
2173  12485.000   -669786.4223  -5002658.1818   3887010.6833   2   6   0.0286   0.0342   0.0256  -0.0072  -0.0133  -0.0170   0.00    2.9
2173  12486.000   -669786.4235  -5002658.1773   3887010.6812   2   6   0.0286   0.0341   0.0256  -0.0072  -0.0131  -0.0170   0.00    2.9
2173  12487.000   -669786.4246  -5002658.1772   3887010.6832   2   6   0.0285   0.0340   0.0255  -0.0074  -0.0130  -0.0169   0.00    2.9
2173  12488.000   -669786.4286  -5002658.1802   3887010.6845   2   6   0.0286   0.0339   0.0255  -0.0073  -0.0130  -0.0169   0.00    2.9
2173  12489.000   -669786.4263  -5002658.1731   3887010.6814   2   6   0.0284   0.0338   0.0254  -0.0074  -0.0129  -0.0169   0.00    2.9
2173  12490.000   -669786.4308  -5002658.1824   3887010.6860   2   6   0.0284   0.0338   0.0253  -0.0073  -0.0128  -0.0169   0.00    2.9
2173  12491.000   -669786.4311  -5002658.1726   3887010.6816   2   6   0.0284   0.0337   0.0253  -0.0074  -0.0127  -0.0168   0.00    2.9
2173  12492.000   -669786.4298  -5002658.1697   3887010.6806   2   6   0.0284   0.0336   0.0252  -0.0075  -0.0126  -0.0169   0.00    2.9
2173  12493.000   -669786.4315  -5002658.1671   3887010.6810   2   6   0.0283   0.0336   0.0252  -0.0076  -0.0125  -0.0169   0.00    2.9
2173  12494.000   -669786.4302  -5002658.1665   3887010.6807   2   6   0.0283   0.0335   0.0251  -0.0074  -0.0125  -0.0169   0.00    2.9
2173  12495.000   -669786.4313  -5002658.1679   3887010.6813   2   6   0.0282   0.0334   0.0250  -0.0075  -0.0124  -0.0168   0.00    2.9
2173  12496.000   -669786.4306  -5002658.1610   3887010.6795   2   6   0.0283   0.0333   0.0250  -0.0076  -0.0123  -0.0168   0.00    2.9
2173  12497.000   -669786.4330  -5002658.1629   3887010.6793   2   6   0.0282   0.0333   0.0249  -0.0075  -0.0122  -0.0168   0.00    3.0
2173  12498.000   -669786.4336  -5002658.1623   3887010.6820   2   6   0.0281   0.0332   0.0249  -0.0075  -0.0121  -0.0168   0.00    3.0
2173  12499.000   -669786.4355  -5002658.1628   3887010.6828   2   6   0.0281   0.0331   0.0248  -0.0077  -0.0121  -0.0167   0.00    3.0
2173  12500.000   -669786.4336  -5002658.1615   3887010.6828   2   6   0.0281   0.0330   0.0247  -0.0076  -0.0120  -0.0167   0.00    3.0
2173  12501.000   -669786.4365  -5002658.1598   3887010.6819   2   6   0.0281   0.0330   0.0247  -0.0077  -0.0119  -0.0168   0.00    3.0
2173  12502.000   -669786.4354  -5002658.1636   3887010.6826   2   6   0.0280   0.0329   0.0246  -0.0078  -0.0118  -0.0168   0.00    3.0
2173  12503.000   -669786.4331  -5002658.1703   3887010.6886   2   6   0.0280   0.0328   0.0245  -0.0077  -0.0117  -0.0167   0.00    3.0
2173  12504.000   -669786.3462  -5002658.4245   3887010.6474   1   6   0.0054   0.0127   0.0090  -0.0021  -0.0089  -0.0035   0.00    3.0
2173  12505.000   -669786.3469  -5002658.4162   3887010.6454   1   6   0.0054   0.0127   0.0089  -0.0021  -0.0090  -0.0038   0.00    3.0
2173  12506.000   -669786.3446  -5002658.4287   3887010.6494   1   6   0.0057   0.0127   0.0088  -0.0018  -0.0089  -0.0035   0.00    3.0
2173  12507.000   -669786.3458  -5002658.4334   3887010.6525   1   6   0.0053   0.0127   0.0088  -0.0017  -0.0090  -0.0037   0.00    3.0
2173  12508.000   -669786.3431  -5002658.4237   3887010.6454   1   6   0.0056   0.0127   0.0088  -0.0016  -0.0089  -0.0035   0.00    3.0
2173  12509.000   -669786.3430  -5002658.4301   3887010.6491   1   6   0.0054   0.0127   0.0088  -0.0013  -0.0089  -0.0035   0.00    3.0
2173  12510.000   -669786.3403  -5002658.4354   3887010.6525   1   6   0.0056   0.0127   0.0088  -0.0015  -0.0089  -0.0034   0.00    3.0
2173  12511.000   -669786.3431  -5002658.4310   3887010.6467   1   6   0.0054   0.0127   0.0089  -0.0019  -0.0089  -0.0036   0.00    3.1
2173  12512.000   -669786.3458  -5002658.4380   3887010.6545   1   6   0.0054   0.0127   0.0089  -0.0020  -0.0089  -0.0037   0.00    3.1
2173  12513.000   -669786.3434  -5002658.4342   3887010.6497   1   6   0.0056   0.0127   0.0089  -0.0021  -0.0089  -0.0036   0.00    3.1
2173  12514.000   -669786.3441  -5002658.4373   3887010.6547   1   6   0.0054   0.0127   0.0088  -0.0015  -0.0089  -0.0037   0.00    3.1
2173  12515.000   -669786.3455  -5002658.4309   3887010.6508   1   6   0.0055   0.0128   0.0089  -0.0024  -0.0088  -0.0037   0.00    3.1
2173  12516.000   -669786.3455  -5002658.4316   3887010.6513   1   6   0.0057   0.0127   0.0090  -0.0019  -0.0088  -0.0037   0.00    3.1
2173  12517.000   -669786.3444  -5002658.4274   3887010.6515   1   6   0.0056   0.0127   0.0090  -0.0016  -0.0088  -0.0036   0.00    3.1
2173  12518.000   -669786.3433  -5002658.4340   3887010.6512   1   6   0.0055   0.0127   0.0089  -0.0018  -0.0089  -0.0035   0.00    3.1
2173  12519.000   -669786.3454  -5002658.4255   3887010.6500   1   6   0.0055   0.0128   0.0090  -0.0020  -0.0088  -0.0036   0.00    3.1
2173  12520.000   -669786.3417  -5002658.4303   3887010.6512   1   6   0.0057   0.0127   0.0089  -0.0017  -0.0088  -0.0037   0.00    3.1
2173  12521.000   -669786.3435  -5002658.4338   3887010.6551   1   6   0.0056   0.0126   0.0089  -0.0022  -0.0090  -0.0037   0.00    3.1
2173  12522.000   -669786.3440  -5002658.4380   3887010.6564   1   6   0.0056   0.0127   0.0089  -0.0021  -0.0089  -0.0038   0.00    3.1
2173  12523.000   -669786.3408  -5002658.4346   3887010.6546   1   6   0.0055   0.0126   0.0088  -0.0016  -0.0089  -0.0036   0.00    3.2
2173  12524.000   -669786.3428  -5002658.4389   3887010.6554   1   6   0.0055   0.0127   0.0089  -0.0020  -0.0088  -0.0037   0.00    3.2
2173  12525.000   -669786.3424  -5002658.4322   3887010.6497   1   6   0.0055   0.0127   0.0089  -0.0021  -0.0089  -0.0035   0.00    3.2
2173  12526.000   -669786.3426  -5002658.4286   3887010.6501   1   6   0.0054   0.0127   0.0088  -0.0017  -0.0088  -0.0038   0.00    3.2
2173  12527.000   -669786.3449  -5002658.4332   3887010.6567   1   6   0.0058   0.0127   0.0089  -0.0024  -0.0089  -0.0037   0.00    3.2
2173  12528.000   -669786.3470  -5002658.4363   3887010.6569   1   6   0.0057   0.0127   0.0088  -0.0019  -0.0089  -0.0036   0.00    3.2
2173  12529.000   -669786.3433  -5002658.4329   3887010.6520   1   6   0.0054   0.0127   0.0088  -0.0016  -0.0088  -0.0036   0.00    3.2
2173  12530.000   -669786.3431  -5002658.4421   3887010.6564   1   6   0.0055   0.0127   0.0088  -0.0019  -0.0088  -0.0036   0.00    3.2
2173  12531.000   -669786.3446  -5002658.4357   3887010.6541   1   6   0.0056   0.0127   0.0089  -0.0022  -0.0089  -0.0036   0.00    3.2
2173  12532.000   -669786.3434  -5002658.4390   3887010.6548   1   6   0.0057   0.0127   0.0089  -0.0021  -0.0088  -0.0036   0.00    3.3
2173  12533.000   -669786.3438  -5002658.4385   3887010.6545   1   6   0.0055   0.0127   0.0089  -0.0015  -0.0088  -0.0036   0.00    3.3
2173  12534.000   -669786.3417  -5002658.4372   3887010.6547   1   6   0.0055   0.0127   0.0088  -0.0022  -0.0089  -0.0038   0.00    3.3
2173  12535.000   -669786.3420  -5002658.4422   3887010.6582   1   6   0.0055   0.0127   0.0088  -0.0018  -0.0089  -0.0036   0.00    3.3
2173  12536.000   -669786.3408  -5002658.4406   3887010.6584   1   6   0.0055   0.0127   0.0089  -0.0015  -0.0088  -0.0034   0.00    3.3
2173  12537.000   -669786.3432  -5002658.4414   3887010.6577   1   6   0.0056   0.0127   0.0089  -0.0022  -0.0088  -0.0038   0.00    3.3
2173  12538.000   -669786.3444  -5002658.4389   3887010.6565   1   6   0.0056   0.0127   0.0088  -0.0022  -0.0088  -0.0035   0.00    3.3
2173  12539.000   -669786.3432  -5002658.4382   3887010.6561   1   6   0.0055   0.0127   0.0088  -0.0019  -0.0089  -0.0037   0.00    3.3
2173  12540.000   -669786.3424  -5002658.4382   3887010.6570   1   6   0.0055   0.0127   0.0089  -0.0020  -0.0089  -0.0034   0.00    3.3
2173  12541.000   -669786.3429  -5002658.4390   3887010.6577   1   6   0.0057   0.0127   0.0088  -0.0018  -0.0089  -0.0032   0.00    3.3
2173  12542.000   -669786.3424  -5002658.4417   3887010.6568   1   6   0.0056   0.0127   0.0088  -0.0023  -0.0089  -0.0036   0.00    3.4
2173  12543.000   -669786.3425  -5002658.4367   3887010.6537   1   6   0.0054   0.0127   0.0087  -0.0020  -0.0088  -0.0038   0.00    3.4
2173  12544.000   -669786.3438  -5002658.4295   3887010.6520   1   6   0.0056   0.0127   0.0088  -0.0018  -0.0089  -0.0036   0.00    3.4
2173  12545.000   -669786.3441  -5002658.4367   3887010.6568   1   6   0.0055   0.0127   0.0088  -0.0022  -0.0088  -0.0036   0.00    3.4
2173  12546.000   -669786.3435  -5002658.4292   3887010.6508   1   6   0.0057   0.0127   0.0088  -0.0023  -0.0088  -0.0038   0.00    3.4
2173  12547.000   -669786.3416  -5002658.4401   3887010.6554   1   6   0.0054   0.0126   0.0088  -0.0017  -0.0089  -0.0034   0.00    3.4
2173  12548.000   -669786.3423  -5002658.4409   3887010.6543   1   6   0.0056   0.0126   0.0087  -0.0016  -0.0089  -0.0034   0.00    3.4
2173  12549.000   -669786.3432  -5002658.4394   3887010.6568   1   6   0.0055   0.0127   0.0088  -0.0021  -0.0088  -0.0037   0.00    3.4
2173  12550.000   -669786.3426  -5002658.4316   3887010.6512   1   6   0.0054   0.0127   0.0089  -0.0019  -0.0088  -0.0036   0.00    3.4
2173  12551.000   -669786.3441  -5002658.4263   3887010.6490   1   6   0.0057   0.0127   0.0089  -0.0021  -0.0088  -0.0035   0.00    3.4
2173  12552.000   -669786.3434  -5002658.4382   3887010.6567   1   6   0.0057   0.0127   0.0087  -0.0017  -0.0088  -0.0036   0.00    3.5
2173  12553.000   -669786.3433  -5002658.4360   3887010.6510   1   6   0.0057   0.0128   0.0088  -0.0019  -0.0087  -0.0038   0.00    3.5
2173  12554.000   -669786.3431  -5002658.4308   3887010.6472   1   6   0.0053   0.0127   0.0088  -0.0019  -0.0088  -0.0036   0.00    3.5
2173  12555.000   -669786.3435  -5002658.4267   3887010.6462   1   6   0.0057   0.0127   0.0088  -0.0022  -0.0088  -0.0037   0.00    3.5
2173  12556.000   -669786.3436  -5002658.4353   3887010.6491   1   6   0.0054   0.0126   0.0086  -0.0020  -0.0089  -0.0035   0.00    3.5
2173  12557.000   -669786.3459  -5002658.4307   3887010.6482   1   6   0.0058   0.0126   0.0088  -0.0018  -0.0088  -0.0034   0.00    3.5
2173  12558.000   -669786.3428  -5002658.4305   3887010.6460   1   6   0.0054   0.0127   0.0088  -0.0023  -0.0088  -0.0039   0.00    3.5
2173  12559.000   -669786.3434  -5002658.4417   3887010.6550   1   6   0.0056   0.0127   0.0086  -0.0021  -0.0088  -0.0034   0.00    3.5
2173  12560.000   -669786.3442  -5002658.4347   3887010.6503   1   6   0.0057   0.0127   0.0089  -0.0024  -0.0087  -0.0036   0.00    3.6
2173  12561.000   -669786.3422  -5002658.4372   3887010.6504   1   6   0.0056   0.0127   0.0087  -0.0017  -0.0088  -0.0032   0.00    3.6
2173  12562.000   -669786.3441  -5002658.4391   3887010.6510   1   6   0.0058   0.0127   0.0089  -0.0024  -0.0088  -0.0039   0.00    3.6
2173  12563.000   -669786.3428  -5002658.4325   3887010.6486   1   6   0.0055   0.0127   0.0086  -0.0019  -0.0089  -0.0035   0.00    3.6
2173  12564.000   -669786.3397  -5002658.4317   3887010.6496   1   6   0.0054   0.0127   0.0088  -0.0023  -0.0088  -0.0036   0.00    3.6
2173  12565.000   -669786.3421  -5002658.4355   3887010.6499   1   6   0.0057   0.0127   0.0086  -0.0023  -0.0088  -0.0036   0.00    3.6
2173  12566.000   -669786.3417  -5002658.4333   3887010.6478   1   6   0.0056   0.0127   0.0088  -0.0021  -0.0089  -0.0036   0.00    3.6
2173  12567.000   -669786.3408  -5002658.4290   3887010.6498   1   6   0.0057   0.0127   0.0088  -0.0022  -0.0088  -0.0035   0.00    3.6
2173  12568.000   -669786.3456  -5002658.4281   3887010.6493   1   6   0.0056   0.0127   0.0088  -0.0021  -0.0088  -0.0033   0.00    3.6
2173  12569.000   -669786.3427  -5002658.4348   3887010.6493   1   6   0.0056   0.0127   0.0087  -0.0018  -0.0088  -0.0034   0.00    3.6
2173  12570.000   -669786.3417  -5002658.4350   3887010.6475   1   6   0.0056   0.0127   0.0087  -0.0023  -0.0088  -0.0040   0.00    3.7
2173  12571.000   -669786.3433  -5002658.4349   3887010.6497   1   6   0.0056   0.0127   0.0088  -0.0024  -0.0087  -0.0039   0.00    3.7
2173  12572.000   -669786.3423  -5002658.4325   3887010.6497   1   6   0.0058   0.0127   0.0087  -0.0019  -0.0088  -0.0034   0.00    3.7
2173  12573.000   -669786.3410  -5002658.4339   3887010.6501   1   6   0.0056   0.0127   0.0089  -0.0021  -0.0087  -0.0034   0.00    3.7
2173  12574.000   -669786.3429  -5002658.4350   3887010.6510   1   6   0.0057   0.0127   0.0087  -0.0026  -0.0088  -0.0038   0.00    3.7
2173  12575.000   -669786.3436  -5002658.4301   3887010.6488   1   6   0.0054   0.0127   0.0087  -0.0021  -0.0087  -0.0033   0.00    3.7
2173  12576.000   -669786.3458  -5002658.4350   3887010.6531   1   6   0.0058   0.0127   0.0088  -0.0023  -0.0088  -0.0037   0.00    3.7
2173  12577.000   -669786.3457  -5002658.4373   3887010.6501   1   6   0.0056   0.0127   0.0088  -0.0023  -0.0087  -0.0036   0.00    3.7
2173  12578.000   -669786.3421  -5002658.4356   3887010.6516   1   6   0.0054   0.0127   0.0087  -0.0021  -0.0087  -0.0036   0.00    3.7
