% program   : rnx2rtkp ver.2.4.3 b31
% inp file  : ngs/21_08_31_21_54_02_garf.obs
% inp file  : ngs/21_08_31_21_54_02_garf_VZ.obs
% inp file  : ngs/21_08_31_21_54_02_brdc.nav
% obs start : 2021/08/31 21:00:00.0 GPST (week2173 248400.0s)
% obs end   : 2021/08/31 21:59:59.0 GPST (week2173 251999.0s)
% ref pos   :   714359.8994  -4741697.3024   4191881.7925
%
% (x/y/z-ecef=WGS84,Q=1:fix,2:float,3:sbas,4:dgps,5:single,6:ppp,ns=# of satellites)
%  GPST              x-ecef(m)      y-ecef(m)      z-ecef(m)   Q  ns   sdx(m)   sdy(m)   sdz(m)  sdxy(m)  sdyz(m)  sdzx(m) age(s)  ratio
2173 251631.000    698558.2271  -4739152.6785   4197329.7152   2   5   0.6034   1.4895   0.9359  -0.6898  -0.9263   0.4322 -30.00    1.5
2173 251632.000    698558.1791  -4739152.6365   4197329.6578   2   5   0.4288   1.0583   0.6665  -0.4901  -0.6584   0.3072 -29.00    1.4
2173 251633.000    698558.2007  -4739152.6215   4197329.5904   2   5   0.3511   0.8662   0.5458  -0.4012  -0.5389   0.2516 -28.00    1.2
2173 251634.000    698558.2128  -4739152.6302   4197329.5330   2   5   0.3047   0.7514   0.4735  -0.3481  -0.4675   0.2183 -27.00    1.2
2173 251635.000    698558.2023  -4739152.5391   4197329.4921   2   5   0.2730   0.6728   0.4241  -0.3118  -0.4186   0.1956 -26.00    1.2
2173 251636.000    698558.1728  -4739152.4736   4197329.4458   2   5   0.2495   0.6148   0.3875  -0.2850  -0.3825   0.1788 -25.00    1.2
2173 251637.000    698558.1694  -4739152.5194   4197329.4647   2   5   0.2312   0.5695   0.3590  -0.2641  -0.3543   0.1657 -24.00    1.3
2173 251638.000    698558.1688  -4739152.5434   4197329.4914   2   5   0.2165   0.5330   0.3360  -0.2472  -0.3316   0.1551 -23.00    1.4
2173 251639.000    698558.1749  -4739152.5796   4197329.4941   2   5   0.2042   0.5026   0.3169  -0.2331  -0.3127   0.1463 -22.00    1.4
2173 251640.000    698558.1837  -4739152.5887   4197329.4839   2   5   0.1938   0.4768   0.3007  -0.2212  -0.2967   0.1389 -21.00    1.5
2173 251641.000    698558.1989  -4739152.6280   4197329.4781   2   5   0.1848   0.4546   0.2867  -0.2109  -0.2828   0.1324 -20.00    1.6
2173 251642.000    698558.2120  -4739152.6313   4197329.4858   2   5   0.1769   0.4351   0.2745  -0.2019  -0.2707   0.1268 -19.00    1.6
2173 251643.000    698558.2142  -4739152.6355   4197329.4861   2   5   0.1700   0.4179   0.2637  -0.1939  -0.2600   0.1218 -18.00    1.7
2173 251644.000    698558.2101  -4739152.6257   4197329.4803   2   5   0.1638   0.4025   0.2541  -0.1868  -0.2505   0.1174 -17.00    1.7
2173 251645.000    698558.2145  -4739152.6236   4197329.4916   2   5   0.1582   0.3886   0.2454  -0.1804  -0.2418   0.1134 -16.00    1.8
2173 251646.000    698558.2140  -4739152.6325   4197329.5006   2   5   0.1531   0.3760   0.2376  -0.1745  -0.2340   0.1097 -15.00    1.8
2173 251647.000    698558.2169  -4739152.6392   4197329.5037   2   5   0.1484   0.3645   0.2304  -0.1692  -0.2269   0.1064 -14.00    1.9
2173 251648.000    698558.2218  -4739152.6453   4197329.5138   2   5   0.1442   0.3540   0.2239  -0.1643  -0.2203   0.1034 -13.00    1.9
2173 251649.000    698558.2241  -4739152.6294   4197329.5030   2   5   0.1402   0.3442   0.2178  -0.1598  -0.2143   0.1005 -12.00    1.9
2173 251650.000    698558.2240  -4739152.6268   4197329.4943   2   5   0.1366   0.3352   0.2122  -0.1556  -0.2087   0.0979 -11.00    1.9
2173 251651.000    698558.2244  -4739152.6335   4197329.4897   2   5   0.1332   0.3268   0.2070  -0.1517  -0.2035   0.0955 -10.00    1.9
2173 251652.000    698558.2223  -4739152.6384   4197329.5072   2   5   0.1301   0.3190   0.2022  -0.1481  -0.1986   0.0933  -9.00    2.1
2173 251653.000    698558.2261  -4739152.6502   4197329.5301   2   5   0.1271   0.3118   0.1977  -0.1448  -0.1941   0.0912  -8.00    2.2
2173 251654.000    698558.2309  -4739152.6556   4197329.5434   2   5   0.1244   0.3049   0.1934  -0.1416  -0.1899   0.0892  -7.00    2.2
2173 251655.000    698558.2316  -4739152.6479   4197329.5387   2   5   0.1218   0.2985   0.1894  -0.1386  -0.1859   0.0874  -6.00    2.1
2173 251656.000    698558.2329  -4739152.6512   4197329.5432   2   5   0.1193   0.2925   0.1857  -0.1358  -0.1822   0.0856  -5.00    2.1
2173 251657.000    698558.2265  -4739152.6407   4197329.5509   2   5   0.1171   0.2868   0.1822  -0.1332  -0.1786   0.0840  -4.00    2.1
2173 251658.000    698558.2243  -4739152.6360   4197329.5554   2   5   0.1149   0.2815   0.1788  -0.1307  -0.1753   0.0824  -3.00    2.0
2173 251659.000    698558.2241  -4739152.6345   4197329.5627   2   5   0.1129   0.2764   0.1757  -0.1284  -0.1722   0.0810  -2.00    2.1
2173 251660.000    698558.2240  -4739152.6448   4197329.5663   2   5   0.1110   0.2716   0.1727  -0.1262  -0.1692   0.0796  -1.00    2.2
2173 251661.000    698558.2275  -4739152.6601   4197329.5816   2   5   0.1092   0.2671   0.1699  -0.1241  -0.1664   0.0783   0.00    2.2
2173 251662.000    698558.2305  -4739152.6716   4197329.5950   2   5   0.1074   0.2629   0.1672  -0.1221  -0.1638   0.0771   0.00    2.3
2173 251663.000    698558.2307  -4739152.6813   4197329.5998   2   5   0.1058   0.2588   0.1647  -0.1202  -0.1612   0.0760   0.00    2.3
2173 251664.000    698558.2315  -4739152.6948   4197329.6143   2   5   0.1042   0.2549   0.1622  -0.1184  -0.1588   0.0748   0.00    2.3
2173 251665.000    698558.2360  -4739152.7084   4197329.6326   2   5   0.1027   0.2511   0.1599  -0.1167  -0.1565   0.0738   0.00    2.4
2173 251666.000    698558.2421  -4739152.7185   4197329.6440   2   5   0.1013   0.2476   0.1576  -0.1151  -0.1543   0.0727   0.00    2.3
2173 251667.000    698558.2390  -4739152.7165   4197329.6468   2   5   0.0999   0.2441   0.1555  -0.1135  -0.1521   0.0717   0.00    2.3
2173 251668.000    698558.2357  -4739152.7179   4197329.6555   2   5   0.0986   0.2408   0.1534  -0.1120  -0.1501   0.0708   0.00    2.3
2173 251669.000    698558.2347  -4739152.7114   4197329.6614   2   5   0.0974   0.2377   0.1514  -0.1105  -0.1481   0.0699   0.00    2.3
2173 251670.000    698558.2309  -4739152.7077   4197329.6675   2   5   0.0961   0.2346   0.1495  -0.1091  -0.1462   0.0690   0.00    2.3
2173 251671.000    698558.2280  -4739152.7006   4197329.6777   2   5   0.0949   0.2317   0.1477  -0.1078  -0.1444   0.0682   0.00    2.3
2173 251672.000    698558.2279  -4739152.7009   4197329.6893   2   5   0.0938   0.2288   0.1459  -0.1064  -0.1426   0.0674   0.00    2.3
2173 251673.000    698558.2264  -4739152.6978   4197329.6878   2   5   0.0927   0.2261   0.1442  -0.1052  -0.1409   0.0666   0.00    2.3
2173 251674.000    698558.2256  -4739152.6906   4197329.6867   2   5   0.0917   0.2234   0.1426  -0.1040  -0.1393   0.0658   0.00    2.2
2173 251675.000    698558.2308  -4739152.6870   4197329.6876   2   5   0.0906   0.2209   0.1410  -0.1028  -0.1377   0.0651   0.00    2.2
2173 251676.000    698558.2344  -4739152.6819   4197329.6881   2   5   0.0897   0.2184   0.1394  -0.1017  -0.1362   0.0644   0.00    2.2
2173 251677.000    698558.2351  -4739152.6787   4197329.6848   2   5   0.0887   0.2160   0.1379  -0.1006  -0.1347   0.0637   0.00    2.1
2173 251678.000    698558.2362  -4739152.6735   4197329.6871   2   5   0.0878   0.2137   0.1365  -0.0995  -0.1333   0.0631   0.00    2.1
2173 251679.000    698558.2386  -4739152.6836   4197329.6901   2   5   0.0869   0.2114   0.1351  -0.0984  -0.1319   0.0624   0.00    2.1
2173 251680.000    698558.2403  -4739152.6848   4197329.6932   2   5   0.0860   0.2093   0.1337  -0.0974  -0.1305   0.0618   0.00    2.0
2173 251681.000    698558.2369  -4739152.6727   4197329.6930   2   5   0.0852   0.2071   0.1324  -0.0965  -0.1292   0.0612   0.00    2.0
2173 251682.000    698558.2384  -4739152.6654   4197329.6895   2   5   0.0844   0.2051   0.1311  -0.0955  -0.1280   0.0606   0.00    2.0
2173 251683.000    698558.2376  -4739152.6658   4197329.6878   2   5   0.0836   0.2031   0.1299  -0.0946  -0.1267   0.0601   0.00    1.9
2173 251684.000    698558.2374  -4739152.6510   4197329.6871   2   5   0.0828   0.2011   0.1286  -0.0937  -0.1255   0.0595   0.00    1.9
2173 251685.000    698558.2331  -4739152.6360   4197329.6838   2   5   0.0820   0.1992   0.1275  -0.0928  -0.1244   0.0590   0.00    1.9
2173 251686.000    698558.2328  -4739152.6262   4197329.6799   2   5   0.0813   0.1974   0.1263  -0.0920  -0.1232   0.0585   0.00    1.8
2173 251687.000    698558.2346  -4739152.6188   4197329.6703   2   5   0.0806   0.1956   0.1252  -0.0912  -0.1221   0.0579   0.00    1.8
2173 251688.000    698558.2341  -4739152.6144   4197329.6722   2   5   0.0799   0.1939   0.1241  -0.0904  -0.1210   0.0575   0.00    1.8
2173 251689.000    698558.2356  -4739152.6071   4197329.6733   2   5   0.0792   0.1922   0.1231  -0.0896  -0.1200   0.0570   0.00    1.8
2173 251690.000    698558.2391  -4739152.6053   4197329.6809   2   5   0.0785   0.1905   0.1220  -0.0888  -0.1190   0.0565   0.00    1.7
2173 251691.000    698558.2381  -4739152.5906   4197329.6766   2   5   0.0779   0.1889   0.1210  -0.0881  -0.1180   0.0560   0.00    1.7
2173 251692.000    698558.2354  -4739152.5805   4197329.6706   2   5   0.0773   0.1873   0.1200  -0.0873  -0.1170   0.0556   0.00    1.7
2173 251693.000    698558.2361  -4739152.5715   4197329.6756   2   5   0.0767   0.1857   0.1191  -0.0866  -0.1160   0.0552   0.00    1.7
2173 251694.000    698558.2395  -4739152.5749   4197329.6770   2   5   0.0761   0.1842   0.1181  -0.0859  -0.1151   0.0548   0.00    1.6
2173 251695.000    698558.2404  -4739152.5771   4197329.6799   2   5   0.0755   0.1827   0.1172  -0.0852  -0.1142   0.0543   0.00    1.6
2173 251696.000    698558.2392  -4739152.5679   4197329.6801   2   5   0.0749   0.1813   0.1163  -0.0846  -0.1133   0.0539   0.00    1.6
2173 251697.000    698558.2391  -4739152.5659   4197329.6767   2   5   0.0743   0.1799   0.1155  -0.0839  -0.1125   0.0535   0.00    1.6
2173 251698.000    698558.2400  -4739152.5714   4197329.6846   2   5   0.0738   0.1785   0.1146  -0.0833  -0.1116   0.0532   0.00    1.6
2173 251699.000    698558.2387  -4739152.5687   4197329.6873   2   5   0.0733   0.1772   0.1138  -0.0827  -0.1108   0.0527   0.00    1.6
2173 251700.000    698558.2412  -4739152.5760   4197329.6915   2   5   0.0728   0.1758   0.1129  -0.0821  -0.1100   0.0524   0.00    1.6
2173 251701.000    698558.2418  -4739152.5745   4197329.6895   2   5   0.0722   0.1745   0.1121  -0.0815  -0.1092   0.0521   0.00    1.6
2173 251702.000    698558.2382  -4739152.5727   4197329.6957   2   5   0.0717   0.1733   0.1113  -0.0809  -0.1084   0.0517   0.00    1.5
2173 251703.000    698558.2342  -4739152.5613   4197329.6920   2   5   0.0713   0.1720   0.1106  -0.0803  -0.1076   0.0514   0.00    1.5
2173 251704.000    698558.2330  -4739152.5648   4197329.6961   2   5   0.0708   0.1708   0.1098  -0.0797  -0.1069   0.0510   0.00    1.5
2173 251705.000    698558.2348  -4739152.5728   4197329.6989   2   5   0.0703   0.1696   0.1091  -0.0792  -0.1062   0.0507   0.00    1.5
2173 251706.000    698558.2324  -4739152.5676   4197329.7049   2   5   0.0698   0.1684   0.1084  -0.0787  -0.1055   0.0504   0.00    1.5
2173 251707.000    698558.2327  -4739152.5724   4197329.7148   2   5   0.0694   0.1673   0.1077  -0.0781  -0.1048   0.0501   0.00    1.5
2173 251708.000    698558.2309  -4739152.5613   4197329.7101   2   5   0.0689   0.1662   0.1070  -0.0776  -0.1041   0.0497   0.00    1.5
2173 251709.000    698558.2307  -4739152.5595   4197329.7131   2   5   0.0685   0.1650   0.1063  -0.0771  -0.1034   0.0494   0.00    1.5
2173 251710.000    698558.2366  -4739152.5675   4197329.7235   2   5   0.0681   0.1640   0.1056  -0.0766  -0.1027   0.0491   0.00    1.5
2173 251711.000    698558.2355  -4739152.5587   4197329.7178   2   5   0.0677   0.1629   0.1049  -0.0761  -0.1021   0.0488   0.00    1.5
2173 251712.000    698558.2368  -4739152.5569   4197329.7183   2   5   0.0672   0.1618   0.1043  -0.0756  -0.1015   0.0486   0.00    1.5
2173 251713.000    698558.2370  -4739152.5601   4197329.7237   2   5   0.0668   0.1608   0.1037  -0.0751  -0.1008   0.0483   0.00    1.5
2173 251714.000    698558.2359  -4739152.5648   4197329.7251   2   5   0.0664   0.1598   0.1030  -0.0747  -0.1002   0.0480   0.00    1.5
2173 251715.000    698558.2372  -4739152.5700   4197329.7290   2   5   0.0660   0.1588   0.1024  -0.0742  -0.0996   0.0477   0.00    1.5
2173 251716.000    698558.2370  -4739152.5658   4197329.7312   2   5   0.0656   0.1578   0.1018  -0.0738  -0.0990   0.0475   0.00    1.5
2173 251717.000    698558.2403  -4739152.5726   4197329.7318   2   5   0.0653   0.1569   0.1012  -0.0733  -0.0984   0.0472   0.00    1.5
2173 251718.000    698558.2413  -4739152.5788   4197329.7355   2   5   0.0649   0.1559   0.1007  -0.0729  -0.0979   0.0469   0.00    1.5
2173 251719.000    698558.2410  -4739152.5678   4197329.7364   2   5   0.0645   0.1550   0.1001  -0.0725  -0.0973   0.0467   0.00    1.5
2173 251720.000    698558.2442  -4739152.5774   4197329.7453   2   5   0.0642   0.1541   0.0995  -0.0720  -0.0968   0.0465   0.00    1.5
2173 251721.000    698558.2444  -4739152.5765   4197329.7453   2   5   0.0638   0.1532   0.0990  -0.0716  -0.0962   0.0462   0.00    1.5
2173 251722.000    698558.2455  -4739152.5837   4197329.7507   2   5   0.0635   0.1523   0.0984  -0.0712  -0.0957   0.0459   0.00    1.5
2173 251723.000    698558.2456  -4739152.5882   4197329.7547   2   5   0.0632   0.1514   0.0979  -0.0708  -0.0952   0.0458   0.00    1.5
2173 251724.000    698558.2434  -4739152.5837   4197329.7555   2   5   0.0628   0.1506   0.0974  -0.0704  -0.0947   0.0455   0.00    1.5
2173 251725.000    698558.2448  -4739152.5912   4197329.7655   2   5   0.0625   0.1497   0.0969  -0.0700  -0.0941   0.0453   0.00    1.5
2173 251726.000    698558.2445  -4739152.5835   4197329.7625   2   5   0.0622   0.1489   0.0963  -0.0696  -0.0936   0.0450   0.00    1.5
2173 251727.000    698558.2463  -4739152.5873   4197329.7668   2   5   0.0618   0.1481   0.0958  -0.0693  -0.0932   0.0448   0.00    1.5
2173 251728.000    698558.2459  -4739152.5916   4197329.7718   2   5   0.0615   0.1472   0.0953  -0.0689  -0.0927   0.0446   0.00    1.5
2173 251729.000    698558.2462  -4739152.5896   4197329.7729   2   5   0.0612   0.1465   0.0949  -0.0685  -0.0922   0.0444   0.00    1.5
2173 251730.000    698558.2468  -4739152.5839   4197329.7673   2   5   0.0609   0.1457   0.0944  -0.0682  -0.0917   0.0442   0.00    1.5
2173 251731.000    698558.2462  -4739152.5924   4197329.7727   2   5   0.0606   0.1449   0.0939  -0.0678  -0.0913   0.0440   0.00    1.5
2173 251732.000    698558.2471  -4739152.5941   4197329.7814   2   5   0.0603   0.1441   0.0934  -0.0674  -0.0908   0.0438   0.00    1.4
2173 251733.000    698558.2485  -4739152.6036   4197329.7879   2   5   0.0600   0.1434   0.0930  -0.0671  -0.0904   0.0436   0.00    1.4
2173 251734.000    698558.2502  -4739152.6059   4197329.7923   2   5   0.0597   0.1426   0.0925  -0.0668  -0.0899   0.0434   0.00    1.4
2173 251735.000    698558.2495  -4739152.6043   4197329.7964   2   5   0.0594   0.1419   0.0921  -0.0664  -0.0895   0.0432   0.00    1.4
2173 251736.000    698558.2502  -4739152.6076   4197329.7982   2   5   0.0592   0.1412   0.0916  -0.0661  -0.0891   0.0430   0.00    1.4
2173 251737.000    698558.2498  -4739152.6034   4197329.7994   2   5   0.0589   0.1405   0.0912  -0.0658  -0.0886   0.0428   0.00    1.4
2173 251738.000    698558.2502  -4739152.6104   4197329.8069   2   5   0.0586   0.1398   0.0908  -0.0655  -0.0882   0.0426   0.00    1.4
2173 251739.000    698558.2506  -4739152.6048   4197329.8110   2   5   0.0583   0.1391   0.0903  -0.0651  -0.0878   0.0424   0.00    1.4
2173 251740.000    698558.2529  -4739152.6110   4197329.8144   2   5   0.0581   0.1384   0.0899  -0.0648  -0.0874   0.0423   0.00    1.4
2173 251741.000    698558.2530  -4739152.6061   4197329.8195   2   5   0.0578   0.1377   0.0895  -0.0645  -0.0870   0.0421   0.00    1.4
2173 251742.000    698558.2526  -4739152.6013   4197329.8173   2   5   0.0576   0.1370   0.0891  -0.0642  -0.0866   0.0419   0.00    1.4
2173 251743.000    698558.2511  -4739152.6019   4197329.8203   2   5   0.0573   0.1364   0.0887  -0.0639  -0.0862   0.0417   0.00    1.4
2173 251744.000    698558.2574  -4739152.6091   4197329.8243   2   5   0.0570   0.1357   0.0883  -0.0636  -0.0858   0.0415   0.00    1.4
2173 251745.000    698558.2553  -4739152.6072   4197329.8254   2   5   0.0568   0.1351   0.0879  -0.0633  -0.0855   0.0414   0.00    1.4
2173 251746.000    698558.2569  -4739152.6033   4197329.8286   2   5   0.0566   0.1345   0.0875  -0.0630  -0.0851   0.0412   0.00    1.4
2173 251747.000    698558.2539  -4739152.5966   4197329.8260   2   5   0.0563   0.1338   0.0871  -0.0627  -0.0847   0.0411   0.00    1.4
2173 251748.000    698558.2547  -4739152.5976   4197329.8239   2   5   0.0561   0.1332   0.0868  -0.0624  -0.0844   0.0409   0.00    1.4
2173 251749.000    698558.2512  -4739152.5936   4197329.8262   2   5   0.0558   0.1326   0.0864  -0.0622  -0.0840   0.0407   0.00    1.4
2173 251750.000    698558.2523  -4739152.5918   4197329.8295   2   5   0.0556   0.1320   0.0860  -0.0619  -0.0836   0.0406   0.00    1.4
2173 251751.000    698558.2546  -4739152.5972   4197329.8348   2   5   0.0554   0.1314   0.0857  -0.0616  -0.0833   0.0404   0.00    1.4
2173 251752.000    698558.2542  -4739152.5904   4197329.8327   2   5   0.0551   0.1308   0.0853  -0.0613  -0.0829   0.0403   0.00    1.4
2173 251753.000    698558.2543  -4739152.5862   4197329.8357   2   5   0.0549   0.1302   0.0850  -0.0610  -0.0826   0.0401   0.00    1.4
2173 251754.000    698558.2531  -4739152.5902   4197329.8347   2   5   0.0547   0.1297   0.0846  -0.0608  -0.0823   0.0400   0.00    1.4
2173 251755.000    698558.2495  -4739152.5869   4197329.8312   2   5   0.0545   0.1291   0.0843  -0.0605  -0.0819   0.0398   0.00    1.4
2173 251756.000    698558.2474  -4739152.5862   4197329.8321   2   5   0.0542   0.1285   0.0839  -0.0603  -0.0816   0.0396   0.00    1.4
2173 251757.000    698558.2494  -4739152.5918   4197329.8345   2   5   0.0540   0.1280   0.0836  -0.0600  -0.0813   0.0395   0.00    1.4
2173 251758.000    698558.2497  -4739152.5928   4197329.8349   2   5   0.0538   0.1274   0.0833  -0.0598  -0.0810   0.0394   0.00    1.4
2173 251759.000    698558.2506  -4739152.6010   4197329.8403   2   5   0.0536   0.1269   0.0829  -0.0595  -0.0806   0.0393   0.00    1.3
2173 251760.000    698558.2498  -4739152.6024   4197329.8433   2   5   0.0534   0.1263   0.0826  -0.0593  -0.0803   0.0391   0.00    1.3
2173 251761.000    698558.2499  -4739152.6091   4197329.8480   2   5   0.0532   0.1258   0.0823  -0.0590  -0.0800   0.0390   0.00    1.3
2173 251762.000    698558.2485  -4739152.6069   4197329.8501   2   5   0.0530   0.1253   0.0820  -0.0588  -0.0797   0.0388   0.00    1.3
2173 251763.000    698558.2500  -4739152.6069   4197329.8515   2   5   0.0528   0.1248   0.0817  -0.0585  -0.0794   0.0387   0.00    1.3
2173 251764.000    698558.2511  -4739152.6155   4197329.8539   2   5   0.0526   0.1243   0.0814  -0.0583  -0.0791   0.0385   0.00    1.4
2173 251765.000    698558.2513  -4739152.6194   4197329.8592   2   5   0.0524   0.1237   0.0811  -0.0581  -0.0788   0.0384   0.00    1.4
2173 251766.000    698558.2503  -4739152.6175   4197329.8594   2   5   0.0522   0.1232   0.0808  -0.0578  -0.0785   0.0383   0.00    1.4
2173 251767.000    698558.2503  -4739152.6272   4197329.8619   2   5   0.0520   0.1227   0.0804  -0.0576  -0.0782   0.0382   0.00    1.4
2173 251768.000    698558.2501  -4739152.6297   4197329.8657   2   5   0.0518   0.1222   0.0801  -0.0574  -0.0780   0.0381   0.00    1.4
2173 251769.000    698558.2505  -4739152.6358   4197329.8688   2   5   0.0517   0.1218   0.0798  -0.0571  -0.0777   0.0380   0.00    1.4
2173 251770.000    698558.2520  -4739152.6345   4197329.8718   2   5   0.0515   0.1213   0.0796  -0.0569  -0.0774   0.0378   0.00    1.4
2173 251771.000    698558.2535  -4739152.6424   4197329.8763   2   5   0.0513   0.1208   0.0793  -0.0567  -0.0771   0.0377   0.00    1.4
2173 251772.000    698558.2512  -4739152.6441   4197329.8807   2   5   0.0511   0.1203   0.0790  -0.0565  -0.0768   0.0376   0.00    1.4
2173 251773.000    698558.2528  -4739152.6516   4197329.8854   2   5   0.0509   0.1198   0.0787  -0.0562  -0.0766   0.0374   0.00    1.4
2173 251774.000    698558.2579  -4739152.6624   4197329.8860   2   5   0.0507   0.1194   0.0784  -0.0560  -0.0763   0.0374   0.00    1.4
2173 251775.000    698558.2587  -4739152.6744   4197329.8908   2   5   0.0506   0.1189   0.0781  -0.0558  -0.0761   0.0373   0.00    1.4
2173 251776.000    698558.2588  -4739152.6744   4197329.8890   2   5   0.0504   0.1185   0.0779  -0.0556  -0.0758   0.0371   0.00    1.4
2173 251777.000    698558.2611  -4739152.6850   4197329.8958   2   5   0.0502   0.1180   0.0776  -0.0554  -0.0755   0.0370   0.00    1.4
2173 251778.000    698558.2639  -4739152.6951   4197329.9014   2   5   0.0501   0.1176   0.0773  -0.0552  -0.0753   0.0369   0.00    1.4
2173 251779.000    698558.2620  -4739152.6879   4197329.8952   2   5   0.0499   0.1171   0.0771  -0.0550  -0.0750   0.0368   0.00    1.4
2173 251780.000    698558.2615  -4739152.6933   4197329.8982   2   5   0.0497   0.1167   0.0768  -0.0548  -0.0748   0.0367   0.00    1.4
2173 251781.000    698558.2622  -4739152.6944   4197329.9043   2   5   0.0496   0.1163   0.0766  -0.0546  -0.0745   0.0366   0.00    1.4
2173 251782.000    698558.2674  -4739152.7092   4197329.9083   2   5   0.0494   0.1158   0.0763  -0.0544  -0.0743   0.0364   0.00    1.4
2173 251783.000    698558.2678  -4739152.7159   4197329.9088   2   5   0.0492   0.1154   0.0760  -0.0542  -0.0740   0.0364   0.00    1.4
2173 251784.000    698558.2680  -4739152.7228   4197329.9117   2   5   0.0491   0.1150   0.0758  -0.0540  -0.0738   0.0363   0.00    1.4
2173 251785.000    698558.2738  -4739152.7334   4197329.9161   2   5   0.0489   0.1146   0.0755  -0.0538  -0.0736   0.0361   0.00    1.5
2173 251786.000    698558.2730  -4739152.7398   4197329.9191   2   5   0.0488   0.1141   0.0753  -0.0536  -0.0733   0.0360   0.00    1.5
2173 251787.000    698558.2737  -4739152.7451   4197329.9178   2   5   0.0486   0.1137   0.0750  -0.0534  -0.0731   0.0359   0.00    1.5
2173 251788.000    698558.2766  -4739152.7509   4197329.9171   2   5   0.0484   0.1133   0.0748  -0.0532  -0.0729   0.0358   0.00    1.5
2173 251789.000    698558.2741  -4739152.7559   4197329.9172   2   5   0.0483   0.1129   0.0745  -0.0530  -0.0726   0.0358   0.00    1.5
2173 251790.000    698558.2779  -4739152.7626   4197329.9210   2   5   0.0481   0.1125   0.0743  -0.0529  -0.0724   0.0356   0.00    1.5
2173 251791.000    698558.2793  -4739152.7693   4197329.9197   2   5   0.0480   0.1121   0.0741  -0.0527  -0.0722   0.0356   0.00    1.5
2173 251792.000    698558.2806  -4739152.7799   4197329.9263   2   5   0.0478   0.1117   0.0739  -0.0525  -0.0720   0.0355   0.00    1.5
2173 251793.000    698558.2815  -4739152.7806   4197329.9219   2   5   0.0477   0.1113   0.0736  -0.0523  -0.0717   0.0354   0.00    1.5
2173 251794.000    698558.2861  -4739152.7901   4197329.9238   2   5   0.0475   0.1110   0.0734  -0.0521  -0.0715   0.0353   0.00    1.5
2173 251795.000    698558.2903  -4739152.7981   4197329.9311   2   5   0.0474   0.1106   0.0731  -0.0520  -0.0713   0.0352   0.00    1.5
2173 251796.000    698558.2896  -4739152.8080   4197329.9283   2   5   0.0473   0.1102   0.0729  -0.0518  -0.0711   0.0351   0.00    1.6
2173 251797.000    698558.2914  -4739152.8023   4197329.9238   2   5   0.0471   0.1098   0.0727  -0.0516  -0.0709   0.0350   0.00    1.6
2173 251798.000    698558.2899  -4739152.8074   4197329.9258   2   5   0.0470   0.1094   0.0725  -0.0514  -0.0707   0.0349   0.00    1.6
2173 251799.000    698558.2910  -4739152.8093   4197329.9242   2   5   0.0468   0.1091   0.0723  -0.0513  -0.0705   0.0348   0.00    1.6
2173 251800.000    698558.2916  -4739152.8111   4197329.9229   2   5   0.0467   0.1087   0.0720  -0.0511  -0.0703   0.0347   0.00    1.6
2173 251801.000    698558.2939  -4739152.8201   4197329.9239   2   5   0.0465   0.1083   0.0718  -0.0509  -0.0701   0.0346   0.00    1.6
2173 251802.000    698558.2938  -4739152.8221   4197329.9219   2   5   0.0464   0.1080   0.0716  -0.0508  -0.0699   0.0345   0.00    1.6
2173 251803.000    698558.2974  -4739152.8283   4197329.9255   2   5   0.0463   0.1076   0.0714  -0.0506  -0.0697   0.0344   0.00    1.6
2173 251804.000    698558.2953  -4739152.8287   4197329.9201   2   5   0.0461   0.1073   0.0712  -0.0504  -0.0695   0.0343   0.00    1.6
2173 251805.000    698558.2957  -4739152.8325   4197329.9210   2   5   0.0460   0.1069   0.0710  -0.0503  -0.0693   0.0343   0.00    1.6
2173 251806.000    698558.2999  -4739152.8447   4197329.9207   2   5   0.0459   0.1066   0.0708  -0.0501  -0.0691   0.0342   0.00    1.6
2173 251807.000    698558.3009  -4739152.8485   4197329.9241   2   5   0.0458   0.1062   0.0706  -0.0499  -0.0689   0.0342   0.00    1.6
2173 251808.000    698558.2997  -4739152.8460   4197329.9228   2   5   0.0456   0.1059   0.0704  -0.0498  -0.0687   0.0340   0.00    1.7
2173 251809.000    698558.2998  -4739152.8535   4197329.9256   2   5   0.0455   0.1055   0.0702  -0.0496  -0.0685   0.0339   0.00    1.7
2173 251810.000    698558.3024  -4739152.8550   4197329.9238   2   5   0.0453   0.1052   0.0699  -0.0495  -0.0683   0.0339   0.00    1.7
2173 251811.000    698558.3049  -4739152.8647   4197329.9235   2   5   0.0452   0.1049   0.0698  -0.0493  -0.0681   0.0338   0.00    1.7
2173 251812.000    698558.3045  -4739152.8634   4197329.9226   2   5   0.0451   0.1045   0.0696  -0.0492  -0.0679   0.0337   0.00    1.7
2173 251813.000    698558.3075  -4739152.8670   4197329.9216   2   5   0.0450   0.1042   0.0694  -0.0490  -0.0677   0.0336   0.00    1.7
2173 251814.000    698558.3100  -4739152.8797   4197329.9234   2   5   0.0448   0.1039   0.0692  -0.0488  -0.0676   0.0335   0.00    1.7
2173 251815.000    698558.3089  -4739152.8831   4197329.9220   2   5   0.0448   0.1035   0.0690  -0.0487  -0.0674   0.0335   0.00    1.7
2173 251816.000    698558.3129  -4739152.8889   4197329.9223   2   5   0.0446   0.1032   0.0688  -0.0486  -0.0672   0.0334   0.00    1.7
2173 251817.000    698558.3108  -4739152.8896   4197329.9196   2   5   0.0445   0.1029   0.0686  -0.0484  -0.0670   0.0333   0.00    1.7
2173 251818.000    698558.3145  -4739152.8971   4197329.9185   2   5   0.0444   0.1026   0.0684  -0.0483  -0.0669   0.0333   0.00    1.7
2173 251819.000    698558.3150  -4739152.8941   4197329.9185   2   5   0.0443   0.1023   0.0682  -0.0481  -0.0667   0.0332   0.00    1.7
2173 251820.000    698558.3192  -4739152.9011   4197329.9229   2   5   0.0441   0.1020   0.0680  -0.0480  -0.0665   0.0331   0.00    1.7
2173 251821.000    698558.3203  -4739152.9049   4197329.9207   2   5   0.0440   0.1016   0.0679  -0.0478  -0.0663   0.0330   0.00    1.8
2173 251822.000    698558.3191  -4739152.9059   4197329.9193   2   5   0.0439   0.1013   0.0677  -0.0477  -0.0662   0.0330   0.00    1.8
2173 251823.000    698558.3230  -4739152.9143   4197329.9182   2   5   0.0438   0.1010   0.0675  -0.0475  -0.0660   0.0329   0.00    1.8
2173 251824.000    698558.3213  -4739152.9087   4197329.9174   2   5   0.0437   0.1007   0.0673  -0.0474  -0.0658   0.0328   0.00    1.8
2173 251825.000    698558.3242  -4739152.9141   4197329.9175   2   5   0.0436   0.1004   0.0671  -0.0473  -0.0657   0.0328   0.00    1.8
2173 251826.000    698558.3256  -4739152.9212   4197329.9206   2   5   0.0434   0.1001   0.0669  -0.0471  -0.0655   0.0326   0.00    1.8
2173 251827.000    698558.3234  -4739152.9177   4197329.9170   2   5   0.0434   0.0998   0.0668  -0.0470  -0.0653   0.0326   0.00    1.8
2173 251828.000    698558.3263  -4739152.9209   4197329.9173   2   5   0.0432   0.0995   0.0666  -0.0469  -0.0652   0.0325   0.00    1.8
2173 251829.000    698558.3248  -4739152.9223   4197329.9091   2   5   0.0431   0.0992   0.0664  -0.0467  -0.0650   0.0325   0.00    1.8
2173 251830.000    698558.3265  -4739152.9231   4197329.9088   2   5   0.0430   0.0989   0.0662  -0.0466  -0.0649   0.0324   0.00    1.8
2173 251831.000    698558.3238  -4739152.9266   4197329.9109   2   5   0.0429   0.0987   0.0661  -0.0464  -0.0647   0.0323   0.00    1.8
2173 251832.000    698558.3262  -4739152.9248   4197329.9094   2   5   0.0428   0.0984   0.0659  -0.0463  -0.0645   0.0323   0.00    1.8
2173 251833.000    698558.3277  -4739152.9210   4197329.9071   2   5   0.0427   0.0981   0.0657  -0.0462  -0.0644   0.0322   0.00    1.8
2173 251834.000    698558.3262  -4739152.9298   4197329.9104   2   5   0.0426   0.0978   0.0656  -0.0460  -0.0642   0.0321   0.00    1.8
2173 251835.000    698558.3256  -4739152.9274   4197329.9016   2   5   0.0425   0.0975   0.0654  -0.0459  -0.0641   0.0321   0.00    1.8
2173 251836.000    698558.3261  -4739152.9270   4197329.9027   2   5   0.0424   0.0972   0.0653  -0.0458  -0.0639   0.0320   0.00    1.8
2173 251837.000    698558.3243  -4739152.9250   4197329.9013   2   5   0.0423   0.0970   0.0651  -0.0457  -0.0638   0.0320   0.00    1.8
2173 251838.000    698558.3267  -4739152.9297   4197329.8988   2   5   0.0422   0.0967   0.0649  -0.0455  -0.0636   0.0319   0.00    1.8
2173 251839.000    698558.3265  -4739152.9248   4197329.9012   2   5   0.0421   0.0964   0.0648  -0.0454  -0.0635   0.0318   0.00    1.8
2173 251840.000    698558.3280  -4739152.9263   4197329.8958   2   5   0.0420   0.0961   0.0646  -0.0453  -0.0633   0.0317   0.00    1.8
2173 251841.000    698558.3274  -4739152.9197   4197329.8941   2   5   0.0418   0.0959   0.0644  -0.0451  -0.0632   0.0317   0.00    1.8
2173 251842.000    698558.3292  -4739152.9319   4197329.8960   2   5   0.0418   0.0956   0.0643  -0.0450  -0.0630   0.0316   0.00    1.8
2173 251843.000    698558.3292  -4739152.9267   4197329.8893   2   5   0.0417   0.0953   0.0641  -0.0449  -0.0629   0.0316   0.00    1.8
2173 251844.000    698558.3286  -4739152.9276   4197329.8961   2   5   0.0416   0.0951   0.0640  -0.0448  -0.0628   0.0315   0.00    1.8
2173 251845.000    698558.3292  -4739152.9249   4197329.8876   2   5   0.0415   0.0948   0.0638  -0.0447  -0.0626   0.0315   0.00    1.8
2173 251846.000    698558.3287  -4739152.9256   4197329.8870   2   5   0.0414   0.0946   0.0637  -0.0445  -0.0625   0.0314   0.00    1.8
2173 251847.000    698558.3277  -4739152.9200   4197329.8835   2   5   0.0413   0.0943   0.0635  -0.0444  -0.0623   0.0313   0.00    1.8
2173 251848.000    698558.3288  -4739152.9222   4197329.8828   2   5   0.0412   0.0940   0.0634  -0.0443  -0.0622   0.0313   0.00    1.8
2173 251849.000    698558.3268  -4739152.9205   4197329.8851   2   5   0.0411   0.0938   0.0632  -0.0442  -0.0621   0.0312   0.00    1.8
2173 251850.000    698558.3264  -4739152.9144   4197329.8791   2   5   0.0410   0.0935   0.0630  -0.0441  -0.0619   0.0312   0.00    1.8
2173 251851.000    698558.3272  -4739152.9166   4197329.8781   2   5   0.0409   0.0933   0.0629  -0.0439  -0.0618   0.0311   0.00    1.8
2173 251852.000    698558.3262  -4739152.9109   4197329.8797   2   5   0.0408   0.0930   0.0628  -0.0438  -0.0616   0.0311   0.00    1.8
2173 251853.000    698558.3271  -4739152.9092   4197329.8738   2   5   0.0407   0.0928   0.0626  -0.0437  -0.0615   0.0310   0.00    1.8
2173 251854.000    698558.3261  -4739152.9095   4197329.8741   2   5   0.0406   0.0925   0.0625  -0.0436  -0.0614   0.0309   0.00    1.8
2173 251855.000    698558.3278  -4739152.9137   4197329.8745   2   5   0.0405   0.0923   0.0623  -0.0435  -0.0612   0.0309   0.00    1.8
2173 251856.000    698558.3250  -4739152.9067   4197329.8718   2   5   0.0404   0.0920   0.0622  -0.0434  -0.0611   0.0308   0.00    1.8
2173 251857.000    698558.3283  -4739152.9140   4197329.8733   2   5   0.0404   0.0918   0.0620  -0.0433  -0.0610   0.0308   0.00    1.8
2173 251858.000    698558.3259  -4739152.9071   4197329.8743   2   5   0.0403   0.0916   0.0619  -0.0432  -0.0608   0.0307   0.00    1.8
2173 251859.000    698558.3279  -4739152.9093   4197329.8697   2   5   0.0402   0.0913   0.0618  -0.0430  -0.0607   0.0307   0.00    1.8
2173 251860.000    698558.3297  -4739152.9096   4197329.8711   2   5   0.0401   0.0911   0.0616  -0.0429  -0.0606   0.0306   0.00    1.8
2173 251861.000    698558.3289  -4739152.9137   4197329.8710   2   5   0.0400   0.0908   0.0615  -0.0428  -0.0605   0.0305   0.00    1.8
2173 251862.000    698558.3265  -4739152.9072   4197329.8694   2   5   0.0399   0.0906   0.0613  -0.0427  -0.0603   0.0305   0.00    1.8
2173 251863.000    698558.3297  -4739152.9168   4197329.8735   2   5   0.0398   0.0904   0.0612  -0.0426  -0.0602   0.0304   0.00    1.8
2173 251864.000    698558.3251  -4739152.9031   4197329.8675   2   5   0.0398   0.0901   0.0611  -0.0425  -0.0601   0.0304   0.00    1.8
2173 251865.000    698558.3291  -4739152.9096   4197329.8687   2   5   0.0396   0.0899   0.0609  -0.0424  -0.0600   0.0303   0.00    1.8
2173 251866.000    698558.3274  -4739152.9085   4197329.8659   2   5   0.0395   0.0897   0.0608  -0.0423  -0.0598   0.0303   0.00    1.8
2173 251867.000    698558.3286  -4739152.9084   4197329.8625   2   5   0.0395   0.0895   0.0606  -0.0422  -0.0597   0.0302   0.00    1.8
2173 251868.000    698558.3278  -4739152.9076   4197329.8636   2   5   0.0394   0.0892   0.0605  -0.0421  -0.0596   0.0302   0.00    1.8
2173 251869.000    698558.3286  -4739152.9107   4197329.8678   2   5   0.0393   0.0890   0.0604  -0.0420  -0.0595   0.0301   0.00    1.8
2173 251870.000    698558.3254  -4739152.9044   4197329.8640   2   5   0.0392   0.0888   0.0603  -0.0419  -0.0594   0.0301   0.00    1.8
2173 251871.000    698558.3256  -4739152.8995   4197329.8642   2   5   0.0392   0.0886   0.0601  -0.0418  -0.0592   0.0300   0.00    1.8
2173 251872.000    698558.3260  -4739152.9015   4197329.8644   2   5   0.0391   0.0883   0.0600  -0.0417  -0.0591   0.0300   0.00    1.8
2173 251873.000    698558.3257  -4739152.8970   4197329.8598   2   5   0.0390   0.0881   0.0599  -0.0416  -0.0590   0.0300   0.00    1.8
2173 251874.000    698558.3277  -4739152.8962   4197329.8592   2   5   0.0389   0.0879   0.0597  -0.0415  -0.0589   0.0299   0.00    1.8
2173 251875.000    698558.3271  -4739152.8951   4197329.8601   2   5   0.0388   0.0877   0.0596  -0.0414  -0.0588   0.0298   0.00    1.8
2173 251876.000    698558.3258  -4739152.8903   4197329.8572   2   5   0.0387   0.0875   0.0595  -0.0412  -0.0586   0.0298   0.00    1.8
2173 251877.000    698558.3253  -4739152.8912   4197329.8499   2   5   0.0387   0.0872   0.0593  -0.0412  -0.0585   0.0297   0.00    1.8
2173 251878.000    698558.3289  -4739152.8988   4197329.8566   2   5   0.0386   0.0870   0.0592  -0.0411  -0.0584   0.0297   0.00    1.8
2173 251879.000    698558.3259  -4739152.8887   4197329.8540   2   5   0.0385   0.0868   0.0591  -0.0410  -0.0583   0.0296   0.00    1.7
2173 251880.000    698558.3254  -4739152.8943   4197329.8530   2   5   0.0385   0.0866   0.0590  -0.0409  -0.0582   0.0296   0.00    1.7
2173 251881.000    698558.3252  -4739152.8904   4197329.8572   2   5   0.0384   0.0864   0.0588  -0.0408  -0.0581   0.0296   0.00    1.7
2173 251882.000    698558.3225  -4739152.8791   4197329.8467   2   5   0.0383   0.0862   0.0587  -0.0407  -0.0580   0.0295   0.00    1.7
2173 251883.000    698558.3267  -4739152.8919   4197329.8567   2   5   0.0382   0.0860   0.0586  -0.0406  -0.0579   0.0295   0.00    1.7
2173 251884.000    698558.3225  -4739152.8838   4197329.8501   2   5   0.0382   0.0858   0.0585  -0.0405  -0.0578   0.0295   0.00    1.7
2173 251885.000    698558.3240  -4739152.8816   4197329.8491   2   5   0.0381   0.0856   0.0584  -0.0404  -0.0576   0.0293   0.00    1.7
2173 251886.000    698558.3200  -4739152.8780   4197329.8455   2   5   0.0380   0.0854   0.0582  -0.0403  -0.0575   0.0293   0.00    1.7
2173 251887.000    698558.3198  -4739152.8780   4197329.8477   2   5   0.0379   0.0852   0.0581  -0.0402  -0.0574   0.0293   0.00    1.7
2173 251888.000    698558.3206  -4739152.8808   4197329.8449   2   5   0.0378   0.0850   0.0580  -0.0401  -0.0573   0.0292   0.00    1.7
2173 251889.000    698558.3231  -4739152.8787   4197329.8444   2   5   0.0378   0.0848   0.0579  -0.0400  -0.0572   0.0292   0.00    1.7
2173 251890.000    698558.3216  -4739152.8717   4197329.8411   2   5   0.0377   0.0846   0.0578  -0.0399  -0.0571   0.0292   0.00    1.7
2173 251891.000    698558.3211  -4739152.8690   4197329.8388   2   5   0.0376   0.0844   0.0577  -0.0398  -0.0570   0.0291   0.00    1.7
2173 251892.000    698558.3204  -4739152.8656   4197329.8405   2   5   0.0376   0.0842   0.0575  -0.0397  -0.0569   0.0291   0.00    1.7
2173 251893.000    698558.3210  -4739152.8696   4197329.8427   2   5   0.0375   0.0840   0.0574  -0.0397  -0.0568   0.0290   0.00    1.7
2173 251894.000    698558.3172  -4739152.8640   4197329.8388   2   5   0.0374   0.0838   0.0573  -0.0396  -0.0567   0.0290   0.00    1.7
2173 251895.000    698558.3196  -4739152.8717   4197329.8394   2   5   0.0373   0.0836   0.0572  -0.0395  -0.0566   0.0289   0.00    1.7
2173 251896.000    698558.3175  -4739152.8703   4197329.8403   2   5   0.0373   0.0834   0.0571  -0.0394  -0.0565   0.0289   0.00    1.7
2173 251897.000    698558.3182  -4739152.8746   4197329.8383   2   5   0.0372   0.0832   0.0570  -0.0393  -0.0564   0.0288   0.00    1.7
2173 251898.000    698558.3163  -4739152.8725   4197329.8381   2   5   0.0371   0.0830   0.0569  -0.0392  -0.0563   0.0288   0.00    1.7
2173 251899.000    698558.3154  -4739152.8635   4197329.8379   2   5   0.0371   0.0828   0.0567  -0.0391  -0.0562   0.0288   0.00    1.7
2173 251900.000    698558.3150  -4739152.8640   4197329.8342   2   5   0.0370   0.0826   0.0566  -0.0390  -0.0561   0.0287   0.00    1.7
2173 251901.000    698558.3170  -4739152.8670   4197329.8337   2   5   0.0369   0.0825   0.0565  -0.0390  -0.0560   0.0287   0.00    1.7
2173 251902.000    698558.3135  -4739152.8614   4197329.8322   2   5   0.0369   0.0823   0.0564  -0.0389  -0.0559   0.0286   0.00    1.7
2173 251903.000    698558.3140  -4739152.8554   4197329.8300   2   5   0.0368   0.0821   0.0563  -0.0388  -0.0558   0.0286   0.00    1.7
2173 251904.000    698558.3149  -4739152.8722   4197329.8356   2   5   0.0367   0.0819   0.0562  -0.0387  -0.0557   0.0285   0.00    1.7
2173 251905.000    698558.3120  -4739152.8620   4197329.8276   2   5   0.0366   0.0817   0.0561  -0.0386  -0.0556   0.0285   0.00    1.7
2173 251906.000    698558.3128  -4739152.8645   4197329.8348   2   5   0.0366   0.0815   0.0560  -0.0385  -0.0555   0.0284   0.00    1.7
2173 251907.000    698558.3162  -4739152.8699   4197329.8363   2   5   0.0365   0.0814   0.0559  -0.0384  -0.0554   0.0284   0.00    1.7
2173 251908.000    698558.3134  -4739152.8632   4197329.8343   2   5   0.0365   0.0812   0.0558  -0.0384  -0.0553   0.0284   0.00    1.7
2173 251909.000    698558.3130  -4739152.8673   4197329.8325   2   5   0.0364   0.0810   0.0557  -0.0383  -0.0552   0.0284   0.00    1.7
2173 251910.000    698558.3131  -4739152.8666   4197329.8241   2   5   0.0363   0.0808   0.0556  -0.0382  -0.0551   0.0283   0.00    1.7
2173 251911.000    698558.3130  -4739152.8694   4197329.8243   2   5   0.0362   0.0806   0.0555  -0.0381  -0.0550   0.0283   0.00    1.7
2173 251912.000    698558.3138  -4739152.8720   4197329.8249   2   5   0.0362   0.0805   0.0554  -0.0380  -0.0549   0.0283   0.00    1.7
2173 251913.000    698558.3111  -4739152.8718   4197329.8242   2   5   0.0361   0.0803   0.0553  -0.0380  -0.0548   0.0281   0.00    1.7
2173 251914.000    698558.3119  -4739152.8669   4197329.8203   2   5   0.0361   0.0801   0.0551  -0.0379  -0.0547   0.0282   0.00    1.7
2173 251915.000    698558.3126  -4739152.8750   4197329.8194   2   5   0.0360   0.0799   0.0551  -0.0378  -0.0546   0.0281   0.00    1.7
2173 251916.000    698558.3111  -4739152.8721   4197329.8163   2   5   0.0359   0.0798   0.0549  -0.0377  -0.0545   0.0280   0.00    1.7
2173 251917.000    698558.3105  -4739152.8703   4197329.8151   2   5   0.0359   0.0796   0.0549  -0.0376  -0.0545   0.0280   0.00    1.7
2173 251918.000    698558.3116  -4739152.8735   4197329.8132   2   5   0.0358   0.0794   0.0547  -0.0376  -0.0544   0.0281   0.00    1.7
2173 251919.000    698558.3112  -4739152.8778   4197329.8171   2   5   0.0358   0.0793   0.0546  -0.0375  -0.0543   0.0280   0.00    1.7
2173 251920.000    698558.3108  -4739152.8726   4197329.8124   2   5   0.0357   0.0791   0.0545  -0.0374  -0.0542   0.0280   0.00    1.7
2173 251921.000    698558.3098  -4739152.8741   4197329.8148   2   5   0.0356   0.0789   0.0544  -0.0373  -0.0541   0.0279   0.00    1.7
2173 251922.000    698558.3071  -4739152.8711   4197329.8115   2   5   0.0356   0.0788   0.0543  -0.0373  -0.0540   0.0279   0.00    1.7
2173 251923.000    698558.3068  -4739152.8720   4197329.8115   2   5   0.0355   0.0786   0.0543  -0.0372  -0.0539   0.0278   0.00    1.7
2173 251924.000    698558.3072  -4739152.8729   4197329.8118   2   5   0.0354   0.0784   0.0541  -0.0371  -0.0538   0.0278   0.00    1.7
2173 251925.000    698558.3064  -4739152.8727   4197329.8139   2   5   0.0354   0.0783   0.0540  -0.0370  -0.0537   0.0277   0.00    1.7
2173 251926.000    698558.3065  -4739152.8739   4197329.8089   2   5   0.0353   0.0781   0.0539  -0.0369  -0.0537   0.0277   0.00    1.7
2173 251927.000    698558.3094  -4739152.8846   4197329.8140   2   5   0.0353   0.0779   0.0538  -0.0369  -0.0536   0.0277   0.00    1.7
2173 251928.000    698558.3055  -4739152.8769   4197329.8073   2   5   0.0352   0.0778   0.0538  -0.0368  -0.0535   0.0277   0.00    1.7
2173 251929.000    698558.3051  -4739152.8738   4197329.8068   2   5   0.0351   0.0776   0.0536  -0.0367  -0.0534   0.0276   0.00    1.7
2173 251930.000    698558.3058  -4739152.8772   4197329.8045   2   5   0.0351   0.0774   0.0536  -0.0367  -0.0533   0.0276   0.00    1.7
2173 251931.000    698558.3050  -4739152.8782   4197329.8066   2   5   0.0350   0.0773   0.0535  -0.0366  -0.0532   0.0276   0.00    1.7
2173 251932.000    698558.3018  -4739152.8697   4197329.8036   2   5   0.0350   0.0771   0.0534  -0.0365  -0.0531   0.0275   0.00    1.7
2173 251933.000    698558.3018  -4739152.8748   4197329.8030   2   5   0.0349   0.0770   0.0533  -0.0364  -0.0531   0.0275   0.00    1.7
2173 251934.000    698558.3027  -4739152.8771   4197329.8051   2   5   0.0349   0.0768   0.0532  -0.0363  -0.0530   0.0274   0.00    1.7
2173 251935.000    698558.3032  -4739152.8748   4197329.8012   2   5   0.0348   0.0767   0.0531  -0.0363  -0.0529   0.0274   0.00    1.7
2173 251936.000    698558.3040  -4739152.8808   4197329.8023   2   5   0.0348   0.0765   0.0530  -0.0362  -0.0528   0.0274   0.00    1.7
2173 251937.000    698558.3038  -4739152.8810   4197329.8047   2   5   0.0347   0.0763   0.0529  -0.0361  -0.0527   0.0274   0.00    1.7
2173 251938.000    698558.3021  -4739152.8831   4197329.8020   2   5   0.0346   0.0762   0.0528  -0.0361  -0.0526   0.0273   0.00    1.7
2173 251939.000    698558.3026  -4739152.8814   4197329.8027   2   5   0.0346   0.0760   0.0527  -0.0360  -0.0526   0.0273   0.00    1.7
2173 251940.000    698558.3032  -4739152.8829   4197329.8064   2   5   0.0345   0.0759   0.0526  -0.0359  -0.0525   0.0272   0.00    1.7
2173 251941.000    698558.3033  -4739152.8848   4197329.8049   2   5   0.0345   0.0757   0.0526  -0.0359  -0.0524   0.0272   0.00    1.7
2173 251942.000    698558.3014  -4739152.8822   4197329.8025   2   5   0.0344   0.0756   0.0525  -0.0358  -0.0523   0.0272   0.00    1.8
2173 251943.000    698558.3008  -4739152.8908   4197329.8067   2   5   0.0344   0.0754   0.0524  -0.0357  -0.0522   0.0271   0.00    1.8
2173 251944.000    698558.3000  -4739152.8877   4197329.8012   2   5   0.0343   0.0753   0.0523  -0.0357  -0.0522   0.0271   0.00    1.8
2173 251945.000    698558.3009  -4739152.8911   4197329.8026   2   5   0.0342   0.0751   0.0522  -0.0356  -0.0521   0.0271   0.00    1.8
2173 251946.000    698558.2966  -4739152.8867   4197329.7997   2   5   0.0342   0.0750   0.0521  -0.0355  -0.0520   0.0271   0.00    1.8
2173 251947.000    698558.2998  -4739152.8949   4197329.8030   2   5   0.0341   0.0748   0.0520  -0.0354  -0.0519   0.0270   0.00    1.8
2173 251948.000    698558.2982  -4739152.8966   4197329.8024   2   5   0.0341   0.0747   0.0519  -0.0354  -0.0518   0.0270   0.00    1.8
2173 251949.000    698558.3002  -4739152.8949   4197329.7975   2   5   0.0341   0.0745   0.0518  -0.0353  -0.0518   0.0270   0.00    1.8
2173 251950.000    698558.2984  -4739152.8944   4197329.7985   2   5   0.0340   0.0744   0.0517  -0.0353  -0.0517   0.0269   0.00    1.8
2173 251951.000    698558.3006  -4739152.8961   4197329.7921   2   5   0.0339   0.0743   0.0517  -0.0352  -0.0516   0.0269   0.00    1.8
2173 251952.000    698558.2994  -4739152.8969   4197329.7945   2   5   0.0339   0.0741   0.0516  -0.0351  -0.0515   0.0269   0.00    1.8
2173 251953.000    698558.2984  -4739152.8935   4197329.7920   2   5   0.0338   0.0740   0.0515  -0.0351  -0.0515   0.0268   0.00    1.8
2173 251954.000    698558.3006  -4739152.9056   4197329.7969   2   5   0.0338   0.0738   0.0514  -0.0350  -0.0514   0.0268   0.00    1.8
2173 251955.000    698558.2990  -4739152.8983   4197329.7956   2   5   0.0337   0.0737   0.0513  -0.0349  -0.0513   0.0268   0.00    1.8
2173 251956.000    698558.3003  -4739152.9043   4197329.7991   2   5   0.0337   0.0735   0.0513  -0.0349  -0.0512   0.0267   0.00    1.8
2173 251957.000    698558.2997  -4739152.9067   4197329.7994   2   5   0.0336   0.0734   0.0512  -0.0348  -0.0511   0.0266   0.00    1.8
2173 251958.000    698558.2977  -4739152.8986   4197329.7955   2   5   0.0336   0.0733   0.0511  -0.0347  -0.0511   0.0266   0.00    1.8
2173 251959.000    698558.2960  -4739152.8981   4197329.7928   2   5   0.0335   0.0731   0.0510  -0.0347  -0.0510   0.0267   0.00    1.8
2173 251960.000    698558.2969  -4739152.9070   4197329.7961   2   5   0.0335   0.0730   0.0509  -0.0346  -0.0509   0.0266   0.00    1.8
2173 251961.000    698558.2978  -4739152.9027   4197329.7920   2   5   0.0334   0.0728   0.0509  -0.0345  -0.0508   0.0266   0.00    1.8
2173 251962.000    698558.2980  -4739152.9068   4197329.7909   2   5   0.0334   0.0727   0.0508  -0.0345  -0.0508   0.0265   0.00    1.8
2173 251963.000    698558.2960  -4739152.9038   4197329.7902   2   5   0.0333   0.0726   0.0507  -0.0344  -0.0507   0.0265   0.00    1.8
2173 251964.000    698558.2972  -4739152.9037   4197329.7926   2   5   0.0333   0.0724   0.0506  -0.0344  -0.0506   0.0265   0.00    1.8
2173 251965.000    698558.2953  -4739152.9081   4197329.7879   2   5   0.0332   0.0723   0.0505  -0.0343  -0.0506   0.0264   0.00    1.8
2173 251966.000    698558.2986  -4739152.9090   4197329.7901   2   5   0.0332   0.0722   0.0504  -0.0342  -0.0505   0.0264   0.00    1.8
2173 251967.000    698558.2979  -4739152.9099   4197329.7936   2   5   0.0331   0.0720   0.0504  -0.0342  -0.0504   0.0264   0.00    1.8
2173 251968.000    698558.2975  -4739152.9136   4197329.7893   2   5   0.0331   0.0719   0.0503  -0.0341  -0.0503   0.0263   0.00    1.8
2173 251969.000    698558.2963  -4739152.9117   4197329.7922   2   5   0.0331   0.0718   0.0502  -0.0341  -0.0503   0.0264   0.00    1.8
2173 251970.000    698558.2976  -4739152.9123   4197329.7898   2   5   0.0330   0.0716   0.0501  -0.0340  -0.0502   0.0263   0.00    1.8
2173 251971.000    698558.2965  -4739152.9170   4197329.7955   2   5   0.0329   0.0715   0.0500  -0.0339  -0.0501   0.0263   0.00    1.8
2173 251972.000    698558.2971  -4739152.9203   4197329.7913   2   5   0.0329   0.0714   0.0500  -0.0339  -0.0501   0.0263   0.00    1.8
2173 251973.000    698558.2955  -4739152.9239   4197329.7916   2   5   0.0329   0.0712   0.0499  -0.0338  -0.0500   0.0262   0.00    1.8
2173 251974.000    698558.2984  -4739152.9308   4197329.7979   2   5   0.0328   0.0711   0.0498  -0.0337  -0.0499   0.0262   0.00    1.8
2173 251975.000    698558.2964  -4739152.9298   4197329.7988   2   5   0.0328   0.0710   0.0497  -0.0337  -0.0499   0.0262   0.00    1.8
2173 251976.000    698558.2953  -4739152.9306   4197329.7949   2   5   0.0327   0.0709   0.0497  -0.0336  -0.0498   0.0261   0.00    1.8
2173 251977.000    698558.2964  -4739152.9344   4197329.7981   2   5   0.0327   0.0707   0.0496  -0.0336  -0.0497   0.0261   0.00    1.8
2173 251978.000    698558.2988  -4739152.9394   4197329.7998   2   5   0.0326   0.0706   0.0495  -0.0335  -0.0496   0.0261   0.00    1.8
2173 251979.000    698558.2960  -4739152.9374   4197329.7941   2   5   0.0326   0.0705   0.0494  -0.0335  -0.0496   0.0261   0.00    1.8
2173 251980.000    698558.2953  -4739152.9368   4197329.7938   2   5   0.0325   0.0703   0.0494  -0.0334  -0.0495   0.0260   0.00    1.8
2173 251981.000    698558.2957  -4739152.9412   4197329.7945   2   5   0.0325   0.0702   0.0493  -0.0333  -0.0494   0.0260   0.00    1.8
2173 251982.000    698558.2939  -4739152.9446   4197329.7956   2   5   0.0324   0.0701   0.0492  -0.0333  -0.0494   0.0260   0.00    1.8
2173 251983.000    698558.2975  -4739152.9460   4197329.7934   2   5   0.0324   0.0700   0.0491  -0.0332  -0.0493   0.0259   0.00    1.8
2173 251984.000    698558.2966  -4739152.9498   4197329.8000   2   5   0.0324   0.0698   0.0491  -0.0332  -0.0492   0.0259   0.00    1.8
2173 251985.000    698558.2957  -4739152.9444   4197329.7959   2   5   0.0323   0.0697   0.0490  -0.0331  -0.0492   0.0259   0.00    1.8
2173 251986.000    698558.2952  -4739152.9480   4197329.8005   2   5   0.0323   0.0696   0.0489  -0.0331  -0.0491   0.0258   0.00    1.8
2173 251987.000    698558.2965  -4739152.9454   4197329.7986   2   5   0.0322   0.0695   0.0488  -0.0330  -0.0490   0.0258   0.00    1.8
2173 251988.000    698558.2963  -4739152.9482   4197329.8001   2   5   0.0322   0.0693   0.0488  -0.0329  -0.0490   0.0258   0.00    1.8
2173 251989.000    698558.2993  -4739152.9535   4197329.7993   2   5   0.0321   0.0692   0.0487  -0.0329  -0.0489   0.0258   0.00    1.8
2173 251990.000    698558.2998  -4739152.9588   4197329.8088   2   5   0.0321   0.0691   0.0486  -0.0329  -0.0488   0.0258   0.00    1.8
2173 251991.000    698558.2984  -4739152.9575   4197329.8072   2   5   0.0321   0.0690   0.0485  -0.0328  -0.0488   0.0258   0.00    1.8
2173 251992.000    698558.2988  -4739152.9573   4197329.8095   2   5   0.0320   0.0689   0.0485  -0.0327  -0.0487   0.0257   0.00    1.8
2173 251993.000    698558.2964  -4739152.9602   4197329.8066   2   5   0.0319   0.0687   0.0484  -0.0327  -0.0487   0.0257   0.00    1.8
2173 251994.000    698558.2968  -4739152.9591   4197329.8058   2   5   0.0319   0.0686   0.0483  -0.0326  -0.0486   0.0257   0.00    1.8
2173 251995.000    698558.2983  -4739152.9619   4197329.8084   2   5   0.0319   0.0685   0.0483  -0.0326  -0.0485   0.0256   0.00    1.8
2173 251996.000    698558.2977  -4739152.9575   4197329.8097   2   5   0.0318   0.0684   0.0482  -0.0325  -0.0485   0.0256   0.00    1.9
2173 251997.000    698558.2968  -4739152.9622   4197329.8123   2   5   0.0317   0.0683   0.0481  -0.0325  -0.0484   0.0255   0.00    1.9
2173 251998.000    698558.2972  -4739152.9640   4197329.8143   2   5   0.0318   0.0682   0.0480  -0.0324  -0.0483   0.0256   0.00    1.9
2173 251999.000    698558.2969  -4739152.9646   4197329.8125   2   5   0.0317   0.0680   0.0480  -0.0324  -0.0483   0.0255   0.00    1.9
