     2.11           OBSERVATION DATA    M (MIXED)           RINEX VERSION / TYPE
CONVBIN 2.4.3                           20210828 140812 UTC PGM / RUN BY / DATE 
log: logs/21_08_28_05_02_33_SN_CA_tibb.rtcm                 COMMENT             
format: RTCM 3, station ID: 1504                            COMMENT             
1504                                                        MARKER NAME         
                                                            MARKER NUMBER       
                                                            OBSERVER / AGENCY   
1831720             LEICA GR25          4.30                REC # / TYPE / VERS 
                    GPPNULLANTENNA                          ANT # / TYPE        
 -2704034.8426 -4253064.9404  3895891.9219                  APPROX POSITION XYZ 
        0.0000        0.0000        0.0000                  ANTENNA: DELTA H/E/N
     1     1                                                WAVELENGTH FACT L1/2
     7    C1    L1    C2    L2    P2    C5    L5            # / TYPES OF OBSERV 
  2021     8    28     5     2   40.0000000     GPS         TIME OF FIRST OBS   
  2021     8    28     5     8   33.0000000     GPS         TIME OF LAST OBS    
                                                            END OF HEADER       
 21  8 28  5  2 40.0000000  0 14G 3G 4G 7G 8G 9G16G20G27G30R 5R 7R 9
                                R15R16
  24537889.702   128947479.701    24537890.506   100478554.752    24537889.434  
  24537890.238    96291951.238  
  21058389.557   110662583.494    21058387.126    86230571.340    21058386.304  
  21058390.021    82637645.238  
  21401723.927   112466817.796    21401720.604    87636463.487    21401719.621  
                                
  23846271.652   125313002.411    23846272.349    97646493.090    23846271.044  
  23846270.651    93577887.543  
  20375970.837   107076449.945    20375969.229    83436184.370    20375968.353  
  20375969.121    79959679.157  
  22350901.750   117454780.809                    91523186.314    22350896.872  
                                
  24409534.741   128272969.949                    99952948.039    24409531.024  
                                
  23567842.969   123849849.921    23567842.236    96506368.625    23567841.075  
  23567841.647    92485272.211  
  23739552.718   124752191.340    23739552.826    97209495.664    23739551.682  
  23739552.629    93159103.018  
  20268928.295   108349037.802    20268926.687    84271466.521    20268925.972  
                                
  23424646.623   125393967.405    23424645.658    97528636.902    23424644.675  
                                
  22105483.157   118042046.060    22105481.924    91810474.881    22105481.155  
                                
  21166825.399   113109097.371    21166823.916    87973736.308    21166823.202  
                                
  19310689.949   103154239.281    19310687.250    80231063.779    19310687.590  
                                
 21  8 28  5  2 41.0000000  0 14G 3G 4G 7G 8G 9G16G20G27G30R 5R 7R 9
                                R15R16
  24538611.021   128951270.322    24538611.861   100481508.482    24538610.771  
  24538611.557    96294781.883  
  21058668.010   110664046.795    21058665.579    86231711.577    21058664.775  
  21058668.474    82638737.950  
  21401497.920   112465630.125    21401494.596    87635538.029    21401493.596  
                                
  23845751.449   125310268.714    23845752.128    97644362.936    23845750.841  
  23845750.430    93575846.162  
  20375842.216   107075774.033    20375840.590    83435657.687    20375839.750  
  20375840.500    79959174.411  
  22351421.846   117457513.887                    91525315.985    22351416.968  
                                
  24409032.353   128270329.914                    99950890.857    24409028.655  
                                
  23567502.653   123848061.562    23567501.939    96504975.099    23567500.777  
  23567501.313    92483936.751  
  23739076.938   124749690.964    23739077.027    97207547.319    23739075.919  
  23739076.831    93157235.837  
  20269426.073   108351698.707    20269424.465    84273536.112    20269423.732  
                                
  23423879.220   125389859.331    23423878.219    97525441.736    23423877.254  
                                
  22104884.634   118038850.097    22104883.419    91807989.133    22104882.650  
                                
  21167429.837   113112327.249    21167428.336    87976248.432    21167427.621  
                                
  19310622.189   103153877.275    19310619.491    80230782.219    19310619.831  
                                
 21  8 28  5  2 42.0000000  0 14G 3G 4G 7G 8G 9G16G20G27G30R 5R 7R 9
                                R15R16
  24539332.358   128955060.972    24539333.197   100484462.235    24539332.107  
  24539332.894    96297612.552  
  21058946.552   110665510.501    21058944.122    86232852.129    21058943.318  
  21058947.017    82639830.984  
  21401271.966   112464442.704    21401268.625    87634612.767    21401267.642  
                                
  23845231.282   125307535.264    23845231.979    97642232.979    23845230.674  
  23845230.281    93573804.938  
  20375713.684   107075098.564    20375712.040    83435131.348    20375711.200  
  20375711.951    79958670.005  
  22351942.031   117460247.467                    91527446.047    22351937.153  
                                
  24408530.073   128267690.336                    99948834.027    24408526.374  
                                
  23567162.427   123846273.668    23567161.712    96503581.930    23567160.551  
  23567161.087    92482601.639  
  23738601.139   124747190.714    23738601.246    97205599.077    23738600.121  
  23738601.032    93155368.780  
  20269923.975   108354360.249    20269922.349    84275606.202    20269921.634  
                                
  23423111.817   125385751.372    23423110.834    97522246.656    23423109.851  
                                
  22104286.218   118035654.561    22104285.003    91805503.722    22104284.217  
                                
  21168034.328   113115557.383    21168032.827    87978760.761    21168032.095  
                                
  19310554.555   103153515.952    19310551.839    80230501.190    19310552.179  
                                
 21  8 28  5  2 43.0000000  0 14G 3G 4G 7G 8G 9G16G20G27G30R 5R 7R 9
                                R15R16
  24540053.676   128958851.540    24540054.516   100487415.911    24540053.444  
  24540054.230    96300443.184  
  21059225.148   110666974.538    21059222.700    86233992.933    21059221.896  
  21059225.612    82640924.260  
  21401046.030   112463255.420    21401042.689    87633687.613    21401041.706  
                                
  23844711.132   125304801.907    23844711.811    97640103.093    23844710.543  
  23844710.114    93571763.806  
  20375585.206   107074423.447    20375583.579    83434605.280    20375582.740  
  20375583.472    79958165.861  
  22352462.288   117462981.466                    91529576.441    22352457.392  
                                
  24408027.828   128265051.082                    99946777.474    24408024.130  
                                
  23566822.272   123844486.187    23566821.558    96502189.096    23566820.414  
  23566820.950    92481266.832  
  23738125.359   124744690.579    23738125.466    97203650.920    23738124.322  
  23738125.269    93153501.807  
  20270421.967   108357022.315    20270420.341    84277676.696    20270419.644  
                                
  23422344.414   125381643.451    23422343.413    97519051.612    23422342.466  
                                
  22103687.856   118032459.299    22103686.623    91803018.519    22103685.855  
                                
  21168638.819   113118787.672    21168637.318    87981273.208    21168636.604  
                                
  19310487.028   103153155.247    19310484.312    80230220.643    19310484.669  
                                
 21  8 28  5  2 44.0000000  0 18G 3G 4G 7G 8G 9G16G20G27G30R 5R 7R 9
                                R15R16E 1E 4E19E21
  24540774.977   128962641.935    24540775.817   100490369.472    24540774.727  
  24540775.531    96303273.685  
  21059503.780   110668438.793    21059501.331    86235133.906    21059500.527  
  21059504.226    82642017.699  
  21400820.094   112462068.174    21400816.753    87632762.480    21400815.788  
                                
  23844191.019   125302068.580    23844191.698    97637973.258    23844190.411  
  23844190.000    93569722.702  
  20375456.781   107073748.556    20375455.155    83434079.394    20375454.315  
  20375455.048    79957661.893  
  22352982.616   117465715.759                    91531707.051    22352977.720  
                                
  24407525.637   128262412.032                    99944721.086    24407521.938  
                                
  23566482.171   123842698.964    23566481.457    96500796.464    23566480.313  
  23566480.849    92479932.233  
  23737649.596   124742190.379    23737649.703    97201702.721    23737648.559  
  23737649.489    93151634.785  
  20270920.030   108359684.808    20270918.440    84279747.522    20270917.707  
                                
  23421577.011   125377535.416    23421576.010    97515856.469    23421575.045  
                                
  22103089.512   118029264.228    22103088.297    91800533.461    22103087.510  
                                
  21169243.328   113122017.970    21169241.845    87983785.658    21169241.131  
                                
  19310419.573   103152794.977    19310416.874    80229940.434    19310417.214  
                                
  25136169.715   132091463.500                                                  
  25136172.663    98639740.141  
  26026212.561   136768670.545                                                  
  26026214.062   102132454.354  
  23146303.497   121634646.323                                                  
  23146304.676    90831070.988  
  23555166.702   123783236.569                                                  
  23555169.114    92435542.805  
 21  8 28  5  2 45.0000000  0 18G 3G 4G 7G 8G 9G16G20G27G30R 5R 7R 9
                                R15R16E 1E 4E19E21
  24541496.296   128966432.485    24541497.136   100493323.154    24541496.046  
  24541496.850    96306104.288  
  21059782.536   110669903.578    21059780.088    86236275.302    21059779.266  
  21059783.001    82643111.528  
  21400594.230   112460881.293    21400590.906    87631837.640    21400589.924  
                                
  23843670.923   125299335.567    23843671.620    97635843.644    23843670.333  
  23843669.904    93567681.825  
  20375328.463   107073074.234    20375326.819    83433553.953    20375325.980  
  20375326.730    79957158.337  
  22353503.051   117468450.656                    91533838.147    22353498.137  
                                
  24407023.554   128259773.564                    99942665.135    24407019.855  
                                
  23566142.213   123840912.366    23566141.481    96499404.312    23566140.319  
  23566140.873    92478598.081  
  23737173.905   124739690.493    23737173.976    97199754.769    23737172.868  
  23737173.780    93149767.972  
  20271418.272   108362348.090    20271416.646    84281818.965    20271415.931  
                                
  23420809.625   125373427.567    23420808.643    97512661.478    23420807.660  
                                
  22102491.275   118026069.705    22102490.060    91798048.835    22102489.273  
                                
  21169847.909   113125248.662    21169846.426    87986298.423    21169845.711  
                                
  19310352.296   103152435.518    19310349.580    80229660.859    19310349.937  
                                
  25135746.130   132089237.598                                                  
  25135749.096    98638077.933  
  26025774.556   136766368.798                                                  
  26025776.057   102130735.511  
  23146305.087   121634654.589                                                  
  23146306.231    90831077.166  
  23555207.676   123783451.881                                                  
  23555210.106    92435703.586  
 21  8 28  5  2 46.0000000  0 18G 3G 4G 7G 8G 9G16G20G27G30R 5R 7R 9
                                R15R16E 1E 4E19E21
  24542217.633   128970223.135    24542218.473   100496276.908    24542217.401  
  24542218.187    96308934.973  
  21060061.365   110671368.874    21060058.916    86237417.089    21060058.112  
  21060061.829    82644205.739  
  21400368.455   112459694.731    21400365.113    87630913.048    21400364.131  
                                
  23843150.934   125296602.879    23843151.613    97633714.273    23843150.327  
  23843149.916    93565641.177  
  20375200.235   107072400.453    20375198.609    83433028.928    20375197.769  
  20375198.520    79956655.188  
  22354023.594   117471186.175                    91535969.716    22354018.698  
                                
  24406521.577   128257135.604                    99940609.574    24406517.878  
                                
  23565802.326   123839126.331    23565801.612    96498012.595    23565800.468  
  23565800.986    92477264.356  
  23736698.231   124737190.845    23736698.303    97197806.996    23736697.195  
  23736698.106    93147901.360  
  20271916.639   108365012.135    20271915.013    84283890.998    20271914.298  
                                
  23420042.276   125369319.889    23420041.293    97509466.619    23420040.310  
                                
  22101893.145   118022875.678    22101891.912    91795564.593    22101891.144  
                                
  21170452.543   113128479.712    21170451.060    87988811.464    21170450.345  
                                
  19310285.144   103152076.832    19310282.428    80229381.879    19310282.785  
                                
  25135322.652   132087012.089                                                  
  25135325.600    98636416.031  
  26025336.604   136764067.255                                                  
  26025338.105   102129016.819  
  23146306.713   121634663.284                                                  
  23146307.892    90831083.663  
  23555248.756   123783667.712                                                  
  23555251.169    92435864.755  
 21  8 28  5  2 47.0000000  0 18G 3G 4G 7G 8G 9G16G20G27G30R 5R 7R 9
                                R15R16E 1E 4E19E21
  24542938.916   128974013.562    24542939.774   100499230.483    24542938.666  
  24542939.488    96311765.489  
  21060340.228   110672834.300    21060337.798    86238558.974    21060336.994  
  21060340.693    82645300.050  
  21400142.644   112458508.128    21400139.302    87629988.423    21400138.320  
                                
  23842630.874   125293870.080    23842631.571    97631584.814    23842630.285  
  23842629.856    93563600.455  
  20375072.061   107071726.835    20375070.435    83432504.029    20375069.577  
  20375070.345    79956152.162  
  22354544.208   117473921.891                    91538101.436    22354539.294  
                                
  24406019.618   128254497.843                    99938554.183    24406015.919  
                                
  23565462.493   123837340.508    23565461.779    96496621.049    23565460.617  
  23565461.153    92475930.786  
  23736222.540   124734691.076    23736222.611    97195859.127    23736221.504  
  23736222.415    93146034.654  
  20272415.060   108367676.527    20272413.452    84285963.305    20272412.719  
                                
  23419274.891   125365212.022    23419273.908    97506271.609    23419272.925  
                                
  22101295.015   118019681.737    22101293.782    91793080.415    22101293.014  
                                
  21171057.195   113131710.732    21171055.712    87991324.480    21171054.997  
                                
  19310218.081   103151718.537    19310215.347    80229103.205    19310215.687  
                                
  25134899.156   132084786.621                                                  
  25134902.104    98634754.158  
  26024898.581   136761765.517                                                  
  26024900.082   102127297.996  
  23146308.393   121634672.034                                                  
  23146309.572    90831090.193  
  23555289.873   123783883.685                                                  
  23555292.267    92436026.037  
 21  8 28  5  2 48.0000000  0 18G 3G 4G 7G 8G 9G16G20G27G30R 5R 7R 9
                                R15R16E 1E 4E19E21
  24543660.253   128977804.177    24543661.093   100502184.211    24543660.003  
  24543660.825    96314596.149  
  21060619.218   110674300.315    21060616.752    86239701.326    21060615.948  
  21060619.664    82646394.799  
  21399916.923   112457321.939    21399913.581    87629064.119    21399912.598  
                                
  23842110.921   125291137.680    23842111.600    97629455.681    23842110.314  
  23842109.921    93561560.031  
  20374943.994   107071053.820    20374942.350    83431979.601    20374941.510  
  20374942.260    79955649.588  
  22355064.911   117476658.276                    91540233.686    22355060.015  
                                
  24405517.767   128251860.636                    99936499.205    24405514.068  
                                
  23565122.785   123835555.328    23565122.071    96495229.999    23565120.927  
  23565121.445    92474597.706  
  23735746.902   124732191.666    23735747.010    97193911.541    23735745.866  
  23735746.795    93144168.216  
  20272913.641   108370341.734    20272912.033    84288036.239    20272911.318  
                                
  23418507.559   125361104.447    23418506.559    97503076.824    23418505.611  
                                
  22100696.992   118016488.356    22100695.777    91790596.677    22100694.991  
                                
  21171661.919   113134942.176    21171660.435    87993837.823    21171659.721  
                                
  19310151.162   103151361.110    19310148.446    80228825.208    19310148.785  
                                
  25134475.731   132082561.637                                                  
  25134478.698    98633092.637  
  26024460.629   136759464.076                                                  
  26024462.130   102125579.394  
  23146310.144   121634681.284                                                  
  23146311.323    90831097.109  
  23555331.061   123784100.256                                                  
  23555333.491    92436187.762  
 21  8 28  5  2 49.0000000  0 18G 3G 4G 7G 8G 9G16G20G27G30R 5R 7R 9
                                R15R16E 1E 4E19E21
  24544381.625   128981595.079    24544382.483   100505138.147    24544381.411  
  24544382.215    96317427.005  
  21060898.296   110675766.970    21060895.848    86240844.172    21060895.044  
  21060898.743    82647490.033  
  21399691.290   112456136.219    21399687.949    87628140.184    21399686.966  
                                
  23841591.058   125288405.715    23841591.737    97627326.867    23841590.450  
  23841590.039    93559519.916  
  20374816.051   107070381.508    20374814.425    83431455.722    20374813.568  
  20374814.336    79955147.539  
  22355585.775   117479395.418                    91542366.533    22355580.861  
                                
  24405016.076   128249224.155                    99934444.809    24405012.377  
                                
  23564783.220   123833770.907    23564782.488    96493839.544    23564781.326  
  23564781.880    92473265.184  
  23735271.354   124729692.651    23735271.461    97191964.253    23735270.318  
  23735271.229    93142302.064  
  20273412.384   108373007.821    20273410.776    84290109.862    20273410.061  
                                
  23417740.299   125356997.214    23417739.316    97499882.307    23417738.333  
                                
  22100099.095   118013295.632    22100097.880    91788113.442    22100097.094  
                                
  21172266.731   113138174.151    21172265.248    87996351.595    21172264.534  
                                
  19310084.421   103151004.628    19310081.723    80228547.947    19310082.062  
                                
  25134052.450   132080337.205                                                  
  25134055.398    98631431.548  
  26024022.748   136757162.982                                                  
  26024024.249   102123861.031  
  23146312.020   121634691.126                                                  
  23146313.200    90831104.458  
  23555372.392   123784317.508                                                  
  23555374.822    92436349.991  
 21  8 28  5  2 50.0000000  0 18G 3G 4G 7G 8G 9G16G20G27G30R 5R 7R 9
                                R15R16E 1E 4E19E21
  24545103.087   128985386.278    24545103.927   100508092.328    24545102.855  
  24545103.641    96320258.090  
  21061177.535   110677234.323    21061175.087    86241987.564    21061174.283  
  21061177.982    82648585.784  
  21399465.748   112454951.016    21399462.406    87627216.654    21399461.441  
                                
  23841071.266   125285674.233    23841071.945    97625198.440    23841070.676  
  23841070.247    93557480.171  
  20374688.252   107069709.910    20374686.626    83430932.401    20374685.768  
  20374686.501    79954646.014  
  22356106.764   117482133.323                    91544499.965    22356101.868  
                                
  24404514.475   128246588.342                    99932390.947    24404510.776  
                                
  23564443.798   123831987.226    23564443.066    96492449.665    23564441.904  
  23564442.458    92471933.208  
  23734795.895   124727194.101    23734796.002    97190017.328    23734794.877  
  23734795.788    93140436.248  
  20273911.305   108375674.840    20273909.696    84292184.213    20273908.964  
                                
  23416973.093   125352890.310    23416972.110    97496688.048    23416971.127  
                                
  22099501.340   118010103.608    22099500.107    91785630.761    22099499.339  
                                
  21172871.634   113141406.619    21172870.168    87998865.736    21172869.436  
                                
  19310017.877   103150649.083    19310015.143    80228271.408    19310015.482  
                                
  25133629.276   132078113.374                                                  
  25133632.224    98629770.891  
  26023584.957   136754862.274                                                  
  26023586.458   102122142.963  
  23146314.004   121634701.581                                                  
  23146315.183    90831112.251  
  23555413.884   123784535.452                                                  
  23555416.296    92436512.740  
 21  8 28  5  2 51.0000000  0 18G 3G 4G 7G 8G 9G16G20G27G30R 5R 7R 9
                                R15R16E 1E 4E19E21
  24545824.513   128989177.339    24545825.353   100511046.403    24545824.263  
  24545825.067    96323089.086  
  21061456.810   110678701.944    21061454.344    86243131.162    21061453.540  
  21061457.257    82649681.741  
  21399240.223   112453765.901    21399236.881    87626293.190    21399235.916  
                                
  23840551.492   125282942.784    23840552.171    97623070.038    23840550.884  
  23840550.473    93555440.461  
  20374560.506   107069038.593    20374558.862    83430409.297    20374558.023  
  20374558.755    79954144.715  
  22356627.843   117484871.588                    91546633.679    22356622.947  
                                
  24404012.963   128243952.846                    99930337.323    24404009.246  
                                
  23564104.430   123830203.850    23564103.715    96491060.024    23564102.554  
  23564103.072    92470601.484  
  23734320.436   124724695.529    23734320.525    97188070.389    23734319.382  
  23734320.311    93138570.451  
  20274410.315   108378342.363    20274408.707    84294258.953    20274408.010  
                                
  23416205.868   125348783.321    23416204.885    97493493.731    23416203.903  
                                
  22098903.604   118006911.805    22098902.389    91783148.248    22098901.602  
                                
  21173476.589   113144639.191    21173475.106    88001379.959    21173474.391  
                                
  19309951.404   103150294.031    19309948.688    80227995.260    19309949.045  
                                
  25133206.119   132075889.693                                                  
  25133209.068    98628110.363  
  26023147.113   136752561.497                                                  
  26023148.613   102120424.863  
  23146316.023   121634712.198                                                  
  23146317.202    90831120.196  
  23555455.412   123784753.675                                                  
  23555457.806    92436675.703  
 21  8 28  5  2 52.0000000  0 18G 3G 4G 7G 8G 9G16G20G27G30R 5R 7R 9
                                R15R16E 1E 4E19E21
  24546545.886   128992968.218    24546546.725   100514000.335    24546545.635  
  24546546.439    96325919.922  
  21061736.121   110680169.758    21061733.673    86244274.909    21061732.869  
  21061736.568    82650777.827  
  21399014.698   112452580.791    21399011.374    87625369.726    21399010.391  
                                
  23840031.700   125280211.320    23840032.397    97620941.625    23840031.128  
  23840030.699    93553400.723  
  20374432.779   107068367.479    20374431.153    83429886.353    20374430.313  
  20374431.063    79953643.556  
  22357148.975   117487610.116                    91548767.596    22357144.061  
                                
  24403511.469   128241317.498                    99928283.795    24403507.770  
                                
  23563765.097   123828420.742    23563764.382    96489670.595    23563763.221  
  23563763.739    92469269.933  
  23733844.977   124722196.914    23733845.066    97186123.420    23733843.941  
  23733844.834    93136704.594  
  20274909.433   108381010.325    20274907.807    84296334.037    20274907.092  
                                
  23415438.626   125344676.187    23415437.643    97490299.293    23415436.660  
                                
  22098305.903   118003720.133    22098304.688    91780665.843    22098303.901  
                                
  21174081.527   113147871.808    21174080.026    88003894.219    21174079.311  
                                
  19309885.003   103149939.390    19309882.287    80227719.430    19309882.644  
                                
  25132782.963   132073666.097                                                  
  25132785.929    98626449.875  
  26022709.286   136750260.602                                                  
  26022710.751   102118706.660  
  23146318.060   121634722.929                                                  
  23146319.239    90831128.201  
  23555496.957   123784972.081                                                  
  23555499.387    92436838.796  
 21  8 28  5  2 53.0000000  0 18G 3G 4G 7G 8G 9G16G20G27G30R 5R 7R 9
                                R15R16E 1E 4E19E21
  24547267.204   128996758.777    24547268.044   100516954.018    24547266.954  
  24547267.758    96328750.534  
  21062015.449   110681637.669    21062013.037    86245418.735    21062012.215  
  21062015.932    82651873.985  
  21398789.191   112451395.603    21398785.849    87624446.205    21398784.848  
                                
  23839511.908   125277479.757    23839512.587    97618813.140    23839511.318  
  23839510.889    93551360.914  
  20374305.104   107067696.494    20374303.478    83429363.508    20374302.639  
  20374303.371    79953142.494  
  22357670.125   117490348.822                    91550901.657    22357665.229  
                                
  24403010.010   128238682.307                    99926230.396    24403006.311  
                                
  23563425.818   123826637.809    23563425.103    96488281.302    23563423.942  
  23563424.460    92467938.518  
  23733369.465   124719698.140    23733369.572    97184176.326    23733368.428  
  23733369.339    93134838.633  
  20275408.586   108383678.609    20275406.960    84298409.366    20275406.263  
                                
  23414671.312   125340568.837    23414670.329    97487104.685    23414669.382  
                                
  22097708.220   118000528.563    22097707.005    91778183.513    22097706.236  
                                
  21174686.447   113151104.362    21174684.982    88006408.425    21174684.232  
                                
  19309818.691   103149585.079    19309815.957    80227443.854    19309816.332  
                                
  25132359.825   132071442.489                                                  
  25132362.791    98624789.393  
  26022271.387   136747959.510                                                  
  26022272.888   102116988.308  
  23146320.115   121634733.672                                                  
  23146321.294    90831136.219  
  23555538.556   123785190.603                                                  
  23555540.951    92437001.980  
 21  8 28  5  2 54.0000000  0 18G 3G 4G 7G 8G 9G16G20G27G30R 5R 7R 9
                                R15R16E 1E 4E19E21
  24547988.452   129000549.016    24547989.292   100519907.453    24547988.219  
  24547989.041    96331580.919  
  21062294.796   110683105.623    21062292.348    86246562.605    21062291.544  
  21062295.243    82652970.201  
  21398563.612   112450210.277    21398560.271    87623522.578    21398559.288  
                                
  23838992.062   125274748.008    23838992.741    97616684.512    23838991.472  
  23838991.061    93549320.992  
  20374177.430   107067025.585    20374175.822    83428840.720    20374174.947  
  20374175.715    79952641.499  
  22358191.293   117493087.642                    91553035.796    22358186.397  
                                
  24402508.570   128236047.161                    99924177.028    24402504.871  
                                
  23563086.557   123824854.955    23563085.842    96486892.047    23563084.680  
  23563085.199    92466607.170  
  23732893.916   124717199.167    23732894.006    97182229.083    23732892.880  
  23732893.791    93132972.532  
  20275907.793   108386347.162    20275906.167    84300484.908    20275905.452  
                                
  23413903.999   125336461.206    23413902.998    97483909.866    23413902.033  
                                
  22097110.572   117997337.013    22097109.322    91775701.195    22097108.553  
                                
  21175291.367   113154336.778    21175289.866    88008922.527    21175289.134  
                                
  19309752.415   103149231.086    19309749.699    80227168.530    19309750.056  
                                
  25131936.686   132069218.832                                                  
  25131939.634    98623128.876  
  26021833.453   136745658.142                                                  
  26021834.954   102115269.765  
  23146322.152   121634744.383                                                  
  23146323.331    90831144.226  
  23555580.137   123785409.175                                                  
  23555582.550    92437165.213  
 21  8 28  5  2 55.0000000  0 18G 3G 4G 7G 8G 9G16G20G27G30R 5R 7R 9
                                R15R16E 1E 4E19E21
  24548709.735   129004339.414    24548710.593   100522861.010    24548709.520  
  24548710.307    96334411.408  
  21062574.232   110684574.115    21062571.784    86247706.885    21062570.997  
  21062574.696    82654066.806  
  21398338.123   112449025.311    21398334.781    87622599.231    21398333.799  
                                
  23838472.306   125272016.609    23838472.985    97614556.158    23838471.698  
  23838471.287    93547281.317  
  20374049.881   107066355.237    20374048.255    83428318.375    20374047.397  
  20374048.130    79952140.919  
  22358712.604   117495827.102                    91555170.445    22358707.708  
                                
  24402007.236   128233412.604                    99922124.127    24402003.520  
                                
  23562747.420   123823072.759    23562746.688    96485503.327    23562745.544  
  23562746.062    92465276.307  
  23732418.439   124714700.487    23732418.511    97180282.065    23732417.385  
  23732418.296    93131106.636  
  20276407.143   108389016.476    20276405.517    84302561.043    20276404.820  
                                
  23413136.685   125332353.796    23413135.702    97480715.214    23413134.737  
                                
  22096512.996   117994145.992    22096511.746    91773219.296    22096510.977  
                                
  21175896.323   113157569.547    21175894.822    88011436.903    21175894.107  
                                
  19309686.299   103148877.921    19309683.583    80226893.846    19309683.923  
                                
  25131513.619   132066995.612                                                  
  25131516.585    98621468.677  
  26021395.555   136743357.004                                                  
  26021397.056   102113551.391  
  23146324.278   121634755.549                                                  
  23146325.458    90831152.571  
  23555621.826   123785628.302                                                  
  23555624.238    92437328.849  
 21  8 28  5  2 56.0000000  0 18G 3G 4G 7G 8G 9G16G20G27G30R 5R 7R 9
                                R15R16E 1E 4E19E21
  24549431.089   129008130.146    24549431.947   100525814.822    24549430.875  
  24549431.661    96337242.150  
  21062853.828   110686043.350    21062851.398    86248851.745    21062850.594  
  21062854.293    82655163.953  
  21398112.741   112447840.927    21398109.399    87621676.334    21398108.417  
                                
  23837952.621   125269285.741    23837953.300    97612428.214    23837952.013  
  23837951.620    93545242.044  
  20373922.457   107065685.684    20373920.831    83427796.643    20373919.973  
  20373920.724    79951640.915  
  22359234.076   117498567.393                    91557305.732    22359229.162  
                                
  24401506.010   128230778.769                    99920071.799    24401502.294  
                                
  23562408.409   123821291.355    23562407.712    96484115.218    23562406.551  
  23562407.051    92463946.023  
  23731943.070   124712202.326    23731943.141    97178335.446    23731942.033  
  23731942.927    93129241.109  
  20276906.671   108391686.772    20276905.045    84304637.940    20276904.348  
                                
  23412369.460   125328246.781    23412368.460    97477520.868    23412367.513  
                                
  22095915.528   117990955.697    22095914.313    91770737.960    22095913.527  
                                
  21176501.386   113160802.919    21176499.921    88013951.752    21176499.188  
                                
  19309620.380   103148525.806    19309617.664    80226619.982    19309618.022  
                                
  25131090.677   132064773.031                                                  
  25131093.626    98619808.958  
  26020957.764   136741056.299                                                  
  26020959.247   102111833.320  
  23146326.530   121634767.383                                                  
  23146327.709    90831161.402  
  23555663.675   123785848.195                                                  
  23555666.087    92437493.042  
 21  8 28  5  2 57.0000000  0 18G 3G 4G 7G 8G 9G16G20G27G30R 5R 7R 9
                                R15R16E 1E 4E19E21
  24550152.426   129011920.755    24550153.266   100528768.544    24550152.176  
  24550152.998    96340072.793  
  21063133.443   110687512.825    21063131.012    86249996.788    21063130.208  
  21063133.907    82656261.290  
  21397887.377   112446656.595    21397884.035    87620753.480    21397883.035  
                                
  23837432.972   125266554.929    23837433.651    97610300.306    23837432.364  
  23837431.953    93543202.794  
  20373795.087   107065016.389    20373793.479    83427275.117    20373792.603  
  20373793.371    79951141.119  
  22359755.583   117501308.003                    91559441.275    22359750.687  
                                
  24401004.856   128228145.199                    99918019.660    24401001.157  
                                
  23562069.488   123819510.266    23562068.791    96482727.351    23562067.629  
  23562068.130    92462615.984  
  23731467.664   124709704.137    23731467.754    97176388.802    23731466.610  
  23731467.539    93127375.589  
  20277406.289   108394357.504    20277404.663    84306715.176    20277403.948  
                                
  23411602.200   125324139.670    23411601.218    97474326.447    23411600.270  
                                
  22095318.131   117987765.612    22095316.898    91768256.785    22095316.129  
                                
  21177106.503   113164036.395    21177105.020    88016466.676    21177104.305  
                                
  19309554.551   103148174.187    19309551.835    80226346.500    19309552.192  
                                
  25130667.753   132062550.594                                                  
  25130670.719    98618149.352  
  26020519.919   136738755.530                                                  
  26020521.420   102110115.222  
  23146328.799   121634779.374                                                  
  23146329.979    90831170.353  
  23555705.578   123786068.338                                                  
  23555707.972    92437657.440  
 21  8 28  5  2 58.0000000  0 18G 3G 4G 7G 8G 9G16G20G27G30R 5R 7R 9
                                R15R16E 1E 4E19E21
  24550873.691   129015711.126    24550874.531   100531722.084    24550873.477  
  24550874.281    96342903.278  
  21063413.129   110688982.467    21063410.698    86251141.962    21063409.876  
  21063413.593    82657358.753  
  21397662.013   112445472.255    21397658.653    87619830.613    21397657.670  
                                
  23836913.305   125263824.069    23836913.984    97608172.359    23836912.715  
  23836912.304    93541163.514  
  20373667.770   107064347.290    20373666.144    83426753.739    20373665.286  
  20373666.037    79950641.467  
  22360277.162   117504048.863                    91561577.008    22360272.248  
                                
  24400503.772   128225511.836                    99915967.684    24400500.038  
                                
  23561730.602   123817729.410    23561729.905    96481339.672    23561728.743  
  23561729.243    92461286.125  
  23730992.241   124707205.853    23730992.348    97174442.086    23730991.205  
  23730992.098    93125510.001  
  20277905.978   108397028.627    20277904.352    84308792.714    20277903.655  
                                
  23410834.940   125320032.380    23410833.957    97471131.890    23410832.992  
                                
  22094720.769   117984575.708    22094719.536    91765775.747    22094718.768  
                                
  21177711.619   113167269.856    21177710.118    88018981.587    21177709.404  
                                
  19309488.829   103147822.985    19309486.095    80226073.341    19309486.434  
                                
  25130244.865   132060328.228                                                  
  25130247.831    98616489.791  
  26020082.093   136736454.615                                                  
  26020083.558   102108397.010  
  23146331.104   121634791.461                                                  
  23146332.284    90831179.381  
  23555747.499   123786288.653                                                  
  23555749.893    92437821.964  
 21  8 28  5  2 59.0000000  0 18G 3G 4G 7G 8G 9G16G20G27G30R 5R 7R 9
                                R15R16E 1E 4E19E21
  24551595.082   129019501.949    24551595.922   100534675.970    24551594.849  
  24551595.654    96345734.085  
  21063692.958   110690452.951    21063690.509    86252287.794    21063689.705  
  21063693.404    82658456.833  
  21397436.738   112444288.563    21397433.396    87618908.260    21397432.396  
                                
  23836393.763   125261093.850    23836394.460    97606044.906    23836393.156  
  23836392.763    93539124.694  
  20373540.614   107063679.046    20373538.988    83426233.027    20373538.130  
  20373538.863    79950142.452  
  22360798.920   117506790.633                    91563713.458    22360793.988  
                                
  24400002.814   128222879.352                    99913916.411    24399999.116  
                                
  23561391.876   123815949.444    23561391.179    96479952.697    23561390.018  
  23561390.518    92459956.940  
  23730516.943   124704708.156    23730517.050    97172495.842    23730515.907  
  23730516.800    93123644.846  
  20278405.864   108399700.843    20278404.256    84310871.101    20278403.541  
                                
  23410067.769   125315925.643    23410066.787    97467937.726    23410065.822  
                                
  22094123.551   117981386.556    22094122.318    91763295.295    22094121.532  
                                
  21178316.825   113170503.935    21178315.342    88021496.977    21178314.627  
                                
  19309423.267   103147472.890    19309420.551    80225801.049    19309420.909  
                                
  25129822.084   132058106.566                                                  
  25129825.050    98614830.760  
  26019644.337   136734154.233                                                  
  26019645.838   102106679.181  
  23146333.552   121634804.290                                                  
  23146334.732    90831188.957  
  23555789.580   123786509.820                                                  
  23555792.010    92437987.112  
 21  8 28  5  3  0.0000000  0 18G 3G 4G 7G 8G 9G16G20G27G30R 5R 7R 9
                                R15R16E 1E 4E19E21
  24552316.454   129023292.758    24552317.294   100537629.840    24552316.222  
  24552317.026    96348564.873  
  21063972.840   110691923.782    21063970.392    86253433.898    21063969.588  
  21063973.287    82659555.185  
  21397211.535   112443105.091    21397208.193    87617986.077    21397207.210  
                                
  23835874.239   125258363.753    23835874.918    97603917.562    23835873.632  
  23835873.239    93537085.999  
  20373413.512   107063011.201    20373411.886    83425712.630    20373411.046  
  20373411.796    79949643.734  
  22361320.731   117509532.843                    91565850.245    22361315.817  
                                
  24399501.928   128220247.213                    99911865.396    24399498.229  
                                
  23561053.258   123814169.910    23561052.544    96478566.049    23561051.382  
  23561051.882    92458628.069  
  23730041.699   124702210.588    23730041.770    97170549.688    23730040.626  
  23730041.556    93121779.773  
  20278905.893   108402373.682    20278904.267    84312949.977    20278903.552  
                                
  23409300.599   125311818.912    23409299.616    97464743.602    23409298.633  
                                
  22093526.386   117978197.777    22093525.153    91760815.136    22093524.385  
                                
  21178922.067   113173738.228    21178920.584    88024012.546    21178919.869  
                                
  19309357.849   103147123.385    19309355.133    80225529.217    19309355.490  
                                
  25129399.374   132055885.182                                                  
  25129402.340    98613171.937  
  26019206.600   136731853.901                                                  
  26019208.101   102104961.397  
  23146336.054   121634817.401                                                  
  23146337.233    90831198.750  
  23555831.733   123786731.350                                                  
  23555834.146    92438152.542  
 21  8 28  5  3  1.0000000  0 18G 3G 4G 7G 8G 9G16G20G27G30R 5R 7R 9
                                R15R16E 1E 4E19E21
  24553037.791   129027083.396    24553038.631   100540583.586    24553037.559  
  24553038.363    96351395.553  
  21064252.776   110693394.856    21064250.328    86254580.189    21064249.542  
  21064253.241    82660653.717  
  21396986.367   112441921.642    21396983.008    87617063.898    21396982.025  
                                
  23835354.733   125255633.707    23835355.412    97601790.247    23835354.126  
  23835353.715    93535047.325  
  20373286.463   107062343.599    20373284.855    83425192.419    20373284.015  
  20373284.748    79949145.211  
  22361842.614   117512275.378                    91567987.286    22361837.700  
                                
  24399001.095   128217615.341                    99909814.592    24398997.396  
                                
  23560714.676   123812390.698    23560713.961    96477179.652    23560712.818  
  23560713.300    92457299.426  
  23729566.400   124699712.985    23729566.508    97168603.503    23729565.364  
  23729566.257    93119914.686  
  20279405.976   108405046.993    20279404.350    84315029.216    20279403.653  
                                
  23408533.392   125307712.112    23408532.427    97461549.427    23408531.462  
                                
  22092929.292   117975009.224    22092928.024    91758335.152    22092927.273  
                                
  21179527.344   113176972.591    21179525.861    88026528.159    21179525.146  
                                
  19309292.502   103146774.337    19309289.786    80225257.735    19309290.143  
                                
  25128976.682   132053663.937                                                  
  25128979.631    98611513.214  
  26018768.827   136729553.481                                                  
  26018770.328   102103243.564  
  23146338.574   121634830.677                                                  
  23146339.753    90831208.664  
  23555873.940   123786953.133                                                  
  23555876.334    92438318.166  
 21  8 28  5  3  2.0000000  0 18G 3G 4G 7G 8G 9G16G20G27G30R 5R 7R 9
                                R15R16E 1E 4E19E21
  24553759.110   129030873.990    24553759.950   100543537.294    24553758.877  
  24553759.699    96354226.190  
  21064532.784   110694866.268    21064530.336    86255726.742    21064529.532  
  21064533.230    82661752.498  
  21396761.182   112440738.323    21396757.840    87616141.819    21396756.839  
                                
  23834835.245   125252903.792    23834835.924    97599663.043    23834834.637  
  23834834.226    93533008.755  
  20373159.504   107061676.376    20373157.895    83424672.505    20373157.038  
  20373157.788    79948646.962  
  22362364.586   117515018.339                    91570124.663    22362359.672  
                                
  24398500.351   128214983.793                    99907764.030    24398496.634  
                                
  23560376.165   123810611.868    23560375.468    96475793.551    23560374.307  
  23560374.807    92455971.092  
  23729091.138   124697215.479    23729091.227    97166657.397    23729090.084  
  23729090.995    93118049.672  
  20279906.183   108407720.874    20279904.557    84317108.904    20279903.860  
                                
  23407766.221   125303605.318    23407765.239    97458355.254    23407764.274  
                                
  22092332.235   117971820.993    22092330.984    91755855.420    22092330.216  
                                
  21180132.640   113180207.168    21180131.174    88029043.943    21180130.442  
                                
  19309227.280   103146425.895    19309224.546    80224986.724    19309224.885  
                                
  25128554.044   132051442.924                                                  
  25128557.011    98609854.672  
  26018331.089   136727253.109                                                  
  26018332.572   102101525.751  
  23146341.147   121634844.201                                                  
  23146342.326    90831218.761  
  23555916.218   123787175.261                                                  
  23555918.612    92438484.044  
 21  8 28  5  3  3.0000000  0 18G 3G 4G 7G 8G 9G16G20G27G30R 5R 7R 9
                                R15R16E 1E 4E19E21
  24554480.536   129034665.013    24554481.376   100546491.335    24554480.286  
  24554481.108    96357057.146  
  21064812.916   110696338.486    21064810.486    86256873.927    21064809.682  
  21064813.381    82662851.886  
  21396536.121   112439555.673    21396532.780    87615220.280    21396531.797  
                                
  23834315.882   125250174.482    23834316.561    97597536.308    23834315.274  
  23834314.863    93530970.636  
  20373032.687   107061010.001    20373031.097    83424153.251    20373030.239  
  20373030.972    79948149.342  
  22362886.718   117517762.186                    91572262.723    22362881.804  
                                
  24397999.733   128212353.095                    99905714.142    24397996.016  
                                
  23560037.851   123808833.932    23560037.154    96474408.142    23560035.993  
  23560036.493    92454643.426  
  23728615.965   124694718.536    23728616.054    97164711.732    23728614.929  
  23728615.840    93116185.081  
  20280406.587   108410395.797    20280404.961    84319189.397    20280404.246  
                                
  23406999.140   125299499.038    23406998.157    97455161.480    23406997.174  
                                
  22091735.320   117968633.600    22091734.087    91753376.336    22091733.301  
                                
  21180738.078   113183442.434    21180736.595    88031560.257    21180735.880  
                                
  19309162.237   103146078.532    19309159.521    80224716.555    19309159.878  
                                
  25128131.531   132049222.614                                                  
  25128134.462    98608196.660  
  26017893.441   136724953.229                                                  
  26017894.924   102099808.317  
  23146343.845   121634858.454                                                  
  23146345.024    90831229.413  
  23555958.621   123787398.218                                                  
  23555961.034    92438650.541  
 21  8 28  5  3  4.0000000  0 18G 3G 4G 7G 8G 9G16G20G27G30R 5R 7R 9
                                R15R16E 1E 4E19E21
  24555201.855   129038455.640    24555202.695   100549445.064    24555201.622  
  24555202.444    96359887.789  
  21065093.103   110697810.711    21065090.655    86258021.113    21065089.851  
  21065093.567    82663951.255  
  21396311.025   112438372.850    21396307.702    87614298.602    21396306.701  
                                
  23833796.465   125247444.973    23833797.162    97595409.406    23833795.893  
  23833795.464    93528932.331  
  20372905.888   107060343.655    20372904.280    83423634.023    20372903.440  
  20372904.173    79947651.738  
  22363408.869   117520506.151                    91574400.877    22363403.955  
                                
  24397499.132   128209722.456                    99903664.282    24397495.415  
                                
  23559699.537   123807056.085    23559698.822    96473022.802    23559697.661  
  23559698.161    92453315.795  
  23728140.792   124692221.380    23728140.899    97162765.895    23728139.755  
  23728140.667    93114320.290  
  20280907.027   108413070.965    20280905.419    84321270.083    20280904.686  
                                
  23406231.987   125295392.418    23406231.004    97451967.449    23406230.039  
                                
  22091138.423   117965446.154    22091137.190    91750897.211    22091136.404  
                                
  21181343.498   113186677.525    21181342.015    88034076.443    21181341.282  
                                
  19309097.265   103145731.443    19309094.531    80224446.597    19309094.888  
                                
  25127709.018   132047002.229                                                  
  25127711.967    98606538.562  
  26017455.721   136722653.061                                                  
  26017457.222   102098090.646  
  23146346.561   121634872.642                                                  
  23146347.740    90831239.995  
  23556001.078   123787621.207                                                  
  23556003.490    92438817.044  
 21  8 28  5  3  5.0000000  0 18G 3G 4G 7G 8G 9G16G20G27G30R 5R 7R 9
                                R15R16E 1E 4E19E21
  24555923.156   129042246.120    24555924.013   100552398.680    24555922.941  
  24555923.763    96362718.340  
  21065373.289   110699283.167    21065370.841    86259168.481    21065370.037  
  21065373.736    82665050.823  
  21396085.947   112437190.082    21396082.605    87613376.972    21396081.605  
                                
  23833277.048   125244715.466    23833277.727    97593282.522    23833276.441  
  23833276.048    93526894.092  
  20372779.144   107059677.562    20372777.535    83423114.987    20372776.678  
  20372777.410    79947154.337  
  22363931.091   117523250.412                    91576539.260    22363926.159  
                                
  24396998.585   128207092.031                    99901614.598    24396994.868  
                                
  23559361.276   123805278.522    23559360.579    96471637.683    23559359.418  
  23559359.918    92451988.408  
  23727665.583   124689724.170    23727665.690    97160820.015    23727664.547  
  23727665.440    93112455.502  
  20281407.556   108415746.563    20281405.948    84323351.099    20281405.233  
                                
  23405464.798   125291285.681    23405463.816    97448773.318    23405462.869  
                                
  22090541.562   117962258.916    22090540.311    91748418.244    22090539.543  
                                
  21181948.901   113189912.645    21181947.418    88036592.646    21181946.703  
                                
  19309032.365   103145384.814    19309029.648    80224176.995    19309030.006  
                                
  25127286.487   132044781.954                                                  
  25127289.436    98604880.576  
  26017017.984   136720352.800                                                  
  26017019.485   102096372.925  
  23146349.277   121634886.959                                                  
  23146350.439    90831250.706  
  23556043.553   123787844.421                                                  
  23556045.965    92438983.737  
 21  8 28  5  3  6.0000000  0 18G 3G 4G 7G 8G 9G16G20G27G30R 5R 7R 9
                                R15R16E 1E 4E19E21
  24556644.528   129046036.937    24556645.368   100555352.572    24556644.296  
  24556645.100    96365549.134  
  21065653.618   110700756.345    21065651.188    86260316.413    21065650.384  
  21065654.083    82666150.922  
  21395860.994   112436007.857    21395857.634    87612455.760    21395856.652  
                                
  23832757.757   125241986.488    23832758.436    97591156.055    23832757.149  
  23832756.738    93524856.216  
  20372652.541   107059012.228    20372650.915    83422596.546    20372650.076  
  20372650.790    79946657.495  
  22364453.456   117525995.468                    91578678.263    22364448.542  
                                
  24396498.181   128204462.369                    99899565.509    24396494.482  
                                
  23559023.159   123803501.758    23559022.462    96470253.203    23559021.300  
  23559021.801    92450661.594  
  23727190.499   124687227.447    23727190.571    97158874.517    23727189.427  
  23727190.339    93110591.061  
  20281908.264   108418423.115    20281906.638    84325432.864    20281905.941  
                                
  23404697.699   125287179.353    23404696.734    97445579.510    23404695.769  
                                
  22089944.844   117959072.409    22089943.575    91745939.847    22089942.807  
                                
  21182554.410   113193148.308    21182552.927    88039109.275    21182552.213  
                                
  19308967.679   103145039.194    19308964.963    80223908.183    19308965.302  
                                
  25126864.117   132042562.311                                                  
  25126867.083    98603223.044  
  26016580.354   136718052.947                                                  
  26016581.837   102094655.500  
  23146352.136   121634901.948                                                  
  23146353.316    90831261.880  
  23556086.170   123788068.364                                                  
  23556088.583    92439150.960  
 21  8 28  5  3  7.0000000  0 18G 3G 4G 7G 8G 9G16G20G27G30R 5R 7R 9
                                R15R16E 1E 4E19E21
  24557365.936   129049827.989    24557366.776   100558306.643    24557365.704  
  24557366.526    96368380.128  
  21065934.090   110702230.166    21065931.642    86261464.840    21065930.838  
  21065934.537    82667251.502  
  21395636.112   112434826.087    21395632.753    87611534.903    21395631.752  
                                
  23832238.518   125239257.973    23832239.233    97589029.935    23832237.947  
  23832237.518    93522818.673  
  20372526.047   107058347.555    20372524.438    83422078.621    20372523.581  
  20372524.313    79946161.146  
  22364975.982   117528741.252                    91580817.837    22364971.051  
                                
  24395997.884   128201833.341                    99897516.918    24395994.185  
                                
  23558685.202   123801725.715    23558684.469    96468869.281    23558683.308  
  23558683.808    92449335.326  
  23726715.434   124684731.103    23726715.523    97156929.316    23726714.397  
  23726715.273    93108726.924  
  20282409.133   108421100.537    20282407.525    84327515.298    20282406.810  
                                
  23403930.671   125283073.351    23403929.706    97442385.953    23403928.724  
                                
  22089348.215   117955886.519    22089346.964    91743461.933    22089346.196  
                                
  21183160.009   113196384.455    21183158.526    88041626.278    21183157.812  
                                
  19308903.136   103144694.486    19308900.420    80223640.079    19308900.777  
                                
  25126441.819   132040343.202                                                  
  25126444.785    98601565.917  
  26016142.777   136715753.440                                                  
