     2.11           OBSERVATION DATA    M (MIXED)           RINEX VERSION / TYPE
CONVBIN 2.4.3                           20210901 190607 UTC PGM / RUN BY / DATE 
log: logs/21_09_01_06_41_38_sacr_VZ.rtcm                    COMMENT             
format: RTCM 3, station ID: 342                             COMMENT             
0342                                                        MARKER NAME         
                                                            MARKER NUMBER       
                                                            OBSERVER / AGENCY   
                    LEICA GR50                              REC # / TYPE / VERS 
                    GPPNULLANTENNA                          ANT # / TYPE        
 -2599095.5841 -4260310.4995  3958450.7559                  APPROX POSITION XYZ 
        0.0000        0.0000        0.0000                  ANTENNA: DELTA H/E/N
     1     1                                                WAVELENGTH FACT L1/2
     7    C1    L1    C2    L2    P2    C5    L5            # / TYPES OF OBSERV 
  2021     9     1     6    41   46.0000000     GPS         TIME OF FIRST OBS   
  2021     9     1     7    11   42.0000000     GPS         TIME OF LAST OBS    
                                                            END OF HEADER       
 21  9  1  6 41 46.0000000  0 15G 7G 8G 9G27G30R 2R 3R 4R12R13R21E 7
                                E19E21E27
  20726036.755   108916099.251    20726033.967    84869694.965    20726033.681  
                                
  22137599.170   116333861.562    22137595.989    90649737.090    22137595.774  
  22137596.132    86872692.339  
  21759926.880   114349176.221    21759926.648    89103253.688    21759926.398  
  21759926.880    85390619.545  
  23859759.476   125383880.368    23859758.922    97701723.846    23859758.404  
  23859758.744    93630812.965  
  21183411.552   111319610.876    21183411.480    86742570.034    21183410.944  
  21183411.444    83128309.148  
  20827301.741   111138484.314    20827303.778    86441056.049    20827303.831  
                                
  19797470.510   105977422.298    19797469.635    82426886.948    19797469.724  
                                
  22568530.815   120853466.771    22568529.832    93997137.461    22568529.939  
                                
  21150145.363   112980329.432    21150146.579    87873641.024    21150146.561  
                                
  19872882.147   106120103.208    19872883.291    82537877.242    19872883.202  
                                
  23626658.804   126431007.759    23626658.679    98335229.242    23626658.626  
                                
  26135518.840   137343131.889                                                  
  26135522.378   102561477.426  
  24828882.810   130476668.655                                                  
  24828883.685    97433889.591  
  24852009.042   130598223.885                                                  
  24852011.526    97524672.939  
  23520950.078   123603473.341                                                  
  23520951.954    92301335.089  
 21  9  1  6 41 47.0000000  0 15G 7G 8G 9G27G30R 2R 3R 4R12R13R21E 7
                                E19E21E27
  20726075.709   108916303.908    20726072.904    84869854.441    20726072.618  
                                
  22137757.793   116334695.333    22137754.630    90650386.777    22137754.398  
  22137754.755    86873314.980  
  21760456.429   114351958.956    21760456.178    89105422.051    21760455.928  
  21760456.429    85392697.561  
  23860227.448   125386339.647    23860226.912    97703640.170    23860226.376  
  23860226.733    93632649.428  
  21183146.268   111318216.793    21183146.197    86741483.738    21183145.643  
  21183146.161    83127268.116  
  20827989.305   111142153.262    20827991.342    86443909.677    20827991.396  
                                
  19797440.615   105977262.256    19797439.758    82426762.474    19797439.829  
                                
  22567869.321   120849924.480    22567868.338    93994382.344    22567868.446  
                                
  21150600.988   112982763.156    21150602.185    87875533.920    21150602.185  
                                
  19872849.018   106119926.411    19872850.180    82537739.733    19872850.090  
                                
  23626883.650   126432210.919    23626883.525    98336165.036    23626883.454  
                                
  26136053.535   137345941.720                                                  
  26136057.073   102563575.676  
  24828557.522   130474959.233                                                  
  24828558.398    97432613.077  
  24851720.869   130596709.568                                                  
  24851723.352    97523542.123  
  23521105.628   123604290.755                                                  
  23521107.522    92301945.491  
 21  9  1  6 41 48.0000000  0 15G 7G 8G 9G27G30R 2R 3R 4R12R13R21E 7
                                E19E21E27
  20726114.699   108916508.774    20726111.912    84870014.076    20726111.608  
                                
  22137916.595   116335529.758    22137913.432    90651036.978    22137913.200  
  22137913.557    86873938.085  
  21760986.031   114354742.054    21760985.780    89107590.699    21760985.530  
  21760986.031    85394775.844  
  23860695.527   125388799.387    23860694.973    97705556.853    23860694.455  
  23860694.795    93634486.256  
  21182881.020   111316822.875    21182880.949    86740397.563    21182880.395  
  21182880.913    83126227.203  
  20828676.941   111145822.663    20828678.978    86446763.656    20828679.014  
                                
  19797410.864   105977103.064    19797410.006    82426638.655    19797410.077  
                                
  22567207.899   120846382.584    22567206.917    93991627.533    22567207.024  
                                
  21151056.594   112985196.965    21151057.809    87877426.881    21151057.791  
                                
  19872815.996   106119749.926    19872817.140    82537602.467    19872817.050  
                                
  23627108.639   126433414.841    23627108.496    98337101.422    23627108.443  
                                
  26136588.265   137348751.701                                                  
  26136591.803   102565674.025  
  24828232.288   130473250.113                                                  
  24828233.164    97431336.782  
  24851432.748   130595195.452                                                  
  24851435.232    97522411.447  
  23521261.196   123605108.339                                                  
  23521263.090    92302556.029  
 21  9  1  6 41 49.0000000  0 16G 4G 7G 8G 9G27G30R 2R 3R 4R12R13R21
                                E 7E19E21E27
  24620001.204   129379013.529    24620000.739   100814832.169    24620000.453  
  24620004.385    96614235.564  
  20726153.725   108916713.909    20726150.938    84870173.920    20726150.652  
                                
  22138075.504   116336364.922    22138072.359    90651687.758    22138072.127  
  22138072.466    86874561.736  
  21761515.722   114357525.598    21761515.490    89109759.692    21761515.240  
  21761515.722    85396854.465  
  23861163.713   125391259.693    23861163.160    97707473.965    23861162.641  
  23861162.981    93636323.489  
  21182615.808   111315429.211    21182615.737    86739311.596    21182615.183  
  21182615.701    83125186.478  
  20829364.684   111149492.597    20829366.721    86449618.035    20829366.774  
                                
  19797381.308   105976944.822    19797380.450    82426515.576    19797380.522  
                                
  22566546.585   120842841.190    22566545.602    93988873.118    22566545.691  
                                
  21151512.236   112987630.915    21151513.452    87879319.948    21151513.434  
                                
  19872783.010   106119573.826    19872784.154    82537465.496    19872784.064  
                                
  23627333.771   126434619.636    23627333.646    98338038.475    23627333.592  
                                
  26137123.014   137351561.878                                                  
  26137126.534   102567772.546  
  24827907.125   130471541.343                                                  
  24827908.019    97430060.767  
  24851144.682   130593681.608                                                  
  24851147.166    97521280.981  
  23521416.835   123605926.188                                                  
  23521418.729    92303166.756  
 21  9  1  6 41 50.0000000  0 16G 4G 7G 8G 9G27G30R 2R 3R 4R12R13R21
                                E 7E19E21E27
  24620695.398   129382661.559    24620694.933   100817674.801    24620694.647  
  24620698.578    96616959.745  
  20726192.858   108916919.547    20726190.053    84870334.159    20726189.767  
                                
  22138234.610   116337200.988    22138231.501    90652339.235    22138231.250  
  22138231.590    86875186.058  
  21762045.539   114360309.818    21762045.288    89111929.214    21762045.038  
  21762045.539    85398933.585  
  23861632.043   125393720.783    23861631.507    97709391.702    23861630.971  
  23861631.328    93638161.306  
  21182350.704   111314036.008    21182350.614    86738225.981    21182350.078  
  21182350.578    83124146.097  
  20830052.570   111153163.279    20830054.607    86452473.010    20830054.660  
                                
  19797351.967   105976787.781    19797351.109    82426393.435    19797351.181  
                                
  22565885.395   120839300.568    22565884.412    93986119.299    22565884.519  
                                
  21151967.950   112990065.232    21151969.147    87881213.311    21151969.147  
                                
  19872750.131   106119398.341    19872751.292    82537329.012    19872751.203  
                                
  23627559.099   126435825.467    23627558.956    98338976.349    23627558.903  
                                
  26137657.851   137354372.505                                                  
  26137661.372   102569871.394  
  24827582.070   130469833.177                                                  
  24827582.963    97428785.189  
  24850856.687   130592168.266                                                  
  24850859.171    97520150.888  
  23521572.563   123606744.517                                                  
  23521574.440    92303777.846  
 21  9  1  6 41 51.0000000  0 16G 4G 7G 8G 9G27G30R 2R 3R 4R12R13R21
                                E 7E19E21E27
  24621389.609   129386309.595    24621389.145   100820517.426    24621388.859  
  24621392.790    96619683.912  
  20726232.009   108917125.269    20726229.222    84870494.462    20726228.936  
                                
  22138393.769   116338037.514    22138390.642    90652991.076    22138390.410  
  22138390.731    86875810.765  
  21762575.409   114363094.281    21762575.176    89114098.925    21762574.926  
  21762575.409    85401012.892  
  23862100.443   125396182.227    23862099.889    97711309.715    23862099.371  
  23862099.711    93639999.407  
  21182085.581   111312642.859    21182085.509    86737140.412    21182084.955  
  21182085.474    83123105.762  
  20830740.527   111156834.301    20830742.564    86455328.252    20830742.600  
                                
  19797322.769   105976631.530    19797321.929    82426271.909    19797322.001  
                                
  22565224.259   120835760.280    22565223.276    93983365.746    22565223.366  
                                
  21152423.646   112992499.507    21152424.861    87883106.631    21152424.843  
                                
  19872717.323   106119223.055    19872718.485    82537192.676    19872718.378  
                                
  23627784.553   126437031.917    23627784.428    98339914.696    23627784.374  
                                
  26138192.707   137357183.172                                                  
  26138196.245   102571970.267  
  24827257.050   130468125.178                                                  
  24827257.944    97427509.738  
  24850568.745   130590655.012                                                  
  24850571.229    97519020.863  
  23521728.310   123607562.912                                                  
  23521730.186    92304388.991  
 21  9  1  6 41 52.0000000  0 16G 4G 7G 8G 9G27G30R 2R 3R 4R12R13R21
                                E 7E19E21E27
  24622083.821   129389957.690    24622083.356   100823360.095    24622083.070  
  24622087.001    96622408.138  
  20726271.196   108917331.212    20726268.391    84870654.937    20726268.105  
                                
  22138553.072   116338874.700    22138549.944    90653643.438    22138549.712  
  22138550.034    86876435.938  
  21763105.332   114365879.122    21763105.100    89116268.931    21763104.850  
  21763105.350    85403092.472  
  23862568.951   125398644.168    23862568.397    97713228.117    23862567.879  
  23862568.219    93641837.852  
  21181820.512   111311249.879    21181820.440    86736054.973    21181819.886  
  21181820.405    83122065.544  
  20831428.556   111160505.790    20831430.575    86458183.855    20831430.629  
                                
  19797293.750   105976476.155    19797292.910    82426151.061    19797292.982  
                                
  22564563.230   120832220.442    22564562.230    93980612.541    22564562.337  
                                
  21152879.360   112994933.866    21152880.575    87885000.023    21152880.557  
                                
  19872684.552   106119048.094    19872685.713    82537056.596    19872685.624  
                                
  23628010.149   126438239.120    23628010.024    98340853.634    23628009.971  
                                
  26138727.598   137359993.978                                                  
  26138731.119   102574069.241  
  24826932.066   130466417.476                                                  
  24826932.960    97426234.508  
  24850280.822   130589141.969                                                  
  24850283.306    97517890.991  
  23521884.056   123608381.497                                                  
  23521885.950    92305000.272  
 21  9  1  6 41 53.0000000  0 16G 4G 7G 8G 9G27G30R 2R 3R 4R12R13R21
                                E 7E19E21E27
  24622778.032   129393605.837    24622777.568   100826202.800    24622777.282  
  24622781.195    96625132.406  
  20726310.401   108917537.319    20726307.613    84870815.542    20726307.327  
                                
  22138712.517   116339712.506    22138709.426    90654296.269    22138709.175  
  22138709.479    86877061.551  
  21763635.346   114368664.292    21763635.113    89118439.194    21763634.863  
  21763635.346    85405172.318  
  23863037.513   125401106.537    23863036.977    97715146.847    23863036.441  
  23863036.798    93643676.642  
  21181555.461   111309857.049    21181555.389    86734969.653    21181554.835  
  21181555.353    83121025.452  
  20832116.674   111164177.727    20832118.711    86461039.803    20832118.747  
                                
  19797264.874   105976321.619    19797264.034    82426030.869    19797264.105  
                                
  22563902.255   120828680.998    22563901.272    93977859.640    22563901.362  
                                
  21153335.091   112997368.264    21153336.306    87886893.444    21153336.288  
                                
  19872651.833   106118873.396    19872652.995    82536920.722    19872652.888  
                                
  23628235.889   126439447.064    23628235.764    98341793.142    23628235.710  
                                
  26139262.490   137362804.898                                                  
  26139266.010   102576168.307  
  24826607.172   130464710.041                                                  
  24826608.065    97424959.473  
  24849992.934   130587629.094                                                  
  24849995.418    97516761.251  
  23522039.874   123609200.243                                                  
  23522041.750    92305611.671  
 21  9  1  6 41 54.0000000  0 15G 7G 8G 9G27G30R 2R 3R 4R12R13R21E 7
                                E19E21E27
  20726349.731   108917743.924    20726346.943    84870976.533    20726346.657  
                                
  22138872.087   116340551.192    22138868.996    90654949.795    22138868.764  
  22138869.049    86877687.849  
  21764165.466   114371450.152    21764165.234    89120609.991    21764164.983  
  21764165.466    85407252.664  
  23863506.217   125403569.640    23863505.663    97717066.134    23863505.127  
  23863505.485    93645515.977  
  21181290.499   111308464.662    21181290.427    86733884.674    21181289.891  
  21181290.391    83119985.680  
  20832804.953   111167850.429    20832806.972    86463896.354    20832807.026  
                                
  19797236.230   105976168.244    19797235.390    82425911.575    19797235.461  
                                
  22563241.423   120825142.316    22563240.440    93975107.334    22563240.547  
                                
  21153790.876   112999803.013    21153792.092    87888787.140    21153792.074  
                                
  19872619.240   106118699.312    19872620.384    82536785.325    19872620.295  
                                
  23628461.825   126440656.054    23628461.699    98342733.467    23628461.646  
                                
  26139797.488   137365616.258                                                  
  26139801.008   102578267.695  
  24826282.349   130463003.169                                                  
  24826283.242    97423684.863  
  24849705.118   130586116.700                                                  
  24849707.601    97515631.872  
  23522195.763   123610019.465                                                  
  23522197.640    92306223.426  
 21  9  1  6 41 55.0000000  0 15G 7G 8G 9G27G30R 2R 3R 4R12R13R21E 7
                                E19E21E27
  20726389.042   108917950.506    20726386.237    84871137.509    20726385.951  
                                
  22139031.765   116341390.303    22139028.691    90655603.653    22139028.441  
  22139028.745    86878314.462  
  21764695.640   114374236.149    21764695.407    89122780.896    21764695.157  
  21764695.640    85409333.108  
  23863974.993   125406033.059    23863974.439    97718985.688    23863973.921  
  23863974.279    93647355.532  
  21181025.537   111307072.245    21181025.465    86732799.677    21181024.911  
  21181025.430    83118945.889  
  20833493.250   111171523.367    20833495.287    86466753.085    20833495.341  
                                
  19797207.693   105976015.525    19797206.835    82425792.792    19797206.924  
                                
  22562580.644   120821603.841    22562579.662    93972355.182    22562579.751  
                                
  21154246.644   113002237.619    21154247.859    87890680.723    21154247.841  
                                
  19872586.647   106118525.317    19872587.809    82536649.998    19872587.702  
                                
  23628687.868   126441865.618    23628687.743    98343674.244    23628687.689  
                                
  26140332.451   137368427.530                                                  
  26140335.971   102580367.028  
  24825957.561   130461296.379                                                  
  24825958.455    97422410.308  
  24849417.319   130584604.288                                                  
  24849419.803    97514502.476  
  23522351.653   123610838.648                                                  
  23522353.529    92306835.154  
 21  9  1  6 41 56.0000000  0 15G 7G 8G 9G27G30R 2R 3R 4R12R13R21E 7
                                E19E21E27
  20726428.426   108918157.458    20726425.638    84871298.765    20726425.352  
                                
  22139191.585   116342230.198    22139188.512    90656258.112    22139188.262  
  22139188.548    86878941.656  
  21765225.885   114377022.666    21765225.653    89124952.206    21765225.403  
  21765225.885    85411413.948  
  23864443.894   125408497.095    23864443.358    97720905.718    23864442.822  
  23864443.180    93649195.548  
  21180760.629   111305680.143    21180760.557    86731714.919    21180760.003  
  21180760.521    83117906.334  
  20834181.672   111175196.948    20834183.709    86469610.311    20834183.763  
                                
  19797179.370   105975863.857    19797178.513    82425674.830    19797178.602  
                                
  22561919.973   120818065.936    22561918.972    93969603.479    22561919.080  
                                
  21154702.465   113004672.461    21154703.680    87892574.491    21154703.662  
                                
  19872554.161   106118351.776    19872555.323    82536515.022    19872555.216  
                                
  23628914.072   126443076.066    23628913.947    98344615.706    23628913.893  
                                
  26140867.467   137371239.107                                                  
  26140870.970   102582466.580  
  24825632.881   130459590.039                                                  
  24825633.775    97421136.088  
  24849129.592   130583092.249                                                  
  24849132.076    97513373.352  
  23522507.596   123611658.166                                                  
  23522509.472    92307447.136  
 21  9  1  6 41 57.0000000  0 15G 7G 8G 9G27G30R 2R 3R 4R12R13R21E 7
                                E19E21E27
  20726467.881   108918364.848    20726465.093    84871460.370    20726464.807  
                                
  22139351.567   116343071.009    22139348.529    90656913.291    22139348.261  
  22139348.547    86879569.526  
  21765756.274   114379809.806    21765756.023    89127124.000    21765755.773  
  21765756.274    85413495.249  
  23864912.920   125410961.841    23864912.366    97722826.297    23864911.830  
  23864912.188    93651036.118  
  21180495.810   111304288.463    21180495.738    86730630.494    21180495.184  
  21180495.685    83116867.090  
  20834870.237   111178871.242    20834872.274    86472468.095    20834872.328  
                                
  19797151.262   105975713.339    19797150.405    82425557.755    19797150.476  
                                
  22561259.409   120814528.693    22561258.426    93966852.290    22561258.515  
                                
  21155158.321   113007107.625    21155159.536    87894468.505    21155159.519  
                                
  19872521.765   106118178.801    19872522.926    82536380.486    19872522.819  
                                
  23629140.436   126444287.452    23629140.311    98345557.895    23629140.258  
                                
  26141402.555   137374051.057                                                  
  26141406.058   102584566.417  
  24825308.255   130457884.226                                                  
  24825309.166    97419862.267  
  24848841.954   130581580.641                                                  
  24848844.438    97512244.558  
  23522663.646   123612478.107                                                  
  23522665.522    92308059.427  
 21  9  1  6 41 58.0000000  0 15G 7G 8G 9G27G30R 2R 3R 4R12R13R21E 7
                                E19E21E27
  20726507.353   108918572.172    20726504.548    84871621.919    20726504.262  
                                
  22139511.620   116343912.124    22139508.582    90657568.701    22139508.314  
  22139508.582    86880197.653  
  21766286.662   114382597.033    21766286.430    89129295.863    21766286.179  
  21766286.662    85415576.624  
  23865381.982   125413426.795    23865381.428    97724747.039    23865380.910  
  23865381.250    93652876.835  
  21180230.955   111302896.666    21180230.866    86729545.974    21180230.330  
  21180230.830    83115827.768  
  20835558.838   111182545.729    20835560.875    86475326.027    20835560.928  
                                
  19797123.244   105975563.428    19797122.386    82425441.160    19797122.475  
                                
  22560598.898   120810991.620    22560597.898    93964101.235    22560598.005  
                                
  21155614.160   113009542.571    21155615.357    87896362.352    21155615.357  
                                
  19872489.386   106118005.853    19872490.530    82536245.971    19872490.440  
                                
  23629366.908   126445499.383    23629366.783    98346500.510    23629366.748  
                                
  26141937.625   137376862.895                                                  
  26141941.146   102586666.164  
  24824983.664   130456178.431                                                  
  24824984.557    97418588.468  
  24848554.281   130580068.972                                                  
  24848556.765    97511115.714  
  23522819.643   123613297.971                                                  
  23522821.519    92308671.668  
 21  9  1  6 41 59.0000000  0 16G 4G 7G 8G 9G27G30R 2R 3R 4R12R13R21
                                E 7E19E21E27
  24626943.981   129415497.955    24626943.516   100843261.571    24626943.230  
  24626947.143    96641480.375  
  20726546.826   108918779.723    20726544.038    84871783.647    20726543.752  
                                
  22139671.815   116344753.953    22139668.778    90658224.681    22139668.527  
  22139668.778    86880826.267  
  21766817.122   114385384.653    21766816.889    89131468.037    21766816.639  
  21766817.122    85417658.287  
  23865851.169   125415892.284    23865850.615    97726668.205    23865850.097  
  23865850.437    93654717.934  
  21179966.136   111301505.072    21179966.065    86728461.617    21179965.511  
  21179966.029    83114788.588  
  20836247.528   111186220.702    20836249.547    86478184.335    20836249.600  
                                
  19797095.404   105975414.392    19797094.564    82425325.246    19797094.635  
                                
  22559938.459   120807455.032    22559937.476    93961350.544    22559937.566  
                                
  21156069.981   113011977.601    21156071.196    87898256.259    21156071.178  
                                
  19872457.043   106117833.215    19872458.205    82536111.692    19872458.097  
                                
  23629593.541   126446712.090    23629593.416    98347443.715    23629593.363  
                                
  26142472.731   137379674.886                                                  
  26142476.251   102588766.034  
  24824659.109   130454472.945                                                  
  24824660.002    97417314.890  
  24848266.643   130578557.513                                                  
  24848269.127    97509987.028  
  23522975.693   123614118.029                                                  
  23522977.569    92309284.047  
 21  9  1  6 42  0.0000000  0 16G 4G 7G 8G 9G27G30R 2R 3R 4R12R13R21
                                E 7E19E21E27
  24627638.389   129419147.071    24627637.924   100846105.040    24627637.638  
  24627641.534    96644205.373  
  20726586.406   108918987.667    20726583.618    84871945.681    20726583.332  
                                
  22139832.154   116345596.542    22139829.116    90658881.250    22139828.866  
  22139829.116    86881455.480  
  21767347.707   114388172.840    21767347.474    89133640.648    21767347.224  
  21767347.707    85419740.365  
  23866320.428   125418358.376    23866319.874    97728589.838    23866319.355  
  23866319.695    93656559.505  
  21179701.406   111300113.835    21179701.317    86727377.539    21179700.781  
  21179701.281    83113749.675  
  20836936.343   111189896.331    20836938.362    86481043.154    20836938.415  
                                
  19797067.760   105975266.403    19797066.921    82425210.141    19797066.992  
                                
  22559278.145   120803919.080    22559277.162    93958600.364    22559277.252  
                                
  21156525.891   113014412.890    21156527.088    87900150.371    21156527.071  
                                
  19872424.825   106117661.120    19872425.969    82535977.840    19872425.880  
                                
  23629820.353   126447925.759    23629820.228    98348387.678    23629820.174  
                                
  26143007.908   137382487.215                                                  
  26143011.429   102590866.138  
  24824334.661   130452767.933                                                  
  24824335.554    97416041.674  
  24847979.113   130577046.449                                                  
  24847981.597    97508858.633  
  23523131.814   123614938.460                                                  
  23523133.691    92309896.701  
 21  9  1  6 42  1.0000000  0 16G 4G 7G 8G 9G27G30R 2R 3R 4R12R13R21
                                E 7E19E21E27
  24628332.815   129422796.304    24628332.350   100848948.598    24628332.046  
  24628335.960    96646930.441  
  20726626.004   108919195.795    20726623.216    84872107.864    20726622.930  
                                
  22139992.582   116346439.782    22139989.580    90659538.318    22139989.312  
  22139989.562    86882085.183  
  21767878.327   114390961.367    21767878.095    89135813.531    21767877.845  
  21767878.345    85421822.718  
  23866789.811   125420824.959    23866789.239    97730511.851    23866788.721  
  23866789.078    93658401.438  
  21179436.677   111298722.754    21179436.605    86726293.582    21179436.051  
  21179436.570    83112710.890  
  20837625.247   111193572.397    20837627.266    86483902.317    20837627.320  
                                
  19797040.260   105975119.257    19797039.420    82425095.694    19797039.492  
                                
  22558617.903   120800383.533    22558616.902    93955850.493    22558617.009  
                                
  21156981.801   113016848.245    21156982.999    87902044.538    21156982.981  
                                
  19872392.643   106117489.284    19872393.787    82535844.190    19872393.698  
                                
  23630047.289   126449140.146    23630047.182    98349332.201    23630047.128  
                                
  26143543.103   137385299.672                                                  
  26143546.606   102592966.352  
  24824010.267   130451063.215                                                  
  24824011.178    97414768.663  
  24847691.600   130575535.577                                                  
  24847694.084    97507730.385  
  23523287.972   123615759.067                                                  
  23523289.848    92310509.494  
 21  9  1  6 42  2.0000000  0 16G 4G 7G 8G 9G27G30R 2R 3R 4R12R13R21
                                E 7E19E21E27
  24629027.276   129426445.784    24629026.812   100851792.346    24629026.526  
  24629030.421    96649655.719  
  20726665.691   108919404.338    20726662.903    84872270.362    20726662.617  
                                
  22140153.225   116347283.855    22140150.223    90660196.036    22140149.955  
  22140150.187    86882715.489  
  21768409.091   114393750.478    21768408.858    89137986.859    21768408.608  
  21768409.091    85423905.494  
  23867259.338   125423292.252    23867258.784    97732434.422    23867258.248  
  23867258.605    93660243.878  
  21179172.037   111297332.048    21179171.965    86725209.915    21179171.411  
  21179171.929    83111672.369  
  20838314.241   111197249.134    20838316.278    86486761.999    20838316.332  
                                
  19797012.992   105974973.202    19797012.134    82424982.096    19797012.223  
                                
  22557957.785   120796848.604    22557956.785    93953101.109    22557956.874  
                                
  21157437.765   113019283.902    21157438.963    87903938.935    21157438.963  
                                
  19872360.568   106117318.012    19872361.712    82535710.981    19872361.623  
                                
  23630274.422   126450355.483    23630274.297    98350277.465    23630274.244  
                                
  26144078.352   137388112.482                                                  
  26144081.854   102595066.821  
  24823685.944   130449358.985                                                  
  24823686.855    97413496.028  
  24847404.177   130574025.111                                                  
  24847406.661    97506602.435  
  23523444.219   123616580.061                                                  
  23523446.095    92311122.574  
 21  9  1  6 42  3.0000000  0 16G 4G 7G 8G 9G27G30R 2R 3R 4R12R13R21
                                E 7E19E21E27
  24629721.792   129430095.518    24629721.345   100854636.288    24629721.041  
  24629724.954    96652381.153  
  20726705.431   108919613.200    20726702.644    84872433.110    20726702.358  
                                
  22140313.957   116348128.633    22140310.955    90660854.309    22140310.687  
  22140310.919    86883346.343  
  21768939.944   114396540.079    21768939.711    89140160.572    21768939.461  
  21768939.944    85425988.633  
  23867728.953   125425760.106    23867728.399    97734357.422    23867727.863  
  23867728.221    93662086.762  
  21178907.450   111295941.639    21178907.379    86724126.477    21178906.842  
  21178907.343    83110634.079  
  20839003.378   111200926.446    20839005.415    86489622.135    20839005.468  
                                
  19796985.902   105974828.148    19796985.045    82424869.274    19796985.116  
                                
  22557297.757   120793314.231    22557296.756    93950352.152    22557296.864  
                                
  21157893.747   113021719.770    21157894.962    87905833.497    21157894.944  
                                
  19872328.565   106117147.151    19872329.726    82535578.087    19872329.619  
                                
  23630501.699   126451571.722    23630501.573    98351223.426    23630501.538  
                                
  26144613.654   137390925.547                                                  
  26144617.175   102597167.486  
  24823361.728   130447655.168                                                  
  24823362.640    97412223.693  
  24847116.790   130572514.965                                                  
  24847119.291    97505474.726  
  23523600.483   123617401.357                                                  
  23523602.359    92311735.880  
 21  9  1  6 42  4.0000000  0 16G 4G 7G 8G 9G27G30R 2R 3R 4R12R13R21
                                E 7E19E21E27
  24630416.307   129433745.221    24630415.842   100857480.213    24630415.539  
  24630419.452    96655106.611  
  20726745.208   108919822.206    20726742.420    84872595.971    20726742.134  
                                
  22140474.831   116348974.015    22140471.847    90661513.030    22140471.579  
  22140471.812    86883977.598  
  21769470.832   114399329.997    21769470.600    89142334.537    21769470.350  
  21769470.850    85428072.015  
  23868198.641   125428228.364    23868198.087    97736280.731    23868197.551  
  23868197.908    93663929.948  
  21178642.899   111294551.338    21178642.810    86723043.124    21178642.274  
  21178642.774    83109595.863  
  20839692.586   111204604.155    20839694.605    86492482.580    20839694.659  
                                
  19796958.938   105974683.931    19796958.098    82424757.105    19796958.170  
                                
  22556637.800   120789780.250    22556636.818    93947603.505    22556636.907  
                                
  21158349.747   113024155.620    21158350.962    87907728.052    21158350.944  
                                
  19872296.615   106116976.553    19872297.777    82535445.404    19872297.669  
                                
  23630729.118   126452788.666    23630728.993    98352169.943    23630728.957  
                                
  26145148.993   137393738.694                                                  
  26145152.513   102599268.211  
  24823037.549   130445951.571                                                  
  24823038.442    97410951.531  
  24846829.438   130571004.953                                                  
  24846831.940    97504347.133  
  23523756.801   123618222.780                                                  
  23523758.678    92312349.282  
 21  9  1  6 42  5.0000000  0 16G 4G 7G 8G 9G27G30R 2R 3R 4R12R13R21
                                E 7E19E21E27
  24631110.876   129437395.217    24631110.429   100860324.375    24631110.125  
  24631114.021    96657832.244  
  20726785.074   108920031.570    20726782.268    84872759.110    20726781.982  
                                
  22140635.831   116349820.169    22140632.865    90662172.382    22140632.597  
  22140632.811    86884609.461  
  21770001.846   114402120.423    21770001.614    89144508.894    21770001.364  
  21770001.846    85430155.771  
  23868668.471   125430697.286    23868667.917    97738204.573    23868667.399  
  23868667.738    93665773.613  
  21178378.384   111293161.358    21178378.313    86721960.022    21178377.759  
  21178378.277    83108557.893  
  20840381.901   111208282.504    20840383.938    86495343.511    20840383.992  
                                
  19796932.206   105974540.761    19796931.366    82424645.755    19796931.438  
                                
  22555977.987   120786246.894    22555977.004    93944855.337    22555977.093  
                                
  21158805.782   113026591.688    21158806.997    87909622.771    21158806.979  
                                
  19872264.755   106116806.408    19872265.898    82535313.069    19872265.809  
                                
  23630956.698   126454006.540    23630956.572    98353117.178    23630956.519  
                                
  26145684.366   137396552.137                                                  
  26145687.869   102601369.163  
  24822713.440   130444248.437                                                  
  24822714.352    97409679.710  
  24846542.175   130569495.297                                                  
  24846544.659    97503219.797  
  23523913.191   123619044.546                                                  
  23523915.067    92312962.939  
 21  9  1  6 42  6.0000000  0 16G 4G 7G 8G 9G27G30R 2R 3R 4R12R13R21
                                E 7E19E21E27
  24631805.427   129441045.105    24631804.962   100863168.440    24631804.659  
  24631808.572    96660557.825  
  20726824.904   108920240.996    20726822.116    84872922.299    20726821.830  
                                
  22140796.938   116350666.775    22140793.954    90662832.055    22140793.686  
  22140793.901    86885241.687  
  21770532.896   114404911.089    21770532.663    89146683.437    21770532.413  
  21770532.914    85432239.712  
  23869138.355   125433166.510    23869137.783    97740128.657    23869137.265  
  23869137.622    93667617.529  
  21178113.887   111291771.409    21178113.815    86720876.945    21178113.261  
  21178113.780    83107519.946  
  20841071.288   111211961.154    20841073.325    86498204.683    20841073.379  
                                
  19796905.599   105974398.331    19796904.759    82424534.970    19796904.831  
                                
  22555318.227   120782713.852    22555317.226    93942107.418    22555317.315  
                                
  21159261.817   113029027.660    21159263.015    87911517.421    21159262.997  
                                
  19872232.930   106116636.433    19872234.074    82535180.866    19872233.966  
                                
  23631184.385   126455225.002    23631184.277    98354064.876    23631184.224  
                                
  26146219.758   137399365.587                                                  
  26146223.260   102603470.118  
  24822389.386   130442545.451                                                  
  24822390.297    97408407.988  
  24846254.895   130567985.705                                                  
  24846257.397    97502092.504  
  23524069.563   123619866.338                                                  
  23524071.421    92313576.619  
 21  9  1  6 42  7.0000000  0 16G 4G 7G 8G 9G27G30R 2R 3R 4R12R13R21
                                E 7E19E21E27
  24632499.978   129444694.983    24632499.513   100866012.497    24632499.210  
  24632503.123    96663283.370  
  20726864.787   108920450.498    20726861.982    84873085.549    20726861.696  
                                
  22140958.117   116351513.871    22140955.169    90663492.125    22140954.883  
  22140955.097    86885874.254  
  21771063.981   114407701.987    21771063.749    89148858.161    21771063.498  
  21771063.999    85434323.820  
  23869608.292   125435636.121    23869607.738    97742053.027    23869607.202  
  23869607.559    93669461.708  
  21177849.407   111290381.499    21177849.318    86719793.900    21177848.782  
  21177849.282    83106482.026  
  20841760.729   111215640.137    20841762.766    86501066.115    20841762.819  
                                
  19796879.117   105974256.650    19796878.277    82424424.775    19796878.349  
                                
  22554658.502   120779181.094    22554657.502    93939359.715    22554657.591  
                                
  21159717.817   113031463.591    21159719.014    87913412.029    21159718.996  
                                
  19872201.123   106116466.616    19872202.267    82535048.791    19872202.177  
                                
  23631412.197   126456444.053    23631412.090    98355013.024    23631412.036  
                                
  26146755.132   137402179.039                                                  
  26146758.652   102605571.070  
  24822065.349   130440842.611                                                  
  24822066.260    97407136.392  
  24845967.651   130566476.184                                                  
  24845970.134    97500965.260  
  23524225.970   123620688.192                                                  
  23524227.847    92314190.337  
 21  9  1  6 42  8.0000000  0 16G 4G 7G 8G 9G27G30R 2R 3R 4R12R13R21
                                E 7E19E21E27
  24633194.583   129448345.064    24633194.118   100868856.716    24633193.814  
  24633197.728    96666009.069  
  20726904.689   108920660.311    20726901.901    84873249.038    20726901.615  
                                
  22141119.456   116352361.777    22141116.526    90664152.831    22141116.240  
  22141116.437    86886507.418  
  21771595.173   114410493.378    21771594.941    89151033.269    21771594.673  
  21771595.173    85436408.304  
  23870078.372   125438106.325    23870077.819    97743977.846    23870077.282  
  23870077.640    93671306.328  
  21177584.964   111288991.882    21177584.892    86718711.080    21177584.338  
  21177584.856    83105444.325  
  20842450.294   111219319.708    20842452.314    86503928.003    20842452.367  
                                
  19796852.850   105974115.945    19796851.992    82424315.338    19796852.081  
                                
  22553998.885   120775648.871    22553997.885    93936612.433    22553997.974  
                                
  21160173.852   113033899.709    21160175.067    87915306.788    21160175.049  
                                
  19872169.406   106116297.228    19872170.549    82534917.043    19872170.442  
                                
  23631640.170   126457663.944    23631640.045    98355961.833    23631640.009  
                                
  26147290.577   137404992.773                                                  
  26147294.079   102607672.220  
  24821741.383   130439140.191                                                  
  24821742.295    97405865.108  
  24845680.460   130564966.991                                                  
  24845682.944    97499838.268  
  23524382.396   123621510.348                                                  
  23524384.272    92314804.287  
 21  9  1  6 42  9.0000000  0 17G 4G 7G 8G 9G20G27G30R 2R 3R 4R12R13
                                R21E 7E19E21E27
  24633889.223   129451995.436    24633888.758   100871701.166    24633888.455  
  24633892.350    96668735.007  
  20726944.715   108920870.576    20726941.928    84873412.883    20726941.642  
                                
  22141280.939   116353210.438    22141277.990    90664814.118    22141277.704  
  22141277.919    86887141.208  
  21772126.455   114413285.374    21772126.223    89153208.850    21772125.973  
  21772126.473    85438493.234  
  23508081.701   123535803.226                    96261652.490    23508079.164  
                                
  23870548.560   125440577.192    23870547.988    97745903.199    23870547.452  
  23870547.827    93673151.480  
  21177320.609   111287602.664    21177320.520    86717628.572    21177319.984  
  21177320.484    83104406.925  
  20843139.967   111223000.000    20843142.004    86506790.455    20843142.058  
                                
  19796826.779   105973976.356    19796825.921    82424206.771    19796826.010  
                                
  22553339.393   120772117.345    22553338.393    93933865.690    22553338.482  
                                
  21160629.959   113036336.150    21160631.174    87917201.800    21160631.156  
                                
  19872137.795   106116128.401    19872138.939    82534785.735    19872138.832  
                                
  23631868.339   126458884.922    23631868.214    98356911.483    23631868.161  
                                
  26147826.058   137407806.845                                                  
  26147829.560   102609773.672  
  24821417.525   130437438.301                                                  
  24821418.436    97404594.210  
  24845393.358   130563458.230                                                  
  24845395.860    97498711.593  
  23524538.928   123622332.932                                                  
  23524540.805    92315418.554  
 21  9  1  6 42 10.0000000  0 17G 4G 7G 8G 9G20G27G30R 2R 3R 4R12R13
                                R21E 7E19E21E27
  24634583.917   129455645.975    24634583.452   100874545.749    24634583.149  
  24634587.044    96671461.050  
  20726984.778   108921081.117    20726981.990    84873576.939    20726981.704  
                                
  22141442.582   116354059.893    22141439.669    90665476.033    22141439.383  
  22141439.580    86887775.511  
  21772657.844   114416077.819    21772657.612    89155384.783    21772657.362  
  21772657.862    85440578.497  
  23508330.331   123537109.731                    96262670.543    23508327.776  
                                
  23871018.855   125443048.626    23871018.301    97747828.991    23871017.765  
  23871018.122    93674997.033  
  21177056.291   111286213.690    21177056.219    86716546.255    21177055.665  
  21177056.184    83103369.704  
  20843829.765   111226680.837    20843831.802    86509653.321    20843831.856  
                                
  19796800.887   105973837.732    19796800.047    82424098.950    19796800.118  
                                
  22552680.008   120768586.322    22552679.008    93931119.341    22552679.097  
                                
  21161086.102   113038772.716    21161087.299    87919096.907    21161087.299  
                                
  19872106.239   106115959.926    19872107.382    82534654.696    19872107.275  
                                
  23632096.652   126460106.684    23632096.527    98357861.746    23632096.491  
                                
  26148361.611   137410621.168                                                  
  26148365.131   102611875.269  
  24821093.738   130435736.761                                                  
  24821094.650    97403323.578  
  24845106.292   130561949.733                                                  
  24845108.794    97497585.125  
  23524695.515   123623155.755                                                  
  23524697.391    92316033.000  
 21  9  1  6 42 11.0000000  0 17G 4G 7G 8G 9G20G27G30R 2R 3R 4R12R13
                                R21E 7E19E21E27
  24635278.522   129459296.268    24635278.057   100877390.126    24635277.753  
  24635281.667    96674186.918  
  20727024.822   108921291.526    20727022.035    84873740.898    20727021.749  
                                
  22141604.279   116354909.624    22141601.366    90666138.166    22141601.080  
  22141601.259    86888410.059  
  21773189.251   114418870.287    21773189.019    89157560.727    21773188.769  
  21773189.251    85442663.779  
  23508578.978   123538416.344                    96263688.684    23508576.423  
                                
  23871489.203   125445520.244    23871488.649    97749754.930    23871488.131  
  23871488.489    93676842.698  
  21176791.936   111284824.563    21176791.865    86715463.821    21176791.311  
  21176791.829    83102332.364  
  20844519.563   111230361.811    20844521.600    86512516.301    20844521.654  
                                
  19796775.084   105973699.670    19796774.244    82423991.568    19796774.315  
                                
  22552020.641   120765055.442    22552019.641    93928373.101    22552019.730  
                                
  21161542.191   113041209.025    21161543.388    87920991.816    21161543.370  
                                
  19872074.682   106115791.430    19872075.825    82534523.648    19872075.718  
                                
  23632325.054   126461328.890    23632324.929    98358812.354    23632324.893  
                                
  26148897.181   137413435.293                                                  
  26148900.737   102613976.721  
  24820769.987   130434035.192                                                  
  24820770.934    97402052.925  
  24844819.262   130560441.118                                                  
  24844821.800    97496458.555  
  23524852.119   123623978.436                                                  
  23524854.031    92316647.342  
 21  9  1  6 42 12.0000000  0 17G 4G 7G 8G 9G20G27G30R 2R 3R 4R12R13
                                R21E 7E19E21E27
  24635973.198   129462946.842    24635972.733   100880234.713    24635972.412  
  24635976.325    96676913.022  
  20727064.938   108921502.363    20727062.151    84873905.178    20727061.865  
                                
  22141766.136   116355760.218    22141763.224    90666800.966    22141762.938  
  22141763.116    86889045.236  
  21773720.747   114421663.365    21773720.515    89159737.143    21773720.247  
  21773720.747    85444749.515  
  23508827.751   123539723.638                    96264707.345    23508825.213  
                                
  23871959.659   125447992.535    23871959.105    97751681.388    23871958.569  
  23871958.944    93678688.898  
  21176527.671   111283435.827    21176527.582    86714381.679    21176527.046  
  21176527.546    83101295.323  
  20845209.539   111234043.486    20845211.577    86515379.814    20845211.630  
                                
  19796749.513   105973562.723    19796748.673    82423885.045    19796748.745  
                                
  22551361.400   120761525.220    22551360.399    93925627.363    22551360.488  
                                
  21161998.333   113043645.630    21161999.530    87922886.944    21161999.530  
                                
  19872043.250   106115623.488    19872044.394    82534393.016    19872044.287  
                                
  23632553.634   126462552.029    23632553.527    98359763.677    23632553.473  
                                
  26149432.716   137416249.790                                                  
  26149436.218   102616078.455  
  24820446.236   130432334.136                                                  
  24820447.148    97400782.663  
  24844532.196   130558932.923                                                  
  24844534.698    97495332.312  
  23525008.705   123624801.534                                                  
  23525010.581    92317261.991  
 21  9  1  6 42 13.0000000  0 17G 4G 7G 8G 9G20G27G30R 2R 3R 4R12R13
                                R21E 7E19E21E27
  24636667.928   129466597.565    24636667.463   100883079.435    24636667.141  
  24636671.055    96679639.186  
  20727105.108   108921713.405    20727102.320    84874069.629    20727102.034  
                                
  22141928.137   116356611.484    22141925.242    90667464.302    22141924.956  
  22141925.117    86889680.911  
  21774252.333   114424456.807    21774252.100    89161913.856    21774251.832  
  21774252.333    85446835.527  
  23509076.595   123541031.342                    96265726.347    23509074.040  
                                
  23872430.204   125450465.303    23872429.650    97753608.230    23872429.114  
  23872429.471    93680535.444  
  21176263.442   111282047.269    21176263.353    86713299.689    21176262.817  
  21176263.317    83100258.411  
  20845899.552   111237725.607    20845901.589    86518243.689    20845901.642  
                                
  19796724.085   105973426.651    19796723.246    82423779.218    19796723.335  
                                
  22550702.229   120757995.410    22550701.229    93922881.958    22550701.336  
                                
  21162454.476   113046082.289    21162455.691    87924782.125    21162455.673  
                                
  19872011.854   106115455.863    19872012.998    82534262.645    19872012.891  
                                
  23632782.358   126463775.984    23632782.250    98360715.642    23632782.197  
                                
  26149968.304   137419064.427                                                  
  26149971.824   102618180.309  
  24820122.593   130430633.380                                                  
  24820123.504    97399512.611  
  24844245.256   130557424.942                                                  
  24844247.739    97494206.223  
  23525165.363   123625624.811                                                  
  23525167.239    92317876.780  
 21  9  1  6 42 14.0000000  0 17G 4G 7G 8G 9G20G27G30R 2R 3R 4R12R13
                                R21E 7E19E21E27
  24637362.657   129470248.404    24637362.193   100885924.246    24637361.889  
  24637365.784    96682365.465  
  20727145.313   108921924.715    20727142.526    84874234.288    20727142.240  
                                
  22142090.245   116357463.398    22142087.350    90668128.117    22142087.046  
  22142087.225    86890317.098  
  21774783.990   114427250.663    21774783.758    89164090.896    21774783.507  
  21774783.990    85448921.857  
  23509325.528   123542339.581                    96266745.754    23509322.973  
                                
  23872900.856   125452938.621    23872900.302    97755535.486    23872899.766  
  23872900.124    93682382.404  
  21175999.249   111280658.932    21175999.159    86712217.872    21175998.623  
  21175999.124    83099221.674  
  20846589.689   111241408.235    20846591.726    86521107.959    20846591.780  
                                
  19796698.819   105973291.507    19796697.997    82423674.108    19796698.068  
                                
  22550043.148   120754466.070    22550042.148    93920136.921    22550042.237  
                                
  21162910.654   113048519.078    21162911.851    87926677.411    21162911.833  
                                
  19871980.530   106115288.562    19871981.674    82534132.527    19871981.566  
                                
  23633011.242   126465000.745    23633011.117    98361668.238    23633011.081  
                                
  26150503.946   137421879.271                                                  
  26150507.448   102620282.278  
  24819799.020   130428932.964                                                  
  24819799.932    97398242.826  
  24843958.333   130555917.202                                                  
  24843960.816    97493080.313  
  23525322.074   123626448.335                                                  
  23525323.933    92318491.747  
 21  9  1  6 42 15.0000000  0 17G 4G 7G 8G 9G20G27G30R 2R 3R 4R12R13
                                R21E 7E19E21E27
  24638057.459   129473899.585    24638056.994   100888769.332    24638056.672  
  24638060.586    96685091.986  
  20727185.608   108922136.488    20727182.820    84874399.308    20727182.516  
                                
  22142252.513   116358316.202    22142249.636    90668792.651    22142249.333  
  22142249.493    86890953.927  
  21775315.772   114430045.180    21775315.540    89166268.441    21775315.289  
  21775315.790    85451008.669  
  23509574.622   123543648.486                    96267765.682    23509572.067  
                                
  23873371.669   125455412.678    23873371.097    97757463.315    23873370.579  
  23873370.937    93684229.905  
  21175735.145   111279271.032    21175735.055    86711136.393    21175734.519  
  21175735.019    83098185.253  
  20847279.934   111245091.578    20847281.971    86523972.787    20847282.025  
                                
  19796673.802   105973157.501    19796672.962    82423569.882    19796673.034  
                                
  22549384.192   120750937.448    22549383.192    93917392.434    22549383.281  
                                
  21163366.886   113050956.229    21163368.083    87928572.975    21163368.083  
                                
  19871949.313   106115121.864    19871950.456    82534002.876    19871950.349  
                                
  23633240.287   126466226.474    23633240.180    98362621.586    23633240.144  
                                
  26151039.677   137424694.510                                                  
  26151043.179   102622384.567  
  24819475.538   130427233.097                                                  
  24819476.449    97396973.449  
  24843671.517   130554409.934                                                  
  24843674.019    97491954.758  
  23525478.875   123627272.302                                                  
  23525480.751    92319107.047  
 21  9  1  6 42 16.0000000  0 17G 4G 7G 8G 9G20G27G30R 2R 3R 4R12R13
                                R21E 7E19E21E27
  24638752.260   129477550.738    24638751.795   100891614.384    24638751.491  
  24638755.387    96687818.492  
  20727225.920   108922348.344    20727223.133    84874564.390    20727222.847  
                                
  22142414.889   116359169.519    22142412.030    90669457.583    22142411.726  
  22142411.887    86891591.143  
  21775847.590   114432839.934    21775847.358    89168446.171    21775847.107  
  21775847.590    85453095.661  
  23509823.734   123544957.728                    96268785.875    23509821.179  
