% program   : rnx2rtkp ver.2.4.3 b31
% inp file  : ngs/21_09_01_06_41_40_sacr.obs
% inp file  : ngs/21_09_01_06_41_40_sacr_P1.obs
% inp file  : ngs/21_09_01_06_41_40_brdc.nav
% obs start : 2021/09/01 06:00:00.0 GPST (week2173 280800.0s)
% obs end   : 2021/09/01 06:59:59.0 GPST (week2173 284399.0s)
% ref pos   : -2606286.3412  -4253531.8350   3960973.5662
%
% (x/y/z-ecef=WGS84,Q=1:fix,2:float,3:sbas,4:dgps,5:single,6:ppp,ns=# of satellites)
%  GPST              x-ecef(m)      y-ecef(m)      z-ecef(m)   Q  ns   sdx(m)   sdy(m)   sdz(m)  sdxy(m)  sdyz(m)  sdzx(m) age(s)  ratio
2173 283275.000  -2595054.5544  -4259026.9519   3962484.8444   2   8   0.6145   0.8013   0.7893   0.5627  -0.6186  -0.5447 -30.00    3.0
2173 283276.000  -2595054.4266  -4259027.0478   3962484.5175   1   8   0.0284   0.0318   0.0459   0.0235  -0.0281  -0.0288 -29.00    3.2
2173 283277.000  -2595054.4267  -4259027.0460   3962484.5167   1   8   0.0275   0.0308   0.0444   0.0227  -0.0272  -0.0279 -28.00    3.1
2173 283278.000  -2595054.5433  -4259027.2023   3962484.9458   2   8   0.3110   0.4065   0.3988   0.2853  -0.3134  -0.2755 -27.00    2.9
2173 283279.000  -2595054.5441  -4259027.2219   3962484.9909   2   8   0.2785   0.3640   0.3572   0.2555  -0.2807  -0.2468 -26.00    2.9
2173 283280.000  -2595054.5753  -4259027.2707   3962485.0441   2   8   0.2545   0.3326   0.3264   0.2334  -0.2564  -0.2255 -25.00    2.7
2173 283281.000  -2595054.5995  -4259027.2892   3962485.1017   2   8   0.2358   0.3082   0.3024   0.2162  -0.2376  -0.2089 -24.00    2.6
2173 283282.000  -2595054.5824  -4259027.2766   3962485.1053   2   8   0.2207   0.2884   0.2830   0.2024  -0.2223  -0.1955 -23.00    2.7
2173 283283.000  -2595054.5642  -4259027.2354   3962485.0961   2   8   0.2081   0.2720   0.2669   0.1909  -0.2097  -0.1844 -22.00    2.8
2173 283284.000  -2595054.5480  -4259027.2307   3962485.0557   2   8   0.1975   0.2582   0.2533   0.1811  -0.1990  -0.1750 -21.00    2.9
2173 283285.000  -2595054.4269  -4259027.0331   3962484.5080   1   8   0.0202   0.0228   0.0322   0.0168  -0.0199  -0.0203 -20.00    3.1
2173 283286.000  -2595054.4263  -4259027.0292   3962484.5044   1   8   0.0193   0.0218   0.0307   0.0160  -0.0190  -0.0194 -19.00    3.1
2173 283287.000  -2595054.4290  -4259027.0278   3962484.5034   1   8   0.0184   0.0209   0.0292   0.0153  -0.0181  -0.0184 -18.00    3.2
2173 283288.000  -2595054.4316  -4259027.0294   3962484.5033   1   8   0.0176   0.0199   0.0277   0.0146  -0.0173  -0.0175 -17.00    3.2
2173 283289.000  -2595054.4281  -4259027.0223   3962484.4982   1   8   0.0167   0.0190   0.0262   0.0139  -0.0164  -0.0166 -16.00    3.3
2173 283290.000  -2595054.4277  -4259027.0214   3962484.4954   1   8   0.0158   0.0180   0.0247   0.0132  -0.0155  -0.0157 -15.00    3.5
2173 283291.000  -2595054.4280  -4259027.0174   3962484.4907   1   8   0.0150   0.0171   0.0233   0.0125  -0.0147  -0.0148 -14.00    3.6
2173 283292.000  -2595054.4309  -4259027.0154   3962484.4906   1   8   0.0141   0.0162   0.0218   0.0118  -0.0138  -0.0139 -13.00    3.6
2173 283293.000  -2595054.4321  -4259027.0137   3962484.4891   1   8   0.0133   0.0153   0.0204   0.0111  -0.0130  -0.0130 -12.00    3.7
2173 283294.000  -2595054.4319  -4259027.0128   3962484.4891   1   8   0.0125   0.0144   0.0190   0.0104  -0.0122  -0.0121 -11.00    3.7
2173 283295.000  -2595054.4325  -4259027.0109   3962484.4907   1   8   0.0117   0.0136   0.0176   0.0098  -0.0114  -0.0113 -10.00    3.9
2173 283296.000  -2595054.4313  -4259027.0095   3962484.4858   1   8   0.0108   0.0128   0.0162   0.0092  -0.0106  -0.0104  -9.00    4.0
2173 283297.000  -2595054.4312  -4259027.0076   3962484.4860   1   8   0.0101   0.0120   0.0148   0.0085  -0.0099  -0.0096  -8.00    4.2
2173 283298.000  -2595054.4304  -4259027.0060   3962484.4844   1   8   0.0094   0.0112   0.0136   0.0081  -0.0092  -0.0088  -7.00    4.4
2173 283299.000  -2595054.4273  -4259027.0031   3962484.4821   1   8   0.0087   0.0106   0.0124   0.0075  -0.0085  -0.0081  -6.00    4.7
2173 283300.000  -2595054.4263  -4259027.0026   3962484.4830   1   8   0.0080   0.0099   0.0112   0.0070  -0.0080  -0.0074  -5.00    5.1
2173 283301.000  -2595054.4259  -4259027.0008   3962484.4788   1   8   0.0073   0.0093   0.0100   0.0066  -0.0075  -0.0069  -4.00    5.6
2173 283302.000  -2595054.4240  -4259026.9980   3962484.4765   1   8   0.0068   0.0088   0.0091   0.0063  -0.0069  -0.0064  -3.00    6.1
2173 283303.000  -2595054.4229  -4259026.9986   3962484.4789   1   8   0.0067   0.0085   0.0085   0.0060  -0.0066  -0.0059  -2.00    6.5
2173 283304.000  -2595054.4210  -4259026.9984   3962484.4779   1   8   0.0063   0.0082   0.0081   0.0058  -0.0064  -0.0056  -1.00    7.0
2173 283305.000  -2595054.4199  -4259026.9986   3962484.4761   1   8   0.0064   0.0082   0.0081   0.0057  -0.0062  -0.0053   0.00    7.3
2173 283306.000  -2595054.4187  -4259026.9935   3962484.4754   1   8   0.0062   0.0082   0.0079   0.0057  -0.0063  -0.0055   0.00    7.3
2173 283307.000  -2595054.4196  -4259026.9950   3962484.4777   1   8   0.0062   0.0082   0.0079   0.0057  -0.0063  -0.0055   0.00   10.5
2173 283308.000  -2595054.4180  -4259026.9942   3962484.4739   1   8   0.0062   0.0082   0.0079   0.0057  -0.0063  -0.0055   0.00    7.5
2173 283309.000  -2595054.4195  -4259026.9966   3962484.4769   1   8   0.0062   0.0082   0.0079   0.0057  -0.0063  -0.0055   0.00    7.4
2173 283310.000  -2595054.4230  -4259026.9970   3962484.4777   1   8   0.0062   0.0082   0.0079   0.0057  -0.0063  -0.0055   0.00    5.4
2173 283311.000  -2595054.4206  -4259026.9943   3962484.4775   1   8   0.0062   0.0082   0.0079   0.0057  -0.0063  -0.0055   0.00    6.0
2173 283312.000  -2595054.4213  -4259026.9956   3962484.4765   1   8   0.0062   0.0082   0.0079   0.0057  -0.0063  -0.0055   0.00    6.6
2173 283313.000  -2595054.4214  -4259026.9971   3962484.4787   1   8   0.0062   0.0082   0.0079   0.0057  -0.0063  -0.0055   0.00    6.4
2173 283314.000  -2595054.4211  -4259026.9959   3962484.4764   1   8   0.0062   0.0082   0.0079   0.0057  -0.0063  -0.0055   0.00    8.2
2173 283315.000  -2595054.4209  -4259026.9965   3962484.4751   1   8   0.0062   0.0082   0.0079   0.0057  -0.0063  -0.0055   0.00    6.1
2173 283316.000  -2595054.4194  -4259026.9947   3962484.4755   1   8   0.0062   0.0082   0.0079   0.0057  -0.0063  -0.0055   0.00    6.5
2173 283317.000  -2595054.4193  -4259026.9914   3962484.4722   1   8   0.0062   0.0082   0.0079   0.0057  -0.0063  -0.0055   0.00    5.7
2173 283318.000  -2595054.4214  -4259026.9949   3962484.4744   1   8   0.0062   0.0082   0.0079   0.0057  -0.0063  -0.0055   0.00    7.6
2173 283319.000  -2595054.4194  -4259026.9952   3962484.4756   1   8   0.0062   0.0082   0.0079   0.0057  -0.0063  -0.0055   0.00    7.6
2173 283320.000  -2595054.4190  -4259026.9940   3962484.4763   1   8   0.0062   0.0082   0.0079   0.0057  -0.0063  -0.0055   0.00    8.2
2173 283321.000  -2595054.4218  -4259026.9971   3962484.4784   1   8   0.0062   0.0082   0.0079   0.0057  -0.0063  -0.0055   0.00    5.9
2173 283322.000  -2595054.4186  -4259026.9945   3962484.4766   1   8   0.0062   0.0082   0.0079   0.0057  -0.0063  -0.0055   0.00    7.2
2173 283323.000  -2595054.4203  -4259026.9957   3962484.4792   1   8   0.0062   0.0082   0.0079   0.0057  -0.0063  -0.0055   0.00    6.9
2173 283324.000  -2595054.4211  -4259026.9950   3962484.4803   1   8   0.0062   0.0082   0.0079   0.0057  -0.0063  -0.0055   0.00    6.9
2173 283325.000  -2595054.4223  -4259027.0001   3962484.4804   1   8   0.0062   0.0082   0.0079   0.0057  -0.0063  -0.0055   0.00    7.9
2173 283326.000  -2595054.4213  -4259026.9971   3962484.4790   1   8   0.0062   0.0082   0.0079   0.0057  -0.0063  -0.0055   0.00    8.1
2173 283327.000  -2595054.4203  -4259026.9939   3962484.4781   1   8   0.0062   0.0082   0.0079   0.0057  -0.0063  -0.0055   0.00    5.8
2173 283328.000  -2595054.4201  -4259026.9922   3962484.4764   1   8   0.0062   0.0082   0.0079   0.0057  -0.0063  -0.0055   0.00    6.9
2173 283329.000  -2595054.4229  -4259026.9940   3962484.4784   1   8   0.0062   0.0082   0.0079   0.0057  -0.0063  -0.0055   0.00    5.6
2173 283330.000  -2595054.4187  -4259026.9908   3962484.4736   1   8   0.0062   0.0082   0.0079   0.0057  -0.0063  -0.0055   0.00    5.5
2173 283331.000  -2595054.4210  -4259026.9898   3962484.4758   1   8   0.0062   0.0082   0.0079   0.0057  -0.0063  -0.0055   0.00    5.5
2173 283332.000  -2595054.4198  -4259026.9919   3962484.4734   1   8   0.0062   0.0082   0.0079   0.0057  -0.0063  -0.0055   0.00    5.0
2173 283333.000  -2595054.4182  -4259026.9902   3962484.4716   1   8   0.0062   0.0082   0.0079   0.0057  -0.0063  -0.0055   0.00    5.4
2173 283334.000  -2595054.4182  -4259026.9913   3962484.4739   1   8   0.0062   0.0082   0.0079   0.0057  -0.0063  -0.0055   0.00    5.6
2173 283335.000  -2595054.4212  -4259026.9925   3962484.4787   1   8   0.0062   0.0082   0.0079   0.0057  -0.0063  -0.0055   0.00    7.7
2173 283336.000  -2595054.4180  -4259026.9937   3962484.4755   1   8   0.0062   0.0082   0.0079   0.0057  -0.0063  -0.0055   0.00    6.3
2173 283337.000  -2595054.4204  -4259026.9918   3962484.4746   1   8   0.0062   0.0082   0.0079   0.0057  -0.0063  -0.0055   0.00    6.6
2173 283338.000  -2595054.4185  -4259026.9936   3962484.4763   1   8   0.0062   0.0082   0.0079   0.0057  -0.0063  -0.0055   0.00    6.8
2173 283339.000  -2595054.4200  -4259026.9956   3962484.4782   1   8   0.0062   0.0082   0.0079   0.0057  -0.0063  -0.0055   0.00    5.4
2173 283340.000  -2595054.4179  -4259026.9892   3962484.4728   1   8   0.0062   0.0082   0.0079   0.0057  -0.0063  -0.0055   0.00    6.2
2173 283341.000  -2595054.4183  -4259026.9913   3962484.4737   1   8   0.0062   0.0082   0.0079   0.0057  -0.0063  -0.0055   0.00    5.4
2173 283342.000  -2595054.4205  -4259026.9940   3962484.4748   1   8   0.0062   0.0082   0.0079   0.0057  -0.0063  -0.0055   0.00    6.4
2173 283343.000  -2595054.4173  -4259026.9911   3962484.4751   1   8   0.0062   0.0082   0.0079   0.0057  -0.0063  -0.0055   0.00    6.7
2173 283344.000  -2595054.4189  -4259026.9908   3962484.4749   1   8   0.0062   0.0082   0.0079   0.0057  -0.0063  -0.0055   0.00    5.6
2173 283345.000  -2595054.4179  -4259026.9939   3962484.4755   1   8   0.0062   0.0082   0.0079   0.0057  -0.0063  -0.0055   0.00    6.3
2173 283346.000  -2595054.4168  -4259026.9911   3962484.4724   1   8   0.0062   0.0082   0.0079   0.0057  -0.0063  -0.0055   0.00    4.7
2173 283347.000  -2595054.4198  -4259026.9950   3962484.4791   1   8   0.0062   0.0082   0.0079   0.0057  -0.0063  -0.0055   0.00    5.6
2173 283348.000  -2595054.4179  -4259026.9945   3962484.4757   1   8   0.0062   0.0082   0.0079   0.0057  -0.0063  -0.0055   0.00    8.0
2173 283349.000  -2595054.4194  -4259026.9927   3962484.4720   1   8   0.0062   0.0082   0.0079   0.0057  -0.0063  -0.0055   0.00    6.6
2173 283350.000  -2595054.4193  -4259026.9924   3962484.4748   1   8   0.0062   0.0082   0.0079   0.0057  -0.0063  -0.0055   0.00    6.9
2173 283351.000  -2595054.4197  -4259026.9940   3962484.4773   1   8   0.0062   0.0082   0.0079   0.0057  -0.0063  -0.0055   0.00    6.9
2173 283352.000  -2595054.4202  -4259026.9944   3962484.4742   1   8   0.0062   0.0082   0.0079   0.0057  -0.0063  -0.0055   0.00    5.9
2173 283353.000  -2595054.4212  -4259026.9949   3962484.4770   1   8   0.0062   0.0082   0.0079   0.0057  -0.0063  -0.0055   0.00    7.2
2173 283354.000  -2595054.4201  -4259026.9928   3962484.4752   1   8   0.0062   0.0082   0.0079   0.0057  -0.0063  -0.0055   0.00    6.3
2173 283355.000  -2595054.4196  -4259026.9956   3962484.4745   1   8   0.0062   0.0082   0.0079   0.0057  -0.0063  -0.0055   0.00    6.7
2173 283356.000  -2595054.4200  -4259026.9933   3962484.4736   1   8   0.0062   0.0082   0.0079   0.0057  -0.0063  -0.0055   0.00    6.3
2173 283357.000  -2595054.4191  -4259026.9940   3962484.4731   1   8   0.0062   0.0082   0.0079   0.0057  -0.0063  -0.0055   0.00    6.0
2173 283358.000  -2595054.4151  -4259026.9927   3962484.4697   1   8   0.0062   0.0082   0.0079   0.0057  -0.0063  -0.0055   0.00    6.3
2173 283359.000  -2595054.4169  -4259026.9938   3962484.4727   1   8   0.0062   0.0082   0.0079   0.0057  -0.0063  -0.0055   0.00    6.4
2173 283360.000  -2595054.4179  -4259026.9943   3962484.4713   1   8   0.0062   0.0082   0.0079   0.0057  -0.0063  -0.0055   0.00    5.9
2173 283361.000  -2595054.4173  -4259026.9932   3962484.4719   1   8   0.0062   0.0082   0.0079   0.0057  -0.0063  -0.0055   0.00    6.4
2173 283362.000  -2595054.4155  -4259026.9922   3962484.4696   1   8   0.0062   0.0082   0.0079   0.0057  -0.0063  -0.0055   0.00    6.5
2173 283363.000  -2595054.4161  -4259026.9923   3962484.4699   1   8   0.0062   0.0082   0.0079   0.0057  -0.0063  -0.0055   0.00    6.1
2173 283364.000  -2595054.4172  -4259026.9934   3962484.4720   1   8   0.0062   0.0082   0.0079   0.0057  -0.0063  -0.0055   0.00    5.7
2173 283365.000  -2595054.4187  -4259026.9965   3962484.4738   1   8   0.0062   0.0082   0.0079   0.0057  -0.0063  -0.0055   0.00    6.9
2173 283366.000  -2595054.4198  -4259026.9954   3962484.4756   1   8   0.0062   0.0082   0.0079   0.0057  -0.0063  -0.0055   0.00    6.0
2173 283367.000  -2595054.4173  -4259026.9918   3962484.4720   1   8   0.0062   0.0082   0.0079   0.0057  -0.0063  -0.0055   0.00    5.0
2173 283368.000  -2595054.4183  -4259026.9944   3962484.4740   1   8   0.0062   0.0082   0.0079   0.0057  -0.0063  -0.0055   0.00    4.5
2173 283369.000  -2595054.4183  -4259026.9932   3962484.4707   1   8   0.0062   0.0082   0.0079   0.0057  -0.0063  -0.0055   0.00    5.4
2173 283370.000  -2595054.4197  -4259026.9937   3962484.4745   1   8   0.0062   0.0082   0.0079   0.0057  -0.0063  -0.0055   0.00    4.5
2173 283371.000  -2595054.4189  -4259026.9956   3962484.4745   1   8   0.0062   0.0082   0.0079   0.0057  -0.0063  -0.0055   0.00    5.2
2173 283372.000  -2595054.4190  -4259026.9950   3962484.4751   1   8   0.0062   0.0082   0.0079   0.0057  -0.0063  -0.0055   0.00    4.5
2173 283373.000  -2595054.4191  -4259026.9960   3962484.4758   1   8   0.0062   0.0082   0.0079   0.0057  -0.0063  -0.0055   0.00    4.4
2173 283374.000  -2595054.4176  -4259026.9920   3962484.4734   1   8   0.0062   0.0082   0.0079   0.0057  -0.0063  -0.0055   0.00    6.0
2173 283375.000  -2595054.4201  -4259026.9957   3962484.4756   1   8   0.0062   0.0082   0.0079   0.0057  -0.0063  -0.0055   0.00    5.7
2173 283376.000  -2595054.4184  -4259026.9932   3962484.4723   1   8   0.0062   0.0082   0.0079   0.0057  -0.0063  -0.0055   0.00    5.8
2173 283377.000  -2595054.4185  -4259026.9972   3962484.4757   1   8   0.0062   0.0082   0.0079   0.0057  -0.0063  -0.0055   0.00    5.7
2173 283378.000  -2595054.4186  -4259026.9976   3962484.4747   1   8   0.0062   0.0082   0.0079   0.0057  -0.0063  -0.0055   0.00    5.1
2173 283379.000  -2595054.4212  -4259026.9963   3962484.4776   1   8   0.0062   0.0082   0.0079   0.0057  -0.0063  -0.0055   0.00    7.1
2173 283380.000  -2595054.4214  -4259026.9961   3962484.4770   1   8   0.0062   0.0082   0.0079   0.0057  -0.0063  -0.0055   0.00    5.5
2173 283381.000  -2595054.4198  -4259026.9950   3962484.4756   1   8   0.0062   0.0082   0.0079   0.0057  -0.0063  -0.0055   0.00    6.3
2173 283382.000  -2595054.4196  -4259026.9959   3962484.4761   1   8   0.0062   0.0082   0.0079   0.0057  -0.0063  -0.0055   0.00    5.8
2173 283383.000  -2595054.4198  -4259026.9957   3962484.4748   1   8   0.0062   0.0082   0.0079   0.0057  -0.0063  -0.0055   0.00    4.6
2173 283384.000  -2595054.4204  -4259026.9964   3962484.4754   1   8   0.0062   0.0082   0.0079   0.0057  -0.0063  -0.0055   0.00    6.1
2173 283385.000  -2595054.4232  -4259026.9995   3962484.4814   1   8   0.0062   0.0082   0.0079   0.0057  -0.0063  -0.0055   0.00    6.7
2173 283386.000  -2595054.4220  -4259026.9973   3962484.4794   1   8   0.0062   0.0082   0.0079   0.0057  -0.0063  -0.0055   0.00    6.7
2173 283387.000  -2595054.4218  -4259026.9965   3962484.4800   1   8   0.0062   0.0082   0.0079   0.0057  -0.0063  -0.0055   0.00    6.3
2173 283388.000  -2595054.4219  -4259026.9999   3962484.4799   1   8   0.0062   0.0082   0.0079   0.0057  -0.0063  -0.0055   0.00    8.7
2173 283389.000  -2595054.4201  -4259026.9923   3962484.4756   1   8   0.0062   0.0082   0.0079   0.0057  -0.0063  -0.0055   0.00    7.9
2173 283390.000  -2595054.4211  -4259026.9967   3962484.4779   1   8   0.0062   0.0082   0.0079   0.0057  -0.0063  -0.0055   0.00    6.4
2173 283391.000  -2595054.4187  -4259026.9907   3962484.4719   1   8   0.0062   0.0082   0.0079   0.0057  -0.0063  -0.0055   0.00    6.0
2173 283392.000  -2595054.4175  -4259026.9932   3962484.4726   1   8   0.0062   0.0082   0.0079   0.0057  -0.0063  -0.0055   0.00    5.3
2173 283393.000  -2595054.4189  -4259026.9920   3962484.4724   1   8   0.0062   0.0082   0.0079   0.0057  -0.0063  -0.0055   0.00    5.9
2173 283394.000  -2595054.4209  -4259026.9925   3962484.4761   1   8   0.0062   0.0082   0.0079   0.0057  -0.0063  -0.0055   0.00    6.2
2173 283395.000  -2595054.4184  -4259026.9918   3962484.4749   1   8   0.0062   0.0082   0.0079   0.0057  -0.0063  -0.0055   0.00    7.6
2173 283396.000  -2595054.4204  -4259026.9951   3962484.4768   1   8   0.0062   0.0082   0.0079   0.0057  -0.0063  -0.0055   0.00    8.0
2173 283397.000  -2595054.4200  -4259026.9954   3962484.4771   1   8   0.0062   0.0082   0.0079   0.0057  -0.0063  -0.0055   0.00    6.9
2173 283398.000  -2595054.4195  -4259026.9929   3962484.4743   1   8   0.0062   0.0082   0.0079   0.0057  -0.0063  -0.0055   0.00    6.7
2173 283399.000  -2595054.4210  -4259026.9973   3962484.4800   1   8   0.0062   0.0082   0.0079   0.0057  -0.0063  -0.0055   0.00    8.4
2173 283400.000  -2595054.4214  -4259026.9974   3962484.4779   1   8   0.0062   0.0082   0.0079   0.0057  -0.0063  -0.0055   0.00    7.0
2173 283401.000  -2595054.4192  -4259026.9942   3962484.4752   1   8   0.0062   0.0082   0.0079   0.0057  -0.0063  -0.0055   0.00    6.1
2173 283402.000  -2595054.4155  -4259026.9888   3962484.4735   1   8   0.0062   0.0082   0.0079   0.0057  -0.0063  -0.0055   0.00    5.8
2173 283403.000  -2595054.4183  -4259026.9920   3962484.4759   1   8   0.0062   0.0082   0.0079   0.0057  -0.0063  -0.0055   0.00    5.4
2173 283404.000  -2595054.4206  -4259026.9947   3962484.4766   1   8   0.0062   0.0082   0.0079   0.0057  -0.0063  -0.0055   0.00    6.4
2173 283405.000  -2595054.4195  -4259026.9923   3962484.4783   1   8   0.0062   0.0082   0.0079   0.0057  -0.0063  -0.0055   0.00    6.4
2173 283406.000  -2595054.4188  -4259026.9921   3962484.4752   1   8   0.0062   0.0082   0.0079   0.0057  -0.0063  -0.0055   0.00    6.1
2173 283407.000  -2595054.4191  -4259026.9915   3962484.4768   1   8   0.0062   0.0082   0.0079   0.0057  -0.0063  -0.0055   0.00    6.3
2173 283408.000  -2595054.4180  -4259026.9912   3962484.4748   1   8   0.0062   0.0082   0.0079   0.0057  -0.0063  -0.0055   0.00    6.9
2173 283409.000  -2595054.4195  -4259026.9938   3962484.4792   1   8   0.0062   0.0082   0.0079   0.0057  -0.0063  -0.0055   0.00    7.2
2173 283410.000  -2595054.4195  -4259026.9921   3962484.4765   1   8   0.0062   0.0082   0.0079   0.0057  -0.0063  -0.0055   0.00    7.7
2173 283411.000  -2595054.4194  -4259026.9911   3962484.4764   1   8   0.0062   0.0082   0.0079   0.0057  -0.0063  -0.0055   0.00    8.5
2173 283412.000  -2595054.4203  -4259026.9901   3962484.4749   1   8   0.0062   0.0082   0.0079   0.0057  -0.0063  -0.0055   0.00    7.2
2173 283413.000  -2595054.4187  -4259026.9920   3962484.4767   1   8   0.0062   0.0082   0.0079   0.0057  -0.0063  -0.0055   0.00    6.8
2173 283414.000  -2595054.4207  -4259026.9940   3962484.4768   1   8   0.0062   0.0082   0.0079   0.0057  -0.0063  -0.0055   0.00    7.9
2173 283415.000  -2595054.4212  -4259026.9935   3962484.4768   1   8   0.0062   0.0082   0.0079   0.0057  -0.0063  -0.0055   0.00    6.7
2173 283416.000  -2595054.4181  -4259026.9936   3962484.4747   1   8   0.0062   0.0082   0.0079   0.0057  -0.0063  -0.0055   0.00    5.9
2173 283417.000  -2595054.4187  -4259026.9914   3962484.4748   1   8   0.0062   0.0082   0.0079   0.0057  -0.0063  -0.0055   0.00    7.9
2173 283418.000  -2595054.4154  -4259026.9871   3962484.4709   1   8   0.0062   0.0082   0.0079   0.0057  -0.0063  -0.0055   0.00    6.3
2173 283419.000  -2595054.4174  -4259026.9896   3962484.4723   1   8   0.0062   0.0082   0.0079   0.0057  -0.0063  -0.0055   0.00    6.8
2173 283420.000  -2595054.4198  -4259026.9908   3962484.4755   1   8   0.0062   0.0082   0.0079   0.0057  -0.0063  -0.0055   0.00    7.0
2173 283421.000  -2595054.4184  -4259026.9906   3962484.4741   1   8   0.0062   0.0082   0.0079   0.0057  -0.0063  -0.0055   0.00    6.0
2173 283422.000  -2595054.4176  -4259026.9910   3962484.4733   1   8   0.0062   0.0082   0.0079   0.0057  -0.0063  -0.0055   0.00    7.9
2173 283423.000  -2595054.4191  -4259026.9930   3962484.4756   1   8   0.0062   0.0082   0.0079   0.0057  -0.0063  -0.0055   0.00    6.6
2173 283424.000  -2595054.4198  -4259026.9941   3962484.4763   1   8   0.0062   0.0082   0.0079   0.0057  -0.0063  -0.0055   0.00    8.7
2173 283425.000  -2595054.4187  -4259026.9914   3962484.4744   1   8   0.0062   0.0082   0.0079   0.0057  -0.0063  -0.0055   0.00    6.4
2173 283426.000  -2595054.4184  -4259026.9914   3962484.4754   1   8   0.0062   0.0082   0.0079   0.0057  -0.0063  -0.0055   0.00    7.2
2173 283427.000  -2595054.4176  -4259026.9923   3962484.4735   1   8   0.0062   0.0082   0.0079   0.0057  -0.0063  -0.0055   0.00    8.1
2173 283428.000  -2595054.4154  -4259026.9885   3962484.4708   1   8   0.0062   0.0082   0.0079   0.0057  -0.0063  -0.0055   0.00    7.8
2173 283429.000  -2595054.4199  -4259026.9941   3962484.4774   1   8   0.0062   0.0082   0.0079   0.0057  -0.0063  -0.0055   0.00    8.7
2173 283430.000  -2595054.4181  -4259026.9935   3962484.4766   1   8   0.0062   0.0082   0.0079   0.0057  -0.0063  -0.0055   0.00    7.1
2173 283431.000  -2595054.4177  -4259026.9900   3962484.4732   1   8   0.0062   0.0082   0.0079   0.0057  -0.0063  -0.0055   0.00    6.4
2173 283432.000  -2595054.4190  -4259026.9907   3962484.4775   1   8   0.0062   0.0082   0.0079   0.0057  -0.0063  -0.0055   0.00    7.0
2173 283433.000  -2595054.4165  -4259026.9916   3962484.4740   1   8   0.0062   0.0082   0.0079   0.0057  -0.0063  -0.0055   0.00    7.6
2173 283434.000  -2595054.4190  -4259026.9916   3962484.4765   1   8   0.0062   0.0082   0.0079   0.0057  -0.0063  -0.0055   0.00    6.6
2173 283435.000  -2595054.4201  -4259026.9915   3962484.4756   1   8   0.0062   0.0082   0.0079   0.0057  -0.0063  -0.0055   0.00    6.3
2173 283436.000  -2595054.4161  -4259026.9898   3962484.4738   1   8   0.0062   0.0082   0.0079   0.0057  -0.0063  -0.0055   0.00    5.8
2173 283437.000  -2595054.4184  -4259026.9920   3962484.4760   1   8   0.0062   0.0082   0.0079   0.0057  -0.0063  -0.0055   0.00    6.7
2173 283438.000  -2595054.4160  -4259026.9917   3962484.4716   1   8   0.0062   0.0082   0.0079   0.0057  -0.0063  -0.0055   0.00    7.1
2173 283439.000  -2595054.4202  -4259026.9929   3962484.4773   1   8   0.0062   0.0082   0.0079   0.0057  -0.0062  -0.0055   0.00    6.3
2173 283440.000  -2595054.4196  -4259026.9911   3962484.4766   1   8   0.0062   0.0082   0.0079   0.0057  -0.0062  -0.0055   0.00    6.7
2173 283441.000  -2595054.4193  -4259026.9931   3962484.4752   1   8   0.0062   0.0082   0.0079   0.0057  -0.0062  -0.0055   0.00    6.0
2173 283442.000  -2595054.4180  -4259026.9907   3962484.4754   1   8   0.0062   0.0082   0.0079   0.0057  -0.0062  -0.0055   0.00    5.4
2173 283443.000  -2595054.4193  -4259026.9881   3962484.4733   1   8   0.0062   0.0082   0.0079   0.0057  -0.0062  -0.0055   0.00    5.7
2173 283444.000  -2595054.4180  -4259026.9871   3962484.4748   1   8   0.0062   0.0082   0.0079   0.0057  -0.0062  -0.0055   0.00    5.2
2173 283445.000  -2595054.4190  -4259026.9908   3962484.4739   1   8   0.0062   0.0082   0.0079   0.0057  -0.0062  -0.0055   0.00    6.0
2173 283446.000  -2595054.4190  -4259026.9872   3962484.4729   1   8   0.0062   0.0082   0.0079   0.0057  -0.0062  -0.0055   0.00    4.8
2173 283447.000  -2595054.4174  -4259026.9878   3962484.4738   1   8   0.0062   0.0082   0.0079   0.0057  -0.0062  -0.0055   0.00    4.9
2173 283448.000  -2595054.4206  -4259026.9940   3962484.4786   1   8   0.0062   0.0082   0.0079   0.0057  -0.0062  -0.0055   0.00    4.9
2173 283449.000  -2595054.4190  -4259026.9902   3962484.4766   1   8   0.0062   0.0082   0.0079   0.0057  -0.0062  -0.0055   0.00    7.1
2173 283450.000  -2595054.4204  -4259026.9877   3962484.4747   1   8   0.0062   0.0082   0.0079   0.0057  -0.0062  -0.0055   0.00    5.7
2173 283451.000  -2595054.4189  -4259026.9886   3962484.4746   1   8   0.0062   0.0082   0.0079   0.0057  -0.0062  -0.0055   0.00    6.2
2173 283452.000  -2595054.4177  -4259026.9839   3962484.4709   1   8   0.0062   0.0082   0.0079   0.0057  -0.0062  -0.0055   0.00    5.1
2173 283453.000  -2595054.4176  -4259026.9901   3962484.4755   1   8   0.0062   0.0082   0.0079   0.0057  -0.0062  -0.0055   0.00    5.4
2173 283454.000  -2595054.4195  -4259026.9898   3962484.4763   1   8   0.0062   0.0082   0.0079   0.0057  -0.0062  -0.0055   0.00    5.6
2173 283455.000  -2595054.4182  -4259026.9876   3962484.4759   1   8   0.0062   0.0082   0.0079   0.0057  -0.0062  -0.0055   0.00    5.4
2173 283456.000  -2595054.4193  -4259026.9890   3962484.4748   1   8   0.0062   0.0082   0.0079   0.0057  -0.0062  -0.0055   0.00    5.2
2173 283457.000  -2595054.4151  -4259026.9836   3962484.4713   1   8   0.0062   0.0082   0.0079   0.0057  -0.0062  -0.0055   0.00    5.7
2173 283458.000  -2595054.4202  -4259026.9904   3962484.4759   1   8   0.0062   0.0082   0.0079   0.0057  -0.0062  -0.0055   0.00    4.6
2173 283459.000  -2595054.4190  -4259026.9870   3962484.4744   1   8   0.0062   0.0082   0.0079   0.0057  -0.0062  -0.0055   0.00    4.6
2173 283460.000  -2595054.4196  -4259026.9878   3962484.4746   1   8   0.0062   0.0082   0.0079   0.0057  -0.0062  -0.0055   0.00    5.1
2173 283461.000  -2595054.4189  -4259026.9888   3962484.4743   1   8   0.0062   0.0082   0.0079   0.0057  -0.0062  -0.0055   0.00    5.0
2173 283462.000  -2595054.4192  -4259026.9887   3962484.4755   1   8   0.0062   0.0082   0.0079   0.0057  -0.0062  -0.0055   0.00    5.2
2173 283463.000  -2595054.4213  -4259026.9896   3962484.4769   1   8   0.0062   0.0082   0.0079   0.0057  -0.0062  -0.0055   0.00    4.8
2173 283464.000  -2595054.4209  -4259026.9896   3962484.4760   1   8   0.0062   0.0082   0.0079   0.0057  -0.0062  -0.0055   0.00    5.6
2173 283465.000  -2595054.4187  -4259026.9864   3962484.4740   1   8   0.0062   0.0082   0.0079   0.0057  -0.0062  -0.0055   0.00    4.9
2173 283466.000  -2595054.4204  -4259026.9891   3962484.4748   1   8   0.0062   0.0082   0.0079   0.0057  -0.0062  -0.0055   0.00    6.1
2173 283467.000  -2595054.4206  -4259026.9887   3962484.4723   1   8   0.0062   0.0082   0.0079   0.0057  -0.0062  -0.0055   0.00    5.1
2173 283468.000  -2595054.4207  -4259026.9893   3962484.4762   1   8   0.0062   0.0082   0.0079   0.0057  -0.0062  -0.0055   0.00    5.4
2173 283469.000  -2595054.4205  -4259026.9873   3962484.4755   1   8   0.0062   0.0082   0.0079   0.0057  -0.0062  -0.0055   0.00    5.1
2173 283470.000  -2595054.4207  -4259026.9839   3962484.4741   1   8   0.0062   0.0082   0.0079   0.0057  -0.0062  -0.0055   0.00    3.5
2173 283471.000  -2595054.4199  -4259026.9875   3962484.4763   1   8   0.0062   0.0082   0.0079   0.0057  -0.0062  -0.0055   0.00    4.4
2173 283472.000  -2595054.4196  -4259026.9840   3962484.4735   1   8   0.0062   0.0082   0.0079   0.0057  -0.0062  -0.0055   0.00    4.6
2173 283473.000  -2595054.4223  -4259026.9915   3962484.4773   1   8   0.0062   0.0082   0.0079   0.0057  -0.0062  -0.0055   0.00    5.9
2173 283474.000  -2595054.4214  -4259026.9876   3962484.4728   1   8   0.0062   0.0082   0.0079   0.0057  -0.0062  -0.0055   0.00    4.6
2173 283475.000  -2595054.4213  -4259026.9889   3962484.4734   1   8   0.0062   0.0082   0.0079   0.0057  -0.0062  -0.0055   0.00    4.7
2173 283476.000  -2595054.4223  -4259026.9883   3962484.4750   1   8   0.0062   0.0082   0.0079   0.0057  -0.0062  -0.0055   0.00    4.6
2173 283477.000  -2595054.4205  -4259026.9860   3962484.4715   1   8   0.0062   0.0082   0.0079   0.0057  -0.0062  -0.0055   0.00    5.7
2173 283478.000  -2595054.4204  -4259026.9890   3962484.4759   1   8   0.0062   0.0082   0.0079   0.0057  -0.0062  -0.0055   0.00    5.7
2173 283479.000  -2595054.4229  -4259026.9919   3962484.4768   1   8   0.0062   0.0082   0.0079   0.0057  -0.0062  -0.0055   0.00    6.2
2173 283480.000  -2595054.4194  -4259026.9874   3962484.4741   1   8   0.0062   0.0082   0.0079   0.0057  -0.0062  -0.0055   0.00    5.3
2173 283481.000  -2595054.4188  -4259026.9840   3962484.4722   1   8   0.0062   0.0082   0.0079   0.0057  -0.0062  -0.0055   0.00    5.8
2173 283482.000  -2595054.4210  -4259026.9865   3962484.4746   1   8   0.0062   0.0082   0.0079   0.0057  -0.0062  -0.0055   0.00    4.8
2173 283483.000  -2595054.4223  -4259026.9898   3962484.4788   1   8   0.0062   0.0082   0.0079   0.0057  -0.0062  -0.0055   0.00    5.5
2173 283484.000  -2595054.4215  -4259026.9882   3962484.4779   1   8   0.0062   0.0082   0.0079   0.0057  -0.0062  -0.0055   0.00    6.9
2173 283485.000  -2595054.4250  -4259026.9908   3962484.4800   1   8   0.0062   0.0082   0.0079   0.0057  -0.0062  -0.0055   0.00    4.9
2173 283486.000  -2595054.4227  -4259026.9896   3962484.4804   1   8   0.0062   0.0082   0.0079   0.0057  -0.0062  -0.0055   0.00    5.3
2173 283487.000  -2595054.4219  -4259026.9865   3962484.4793   1   8   0.0062   0.0082   0.0079   0.0057  -0.0062  -0.0055   0.00    5.2
2173 283488.000  -2595054.4221  -4259026.9866   3962484.4765   1   8   0.0062   0.0082   0.0079   0.0057  -0.0062  -0.0055   0.00    6.0
2173 283489.000  -2595054.4231  -4259026.9875   3962484.4792   1   8   0.0062   0.0082   0.0079   0.0057  -0.0062  -0.0055   0.00    6.5
2173 283490.000  -2595054.4237  -4259026.9882   3962484.4799   1   8   0.0062   0.0082   0.0079   0.0057  -0.0062  -0.0055   0.00    5.9
2173 283491.000  -2595054.4252  -4259026.9942   3962484.4814   1   8   0.0062   0.0082   0.0079   0.0057  -0.0062  -0.0055   0.00    6.2
2173 283492.000  -2595054.4234  -4259026.9888   3962484.4785   1   8   0.0062   0.0082   0.0079   0.0057  -0.0062  -0.0055   0.00    5.4
2173 283493.000  -2595054.4231  -4259026.9870   3962484.4786   1   8   0.0062   0.0082   0.0079   0.0057  -0.0062  -0.0055   0.00    5.3
2173 283494.000  -2595054.4192  -4259026.9837   3962484.4746   1   8   0.0062   0.0082   0.0079   0.0057  -0.0062  -0.0055   0.00    4.2
2173 283495.000  -2595054.4220  -4259026.9882   3962484.4778   1   8   0.0062   0.0082   0.0079   0.0057  -0.0062  -0.0055   0.00    4.9
2173 283496.000  -2595054.4208  -4259026.9889   3962484.4797   1   8   0.0062   0.0082   0.0079   0.0057  -0.0062  -0.0055   0.00    5.3
2173 283497.000  -2595054.4207  -4259026.9867   3962484.4789   1   8   0.0062   0.0082   0.0079   0.0057  -0.0062  -0.0054   0.00    5.5
2173 283498.000  -2595054.4239  -4259026.9941   3962484.4814   1   8   0.0062   0.0082   0.0079   0.0057  -0.0062  -0.0054   0.00    5.6
2173 283499.000  -2595054.4208  -4259026.9878   3962484.4745   1   8   0.0062   0.0082   0.0079   0.0057  -0.0062  -0.0054   0.00    4.8
2173 283500.000  -2595054.4217  -4259026.9904   3962484.4784   1   8   0.0062   0.0082   0.0079   0.0057  -0.0062  -0.0054   0.00    4.5
2173 283501.000  -2595054.4235  -4259026.9901   3962484.4779   1   8   0.0062   0.0082   0.0079   0.0057  -0.0062  -0.0054   0.00    4.4
2173 283502.000  -2595054.4212  -4259026.9908   3962484.4794   1   8   0.0062   0.0082   0.0079   0.0057  -0.0062  -0.0054   0.00    5.4
2173 283503.000  -2595054.4219  -4259026.9931   3962484.4826   1   8   0.0062   0.0082   0.0079   0.0057  -0.0062  -0.0054   0.00    5.5
2173 283504.000  -2595054.4218  -4259026.9931   3962484.4811   1   8   0.0062   0.0082   0.0079   0.0057  -0.0062  -0.0054   0.00    6.8
2173 283505.000  -2595054.4231  -4259026.9918   3962484.4807   1   8   0.0062   0.0082   0.0079   0.0057  -0.0062  -0.0054   0.00    6.3
2173 283506.000  -2595054.4225  -4259026.9914   3962484.4807   1   8   0.0062   0.0082   0.0079   0.0057  -0.0062  -0.0054   0.00    6.1
2173 283507.000  -2595054.4226  -4259026.9908   3962484.4788   1   8   0.0062   0.0082   0.0079   0.0057  -0.0062  -0.0054   0.00    7.0
2173 283508.000  -2595054.4233  -4259026.9916   3962484.4812   1   8   0.0062   0.0082   0.0079   0.0057  -0.0062  -0.0054   0.00    6.5
2173 283509.000  -2595054.4215  -4259026.9923   3962484.4805   1   8   0.0062   0.0082   0.0079   0.0057  -0.0062  -0.0054   0.00    6.0
2173 283510.000  -2595054.4219  -4259026.9917   3962484.4808   1   8   0.0062   0.0082   0.0079   0.0057  -0.0062  -0.0054   0.00    5.5
2173 283511.000  -2595054.4208  -4259026.9920   3962484.4794   1   8   0.0062   0.0082   0.0079   0.0057  -0.0062  -0.0054   0.00    6.4
2173 283512.000  -2595054.4200  -4259026.9897   3962484.4795   1   8   0.0062   0.0082   0.0079   0.0057  -0.0062  -0.0054   0.00    7.7
2173 283513.000  -2595054.4237  -4259026.9949   3962484.4839   1   8   0.0062   0.0082   0.0079   0.0057  -0.0062  -0.0054   0.00   11.0
2173 283514.000  -2595054.4231  -4259026.9915   3962484.4826   1   8   0.0062   0.0082   0.0079   0.0057  -0.0062  -0.0054   0.00    8.4
2173 283515.000  -2595054.4235  -4259026.9954   3962484.4858   1   8   0.0062   0.0082   0.0079   0.0057  -0.0062  -0.0054   0.00    7.0
2173 283516.000  -2595054.4260  -4259026.9932   3962484.4836   1   8   0.0062   0.0082   0.0079   0.0057  -0.0062  -0.0054   0.00    6.9
2173 283517.000  -2595054.4243  -4259026.9927   3962484.4813   1   8   0.0062   0.0082   0.0079   0.0057  -0.0062  -0.0054   0.00    7.6
2173 283518.000  -2595054.4259  -4259026.9940   3962484.4854   1   8   0.0062   0.0082   0.0079   0.0057  -0.0062  -0.0054   0.00    8.1
2173 283519.000  -2595054.4247  -4259026.9942   3962484.4820   1   8   0.0062   0.0082   0.0079   0.0057  -0.0062  -0.0054   0.00    8.0
2173 283520.000  -2595054.4242  -4259026.9921   3962484.4841   1   8   0.0062   0.0082   0.0079   0.0057  -0.0062  -0.0054   0.00    9.2
2173 283521.000  -2595054.4249  -4259026.9911   3962484.4804   1   8   0.0062   0.0082   0.0079   0.0057  -0.0062  -0.0054   0.00    8.2
2173 283522.000  -2595054.4244  -4259026.9901   3962484.4837   1   8   0.0062   0.0082   0.0079   0.0057  -0.0062  -0.0054   0.00    6.5
2173 283523.000  -2595054.4250  -4259026.9909   3962484.4850   1   8   0.0062   0.0082   0.0079   0.0057  -0.0062  -0.0054   0.00    8.3
2173 283524.000  -2595054.4243  -4259026.9916   3962484.4818   1   8   0.0062   0.0082   0.0079   0.0057  -0.0062  -0.0054   0.00    8.4
2173 283525.000  -2595054.4238  -4259026.9922   3962484.4851   1   8   0.0062   0.0082   0.0079   0.0057  -0.0062  -0.0054   0.00   11.4
2173 283526.000  -2595054.4254  -4259026.9913   3962484.4849   1   8   0.0062   0.0082   0.0079   0.0057  -0.0062  -0.0054   0.00    9.1
2173 283527.000  -2595054.4266  -4259026.9930   3962484.4843   1   8   0.0062   0.0082   0.0079   0.0057  -0.0062  -0.0054   0.00    6.5
2173 283528.000  -2595054.4259  -4259026.9947   3962484.4874   1   8   0.0062   0.0082   0.0079   0.0057  -0.0062  -0.0054   0.00    9.3
2173 283529.000  -2595054.4249  -4259026.9950   3962484.4867   1   8   0.0062   0.0082   0.0079   0.0057  -0.0062  -0.0054   0.00    9.4
2173 283530.000  -2595054.4225  -4259026.9919   3962484.4823   1   8   0.0062   0.0082   0.0079   0.0057  -0.0062  -0.0054   0.00    9.7
2173 283531.000  -2595054.4205  -4259026.9871   3962484.4789   1   8   0.0062   0.0082   0.0079   0.0057  -0.0062  -0.0054   0.00    5.6
2173 283532.000  -2595054.4232  -4259026.9895   3962484.4803   1   8   0.0062   0.0082   0.0079   0.0057  -0.0062  -0.0054   0.00    5.8
2173 283533.000  -2595054.4240  -4259026.9914   3962484.4820   1   8   0.0062   0.0082   0.0079   0.0057  -0.0062  -0.0054   0.00    6.3
2173 283534.000  -2595054.4223  -4259026.9900   3962484.4831   1   8   0.0062   0.0082   0.0079   0.0057  -0.0062  -0.0054   0.00    6.4
2173 283535.000  -2595054.4225  -4259026.9899   3962484.4829   1   8   0.0062   0.0082   0.0079   0.0057  -0.0062  -0.0054   0.00    5.7
2173 283536.000  -2595054.4254  -4259026.9954   3962484.4831   1   8   0.0062   0.0082   0.0079   0.0057  -0.0062  -0.0054   0.00    7.4
2173 283537.000  -2595054.4255  -4259026.9939   3962484.4818   1   8   0.0062   0.0082   0.0079   0.0057  -0.0062  -0.0054   0.00    6.5
2173 283538.000  -2595054.4248  -4259026.9932   3962484.4807   1   8   0.0062   0.0082   0.0079   0.0057  -0.0062  -0.0054   0.00    6.3
2173 283539.000  -2595054.4219  -4259026.9935   3962484.4806   1   8   0.0062   0.0082   0.0079   0.0057  -0.0062  -0.0054   0.00    7.3
2173 283540.000  -2595054.4260  -4259026.9968   3962484.4849   1   8   0.0062   0.0083   0.0079   0.0057  -0.0062  -0.0054   0.00    6.2
2173 283541.000  -2595054.4246  -4259026.9956   3962484.4839   1   8   0.0062   0.0083   0.0079   0.0057  -0.0062  -0.0054   0.00    7.5
2173 283542.000  -2595054.4231  -4259026.9964   3962484.4844   1   8   0.0062   0.0083   0.0079   0.0057  -0.0062  -0.0054   0.00    8.2
2173 283543.000  -2595054.4247  -4259026.9920   3962484.4822   1   8   0.0062   0.0083   0.0079   0.0057  -0.0062  -0.0054   0.00    5.3
2173 283544.000  -2595054.4240  -4259026.9944   3962484.4840   1   8   0.0062   0.0083   0.0079   0.0057  -0.0062  -0.0054   0.00    6.9
2173 283545.000  -2595054.4246  -4259026.9976   3962484.4836   1   8   0.0062   0.0083   0.0079   0.0057  -0.0062  -0.0054   0.00    9.7
2173 283546.000  -2595054.4240  -4259026.9956   3962484.4833   1   8   0.0062   0.0083   0.0079   0.0057  -0.0062  -0.0054   0.00    7.0
2173 283547.000  -2595054.4244  -4259026.9950   3962484.4838   1   8   0.0062   0.0083   0.0079   0.0057  -0.0062  -0.0054   0.00    4.7
2173 283548.000  -2595054.4237  -4259026.9906   3962484.4794   1   8   0.0062   0.0083   0.0079   0.0057  -0.0062  -0.0054   0.00    4.4
2173 283549.000  -2595054.4246  -4259026.9961   3962484.4847   1   8   0.0062   0.0083   0.0079   0.0057  -0.0062  -0.0054   0.00    5.4
2173 283550.000  -2595054.4238  -4259026.9932   3962484.4824   1   8   0.0062   0.0083   0.0079   0.0057  -0.0062  -0.0054   0.00    4.1
2173 283551.000  -2595054.4260  -4259026.9958   3962484.4837   1   8   0.0062   0.0083   0.0079   0.0057  -0.0062  -0.0054   0.00    4.8
2173 283552.000  -2595054.4228  -4259026.9911   3962484.4816   1   8   0.0062   0.0083   0.0079   0.0057  -0.0062  -0.0054   0.00    4.4
2173 283553.000  -2595054.4237  -4259026.9958   3962484.4851   1   8   0.0062   0.0083   0.0079   0.0057  -0.0062  -0.0054   0.00    6.5
2173 283554.000  -2595054.4223  -4259026.9899   3962484.4788   1   8   0.0062   0.0083   0.0078   0.0057  -0.0062  -0.0054   0.00    4.0
2173 283555.000  -2595054.4225  -4259026.9934   3962484.4801   1   8   0.0062   0.0083   0.0078   0.0057  -0.0062  -0.0054   0.00    4.9
2173 283556.000  -2595054.4248  -4259026.9971   3962484.4825   1   8   0.0062   0.0083   0.0078   0.0057  -0.0062  -0.0054   0.00    5.3
2173 283557.000  -2595054.4223  -4259026.9952   3962484.4805   1   8   0.0062   0.0083   0.0078   0.0057  -0.0062  -0.0054   0.00    4.7
2173 283558.000  -2595054.4250  -4259026.9984   3962484.4829   1   8   0.0062   0.0083   0.0078   0.0057  -0.0062  -0.0054   0.00    6.2
2173 283559.000  -2595054.4228  -4259026.9948   3962484.4817   1   8   0.0062   0.0083   0.0078   0.0057  -0.0062  -0.0054   0.00    6.2
2173 283560.000  -2595054.4228  -4259026.9965   3962484.4834   1   8   0.0062   0.0083   0.0078   0.0057  -0.0062  -0.0054   0.00    5.4
2173 283561.000  -2595054.4237  -4259026.9969   3962484.4820   1   8   0.0062   0.0083   0.0078   0.0057  -0.0062  -0.0054   0.00    5.6
2173 283562.000  -2595054.4244  -4259026.9946   3962484.4813   1   8   0.0062   0.0083   0.0078   0.0057  -0.0062  -0.0054   0.00    5.5
2173 283563.000  -2595054.4229  -4259026.9953   3962484.4814   1   8   0.0062   0.0083   0.0078   0.0057  -0.0062  -0.0054   0.00    5.7
2173 283564.000  -2595054.4229  -4259026.9939   3962484.4786   1   8   0.0062   0.0083   0.0078   0.0057  -0.0062  -0.0054   0.00    6.4
2173 283565.000  -2595054.4266  -4259027.0006   3962484.4851   1   8   0.0062   0.0083   0.0078   0.0057  -0.0062  -0.0054   0.00    7.4
2173 283566.000  -2595054.4253  -4259026.9975   3962484.4810   1   8   0.0062   0.0083   0.0078   0.0057  -0.0062  -0.0054   0.00    6.4
2173 283567.000  -2595054.4265  -4259026.9969   3962484.4838   1   8   0.0062   0.0083   0.0078   0.0057  -0.0062  -0.0054   0.00    7.6
2173 283568.000  -2595054.4221  -4259026.9946   3962484.4817   1   8   0.0062   0.0083   0.0078   0.0057  -0.0062  -0.0054   0.00    5.9
2173 283569.000  -2595054.4247  -4259026.9966   3962484.4816   1   8   0.0062   0.0083   0.0078   0.0057  -0.0062  -0.0054   0.00    6.5
2173 283570.000  -2595054.4247  -4259027.0007   3962484.4846   1   8   0.0062   0.0083   0.0078   0.0057  -0.0062  -0.0054   0.00    7.3
2173 283571.000  -2595054.4223  -4259026.9934   3962484.4803   1   8   0.0062   0.0083   0.0078   0.0057  -0.0062  -0.0054   0.00    5.2
2173 283572.000  -2595054.4251  -4259026.9979   3962484.4824   1   8   0.0062   0.0083   0.0078   0.0057  -0.0062  -0.0054   0.00    7.1
2173 283573.000  -2595054.4234  -4259026.9962   3962484.4817   1   8   0.0062   0.0083   0.0078   0.0057  -0.0062  -0.0054   0.00    5.4
2173 283574.000  -2595054.4245  -4259026.9944   3962484.4847   1   8   0.0062   0.0083   0.0078   0.0057  -0.0062  -0.0054   0.00    4.5
2173 283575.000  -2595054.4230  -4259026.9944   3962484.4821   1   8   0.0062   0.0083   0.0078   0.0057  -0.0062  -0.0054   0.00    4.7
2173 283576.000  -2595054.4249  -4259026.9958   3962484.4799   1   8   0.0062   0.0083   0.0078   0.0057  -0.0062  -0.0054   0.00    4.9
2173 283577.000  -2595054.4219  -4259026.9920   3962484.4806   1   8   0.0062   0.0083   0.0078   0.0057  -0.0062  -0.0054   0.00    5.1
2173 283578.000  -2595054.4254  -4259026.9942   3962484.4815   1   8   0.0062   0.0083   0.0078   0.0057  -0.0062  -0.0054   0.00    6.3
2173 283579.000  -2595054.4250  -4259026.9968   3962484.4810   1   8   0.0062   0.0083   0.0078   0.0057  -0.0062  -0.0054   0.00    4.1
2173 283580.000  -2595054.4229  -4259026.9924   3962484.4817   1   8   0.0062   0.0083   0.0078   0.0057  -0.0062  -0.0054   0.00    4.0
2173 283581.000  -2595054.4226  -4259026.9898   3962484.4805   1   8   0.0062   0.0083   0.0078   0.0057  -0.0062  -0.0054   0.00    4.3
2173 283582.000  -2595054.4246  -4259026.9948   3962484.4825   1   8   0.0062   0.0083   0.0078   0.0057  -0.0062  -0.0054   0.00    4.5
2173 283583.000  -2595054.4245  -4259026.9921   3962484.4802   1   8   0.0062   0.0083   0.0078   0.0057  -0.0062  -0.0054   0.00    5.2
2173 283584.000  -2595054.4242  -4259026.9933   3962484.4824   1   8   0.0062   0.0083   0.0078   0.0057  -0.0062  -0.0054   0.00    4.5
2173 283585.000  -2595054.4238  -4259026.9920   3962484.4832   1   8   0.0062   0.0083   0.0078   0.0057  -0.0062  -0.0054   0.00    3.8
2173 283586.000  -2595054.4222  -4259026.9908   3962484.4802   1   8   0.0062   0.0083   0.0078   0.0057  -0.0062  -0.0054   0.00    3.8
2173 283587.000  -2595054.4216  -4259026.9904   3962484.4784   1   8   0.0062   0.0083   0.0078   0.0057  -0.0062  -0.0054   0.00    4.1
2173 283588.000  -2595054.4221  -4259026.9907   3962484.4803   1   8   0.0062   0.0083   0.0078   0.0057  -0.0062  -0.0054   0.00    3.2
2173 283589.000  -2595054.4235  -4259026.9924   3962484.4823   1   8   0.0062   0.0083   0.0078   0.0057  -0.0062  -0.0054   0.00    3.8
2173 283590.000  -2595054.4222  -4259026.9927   3962484.4831   1   8   0.0062   0.0083   0.0078   0.0057  -0.0062  -0.0054   0.00    4.0
2173 283591.000  -2595054.4199  -4259026.9881   3962484.4801   1   8   0.0062   0.0083   0.0078   0.0057  -0.0062  -0.0054   0.00    4.2
2173 283592.000  -2595054.4218  -4259026.9908   3962484.4813   1   8   0.0062   0.0083   0.0078   0.0057  -0.0062  -0.0054   0.00    4.4
2173 283593.000  -2595054.4239  -4259026.9932   3962484.4812   1   8   0.0062   0.0083   0.0078   0.0057  -0.0062  -0.0054   0.00    3.9
2173 283594.000  -2595054.4208  -4259026.9915   3962484.4810   1   8   0.0062   0.0083   0.0078   0.0057  -0.0062  -0.0054   0.00    3.7
2173 283595.000  -2595054.4234  -4259026.9926   3962484.4848   1   8   0.0062   0.0083   0.0078   0.0057  -0.0062  -0.0054   0.00    4.2
2173 283596.000  -2595054.4249  -4259026.9904   3962484.4854   1   8   0.0062   0.0083   0.0078   0.0057  -0.0062  -0.0054   0.00    3.2
2173 283597.000  -2595054.4225  -4259026.9921   3962484.4858   1   8   0.0062   0.0083   0.0078   0.0057  -0.0062  -0.0054   0.00    4.6
2173 283598.000  -2595054.4225  -4259026.9899   3962484.4827   1   8   0.0062   0.0083   0.0078   0.0057  -0.0062  -0.0054   0.00    3.3
2173 283599.000  -2595054.4221  -4259026.9907   3962484.4816   1   8   0.0062   0.0083   0.0078   0.0057  -0.0062  -0.0054   0.00    4.6
2173 283600.000  -2595054.4226  -4259026.9911   3962484.4818   1   8   0.0062   0.0083   0.0078   0.0057  -0.0062  -0.0054   0.00    4.2
2173 283601.000  -2595054.4208  -4259026.9895   3962484.4807   1   8   0.0062   0.0083   0.0078   0.0057  -0.0062  -0.0054   0.00    3.8
2173 283602.000  -2595054.4214  -4259026.9906   3962484.4808   1   8   0.0062   0.0083   0.0078   0.0057  -0.0062  -0.0054   0.00    3.3
2173 283603.000  -2595054.4220  -4259026.9927   3962484.4817   1   8   0.0062   0.0083   0.0078   0.0057  -0.0062  -0.0054   0.00    3.3
2173 283604.000  -2595054.4207  -4259026.9943   3962484.4809   1   8   0.0062   0.0083   0.0078   0.0057  -0.0062  -0.0054   0.00    3.6
2173 283605.000  -2595054.4205  -4259026.9904   3962484.4791   1   8   0.0062   0.0083   0.0078   0.0057  -0.0062  -0.0054   0.00    3.8
2173 283606.000  -2595054.4216  -4259026.9892   3962484.4830   1   8   0.0062   0.0083   0.0078   0.0057  -0.0062  -0.0054   0.00    3.7
2173 283607.000  -2595054.4215  -4259026.9895   3962484.4820   1   8   0.0062   0.0083   0.0078   0.0057  -0.0062  -0.0054   0.00    4.2
2173 283608.000  -2595054.4239  -4259026.9921   3962484.4809   1   8   0.0062   0.0083   0.0078   0.0057  -0.0062  -0.0054   0.00    4.1
2173 283609.000  -2595054.4218  -4259026.9877   3962484.4811   1   8   0.0062   0.0083   0.0078   0.0057  -0.0062  -0.0054   0.00    3.6
2173 283610.000  -2595054.4221  -4259026.9926   3962484.4834   1   8   0.0062   0.0083   0.0078   0.0057  -0.0062  -0.0054   0.00    4.9
2173 283611.000  -2595054.4224  -4259026.9890   3962484.4828   1   8   0.0062   0.0083   0.0078   0.0057  -0.0062  -0.0054   0.00    4.0
2173 283612.000  -2595054.4225  -4259026.9926   3962484.4815   1   8   0.0062   0.0083   0.0078   0.0057  -0.0062  -0.0054   0.00    3.9
2173 283613.000  -2595054.4219  -4259026.9917   3962484.4814   1   8   0.0062   0.0083   0.0078   0.0057  -0.0062  -0.0054   0.00    4.0
2173 283614.000  -2595054.4247  -4259026.9978   3962484.4874   1   8   0.0062   0.0083   0.0078   0.0057  -0.0062  -0.0054   0.00    4.7
2173 283615.000  -2595054.4250  -4259026.9939   3962484.4856   1   8   0.0062   0.0083   0.0078   0.0057  -0.0062  -0.0054   0.00    4.6
2173 283616.000  -2595054.4228  -4259026.9926   3962484.4856   1   8   0.0062   0.0083   0.0078   0.0057  -0.0062  -0.0054   0.00    4.8
2173 283617.000  -2595054.4244  -4259026.9939   3962484.4842   1   8   0.0062   0.0083   0.0078   0.0057  -0.0062  -0.0054   0.00    4.0
2173 283618.000  -2595054.4226  -4259026.9944   3962484.4841   1   8   0.0062   0.0083   0.0078   0.0057  -0.0062  -0.0054   0.00    4.3
2173 283619.000  -2595054.4246  -4259026.9948   3962484.4822   1   8   0.0062   0.0083   0.0078   0.0057  -0.0062  -0.0054   0.00    4.1
2173 283620.000  -2595054.4247  -4259026.9959   3962484.4830   1   8   0.0062   0.0083   0.0078   0.0057  -0.0062  -0.0054   0.00    3.6
2173 283621.000  -2595054.4228  -4259026.9936   3962484.4844   1   8   0.0062   0.0083   0.0078   0.0057  -0.0062  -0.0054   0.00    4.6
2173 283622.000  -2595054.4244  -4259026.9935   3962484.4847   1   8   0.0062   0.0083   0.0078   0.0057  -0.0062  -0.0054   0.00    4.2
2173 283623.000  -2595054.4232  -4259026.9912   3962484.4797   1   8   0.0062   0.0083   0.0078   0.0057  -0.0062  -0.0054   0.00    4.2
2173 283624.000  -2595054.4226  -4259026.9895   3962484.4790   1   8   0.0062   0.0083   0.0078   0.0057  -0.0062  -0.0054   0.00    4.0
2173 283625.000  -2595054.4228  -4259026.9919   3962484.4783   1   8   0.0062   0.0083   0.0078   0.0057  -0.0062  -0.0054   0.00    4.4
2173 283626.000  -2595054.4244  -4259026.9907   3962484.4800   1   8   0.0062   0.0083   0.0078   0.0057  -0.0062  -0.0054   0.00    5.1
2173 283627.000  -2595054.4226  -4259026.9890   3962484.4805   1   8   0.0062   0.0083   0.0078   0.0057  -0.0062  -0.0054   0.00    4.4
2173 283628.000  -2595054.4221  -4259026.9909   3962484.4786   1   8   0.0062   0.0083   0.0078   0.0057  -0.0062  -0.0054   0.00    4.5
2173 283629.000  -2595054.4219  -4259026.9876   3962484.4802   1   8   0.0062   0.0083   0.0078   0.0057  -0.0062  -0.0054   0.00    5.0
2173 283630.000  -2595054.4227  -4259026.9923   3962484.4820   1   8   0.0062   0.0083   0.0078   0.0057  -0.0062  -0.0054   0.00    5.2
2173 283631.000  -2595054.4244  -4259026.9943   3962484.4832   1   8   0.0062   0.0083   0.0078   0.0057  -0.0062  -0.0054   0.00    5.5
2173 283632.000  -2595054.4228  -4259026.9906   3962484.4804   1   8   0.0062   0.0083   0.0078   0.0057  -0.0062  -0.0054   0.00    4.7
2173 283633.000  -2595054.4237  -4259026.9918   3962484.4800   1   8   0.0062   0.0083   0.0078   0.0057  -0.0062  -0.0054   0.00    4.4
2173 283634.000  -2595054.4237  -4259026.9925   3962484.4793   1   8   0.0062   0.0083   0.0078   0.0057  -0.0062  -0.0054   0.00    3.8
2173 283635.000  -2595054.4231  -4259026.9882   3962484.4788   1   8   0.0062   0.0083   0.0078   0.0057  -0.0062  -0.0054   0.00    4.1
2173 283636.000  -2595054.4234  -4259026.9917   3962484.4792   1   8   0.0062   0.0083   0.0078   0.0057  -0.0062  -0.0054   0.00    4.3
2173 283637.000  -2595054.4207  -4259026.9915   3962484.4786   1   8   0.0062   0.0083   0.0078   0.0057  -0.0062  -0.0054   0.00    4.2
2173 283638.000  -2595054.4220  -4259026.9941   3962484.4811   1   8   0.0062   0.0083   0.0078   0.0057  -0.0062  -0.0054   0.00    4.2
2173 283639.000  -2595054.4225  -4259026.9909   3962484.4786   1   8   0.0062   0.0083   0.0078   0.0057  -0.0062  -0.0054   0.00    3.7
2173 283640.000  -2595054.4238  -4259026.9910   3962484.4801   1   8   0.0062   0.0083   0.0078   0.0057  -0.0062  -0.0054   0.00    3.4
2173 283641.000  -2595054.4200  -4259026.9873   3962484.4758   1   8   0.0062   0.0083   0.0078   0.0057  -0.0062  -0.0054   0.00    3.3
2173 283642.000  -2595054.4222  -4259026.9892   3962484.4768   1   8   0.0062   0.0083   0.0078   0.0057  -0.0062  -0.0054   0.00    3.4
2173 283643.000  -2595054.4228  -4259026.9911   3962484.4785   1   8   0.0062   0.0083   0.0078   0.0057  -0.0062  -0.0054   0.00    3.8
2173 283644.000  -2595054.4229  -4259026.9905   3962484.4796   1   8   0.0062   0.0083   0.0078   0.0057  -0.0062  -0.0054   0.00    3.7
2173 283645.000  -2595054.4230  -4259026.9895   3962484.4777   1   8   0.0062   0.0083   0.0078   0.0057  -0.0062  -0.0054   0.00    3.7
2173 283646.000  -2595054.9182  -4259027.0715   3962485.3458   2   8   0.6092   0.8143   0.7739   0.5588  -0.6103  -0.5335   0.00    2.9
2173 283647.000  -2595054.4226  -4259026.9881   3962484.4791   1   8   0.0062   0.0083   0.0078   0.0057  -0.0062  -0.0054   0.00    3.4
2173 283648.000  -2595054.4224  -4259026.9888   3962484.4767   1   8   0.0062   0.0083   0.0078   0.0057  -0.0062  -0.0054   0.00    3.8
2173 283649.000  -2595054.4236  -4259026.9881   3962484.4792   1   8   0.0062   0.0083   0.0078   0.0057  -0.0062  -0.0054   0.00    3.4
2173 283650.000  -2595054.9518  -4259027.2311   3962485.4818   2   8   0.6092   0.8145   0.7737   0.5588  -0.6102  -0.5334   0.00    3.0
2173 283651.000  -2595054.9157  -4259027.0103   3962485.3967   2   8   0.6091   0.8145   0.7737   0.5587  -0.6102  -0.5333   0.00    3.0
2173 283652.000  -2595054.4226  -4259026.9906   3962484.4778   1   8   0.0062   0.0083   0.0078   0.0057  -0.0062  -0.0054   0.00    3.3
2173 283653.000  -2595054.4244  -4259026.9932   3962484.4802   1   8   0.0062   0.0083   0.0078   0.0057  -0.0062  -0.0054   0.00    3.3
2173 283654.000  -2595054.4246  -4259026.9910   3962484.4807   1   8   0.0062   0.0083   0.0078   0.0057  -0.0062  -0.0054   0.00    3.1
2173 283655.000  -2595055.2007  -4259027.2433   3962485.7727   2   8   0.6091   0.8146   0.7735   0.5587  -0.6101  -0.5332   0.00    2.4
2173 283656.000  -2595055.2220  -4259027.2844   3962485.7932   2   8   0.6091   0.8147   0.7735   0.5587  -0.6100  -0.5331   0.00    2.9
2173 283657.000  -2595054.4244  -4259026.9895   3962484.4801   1   8   0.0062   0.0083   0.0078   0.0057  -0.0062  -0.0054   0.00    3.1
2173 283658.000  -2595055.1290  -4259027.4013   3962485.6789   2   8   0.6090   0.8148   0.7734   0.5587  -0.6100  -0.5331   0.00    2.6
2173 283659.000  -2595054.9334  -4259027.0683   3962485.4400   2   8   0.6090   0.8148   0.7734   0.5586  -0.6100  -0.5330   0.00    2.8
2173 283660.000  -2595054.4252  -4259026.9888   3962484.4808   1   8   0.0062   0.0083   0.0078   0.0057  -0.0062  -0.0054   0.00    3.2
2173 283661.000  -2595054.4243  -4259026.9917   3962484.4802   1   8   0.0062   0.0083   0.0078   0.0057  -0.0062  -0.0054   0.00    3.6
2173 283662.000  -2595054.4215  -4259026.9907   3962484.4760   1   8   0.0062   0.0083   0.0078   0.0057  -0.0062  -0.0054   0.00    3.6
2173 283663.000  -2595054.4241  -4259026.9904   3962484.4787   1   8   0.0062   0.0083   0.0078   0.0057  -0.0062  -0.0054   0.00    3.6
2173 283664.000  -2595054.4234  -4259026.9863   3962484.4797   1   8   0.0062   0.0083   0.0078   0.0057  -0.0062  -0.0054   0.00    3.1
2173 283665.000  -2595054.4209  -4259026.9888   3962484.4781   1   8   0.0062   0.0083   0.0078   0.0057  -0.0062  -0.0054   0.00    3.4
2173 283666.000  -2595054.4235  -4259026.9926   3962484.4816   1   8   0.0062   0.0083   0.0078   0.0057  -0.0062  -0.0054   0.00    3.2
2173 283667.000  -2595054.4214  -4259026.9886   3962484.4788   1   8   0.0062   0.0083   0.0078   0.0057  -0.0062  -0.0054   0.00    3.2
2173 283668.000  -2595054.4217  -4259026.9907   3962484.4776   1   8   0.0062   0.0083   0.0078   0.0057  -0.0062  -0.0054   0.00    3.0
2173 283669.000  -2595054.4194  -4259026.9840   3962484.4748   1   8   0.0062   0.0083   0.0078   0.0057  -0.0062  -0.0054   0.00    3.3
2173 283670.000  -2595054.4219  -4259026.9887   3962484.4759   1   8   0.0062   0.0083   0.0078   0.0057  -0.0062  -0.0054   0.00    3.4
2173 283671.000  -2595054.4189  -4259026.9886   3962484.4765   1   8   0.0062   0.0083   0.0078   0.0057  -0.0062  -0.0054   0.00    3.3
2173 283672.000  -2595054.4209  -4259026.9869   3962484.4779   1   8   0.0062   0.0083   0.0078   0.0057  -0.0062  -0.0054   0.00    3.1
2173 283673.000  -2595054.4223  -4259026.9885   3962484.4797   1   8   0.0062   0.0083   0.0078   0.0057  -0.0062  -0.0054   0.00    3.6
2173 283674.000  -2595054.4196  -4259026.9883   3962484.4780   1   8   0.0062   0.0083   0.0078   0.0057  -0.0062  -0.0054   0.00    3.6
2173 283675.000  -2595054.4188  -4259026.9878   3962484.4775   1   8   0.0062   0.0083   0.0078   0.0057  -0.0062  -0.0054   0.00    3.3
2173 283676.000  -2595054.4207  -4259026.9873   3962484.4776   1   8   0.0062   0.0083   0.0078   0.0057  -0.0062  -0.0054   0.00    3.6
2173 283677.000  -2595054.4182  -4259026.9849   3962484.4767   1   8   0.0062   0.0083   0.0078   0.0057  -0.0062  -0.0054   0.00    3.2
2173 283678.000  -2595054.4186  -4259026.9879   3962484.4775   1   8   0.0062   0.0083   0.0078   0.0057  -0.0062  -0.0054   0.00    3.7
2173 283679.000  -2595054.4220  -4259026.9914   3962484.4791   1   8   0.0062   0.0083   0.0078   0.0057  -0.0062  -0.0054   0.00    3.9
2173 283680.000  -2595054.4193  -4259026.9899   3962484.4786   1   8   0.0062   0.0083   0.0078   0.0057  -0.0062  -0.0054   0.00    3.6
2173 283681.000  -2595054.4221  -4259026.9905   3962484.4794   1   8   0.0062   0.0083   0.0078   0.0057  -0.0062  -0.0054   0.00    3.1
2173 283682.000  -2595054.4218  -4259026.9927   3962484.4800   1   8   0.0062   0.0083   0.0078   0.0057  -0.0062  -0.0054   0.00    3.5
2173 283683.000  -2595054.4199  -4259026.9872   3962484.4774   1   8   0.0062   0.0083   0.0078   0.0057  -0.0062  -0.0054   0.00    3.2
2173 283684.000  -2595054.4208  -4259026.9893   3962484.4768   1   8   0.0062   0.0083   0.0078   0.0057  -0.0062  -0.0054   0.00    3.5
2173 283685.000  -2595054.4190  -4259026.9872   3962484.4757   1   8   0.0062   0.0083   0.0078   0.0057  -0.0062  -0.0054   0.00    3.5
2173 283686.000  -2595054.4207  -4259026.9902   3962484.4761   1   8   0.0062   0.0083   0.0078   0.0057  -0.0062  -0.0054   0.00    3.1
2173 283687.000  -2595054.4224  -4259026.9915   3962484.4816   1   8   0.0062   0.0083   0.0078   0.0057  -0.0062  -0.0054   0.00    3.2
2173 283688.000  -2595054.4206  -4259026.9878   3962484.4782   1   8   0.0062   0.0083   0.0078   0.0057  -0.0062  -0.0054   0.00    3.5
2173 283689.000  -2595054.4208  -4259026.9898   3962484.4805   1   8   0.0062   0.0083   0.0078   0.0057  -0.0062  -0.0054   0.00    3.1
2173 283690.000  -2595054.4211  -4259026.9927   3962484.4812   1   8   0.0062   0.0083   0.0078   0.0057  -0.0062  -0.0054   0.00    3.6
2173 283691.000  -2595054.4194  -4259026.9894   3962484.4791   1   8   0.0062   0.0083   0.0078   0.0057  -0.0062  -0.0054   0.00    3.6
2173 283692.000  -2595054.4187  -4259026.9881   3962484.4763   1   8   0.0062   0.0083   0.0078   0.0057  -0.0062  -0.0054   0.00    3.1
2173 283693.000  -2595054.5127  -4259026.8336   3962485.0492   2   8   0.6085   0.8161   0.7720   0.5582  -0.6090  -0.5318   0.00    2.9
2173 283694.000  -2595054.4205  -4259026.9913   3962484.4805   1   8   0.0062   0.0083   0.0078   0.0057  -0.0062  -0.0054   0.00    3.5
2173 283695.000  -2595054.4193  -4259026.9921   3962484.4783   1   8   0.0062   0.0083   0.0078   0.0057  -0.0062  -0.0054   0.00    4.6
2173 283696.000  -2595054.4188  -4259026.9880   3962484.4750   1   8   0.0062   0.0083   0.0078   0.0057  -0.0062  -0.0054   0.00    3.2
2173 283697.000  -2595054.4192  -4259026.9877   3962484.4775   1   8   0.0062   0.0083   0.0078   0.0057  -0.0062  -0.0054   0.00    3.5
2173 283698.000  -2595054.3307  -4259026.5683   3962484.9426   2   8   0.6085   0.8163   0.7718   0.5582  -0.6088  -0.5316   0.00    2.4
2173 283699.000  -2595054.4186  -4259026.5515   3962484.9434   2   8   0.6084   0.8163   0.7717   0.5581  -0.6088  -0.5316   0.00    2.2
2173 283700.000  -2595054.4677  -4259026.3126   3962484.6977   2   8   0.6084   0.8164   0.7717   0.5581  -0.6088  -0.5315   0.00    2.1
2173 283701.000  -2595054.4706  -4259026.5094   3962485.0692   2   8   0.6084   0.8164   0.7716   0.5581  -0.6088  -0.5315   0.00    3.0
2173 283702.000  -2595054.4174  -4259026.9853   3962484.4741   1   8   0.0062   0.0083   0.0078   0.0057  -0.0062  -0.0054   0.00    3.0
2173 283703.000  -2595054.4201  -4259026.9871   3962484.4767   1   8   0.0062   0.0083   0.0078   0.0057  -0.0062  -0.0054   0.00    3.2
2173 283704.000  -2595054.3680  -4259026.5798   3962484.6904   2   8   0.6084   0.8165   0.7715   0.5581  -0.6087  -0.5314   0.00    2.7
2173 283705.000  -2595054.1830  -4259026.4337   3962484.6148   2   8   0.6084   0.8166   0.7715   0.5581  -0.6086  -0.5314   0.00    2.8
2173 283706.000  -2595054.3880  -4259026.5030   3962484.7987   2   8   0.6083   0.8166   0.7714   0.5581  -0.6086  -0.5313   0.00    2.3
2173 283707.000  -2595054.3882  -4259026.6264   3962484.7035   2   8   0.6083   0.8166   0.7714   0.5580  -0.6086  -0.5313   0.00    2.5
