% program   : rnx2rtkp ver.2.4.3 b31
% inp file  : ngs/21_09_01_06_41_39_sacr.obs
% inp file  : ngs/21_09_01_06_41_39_sacr_SW.obs
% inp file  : ngs/21_09_01_06_41_39_brdc.nav
% obs start : 2021/09/01 06:00:00.0 GPST (week2173 280800.0s)
% obs end   : 2021/09/01 06:59:59.0 GPST (week2173 284399.0s)
% ref pos   : -2627151.4412  -4311708.0386   3884144.4574
%
% (x/y/z-ecef=WGS84,Q=1:fix,2:float,3:sbas,4:dgps,5:single,6:ppp,ns=# of satellites)
%  GPST              x-ecef(m)      y-ecef(m)      z-ecef(m)   Q  ns   sdx(m)   sdy(m)   sdz(m)  sdxy(m)  sdyz(m)  sdzx(m) age(s)  ratio
2173 283274.000  -2595054.3459  -4259026.7924   3962484.8785   2   6   0.7284   0.9522   0.9880   0.6328  -0.7040  -0.7272 -30.00    1.1
2173 283275.000  -2595054.3998  -4259026.7638   3962484.7710   2   6   0.5187   0.6789   0.7024   0.4510  -0.5014  -0.5174 -29.00    1.0
2173 283276.000  -2595054.4128  -4259026.8471   3962484.7499   2   6   0.4248   0.5561   0.5751   0.3694  -0.4106  -0.4237 -28.00    1.1
2173 283277.000  -2595054.4462  -4259026.9440   3962484.7705   2   6   0.3686   0.4825   0.4991   0.3205  -0.3563  -0.3676 -27.00    1.1
2173 283278.000  -2595054.4873  -4259027.0238   3962484.8685   2   6   0.3301   0.4321   0.4470   0.2870  -0.3191  -0.3293 -26.00    1.0
2173 283279.000  -2595054.5103  -4259027.0497   3962484.9305   2   6   0.3016   0.3949   0.4086   0.2622  -0.2915  -0.3009 -25.00    1.1
2173 283280.000  -2595054.5332  -4259027.1088   3962484.9622   2   6   0.2794   0.3658   0.3786   0.2429  -0.2701  -0.2788 -24.00    1.1
2173 283281.000  -2595054.5688  -4259027.1270   3962485.0306   2   6   0.2615   0.3424   0.3544   0.2274  -0.2528  -0.2609 -23.00    1.2
2173 283282.000  -2595054.5631  -4259027.1109   3962485.0453   2   6   0.2466   0.3230   0.3342   0.2144  -0.2384  -0.2461 -22.00    1.3
2173 283283.000  -2595054.5317  -4259027.0662   3962485.0115   2   6   0.2340   0.3065   0.3172   0.2035  -0.2263  -0.2335 -21.00    1.3
2173 283284.000  -2595054.5250  -4259027.0635   3962484.9854   2   6   0.2232   0.2923   0.3024   0.1940  -0.2157  -0.2227 -20.00    1.3
2173 283285.000  -2595054.5342  -4259027.0603   3962484.9612   2   6   0.2137   0.2799   0.2895   0.1858  -0.2066  -0.2132 -19.00    1.3
2173 283286.000  -2595054.5516  -4259027.0590   3962484.9847   2   6   0.2053   0.2689   0.2781   0.1785  -0.1984  -0.2048 -18.00    1.3
2173 283287.000  -2595054.5617  -4259027.0342   3962484.9726   2   6   0.1978   0.2591   0.2679   0.1720  -0.1912  -0.1973 -17.00    1.4
2173 283288.000  -2595054.5647  -4259027.0328   3962484.9841   2   6   0.1910   0.2503   0.2587   0.1661  -0.1846  -0.1905 -16.00    1.4
2173 283289.000  -2595054.5686  -4259027.0146   3962484.9683   2   6   0.1849   0.2424   0.2503   0.1608  -0.1787  -0.1844 -15.00    1.5
2173 283290.000  -2595054.5634  -4259027.0116   3962484.9523   2   6   0.1793   0.2351   0.2427   0.1559  -0.1733  -0.1788 -14.00    1.6
2173 283291.000  -2595054.5612  -4259027.0186   3962484.9470   2   6   0.1742   0.2284   0.2357   0.1515  -0.1684  -0.1736 -13.00    1.6
2173 283292.000  -2595054.5567  -4259027.0129   3962484.9363   2   6   0.1695   0.2223   0.2292   0.1474  -0.1638  -0.1689 -12.00    1.7
2173 283293.000  -2595054.5647  -4259027.0189   3962484.9325   2   6   0.1651   0.2166   0.2232   0.1436  -0.1596  -0.1645 -11.00    1.7
2173 283294.000  -2595054.5797  -4259027.0404   3962484.9388   2   6   0.1611   0.2114   0.2176   0.1401  -0.1556  -0.1604 -10.00    1.9
2173 283295.000  -2595054.5802  -4259027.0441   3962484.9384   2   6   0.1573   0.2064   0.2124   0.1368  -0.1520  -0.1566  -9.00    1.9
2173 283296.000  -2595054.5801  -4259027.0463   3962484.9307   2   6   0.1537   0.2019   0.2076   0.1337  -0.1485  -0.1530  -8.00    2.1
2173 283297.000  -2595054.5799  -4259027.0391   3962484.9187   2   6   0.1504   0.1976   0.2030   0.1309  -0.1453  -0.1497  -7.00    2.2
2173 283298.000  -2595054.5752  -4259027.0286   3962484.8968   2   6   0.1473   0.1935   0.1987   0.1282  -0.1423  -0.1465  -6.00    2.4
2173 283299.000  -2595054.5646  -4259027.0118   3962484.8781   2   6   0.1443   0.1897   0.1946   0.1256  -0.1394  -0.1435  -5.00    2.6
2173 283300.000  -2595054.5569  -4259027.0111   3962484.8612   2   6   0.1416   0.1861   0.1908   0.1232  -0.1367  -0.1407  -4.00    2.9
2173 283301.000  -2595054.4405  -4259026.9773   3962484.7197   1   6   0.0084   0.0106   0.0118   0.0071  -0.0081  -0.0085  -3.00    3.2
2173 283302.000  -2595054.4385  -4259026.9750   3962484.7175   1   6   0.0079   0.0101   0.0109   0.0068  -0.0075  -0.0078  -2.00    3.4
2173 283303.000  -2595054.4366  -4259026.9748   3962484.7190   1   6   0.0074   0.0097   0.0101   0.0065  -0.0073  -0.0074  -1.00    3.7
2173 283304.000  -2595054.4352  -4259026.9761   3962484.7186   1   6   0.0072   0.0097   0.0100   0.0065  -0.0071  -0.0074   0.00    3.9
2173 283305.000  -2595054.4359  -4259026.9803   3962484.7186   1   6   0.0074   0.0097   0.0100   0.0064  -0.0072  -0.0073   0.00    3.6
2173 283306.000  -2595054.4362  -4259026.9774   3962484.7186   1   6   0.0072   0.0097   0.0100   0.0064  -0.0071  -0.0073   0.00    3.4
2173 283307.000  -2595054.4348  -4259026.9764   3962484.7199   1   6   0.0074   0.0097   0.0099   0.0064  -0.0072  -0.0074   0.00    3.3
2173 283308.000  -2595054.4378  -4259026.9793   3962484.7198   1   6   0.0074   0.0097   0.0100   0.0063  -0.0072  -0.0074   0.00    3.2
2173 283309.000  -2595054.5348  -4259026.9541   3962484.7579   2   7   0.1213   0.1611   0.1625   0.1063  -0.1179  -0.1197   0.00    1.9
2173 283310.000  -2595054.5394  -4259026.9569   3962484.7609   2   7   0.1189   0.1589   0.1590   0.1049  -0.1162  -0.1169   0.00    1.5
2173 283311.000  -2595054.5309  -4259026.9503   3962484.7462   2   7   0.1167   0.1568   0.1556   0.1035  -0.1146  -0.1143   0.00    1.2
2173 283312.000  -2595054.5288  -4259026.9564   3962484.7405   2   7   0.1146   0.1548   0.1525   0.1021  -0.1131  -0.1119   0.00    1.0
2173 283313.000  -2595054.5305  -4259026.9565   3962484.7469   2   7   0.1126   0.1528   0.1496   0.1008  -0.1117  -0.1096   0.00    1.1
2173 283314.000  -2595054.5268  -4259026.9490   3962484.7472   2   7   0.1108   0.1509   0.1468   0.0995  -0.1103  -0.1075   0.00    1.2
2173 283315.000  -2595054.5299  -4259026.9537   3962484.7524   2   7   0.1090   0.1491   0.1442   0.0983  -0.1089  -0.1055   0.00    1.2
2173 283316.000  -2595054.5328  -4259026.9568   3962484.7578   2   7   0.1073   0.1474   0.1417   0.0972  -0.1075  -0.1035   0.00    1.2
2173 283317.000  -2595054.5379  -4259026.9618   3962484.7583   2   7   0.1057   0.1457   0.1393   0.0960  -0.1062  -0.1017   0.00    1.2
2173 283318.000  -2595054.5425  -4259026.9679   3962484.7628   2   7   0.1041   0.1440   0.1370   0.0949  -0.1050  -0.1000   0.00    1.2
2173 283319.000  -2595054.5391  -4259026.9687   3962484.7503   2   7   0.1027   0.1424   0.1348   0.0938  -0.1038  -0.0983   0.00    1.2
2173 283320.000  -2595054.5423  -4259026.9683   3962484.7488   2   7   0.1012   0.1409   0.1327   0.0928  -0.1026  -0.0967   0.00    1.2
2173 283321.000  -2595054.5466  -4259026.9756   3962484.7463   2   7   0.0999   0.1394   0.1307   0.0918  -0.1015  -0.0952   0.00    1.2
2173 283322.000  -2595054.5455  -4259026.9769   3962484.7413   2   7   0.0986   0.1380   0.1288   0.0908  -0.1003  -0.0937   0.00    1.2
2173 283323.000  -2595054.5451  -4259026.9844   3962484.7427   2   7   0.0973   0.1366   0.1269   0.0898  -0.0992  -0.0923   0.00    1.2
2173 283324.000  -2595054.5479  -4259026.9866   3962484.7457   2   7   0.0961   0.1352   0.1252   0.0889  -0.0982  -0.0909   0.00    1.2
2173 283325.000  -2595054.5448  -4259026.9904   3962484.7357   2   7   0.0949   0.1339   0.1234   0.0880  -0.0971  -0.0897   0.00    1.2
2173 283326.000  -2595054.5449  -4259026.9959   3962484.7396   2   7   0.0938   0.1326   0.1217   0.0871  -0.0961  -0.0884   0.00    1.2
2173 283327.000  -2595054.5474  -4259027.0040   3962484.7430   2   7   0.0927   0.1313   0.1201   0.0863  -0.0952  -0.0872   0.00    1.2
2173 283328.000  -2595054.5439  -4259027.0002   3962484.7432   2   7   0.0917   0.1301   0.1185   0.0855  -0.0942  -0.0860   0.00    1.2
2173 283329.000  -2595054.5499  -4259027.0080   3962484.7597   2   7   0.0906   0.1289   0.1170   0.0846  -0.0933  -0.0849   0.00    1.2
2173 283330.000  -2595054.5493  -4259027.0132   3962484.7667   2   7   0.0896   0.1278   0.1155   0.0838  -0.0923  -0.0838   0.00    1.2
2173 283331.000  -2595054.5527  -4259027.0147   3962484.7758   2   7   0.0887   0.1266   0.1141   0.0831  -0.0914  -0.0827   0.00    1.1
2173 283332.000  -2595054.5574  -4259027.0212   3962484.7831   2   7   0.0877   0.1255   0.1127   0.0823  -0.0906  -0.0817   0.00    1.1
2173 283333.000  -2595054.5543  -4259027.0189   3962484.7776   2   7   0.0869   0.1244   0.1113   0.0816  -0.0897  -0.0807   0.00    1.1
2173 283334.000  -2595054.5514  -4259027.0160   3962484.7682   2   7   0.0860   0.1234   0.1100   0.0808  -0.0889  -0.0797   0.00    1.1
2173 283335.000  -2595054.5471  -4259027.0147   3962484.7615   2   7   0.0851   0.1224   0.1087   0.0801  -0.0880  -0.0787   0.00    1.1
2173 283336.000  -2595054.5392  -4259027.0069   3962484.7469   2   7   0.0843   0.1214   0.1074   0.0794  -0.0872  -0.0778   0.00    1.1
2173 283337.000  -2595054.5400  -4259027.0211   3962484.7395   2   7   0.0835   0.1204   0.1062   0.0788  -0.0864  -0.0769   0.00    1.1
2173 283338.000  -2595054.5313  -4259027.0194   3962484.7289   2   7   0.0827   0.1194   0.1050   0.0781  -0.0857  -0.0760   0.00    1.1
2173 283339.000  -2595054.5251  -4259027.0195   3962484.7274   2   7   0.0819   0.1185   0.1038   0.0774  -0.0849  -0.0752   0.00    1.1
2173 283340.000  -2595054.5204  -4259027.0182   3962484.7228   2   7   0.0811   0.1176   0.1027   0.0768  -0.0841  -0.0743   0.00    1.1
2173 283341.000  -2595054.5214  -4259027.0251   3962484.7263   2   7   0.0804   0.1167   0.1016   0.0762  -0.0834  -0.0735   0.00    1.1
2173 283342.000  -2595054.5195  -4259027.0287   3962484.7288   2   7   0.0797   0.1158   0.1005   0.0756  -0.0827  -0.0727   0.00    1.1
2173 283343.000  -2595054.5145  -4259027.0293   3962484.7277   2   7   0.0790   0.1149   0.0994   0.0750  -0.0820  -0.0719   0.00    1.1
2173 283344.000  -2595054.5126  -4259027.0244   3962484.7292   2   7   0.0783   0.1141   0.0983   0.0744  -0.0813  -0.0711   0.00    1.1
2173 283345.000  -2595054.5115  -4259027.0207   3962484.7295   2   7   0.0776   0.1133   0.0973   0.0738  -0.0806  -0.0704   0.00    1.1
2173 283346.000  -2595054.5074  -4259027.0175   3962484.7235   2   7   0.0770   0.1125   0.0963   0.0732  -0.0799  -0.0697   0.00    1.0
2173 283347.000  -2595054.5019  -4259027.0103   3962484.7175   2   7   0.0763   0.1117   0.0953   0.0727  -0.0793  -0.0689   0.00    1.0
2173 283348.000  -2595054.4964  -4259027.0029   3962484.7121   2   7   0.0757   0.1109   0.0943   0.0721  -0.0786  -0.0683   0.00    1.0
2173 283349.000  -2595054.4968  -4259026.9950   3962484.7023   2   7   0.0751   0.1101   0.0934   0.0716  -0.0780  -0.0676   0.00    1.0
2173 283350.000  -2595054.4918  -4259026.9877   3962484.6978   2   7   0.0745   0.1094   0.0924   0.0711  -0.0773  -0.0669   0.00    1.0
2173 283351.000  -2595054.4880  -4259026.9850   3962484.6919   2   7   0.0739   0.1086   0.0915   0.0705  -0.0767  -0.0662   0.00    1.0
2173 283352.000  -2595054.4878  -4259026.9782   3962484.6839   2   7   0.0733   0.1079   0.0906   0.0700  -0.0761  -0.0656   0.00    1.0
2173 283353.000  -2595054.4820  -4259026.9708   3962484.6712   2   7   0.0728   0.1072   0.0897   0.0695  -0.0755  -0.0649   0.00    1.0
2173 283354.000  -2595054.4732  -4259026.9658   3962484.6614   2   7   0.0722   0.1065   0.0888   0.0690  -0.0749  -0.0643   0.00    1.0
2173 283355.000  -2595054.4726  -4259026.9662   3962484.6569   2   7   0.0716   0.1058   0.0880   0.0686  -0.0743  -0.0637   0.00    1.0
2173 283356.000  -2595054.4708  -4259026.9664   3962484.6498   2   7   0.0711   0.1051   0.0871   0.0681  -0.0738  -0.0631   0.00    1.0
2173 283357.000  -2595054.4653  -4259026.9598   3962484.6499   2   7   0.0706   0.1045   0.0863   0.0676  -0.0732  -0.0625   0.00    1.0
2173 283358.000  -2595054.4642  -4259026.9581   3962484.6487   2   7   0.0701   0.1038   0.0855   0.0671  -0.0727  -0.0619   0.00    1.0
2173 283359.000  -2595054.4686  -4259026.9577   3962484.6511   2   7   0.0696   0.1032   0.0847   0.0667  -0.0721  -0.0613   0.00    1.0
2173 283360.000  -2595054.4615  -4259026.9513   3962484.6454   2   7   0.0691   0.1026   0.0839   0.0663  -0.0716  -0.0608   0.00    1.0
2173 283361.000  -2595054.4624  -4259026.9500   3962484.6483   2   7   0.0686   0.1019   0.0831   0.0658  -0.0710  -0.0602   0.00    1.0
2173 283362.000  -2595054.4661  -4259026.9476   3962484.6420   2   7   0.0681   0.1013   0.0823   0.0654  -0.0705  -0.0597   0.00    1.0
2173 283363.000  -2595054.4687  -4259026.9460   3962484.6358   2   7   0.0677   0.1007   0.0816   0.0650  -0.0700  -0.0591   0.00    1.0
2173 283364.000  -2595054.4644  -4259026.9423   3962484.6294   2   7   0.0672   0.1001   0.0808   0.0645  -0.0695  -0.0586   0.00    1.0
2173 283365.000  -2595054.4668  -4259026.9461   3962484.6272   2   7   0.0667   0.0996   0.0800   0.0641  -0.0690  -0.0581   0.00    1.0
2173 283366.000  -2595054.4644  -4259026.9384   3962484.6163   2   7   0.0663   0.0990   0.0794   0.0637  -0.0685  -0.0576   0.00    1.0
2173 283367.000  -2595054.4623  -4259026.9334   3962484.6056   2   7   0.0659   0.0984   0.0786   0.0633  -0.0680  -0.0571   0.00    1.0
2173 283368.000  -2595054.4568  -4259026.9339   3962484.5991   2   7   0.0654   0.0979   0.0779   0.0629  -0.0675  -0.0566   0.00    1.0
2173 283369.000  -2595054.4532  -4259026.9334   3962484.5917   2   7   0.0650   0.0973   0.0772   0.0625  -0.0670  -0.0561   0.00    1.0
2173 283370.000  -2595054.4512  -4259026.9346   3962484.5853   2   7   0.0646   0.0968   0.0765   0.0621  -0.0666  -0.0556   0.00    1.0
2173 283371.000  -2595054.4440  -4259026.9256   3962484.5726   2   7   0.0641   0.0963   0.0759   0.0618  -0.0661  -0.0551   0.00    1.0
2173 283372.000  -2595054.4389  -4259026.9214   3962484.5660   2   7   0.0638   0.0957   0.0752   0.0614  -0.0656  -0.0547   0.00    1.0
2173 283373.000  -2595054.4377  -4259026.9200   3962484.5624   2   7   0.0634   0.0952   0.0746   0.0610  -0.0652  -0.0542   0.00    1.1
2173 283374.000  -2595054.4337  -4259026.9162   3962484.5525   2   7   0.0630   0.0947   0.0739   0.0607  -0.0647  -0.0537   0.00    1.1
2173 283375.000  -2595054.4332  -4259026.9126   3962484.5489   2   7   0.0626   0.0942   0.0733   0.0603  -0.0643  -0.0533   0.00    1.1
2173 283376.000  -2595054.4302  -4259026.9078   3962484.5415   2   7   0.0622   0.0937   0.0727   0.0600  -0.0639  -0.0529   0.00    1.1
2173 283377.000  -2595054.4251  -4259026.9003   3962484.5344   2   7   0.0618   0.0932   0.0720   0.0596  -0.0634  -0.0524   0.00    1.1
2173 283378.000  -2595054.4203  -4259026.8953   3962484.5245   2   7   0.0615   0.0928   0.0714   0.0593  -0.0630  -0.0520   0.00    1.1
2173 283379.000  -2595054.4186  -4259026.8953   3962484.5170   2   7   0.0611   0.0923   0.0708   0.0589  -0.0626  -0.0516   0.00    1.1
2173 283380.000  -2595054.4142  -4259026.8899   3962484.5111   2   7   0.0608   0.0918   0.0702   0.0586  -0.0622  -0.0512   0.00    1.1
2173 283381.000  -2595054.4115  -4259026.8843   3962484.5029   2   7   0.0604   0.0914   0.0696   0.0583  -0.0618  -0.0508   0.00    1.1
2173 283382.000  -2595054.4071  -4259026.8810   3962484.4925   2   7   0.0600   0.0909   0.0691   0.0580  -0.0614  -0.0504   0.00    1.1
2173 283383.000  -2595054.4023  -4259026.8749   3962484.4802   2   7   0.0597   0.0905   0.0685   0.0576  -0.0610  -0.0499   0.00    1.1
2173 283384.000  -2595054.4032  -4259026.8772   3962484.4765   2   7   0.0594   0.0900   0.0679   0.0573  -0.0606  -0.0496   0.00    1.1
2173 283385.000  -2595054.3985  -4259026.8744   3962484.4645   2   7   0.0590   0.0896   0.0674   0.0570  -0.0602  -0.0492   0.00    1.1
2173 283386.000  -2595054.3936  -4259026.8698   3962484.4543   2   7   0.0587   0.0892   0.0668   0.0567  -0.0598  -0.0488   0.00    1.1
2173 283387.000  -2595054.3925  -4259026.8701   3962484.4516   2   7   0.0584   0.0887   0.0663   0.0564  -0.0595  -0.0484   0.00    1.1
2173 283388.000  -2595054.3828  -4259026.8597   3962484.4346   2   7   0.0581   0.0883   0.0657   0.0561  -0.0591  -0.0481   0.00    1.1
2173 283389.000  -2595054.3750  -4259026.8501   3962484.4205   2   7   0.0577   0.0879   0.0652   0.0558  -0.0587  -0.0477   0.00    1.1
2173 283390.000  -2595054.3713  -4259026.8467   3962484.4157   2   7   0.0574   0.0875   0.0647   0.0555  -0.0583  -0.0473   0.00    1.1
2173 283391.000  -2595054.3648  -4259026.8383   3962484.4058   2   7   0.0571   0.0871   0.0642   0.0552  -0.0580  -0.0470   0.00    1.1
2173 283392.000  -2595054.3611  -4259026.8365   3962484.4001   2   7   0.0568   0.0867   0.0637   0.0550  -0.0576  -0.0466   0.00    1.1
2173 283393.000  -2595054.3560  -4259026.8318   3962484.3901   2   7   0.0565   0.0863   0.0631   0.0547  -0.0573  -0.0463   0.00    1.1
2173 283394.000  -2595054.3573  -4259026.8303   3962484.3902   2   7   0.0562   0.0859   0.0627   0.0544  -0.0569  -0.0459   0.00    1.1
2173 283395.000  -2595054.3541  -4259026.8258   3962484.3862   2   7   0.0560   0.0855   0.0622   0.0541  -0.0566  -0.0456   0.00    1.1
2173 283396.000  -2595054.3507  -4259026.8249   3962484.3821   2   7   0.0557   0.0852   0.0617   0.0539  -0.0562  -0.0453   0.00    1.1
2173 283397.000  -2595054.3473  -4259026.8201   3962484.3846   2   7   0.0554   0.0848   0.0612   0.0536  -0.0559  -0.0450   0.00    1.1
2173 283398.000  -2595054.3447  -4259026.8173   3962484.3806   2   7   0.0551   0.0844   0.0608   0.0533  -0.0556  -0.0446   0.00    1.1
2173 283399.000  -2595054.3437  -4259026.8225   3962484.3836   2   7   0.0548   0.0841   0.0603   0.0531  -0.0553  -0.0443   0.00    1.1
2173 283400.000  -2595054.3409  -4259026.8225   3962484.3774   2   7   0.0546   0.0837   0.0598   0.0528  -0.0550  -0.0440   0.00    1.1
2173 283401.000  -2595054.3389  -4259026.8199   3962484.3745   2   7   0.0543   0.0833   0.0594   0.0526  -0.0547  -0.0437   0.00    1.1
2173 283402.000  -2595054.3369  -4259026.8199   3962484.3697   2   7   0.0540   0.0830   0.0589   0.0523  -0.0544  -0.0433   0.00    1.1
2173 283403.000  -2595054.3395  -4259026.8222   3962484.3674   2   7   0.0538   0.0826   0.0585   0.0520  -0.0540  -0.0430   0.00    1.1
2173 283404.000  -2595054.3335  -4259026.8088   3962484.3536   2   7   0.0535   0.0823   0.0580   0.0518  -0.0537  -0.0428   0.00    1.1
2173 283405.000  -2595054.3336  -4259026.8075   3962484.3492   2   7   0.0533   0.0820   0.0576   0.0515  -0.0535  -0.0425   0.00    1.1
2173 283406.000  -2595054.3326  -4259026.8075   3962484.3415   2   7   0.0530   0.0816   0.0572   0.0513  -0.0531  -0.0421   0.00    1.1
2173 283407.000  -2595054.3276  -4259026.8037   3962484.3352   2   7   0.0528   0.0813   0.0567   0.0511  -0.0528  -0.0419   0.00    1.1
2173 283408.000  -2595054.3256  -4259026.8008   3962484.3308   2   7   0.0525   0.0810   0.0563   0.0508  -0.0526  -0.0416   0.00    1.1
2173 283409.000  -2595054.3256  -4259026.8013   3962484.3265   2   7   0.0523   0.0806   0.0559   0.0506  -0.0523  -0.0413   0.00    1.1
2173 283410.000  -2595054.3243  -4259026.7975   3962484.3220   2   7   0.0520   0.0803   0.0555   0.0504  -0.0520  -0.0410   0.00    1.1
2173 283411.000  -2595054.3249  -4259026.7913   3962484.3153   2   7   0.0518   0.0800   0.0551   0.0502  -0.0517  -0.0408   0.00    1.1
2173 283412.000  -2595054.3262  -4259026.7881   3962484.3097   2   8   0.0516   0.0796   0.0547   0.0499  -0.0513  -0.0405   0.00    1.0
2173 283413.000  -2595054.3247  -4259026.7899   3962484.3038   2   8   0.0513   0.0790   0.0542   0.0496  -0.0509  -0.0402   0.00    1.0
2173 283414.000  -2595054.3272  -4259026.7903   3962484.3004   2   8   0.0510   0.0786   0.0538   0.0493  -0.0506  -0.0399   0.00    1.0
2173 283415.000  -2595054.3265  -4259026.7877   3962484.2899   2   8   0.0508   0.0782   0.0534   0.0490  -0.0503  -0.0396   0.00    1.1
2173 283416.000  -2595054.3312  -4259026.7740   3962484.2933   2   8   0.0506   0.0778   0.0530   0.0487  -0.0499  -0.0393   0.00    1.1
2173 283417.000  -2595054.3365  -4259026.7754   3962484.3001   2   8   0.0504   0.0773   0.0526   0.0485  -0.0496  -0.0390   0.00    1.1
2173 283418.000  -2595054.3424  -4259026.7803   3962484.3067   2   8   0.0502   0.0769   0.0523   0.0482  -0.0493  -0.0387   0.00    1.1
2173 283419.000  -2595054.3451  -4259026.7818   3962484.3152   2   8   0.0499   0.0765   0.0518   0.0480  -0.0490  -0.0385   0.00    1.1
2173 283420.000  -2595054.3521  -4259026.7881   3962484.3254   2   8   0.0497   0.0762   0.0515   0.0477  -0.0487  -0.0382   0.00    1.1
2173 283421.000  -2595054.3536  -4259026.7912   3962484.3322   2   8   0.0495   0.0758   0.0511   0.0475  -0.0484  -0.0380   0.00    1.1
2173 283422.000  -2595054.3587  -4259026.7971   3962484.3432   2   8   0.0492   0.0754   0.0507   0.0472  -0.0481  -0.0377   0.00    1.1
2173 283423.000  -2595054.3646  -4259026.7999   3962484.3533   2   8   0.0490   0.0750   0.0503   0.0470  -0.0478  -0.0374   0.00    1.1
2173 283424.000  -2595054.3685  -4259026.8019   3962484.3584   2   8   0.0488   0.0747   0.0500   0.0468  -0.0475  -0.0372   0.00    1.1
2173 283425.000  -2595054.3711  -4259026.8002   3962484.3633   2   8   0.0486   0.0743   0.0497   0.0465  -0.0472  -0.0369   0.00    1.1
2173 283426.000  -2595054.3737  -4259026.8030   3962484.3702   2   8   0.0484   0.0740   0.0493   0.0463  -0.0470  -0.0367   0.00    1.1
2173 283427.000  -2595054.3775  -4259026.8061   3962484.3757   2   8   0.0482   0.0736   0.0489   0.0461  -0.0467  -0.0364   0.00    1.1
2173 283428.000  -2595054.3835  -4259026.8117   3962484.3874   2   8   0.0480   0.0733   0.0486   0.0459  -0.0464  -0.0362   0.00    1.1
2173 283429.000  -2595054.3895  -4259026.8171   3962484.3986   2   8   0.0478   0.0729   0.0483   0.0457  -0.0461  -0.0360   0.00    1.1
2173 283430.000  -2595054.3941  -4259026.8235   3962484.4050   2   8   0.0476   0.0726   0.0479   0.0454  -0.0459  -0.0357   0.00    1.0
2173 283431.000  -2595054.4012  -4259026.8261   3962484.4129   2   8   0.0474   0.0723   0.0475   0.0453  -0.0456  -0.0355   0.00    1.0
2173 283432.000  -2595054.4044  -4259026.8273   3962484.4223   2   8   0.0472   0.0720   0.0473   0.0450  -0.0453  -0.0353   0.00    1.0
2173 283433.000  -2595054.4069  -4259026.8313   3962484.4286   2   8   0.0470   0.0716   0.0469   0.0448  -0.0451  -0.0351   0.00    1.0
2173 283434.000  -2595054.4134  -4259026.8353   3962484.4388   2   8   0.0468   0.0713   0.0466   0.0446  -0.0448  -0.0348   0.00    1.0
2173 283435.000  -2595054.4169  -4259026.8391   3962484.4460   2   8   0.0466   0.0710   0.0463   0.0444  -0.0446  -0.0346   0.00    1.0
2173 283436.000  -2595054.4205  -4259026.8419   3962484.4519   2   8   0.0464   0.0707   0.0460   0.0442  -0.0443  -0.0344   0.00    1.0
2173 283437.000  -2595054.4254  -4259026.8453   3962484.4586   2   8   0.0463   0.0704   0.0457   0.0440  -0.0441  -0.0342   0.00    1.0
2173 283438.000  -2595054.4298  -4259026.8532   3962484.4655   2   8   0.0461   0.0701   0.0454   0.0438  -0.0438  -0.0340   0.00    1.0
2173 283439.000  -2595054.4322  -4259026.8586   3962484.4765   2   8   0.0459   0.0698   0.0451   0.0436  -0.0436  -0.0338   0.00    1.0
2173 283440.000  -2595054.4349  -4259026.8636   3962484.4840   2   8   0.0457   0.0695   0.0447   0.0435  -0.0434  -0.0336   0.00    1.0
2173 283441.000  -2595054.4379  -4259026.8631   3962484.4867   2   8   0.0456   0.0692   0.0445   0.0433  -0.0431  -0.0333   0.00    1.0
2173 283442.000  -2595054.4455  -4259026.8690   3962484.5011   2   8   0.0454   0.0689   0.0442   0.0431  -0.0429  -0.0331   0.00    1.0
2173 283443.000  -2595054.4486  -4259026.8693   3962484.5041   2   8   0.0452   0.0686   0.0438   0.0429  -0.0427  -0.0330   0.00    1.0
2173 283444.000  -2595054.4544  -4259026.8750   3962484.5124   2   8   0.0451   0.0683   0.0435   0.0427  -0.0425  -0.0328   0.00    1.0
2173 283445.000  -2595054.4601  -4259026.8810   3962484.5235   2   8   0.0449   0.0681   0.0433   0.0425  -0.0422  -0.0326   0.00    1.0
2173 283446.000  -2595054.4678  -4259026.8895   3962484.5356   2   8   0.0447   0.0678   0.0430   0.0424  -0.0420  -0.0324   0.00    1.0
2173 283447.000  -2595054.4746  -4259026.8935   3962484.5445   2   8   0.0446   0.0675   0.0428   0.0422  -0.0418  -0.0322   0.00    1.0
2173 283448.000  -2595054.4728  -4259026.8960   3962484.5477   2   8   0.0444   0.0673   0.0425   0.0420  -0.0416  -0.0320   0.00    1.0
2173 283449.000  -2595054.4784  -4259026.9000   3962484.5563   2   8   0.0442   0.0670   0.0422   0.0418  -0.0414  -0.0319   0.00    1.0
2173 283450.000  -2595054.4783  -4259026.9011   3962484.5603   2   8   0.0441   0.0667   0.0419   0.0416  -0.0412  -0.0317   0.00    1.0
2173 283451.000  -2595054.4842  -4259026.9045   3962484.5681   2   8   0.0439   0.0665   0.0417   0.0416  -0.0410  -0.0315   0.00    1.0
2173 283452.000  -2595054.4859  -4259026.9064   3962484.5664   2   8   0.0438   0.0662   0.0415   0.0413  -0.0408  -0.0313   0.00    1.0
2173 283453.000  -2595054.4875  -4259026.9106   3962484.5671   2   8   0.0436   0.0660   0.0411   0.0412  -0.0406  -0.0312   0.00    1.0
2173 283454.000  -2595054.4937  -4259026.9142   3962484.5725   2   8   0.0434   0.0657   0.0409   0.0410  -0.0404  -0.0309   0.00    1.0
2173 283455.000  -2595054.4797  -4259026.8949   3962484.5616   2   8   0.0433   0.0655   0.0406   0.0409  -0.0402  -0.0308   0.00    1.0
2173 283456.000  -2595054.4795  -4259026.8941   3962484.5594   2   8   0.0431   0.0652   0.0404   0.0407  -0.0400  -0.0306   0.00    1.1
2173 283457.000  -2595054.4780  -4259026.8907   3962484.5539   2   8   0.0430   0.0650   0.0402   0.0406  -0.0398  -0.0304   0.00    1.1
2173 283458.000  -2595054.4783  -4259026.8912   3962484.5505   2   8   0.0429   0.0648   0.0400   0.0404  -0.0396  -0.0303   0.00    1.1
2173 283459.000  -2595054.4787  -4259026.8887   3962484.5469   2   8   0.0427   0.0645   0.0396   0.0402  -0.0395  -0.0301   0.00    1.1
2173 283460.000  -2595054.4773  -4259026.8887   3962484.5431   2   8   0.0426   0.0643   0.0395   0.0401  -0.0392  -0.0299   0.00    1.1
2173 283461.000  -2595054.4781  -4259026.8846   3962484.5356   2   8   0.0424   0.0640   0.0391   0.0399  -0.0391  -0.0298   0.00    1.1
2173 283462.000  -2595054.4765  -4259026.8823   3962484.5339   2   8   0.0423   0.0638   0.0390   0.0398  -0.0389  -0.0296   0.00    1.1
2173 283463.000  -2595054.4747  -4259026.8790   3962484.5307   2   8   0.0422   0.0636   0.0388   0.0397  -0.0387  -0.0294   0.00    1.1
2173 283464.000  -2595054.4696  -4259026.8753   3962484.5222   2   8   0.0420   0.0634   0.0385   0.0395  -0.0385  -0.0293   0.00    1.1
2173 283465.000  -2595054.4624  -4259026.8682   3962484.5090   2   8   0.0419   0.0631   0.0382   0.0394  -0.0384  -0.0292   0.00    1.1
2173 283466.000  -2595054.4578  -4259026.8620   3962484.5043   2   8   0.0418   0.0629   0.0381   0.0392  -0.0382  -0.0290   0.00    1.0
2173 283467.000  -2595054.4520  -4259026.8552   3962484.4948   2   8   0.0416   0.0627   0.0378   0.0391  -0.0380  -0.0288   0.00    1.0
2173 283468.000  -2595054.4471  -4259026.8529   3962484.4915   2   8   0.0415   0.0625   0.0376   0.0390  -0.0378  -0.0287   0.00    1.0
2173 283469.000  -2595054.4438  -4259026.8490   3962484.4883   2   8   0.0413   0.0623   0.0374   0.0388  -0.0377  -0.0285   0.00    1.0
2173 283470.000  -2595054.4411  -4259026.8412   3962484.4861   2   8   0.0413   0.0621   0.0372   0.0386  -0.0375  -0.0284   0.00    1.0
2173 283471.000  -2595054.4391  -4259026.8405   3962484.4871   2   8   0.0411   0.0618   0.0370   0.0385  -0.0374  -0.0283   0.00    1.0
2173 283472.000  -2595054.4329  -4259026.8366   3962484.4810   2   8   0.0410   0.0616   0.0368   0.0384  -0.0372  -0.0281   0.00    1.0
2173 283473.000  -2595054.4291  -4259026.8381   3962484.4823   2   8   0.0408   0.0615   0.0366   0.0382  -0.0370  -0.0280   0.00    1.0
2173 283474.000  -2595054.4252  -4259026.8323   3962484.4762   2   8   0.0407   0.0612   0.0363   0.0382  -0.0369  -0.0278   0.00    1.0
2173 283475.000  -2595054.4212  -4259026.8297   3962484.4757   2   8   0.0406   0.0610   0.0362   0.0380  -0.0368  -0.0277   0.00    1.0
2173 283476.000  -2595054.4206  -4259026.8325   3962484.4827   2   8   0.0405   0.0608   0.0359   0.0379  -0.0366  -0.0276   0.00    1.0
2173 283477.000  -2595054.4174  -4259026.8263   3962484.4783   2   8   0.0403   0.0606   0.0357   0.0377  -0.0365  -0.0275   0.00    1.0
2173 283478.000  -2595054.4197  -4259026.8237   3962484.4841   2   8   0.0403   0.0604   0.0356   0.0376  -0.0362  -0.0273   0.00    1.0
2173 283479.000  -2595054.4244  -4259026.8268   3962484.4884   2   8   0.0401   0.0603   0.0353   0.0375  -0.0361  -0.0272   0.00    1.0
2173 283480.000  -2595054.4247  -4259026.8226   3962484.4878   2   8   0.0400   0.0601   0.0352   0.0374  -0.0360  -0.0271   0.00    1.0
2173 283481.000  -2595054.4242  -4259026.8191   3962484.4864   2   8   0.0399   0.0599   0.0350   0.0372  -0.0359  -0.0269   0.00    1.0
2173 283482.000  -2595054.4263  -4259026.8198   3962484.4877   2   8   0.0397   0.0597   0.0348   0.0371  -0.0357  -0.0268   0.00    1.0
2173 283483.000  -2595054.4249  -4259026.8198   3962484.4834   2   8   0.0397   0.0595   0.0347   0.0370  -0.0355  -0.0267   0.00    1.0
2173 283484.000  -2595054.4252  -4259026.8183   3962484.4836   2   8   0.0395   0.0593   0.0345   0.0369  -0.0353  -0.0265   0.00    1.0
2173 283485.000  -2595054.4270  -4259026.8183   3962484.4831   2   8   0.0394   0.0591   0.0342   0.0368  -0.0353  -0.0264   0.00    1.0
2173 283486.000  -2595054.4225  -4259026.8153   3962484.4796   2   8   0.0393   0.0590   0.0341   0.0366  -0.0351  -0.0263   0.00    1.0
2173 283487.000  -2595054.4165  -4259026.8044   3962484.4727   2   8   0.0392   0.0588   0.0339   0.0365  -0.0350  -0.0262   0.00    1.0
2173 283488.000  -2595054.4132  -4259026.7979   3962484.4653   2   8   0.0391   0.0586   0.0337   0.0364  -0.0348  -0.0261   0.00    1.0
2173 283489.000  -2595054.4131  -4259026.7945   3962484.4620   2   8   0.0389   0.0584   0.0335   0.0363  -0.0347  -0.0259   0.00    1.0
2173 283490.000  -2595054.4111  -4259026.7920   3962484.4566   2   8   0.0388   0.0582   0.0333   0.0362  -0.0346  -0.0258   0.00    1.0
2173 283491.000  -2595054.4105  -4259026.7894   3962484.4509   2   8   0.0387   0.0581   0.0331   0.0361  -0.0344  -0.0257   0.00    1.0
2173 283492.000  -2595054.4062  -4259026.7817   3962484.4426   2   8   0.0387   0.0579   0.0330   0.0360  -0.0343  -0.0256   0.00    1.0
2173 283493.000  -2595054.3994  -4259026.7758   3962484.4345   2   8   0.0385   0.0577   0.0328   0.0359  -0.0342  -0.0255   0.00    1.0
2173 283494.000  -2595054.3917  -4259026.7692   3962484.4259   2   8   0.0384   0.0575   0.0326   0.0357  -0.0341  -0.0254   0.00    1.0
2173 283495.000  -2595054.3887  -4259026.7667   3962484.4208   2   8   0.0383   0.0574   0.0325   0.0357  -0.0339  -0.0253   0.00    1.0
2173 283496.000  -2595054.3853  -4259026.7646   3962484.4166   2   8   0.0382   0.0572   0.0322   0.0355  -0.0338  -0.0252   0.00    1.0
2173 283497.000  -2595054.3827  -4259026.7588   3962484.4109   2   8   0.0381   0.0570   0.0322   0.0354  -0.0337  -0.0250   0.00    1.0
2173 283498.000  -2595054.3806  -4259026.7569   3962484.4058   2   8   0.0380   0.0569   0.0320   0.0353  -0.0336  -0.0249   0.00    1.0
2173 283499.000  -2595054.3778  -4259026.7534   3962484.4016   2   8   0.0379   0.0567   0.0318   0.0352  -0.0334  -0.0248   0.00    1.0
2173 283500.000  -2595054.3764  -4259026.7518   3962484.3947   2   8   0.0378   0.0566   0.0316   0.0351  -0.0334  -0.0248   0.00    1.0
2173 283501.000  -2595054.3751  -4259026.7451   3962484.3851   2   8   0.0377   0.0564   0.0316   0.0350  -0.0332  -0.0246   0.00    1.0
2173 283502.000  -2595054.3716  -4259026.7433   3962484.3782   2   8   0.0376   0.0562   0.0314   0.0349  -0.0331  -0.0245   0.00    1.0
2173 283503.000  -2595054.3695  -4259026.7414   3962484.3754   2   8   0.0375   0.0561   0.0312   0.0348  -0.0330  -0.0244   0.00    1.0
2173 283504.000  -2595054.3669  -4259026.7405   3962484.3675   2   8   0.0374   0.0559   0.0310   0.0347  -0.0328  -0.0243   0.00    1.0
2173 283505.000  -2595054.3584  -4259026.7343   3962484.3603   2   8   0.0373   0.0558   0.0309   0.0346  -0.0327  -0.0242   0.00    1.0
2173 283506.000  -2595054.3572  -4259026.7339   3962484.3614   2   8   0.0372   0.0556   0.0308   0.0345  -0.0326  -0.0241   0.00    1.0
2173 283507.000  -2595054.3608  -4259026.7335   3962484.3645   2   8   0.0371   0.0555   0.0306   0.0344  -0.0325  -0.0239   0.00    1.0
2173 283508.000  -2595054.3532  -4259026.7251   3962484.3536   2   8   0.0371   0.0553   0.0304   0.0343  -0.0324  -0.0240   0.00    1.0
2173 283509.000  -2595054.3536  -4259026.7258   3962484.3564   2   8   0.0369   0.0552   0.0303   0.0342  -0.0323  -0.0238   0.00    1.0
2173 283510.000  -2595054.3532  -4259026.7232   3962484.3524   2   8   0.0368   0.0550   0.0302   0.0341  -0.0322  -0.0237   0.00    1.0
2173 283511.000  -2595054.3541  -4259026.7258   3962484.3538   2   8   0.0368   0.0549   0.0299   0.0340  -0.0321  -0.0237   0.00    1.0
2173 283512.000  -2595054.3511  -4259026.7234   3962484.3493   2   8   0.0367   0.0547   0.0299   0.0339  -0.0320  -0.0235   0.00    1.0
2173 283513.000  -2595054.3499  -4259026.7240   3962484.3482   2   8   0.0366   0.0546   0.0297   0.0338  -0.0319  -0.0235   0.00    1.0
2173 283514.000  -2595054.3482  -4259026.7234   3962484.3470   2   8   0.0365   0.0544   0.0296   0.0338  -0.0317  -0.0234   0.00    1.0
2173 283515.000  -2595054.3520  -4259026.7316   3962484.3549   2   8   0.0363   0.0543   0.0295   0.0336  -0.0316  -0.0233   0.00    1.0
2173 283516.000  -2595054.3519  -4259026.7350   3962484.3535   2   8   0.0363   0.0542   0.0293   0.0336  -0.0315  -0.0232   0.00    1.0
2173 283517.000  -2595054.3537  -4259026.7360   3962484.3468   2   8   0.0362   0.0540   0.0292   0.0334  -0.0314  -0.0230   0.00    1.0
2173 283518.000  -2595054.3552  -4259026.7404   3962484.3484   2   8   0.0361   0.0539   0.0291   0.0333  -0.0314  -0.0229   0.00    1.0
2173 283519.000  -2595054.3527  -4259026.7418   3962484.3451   2   8   0.0360   0.0538   0.0289   0.0333  -0.0312  -0.0229   0.00    1.0
2173 283520.000  -2595054.3452  -4259026.7382   3962484.3376   2   8   0.0359   0.0536   0.0288   0.0332  -0.0311  -0.0228   0.00    1.0
2173 283521.000  -2595054.3405  -4259026.7347   3962484.3308   2   8   0.0359   0.0535   0.0287   0.0331  -0.0310  -0.0227   0.00    1.0
2173 283522.000  -2595054.3342  -4259026.7293   3962484.3274   2   8   0.0358   0.0533   0.0285   0.0330  -0.0310  -0.0226   0.00    1.0
2173 283523.000  -2595054.3317  -4259026.7262   3962484.3231   2   8   0.0357   0.0532   0.0283   0.0329  -0.0309  -0.0226   0.00    1.0
2173 283524.000  -2595054.3341  -4259026.7256   3962484.3237   2   8   0.0356   0.0531   0.0283   0.0329  -0.0307  -0.0225   0.00    1.0
2173 283525.000  -2595054.3380  -4259026.7268   3962484.3270   2   8   0.0355   0.0529   0.0282   0.0328  -0.0306  -0.0224   0.00    1.0
2173 283526.000  -2595054.3415  -4259026.7262   3962484.3272   2   8   0.0355   0.0528   0.0281   0.0326  -0.0306  -0.0223   0.00    1.0
2173 283527.000  -2595054.3441  -4259026.7248   3962484.3246   2   8   0.0354   0.0527   0.0280   0.0326  -0.0305  -0.0222   0.00    1.0
2173 283528.000  -2595054.3433  -4259026.7257   3962484.3223   2   8   0.0353   0.0526   0.0279   0.0325  -0.0303  -0.0221   0.00    1.0
2173 283529.000  -2595054.3416  -4259026.7256   3962484.3151   2   8   0.0352   0.0524   0.0276   0.0324  -0.0303  -0.0221   0.00    1.0
2173 283530.000  -2595054.3380  -4259026.7221   3962484.3090   2   8   0.0351   0.0523   0.0277   0.0323  -0.0302  -0.0219   0.00    1.0
2173 283531.000  -2595054.3324  -4259026.7188   3962484.3042   2   8   0.0350   0.0522   0.0275   0.0322  -0.0301  -0.0219   0.00    1.0
2173 283532.000  -2595054.3280  -4259026.7155   3962484.3004   2   8   0.0349   0.0520   0.0272   0.0322  -0.0300  -0.0219   0.00    1.0
2173 283533.000  -2595054.3252  -4259026.7138   3962484.2967   2   8   0.0349   0.0519   0.0273   0.0321  -0.0299  -0.0218   0.00    1.0
2173 283534.000  -2595054.3155  -4259026.7047   3962484.2908   2   8   0.0348   0.0518   0.0271   0.0320  -0.0298  -0.0216   0.00    1.0
2173 283535.000  -2595054.3126  -4259026.7029   3962484.2869   2   8   0.0347   0.0517   0.0270   0.0319  -0.0297  -0.0216   0.00    1.0
2173 283536.000  -2595054.3109  -4259026.7024   3962484.2838   2   8   0.0347   0.0516   0.0268   0.0318  -0.0297  -0.0216   0.00    1.0
2173 283537.000  -2595054.3081  -4259026.6947   3962484.2811   2   8   0.0346   0.0514   0.0268   0.0318  -0.0295  -0.0214   0.00    1.0
2173 283538.000  -2595054.3063  -4259026.6954   3962484.2811   2   8   0.0345   0.0513   0.0266   0.0317  -0.0295  -0.0214   0.00    1.0
2173 283539.000  -2595054.3050  -4259026.6951   3962484.2801   2   8   0.0343   0.0512   0.0265   0.0316  -0.0294  -0.0213   0.00    1.0
2173 283540.000  -2595054.3057  -4259026.6922   3962484.2821   2   8   0.0343   0.0511   0.0265   0.0315  -0.0293  -0.0212   0.00    1.0
2173 283541.000  -2595054.3060  -4259026.6936   3962484.2812   2   8   0.0343   0.0509   0.0264   0.0315  -0.0292  -0.0211   0.00    1.0
2173 283542.000  -2595054.3084  -4259026.6938   3962484.2859   2   8   0.0342   0.0508   0.0263   0.0314  -0.0291  -0.0211   0.00    1.0
2173 283543.000  -2595054.3054  -4259026.6897   3962484.2812   2   8   0.0341   0.0507   0.0261   0.0313  -0.0290  -0.0210   0.00    1.0
2173 283544.000  -2595054.3025  -4259026.6862   3962484.2800   2   8   0.0340   0.0506   0.0261   0.0312  -0.0290  -0.0209   0.00    1.0
2173 283545.000  -2595054.3004  -4259026.6843   3962484.2802   2   8   0.0339   0.0505   0.0260   0.0312  -0.0288  -0.0208   0.00    1.0
2173 283546.000  -2595054.2985  -4259026.6796   3962484.2779   2   8   0.0339   0.0504   0.0257   0.0311  -0.0288  -0.0208   0.00    1.0
2173 283547.000  -2595054.2978  -4259026.6787   3962484.2813   2   8   0.0338   0.0502   0.0257   0.0310  -0.0287  -0.0208   0.00    1.0
2173 283548.000  -2595054.2987  -4259026.6776   3962484.2811   2   8   0.0337   0.0501   0.0256   0.0309  -0.0286  -0.0207   0.00    1.0
2173 283549.000  -2595054.2998  -4259026.6758   3962484.2857   2   8   0.0337   0.0500   0.0256   0.0308  -0.0285  -0.0205   0.00    1.0
2173 283550.000  -2595054.3000  -4259026.6757   3962484.2818   2   8   0.0336   0.0499   0.0253   0.0308  -0.0285  -0.0205   0.00    1.0
2173 283551.000  -2595054.3008  -4259026.6753   3962484.2874   2   8   0.0335   0.0498   0.0253   0.0307  -0.0284  -0.0205   0.00    1.0
2173 283552.000  -2595054.2988  -4259026.6724   3962484.2892   2   8   0.0334   0.0497   0.0252   0.0307  -0.0283  -0.0204   0.00    1.1
2173 283553.000  -2595054.3006  -4259026.6752   3962484.2927   2   8   0.0333   0.0496   0.0252   0.0306  -0.0282  -0.0203   0.00    1.1
2173 283554.000  -2595054.2979  -4259026.6701   3962484.2912   2   8   0.0333   0.0495   0.0251   0.0305  -0.0282  -0.0203   0.00    1.1
2173 283555.000  -2595054.3004  -4259026.6720   3962484.2947   2   8   0.0332   0.0493   0.0249   0.0304  -0.0281  -0.0202   0.00    1.1
2173 283556.000  -2595054.3013  -4259026.6728   3962484.2967   2   8   0.0332   0.0493   0.0248   0.0303  -0.0280  -0.0201   0.00    1.1
2173 283557.000  -2595054.3065  -4259026.6765   3962484.2988   2   8   0.0331   0.0492   0.0248   0.0303  -0.0279  -0.0201   0.00    1.1
2173 283558.000  -2595054.3090  -4259026.6793   3962484.3045   2   8   0.0330   0.0491   0.0247   0.0302  -0.0279  -0.0200   0.00    1.1
2173 283559.000  -2595054.3132  -4259026.6812   3962484.3038   2   8   0.0329   0.0489   0.0246   0.0301  -0.0278  -0.0199   0.00    1.1
2173 283560.000  -2595054.3129  -4259026.6790   3962484.3051   2   8   0.0329   0.0488   0.0245   0.0301  -0.0277  -0.0199   0.00    1.1
2173 283561.000  -2595054.3106  -4259026.6776   3962484.3036   2   8   0.0328   0.0487   0.0245   0.0300  -0.0276  -0.0198   0.00    1.1
2173 283562.000  -2595054.3089  -4259026.6757   3962484.3026   2   8   0.0328   0.0486   0.0244   0.0300  -0.0276  -0.0198   0.00    1.1
2173 283563.000  -2595054.3070  -4259026.6761   3962484.3017   2   8   0.0327   0.0485   0.0242   0.0299  -0.0275  -0.0196   0.00    1.1
2173 283564.000  -2595054.3079  -4259026.6730   3962484.3018   2   8   0.0326   0.0484   0.0241   0.0298  -0.0275  -0.0196   0.00    1.1
2173 283565.000  -2595054.3107  -4259026.6746   3962484.3032   2   8   0.0326   0.0483   0.0241   0.0297  -0.0274  -0.0195   0.00    1.1
2173 283566.000  -2595054.3123  -4259026.6767   3962484.3006   2   8   0.0325   0.0482   0.0239   0.0297  -0.0273  -0.0196   0.00    1.1
2173 283567.000  -2595054.3170  -4259026.6813   3962484.3036   2   8   0.0324   0.0481   0.0238   0.0296  -0.0272  -0.0195   0.00    1.1
2173 283568.000  -2595054.3087  -4259026.6697   3962484.2910   2   8   0.0324   0.0480   0.0237   0.0295  -0.0272  -0.0194   0.00    1.1
2173 283569.000  -2595054.3084  -4259026.6720   3962484.2904   2   8   0.0323   0.0479   0.0237   0.0295  -0.0271  -0.0194   0.00    1.1
2173 283570.000  -2595054.3025  -4259026.6688   3962484.2882   2   8   0.0322   0.0478   0.0237   0.0295  -0.0270  -0.0192   0.00    1.1
2173 283571.000  -2595054.2963  -4259026.6625   3962484.2830   2   8   0.0321   0.0477   0.0236   0.0294  -0.0270  -0.0192   0.00    1.1
2173 283572.000  -2595054.2913  -4259026.6607   3962484.2859   2   8   0.0321   0.0476   0.0234   0.0293  -0.0269  -0.0192   0.00    1.1
2173 283573.000  -2595054.2881  -4259026.6575   3962484.2884   2   8   0.0320   0.0475   0.0234   0.0293  -0.0268  -0.0191   0.00    1.1
2173 283574.000  -2595054.2900  -4259026.6562   3962484.2946   2   8   0.0319   0.0474   0.0232   0.0292  -0.0268  -0.0192   0.00    1.1
2173 283575.000  -2595054.2917  -4259026.6577   3962484.2980   2   8   0.0319   0.0473   0.0232   0.0291  -0.0267  -0.0190   0.00    1.1
2173 283576.000  -2595054.2953  -4259026.6568   3962484.3000   2   8   0.0319   0.0473   0.0232   0.0290  -0.0266  -0.0189   0.00    1.1
2173 283577.000  -2595054.2896  -4259026.6506   3962484.2888   2   8   0.0318   0.0471   0.0230   0.0290  -0.0266  -0.0189   0.00    1.1
2173 283578.000  -2595054.2931  -4259026.6514   3962484.2888   2   8   0.0318   0.0471   0.0229   0.0289  -0.0266  -0.0189   0.00    1.1
2173 283579.000  -2595054.2919  -4259026.6489   3962484.2846   2   8   0.0317   0.0470   0.0230   0.0288  -0.0264  -0.0187   0.00    1.1
2173 283580.000  -2595054.2900  -4259026.6416   3962484.2798   2   8   0.0316   0.0469   0.0228   0.0288  -0.0264  -0.0187   0.00    1.1
2173 283581.000  -2595054.2862  -4259026.6385   3962484.2761   2   8   0.0315   0.0468   0.0227   0.0288  -0.0263  -0.0187   0.00    1.1
2173 283582.000  -2595054.2846  -4259026.6352   3962484.2745   2   8   0.0315   0.0467   0.0225   0.0287  -0.0263  -0.0187   0.00    1.1
2173 283583.000  -2595054.2810  -4259026.6286   3962484.2708   2   8   0.0315   0.0466   0.0226   0.0286  -0.0262  -0.0186   0.00    1.1
2173 283584.000  -2595054.2765  -4259026.6261   3962484.2681   2   8   0.0314   0.0465   0.0225   0.0286  -0.0262  -0.0185   0.00    1.1
2173 283585.000  -2595054.2705  -4259026.6205   3962484.2635   2   8   0.0313   0.0464   0.0225   0.0285  -0.0260  -0.0184   0.00    1.1
2173 283586.000  -2595054.2746  -4259026.6203   3962484.2628   2   8   0.0312   0.0463   0.0223   0.0285  -0.0260  -0.0185   0.00    1.1
2173 283587.000  -2595054.2838  -4259026.6250   3962484.2527   2   8   0.0312   0.0462   0.0223   0.0284  -0.0260  -0.0184   0.00    1.1
2173 283588.000  -2595054.2828  -4259026.6242   3962484.2478   2   8   0.0311   0.0461   0.0222   0.0284  -0.0258  -0.0183   0.00    1.1
2173 283589.000  -2595054.2888  -4259026.6276   3962484.2505   2   8   0.0311   0.0461   0.0221   0.0282  -0.0259  -0.0182   0.00    1.1
2173 283590.000  -2595054.2912  -4259026.6303   3962484.2498   2   8   0.0311   0.0460   0.0221   0.0282  -0.0257  -0.0182   0.00    1.1
2173 283591.000  -2595054.2901  -4259026.6293   3962484.2459   2   8   0.0310   0.0459   0.0220   0.0282  -0.0257  -0.0182   0.00    1.1
2173 283592.000  -2595054.2916  -4259026.6322   3962484.2415   2   8   0.0309   0.0458   0.0219   0.0281  -0.0257  -0.0182   0.00    1.1
2173 283593.000  -2595054.2925  -4259026.6357   3962484.2378   2   8   0.0309   0.0457   0.0217   0.0280  -0.0257  -0.0181   0.00    1.1
2173 283594.000  -2595054.2878  -4259026.6374   3962484.2310   2   8   0.0308   0.0456   0.0218   0.0279  -0.0256  -0.0181   0.00    1.1
2173 283595.000  -2595054.2857  -4259026.6387   3962484.2301   2   8   0.0308   0.0455   0.0217   0.0279  -0.0255  -0.0180   0.00    1.1
2173 283596.000  -2595054.2806  -4259026.6338   3962484.2240   2   8   0.0307   0.0454   0.0217   0.0278  -0.0254  -0.0179   0.00    1.1
2173 283597.000  -2595054.2740  -4259026.6323   3962484.2196   2   8   0.0307   0.0454   0.0216   0.0278  -0.0254  -0.0179   0.00    1.1
2173 283598.000  -2595054.2726  -4259026.6362   3962484.2195   2   8   0.0306   0.0453   0.0215   0.0277  -0.0254  -0.0179   0.00    1.1
2173 283599.000  -2595054.2675  -4259026.6339   3962484.2147   2   8   0.0305   0.0452   0.0214   0.0276  -0.0253  -0.0179   0.00    1.1
2173 283600.000  -2595054.2670  -4259026.6367   3962484.2158   2   8   0.0305   0.0451   0.0214   0.0276  -0.0252  -0.0178   0.00    1.1
2173 283601.000  -2595054.2672  -4259026.6393   3962484.2148   2   8   0.0304   0.0450   0.0214   0.0277  -0.0252  -0.0177   0.00    1.1
2173 283602.000  -2595054.2664  -4259026.6399   3962484.2121   2   8   0.0304   0.0449   0.0211   0.0275  -0.0252  -0.0178   0.00    1.1
2173 283603.000  -2595054.2683  -4259026.6455   3962484.2128   2   8   0.0303   0.0448   0.0212   0.0275  -0.0251  -0.0177   0.00    1.0
2173 283604.000  -2595054.2695  -4259026.6493   3962484.2129   2   8   0.0303   0.0448   0.0212   0.0274  -0.0250  -0.0176   0.00    1.0
2173 283605.000  -2595054.2693  -4259026.6481   3962484.2101   2   8   0.0302   0.0447   0.0211   0.0274  -0.0249  -0.0175   0.00    1.0
2173 283606.000  -2595054.2681  -4259026.6466   3962484.2087   2   8   0.0302   0.0446   0.0211   0.0273  -0.0249  -0.0175   0.00    1.0
2173 283607.000  -2595054.2670  -4259026.6481   3962484.2036   2   8   0.0301   0.0445   0.0210   0.0273  -0.0248  -0.0175   0.00    1.0
2173 283608.000  -2595054.2662  -4259026.6500   3962484.2050   2   8   0.0300   0.0444   0.0209   0.0272  -0.0248  -0.0174   0.00    1.0
2173 283609.000  -2595054.2623  -4259026.6503   3962484.2016   2   8   0.0300   0.0444   0.0208   0.0272  -0.0247  -0.0173   0.00    1.0
2173 283610.000  -2595054.2609  -4259026.6501   3962484.2007   2   8   0.0299   0.0443   0.0208   0.0271  -0.0247  -0.0173   0.00    1.0
2173 283611.000  -2595054.2611  -4259026.6525   3962484.1976   2   8   0.0299   0.0442   0.0207   0.0270  -0.0246  -0.0173   0.00    1.0
2173 283612.000  -2595054.2625  -4259026.6574   3962484.1964   2   8   0.0299   0.0442   0.0205   0.0269  -0.0246  -0.0174   0.00    1.0
2173 283613.000  -2595054.2758  -4259026.6734   3962484.2036   2   7   0.0302   0.0443   0.0208   0.0274  -0.0247  -0.0175   0.00    1.0
2173 283614.000  -2595054.2784  -4259026.6784   3962484.2055   2   7   0.0302   0.0442   0.0207   0.0273  -0.0248  -0.0175   0.00    1.0
2173 283615.000  -2595054.2784  -4259026.6779   3962484.2035   2   7   0.0301   0.0442   0.0207   0.0273  -0.0247  -0.0175   0.00    1.0
2173 283616.000  -2595054.2713  -4259026.6741   3962484.1975   2   7   0.0301   0.0441   0.0206   0.0273  -0.0247  -0.0174   0.00    1.0
2173 283617.000  -2595054.2613  -4259026.6701   3962484.1898   2   7   0.0300   0.0440   0.0205   0.0272  -0.0246  -0.0175   0.00    1.0
2173 283618.000  -2595054.2550  -4259026.6666   3962484.1904   2   7   0.0300   0.0440   0.0205   0.0272  -0.0245  -0.0174   0.00    1.0
2173 283619.000  -2595054.2494  -4259026.6605   3962484.1852   2   7   0.0300   0.0439   0.0204   0.0272  -0.0245  -0.0174   0.00    1.0
2173 283620.000  -2595054.2420  -4259026.6583   3962484.1817   2   7   0.0299   0.0439   0.0204   0.0271  -0.0245  -0.0174   0.00    1.0
2173 283621.000  -2595054.2421  -4259026.6563   3962484.1837   2   7   0.0298   0.0438   0.0203   0.0271  -0.0244  -0.0173   0.00    1.0
2173 283622.000  -2595054.2437  -4259026.6592   3962484.1871   2   7   0.0299   0.0437   0.0204   0.0270  -0.0244  -0.0172   0.00    1.0
2173 283623.000  -2595054.2422  -4259026.6610   3962484.1814   2   7   0.0298   0.0437   0.0203   0.0270  -0.0244  -0.0173   0.00    1.0
2173 283624.000  -2595054.2435  -4259026.6636   3962484.1821   2   7   0.0297   0.0436   0.0202   0.0270  -0.0243  -0.0172   0.00    1.0
2173 283625.000  -2595054.2433  -4259026.6656   3962484.1819   2   7   0.0297   0.0435   0.0201   0.0269  -0.0243  -0.0172   0.00    1.0
2173 283626.000  -2595054.2463  -4259026.6664   3962484.1862   2   7   0.0297   0.0435   0.0200   0.0269  -0.0242  -0.0172   0.00    1.0
2173 283627.000  -2595054.2470  -4259026.6643   3962484.1933   2   7   0.0296   0.0434   0.0200   0.0269  -0.0242  -0.0171   0.00    1.0
2173 283628.000  -2595054.2374  -4259026.6594   3962484.1840   2   7   0.0296   0.0433   0.0199   0.0269  -0.0241  -0.0172   0.00    1.0
2173 283629.000  -2595054.2405  -4259026.6605   3962484.1899   2   7   0.0296   0.0433   0.0200   0.0268  -0.0241  -0.0170   0.00    1.0
2173 283630.000  -2595054.2440  -4259026.6654   3962484.1957   2   7   0.0295   0.0432   0.0198   0.0267  -0.0241  -0.0170   0.00    1.0
2173 283631.000  -2595054.2476  -4259026.6706   3962484.1966   2   7   0.0295   0.0432   0.0198   0.0267  -0.0240  -0.0170   0.00    1.0
2173 283632.000  -2595054.2468  -4259026.6680   3962484.1907   2   7   0.0295   0.0431   0.0198   0.0267  -0.0239  -0.0170   0.00    1.0
2173 283633.000  -2595054.2519  -4259026.6712   3962484.1922   2   7   0.0294   0.0430   0.0197   0.0266  -0.0240  -0.0170   0.00    1.0
2173 283634.000  -2595054.2488  -4259026.6697   3962484.1863   2   7   0.0294   0.0429   0.0197   0.0266  -0.0239  -0.0170   0.00    1.0
2173 283635.000  -2595054.2495  -4259026.6673   3962484.1873   2   7   0.0293   0.0429   0.0196   0.0266  -0.0239  -0.0168   0.00    1.0
2173 283636.000  -2595054.2480  -4259026.6586   3962484.1987   2   7   0.0293   0.0428   0.0194   0.0266  -0.0239  -0.0169   0.00    1.0
2173 283637.000  -2595054.2453  -4259026.6566   3962484.1973   2   7   0.0293   0.0428   0.0195   0.0265  -0.0238  -0.0168   0.00    1.0
2173 283638.000  -2595054.2453  -4259026.6581   3962484.1945   2   7   0.0293   0.0427   0.0194   0.0264  -0.0238  -0.0168   0.00    1.0
2173 283639.000  -2595054.2437  -4259026.6544   3962484.1893   2   7   0.0293   0.0427   0.0195   0.0265  -0.0237  -0.0167   0.00    1.0
2173 283640.000  -2595054.2450  -4259026.6577   3962484.1907   2   7   0.0292   0.0426   0.0194   0.0265  -0.0237  -0.0167   0.00    1.0
2173 283641.000  -2595054.2406  -4259026.6555   3962484.1855   2   7   0.0291   0.0425   0.0193   0.0264  -0.0236  -0.0167   0.00    1.0
2173 283642.000  -2595054.2382  -4259026.6548   3962484.1859   2   7   0.0291   0.0425   0.0193   0.0264  -0.0236  -0.0167   0.00    1.0
2173 283643.000  -2595054.2352  -4259026.6549   3962484.1868   2   7   0.0291   0.0424   0.0193   0.0263  -0.0236  -0.0165   0.00    1.0
2173 283644.000  -2595054.2338  -4259026.6530   3962484.1877   2   7   0.0290   0.0423   0.0192   0.0263  -0.0235  -0.0166   0.00    1.0
2173 283645.000  -2595054.2321  -4259026.6524   3962484.1855   2   7   0.0290   0.0423   0.0192   0.0262  -0.0235  -0.0166   0.00    1.0
2173 283646.000  -2595054.2344  -4259026.6553   3962484.1903   2   7   0.0290   0.0422   0.0192   0.0262  -0.0235  -0.0165   0.00    1.0
2173 283647.000  -2595054.2337  -4259026.6555   3962484.1908   2   7   0.0289   0.0422   0.0191   0.0262  -0.0234  -0.0165   0.00    1.0
2173 283648.000  -2595054.2305  -4259026.6527   3962484.1854   2   7   0.0289   0.0421   0.0189   0.0262  -0.0234  -0.0165   0.00    1.0
2173 283649.000  -2595054.2310  -4259026.6549   3962484.1849   2   7   0.0288   0.0421   0.0190   0.0261  -0.0234  -0.0165   0.00    1.0
2173 283650.000  -2595054.2348  -4259026.6582   3962484.1859   2   7   0.0288   0.0420   0.0189   0.0261  -0.0233  -0.0164   0.00    1.0
2173 283651.000  -2595054.2347  -4259026.6565   3962484.1790   2   7   0.0288   0.0419   0.0188   0.0261  -0.0233  -0.0164   0.00    1.0
2173 283652.000  -2595054.2425  -4259026.6629   3962484.1831   2   7   0.0288   0.0419   0.0188   0.0260  -0.0232  -0.0164   0.00    1.0
2173 283653.000  -2595054.2520  -4259026.6695   3962484.1887   2   7   0.0287   0.0418   0.0188   0.0260  -0.0231  -0.0163   0.00    1.0
2173 283654.000  -2595054.2645  -4259026.6753   3962484.1931   2   7   0.0287   0.0418   0.0188   0.0260  -0.0231  -0.0164   0.00    1.0
2173 283655.000  -2595054.2695  -4259026.6803   3962484.1924   2   7   0.0287   0.0418   0.0188   0.0259  -0.0231  -0.0163   0.00    1.0
2173 283656.000  -2595054.2722  -4259026.6822   3962484.1923   2   7   0.0287   0.0417   0.0186   0.0259  -0.0231  -0.0163   0.00    1.0
2173 283657.000  -2595054.2691  -4259026.6827   3962484.1894   2   7   0.0287   0.0416   0.0186   0.0258  -0.0231  -0.0162   0.00    1.0
2173 283658.000  -2595054.2727  -4259026.6848   3962484.1878   2   7   0.0286   0.0416   0.0186   0.0258  -0.0230  -0.0162   0.00    1.0
2173 283659.000  -2595054.2665  -4259026.6809   3962484.1827   2   7   0.0285   0.0415   0.0185   0.0258  -0.0230  -0.0162   0.00    1.0
2173 283660.000  -2595054.2664  -4259026.6823   3962484.1820   2   7   0.0285   0.0414   0.0185   0.0258  -0.0229  -0.0162   0.00    1.0
2173 283661.000  -2595054.2674  -4259026.6898   3962484.1846   2   7   0.0285   0.0414   0.0184   0.0257  -0.0229  -0.0161   0.00    1.0
2173 283662.000  -2595054.2645  -4259026.6880   3962484.1785   2   7   0.0284   0.0413   0.0184   0.0257  -0.0228  -0.0161   0.00    1.0
2173 283663.000  -2595054.2597  -4259026.6882   3962484.1760   2   7   0.0285   0.0413   0.0183   0.0256  -0.0229  -0.0161   0.00    1.0
2173 283664.000  -2595054.2509  -4259026.6812   3962484.1711   2   7   0.0283   0.0412   0.0184   0.0256  -0.0228  -0.0161   0.00    1.0
2173 283665.000  -2595054.2383  -4259026.6745   3962484.1653   2   7   0.0283   0.0411   0.0183   0.0256  -0.0228  -0.0160   0.00    1.0
2173 283666.000  -2595054.2347  -4259026.6738   3962484.1649   2   7   0.0283   0.0411   0.0182   0.0256  -0.0228  -0.0160   0.00    1.0
2173 283667.000  -2595054.2295  -4259026.6693   3962484.1629   2   7   0.0283   0.0411   0.0183   0.0255  -0.0227  -0.0159   0.00    1.0
2173 283668.000  -2595054.2284  -4259026.6671   3962484.1663   2   7   0.0282   0.0410   0.0181   0.0255  -0.0226  -0.0160   0.00    1.0
2173 283669.000  -2595054.2299  -4259026.6650   3962484.1631   2   7   0.0282   0.0409   0.0181   0.0254  -0.0226  -0.0160   0.00    1.0
2173 283670.000  -2595054.2364  -4259026.6692   3962484.1704   2   7   0.0282   0.0408   0.0181   0.0255  -0.0226  -0.0159   0.00    1.0
2173 283671.000  -2595054.2408  -4259026.6697   3962484.1720   2   7   0.0282   0.0408   0.0181   0.0255  -0.0225  -0.0159   0.00    1.0
2173 283672.000  -2595054.2435  -4259026.6679   3962484.1739   2   7   0.0281   0.0408   0.0180   0.0254  -0.0225  -0.0159   0.00    1.0
2173 283673.000  -2595054.2461  -4259026.6688   3962484.1747   2   7   0.0281   0.0407   0.0180   0.0254  -0.0225  -0.0158   0.00    1.0
2173 283674.000  -2595054.2463  -4259026.6694   3962484.1756   2   7   0.0280   0.0407   0.0179   0.0253  -0.0224  -0.0158   0.00    1.0
2173 283675.000  -2595054.2496  -4259026.6716   3962484.1742   2   7   0.0280   0.0406   0.0179   0.0253  -0.0224  -0.0157   0.00    1.0
2173 283676.000  -2595054.2526  -4259026.6727   3962484.1731   2   7   0.0280   0.0406   0.0179   0.0252  -0.0224  -0.0157   0.00    1.0
2173 283677.000  -2595054.2514  -4259026.6721   3962484.1738   2   7   0.0280   0.0405   0.0178   0.0252  -0.0224  -0.0158   0.00    1.0
2173 283678.000  -2595054.2496  -4259026.6731   3962484.1697   2   7   0.0279   0.0404   0.0177   0.0252  -0.0223  -0.0157   0.00    1.0
2173 283679.000  -2595054.2531  -4259026.6782   3962484.1704   2   7   0.0279   0.0404   0.0177   0.0252  -0.0223  -0.0157   0.00    1.0
2173 283680.000  -2595054.2450  -4259026.6714   3962484.1664   2   7   0.0279   0.0403   0.0177   0.0251  -0.0223  -0.0157   0.00    1.0
2173 283681.000  -2595054.2437  -4259026.6684   3962484.1641   2   7   0.0278   0.0403   0.0177   0.0251  -0.0223  -0.0156   0.00    1.0
2173 283682.000  -2595054.2414  -4259026.6678   3962484.1595   2   7   0.0278   0.0402   0.0177   0.0250  -0.0223  -0.0156   0.00    1.0
2173 283683.000  -2595054.2394  -4259026.6640   3962484.1589   2   7   0.0277   0.0402   0.0177   0.0250  -0.0221  -0.0155   0.00    1.0
2173 283684.000  -2595054.2386  -4259026.6649   3962484.1586   2   7   0.0277   0.0402   0.0176   0.0250  -0.0221  -0.0155   0.00    1.0
2173 283685.000  -2595054.2389  -4259026.6631   3962484.1583   2   7   0.0277   0.0401   0.0176   0.0250  -0.0221  -0.0155   0.00    1.0
2173 283686.000  -2595054.2441  -4259026.6677   3962484.1625   2   7   0.0277   0.0400   0.0175   0.0250  -0.0221  -0.0155   0.00    1.0
2173 283687.000  -2595054.2464  -4259026.6685   3962484.1642   2   7   0.0276   0.0400   0.0175   0.0250  -0.0220  -0.0155   0.00    1.0
2173 283688.000  -2595054.2451  -4259026.6654   3962484.1573   2   7   0.0276   0.0399   0.0174   0.0249  -0.0220  -0.0155   0.00    1.0
2173 283689.000  -2595054.2463  -4259026.6659   3962484.1569   2   7   0.0276   0.0399   0.0174   0.0248  -0.0220  -0.0154   0.00    1.0
2173 283690.000  -2595054.2503  -4259026.6716   3962484.1558   2   7   0.0276   0.0398   0.0173   0.0248  -0.0220  -0.0155   0.00    1.0
2173 283691.000  -2595054.2518  -4259026.6714   3962484.1553   2   7   0.0275   0.0398   0.0173   0.0248  -0.0219  -0.0154   0.00    1.0
2173 283692.000  -2595054.2560  -4259026.6755   3962484.1551   2   7   0.0275   0.0397   0.0174   0.0248  -0.0219  -0.0154   0.00    1.0
2173 283693.000  -2595054.2555  -4259026.6773   3962484.1536   2   7   0.0274   0.0397   0.0172   0.0247  -0.0219  -0.0153   0.00    1.0
2173 283694.000  -2595054.2556  -4259026.6803   3962484.1537   2   7   0.0274   0.0396   0.0172   0.0247  -0.0218  -0.0154   0.00    1.0
2173 283695.000  -2595054.2513  -4259026.6773   3962484.1492   2   7   0.0274   0.0396   0.0172   0.0246  -0.0218  -0.0153   0.00    1.0
2173 283696.000  -2595054.2430  -4259026.6733   3962484.1406   2   7   0.0273   0.0395   0.0172   0.0246  -0.0218  -0.0153   0.00    1.0
2173 283697.000  -2595054.2317  -4259026.6656   3962484.1403   2   7   0.0273   0.0395   0.0171   0.0246  -0.0217  -0.0153   0.00    1.0
2173 283698.000  -2595054.2228  -4259026.6622   3962484.1354   2   7   0.0273   0.0394   0.0172   0.0246  -0.0217  -0.0152   0.00    1.0
2173 283699.000  -2595054.2151  -4259026.6605   3962484.1349   2   7   0.0273   0.0394   0.0170   0.0245  -0.0217  -0.0152   0.00    1.0
2173 283700.000  -2595054.2102  -4259026.6540   3962484.1342   2   7   0.0272   0.0393   0.0170   0.0245  -0.0217  -0.0153   0.00    1.0
2173 283701.000  -2595054.2074  -4259026.6559   3962484.1347   2   7   0.0272   0.0393   0.0169   0.0245  -0.0217  -0.0152   0.00    1.0
2173 283702.000  -2595054.2088  -4259026.6561   3962484.1370   2   7   0.0272   0.0392   0.0170   0.0245  -0.0216  -0.0152   0.00    1.0
2173 283703.000  -2595054.2141  -4259026.6598   3962484.1415   2   7   0.0272   0.0392   0.0169   0.0244  -0.0216  -0.0152   0.00    1.0
2173 283704.000  -2595054.2188  -4259026.6646   3962484.1438   2   7   0.0271   0.0391   0.0169   0.0244  -0.0216  -0.0151   0.00    1.0
2173 283705.000  -2595054.2250  -4259026.6716   3962484.1496   2   7   0.0271   0.0391   0.0169   0.0244  -0.0215  -0.0151   0.00    1.0
2173 283706.000  -2595054.2310  -4259026.6762   3962484.1496   2   7   0.0270   0.0390   0.0168   0.0243  -0.0215  -0.0151   0.00    1.0
