     2.11           OBSERVATION DATA    M (MIXED)           RINEX VERSION / TYPE
CONVBIN 2.4.3                           20210901 191302 UTC PGM / RUN BY / DATE 
log: logs/21_09_01_10_42_44_msme_P1.rtcm                    COMMENT             
format: RTCM 3, station ID: 849                             COMMENT             
0849                                                        MARKER NAME         
                                                            MARKER NUMBER       
                                                            OBSERVER / AGENCY   
                                                            REC # / TYPE / VERS 
                                                            ANT # / TYPE        
   125061.8430 -5391554.9860  3394068.6240                  APPROX POSITION XYZ 
        0.0000        0.0000        0.0000                  ANTENNA: DELTA H/E/N
     1     1                                                WAVELENGTH FACT L1/2
     5    C1    L1    C2    L2    P2                        # / TYPES OF OBSERV 
  2021     9     1    10    42   49.0000000     GPS         TIME OF FIRST OBS   
  2021     9     1    11    12   48.0000000     GPS         TIME OF LAST OBS    
                                                            END OF HEADER       
 21  9  1 10 42 49.0000000  0 25G30G22G 3G24G 1G14G17G19G 6R13R14R15
                                R17R18R23R24E 1E13E15E21E26E27C23C27
                                C28
  22676091.236   119163669.2481   22676096.275    92854821.4861   22676096.436  
  24354025.908   127981274.8421                   99725640.3931   24354026.104  
  23634122.391   124198155.9021   23634127.716    96777818.0521   23634127.234  
  24204422.838   127195103.7671   24204427.448    99113080.4921   24204426.590  
  23099849.290   121390541.9131   23099854.973    94590057.4091   23099855.241  
  20491632.895   107684281.9241   20491635.557    83909853.5731   20491635.111  
  21003549.114   110374414.7701   21003551.562    86006050.2051   21003551.312  
  20879147.192   109720677.6611                   85496643.6801   20879148.139  
  21775540.439   114431242.1441   21775546.407    89167226.4341   21775546.050  
  21897386.466   116930831.997    21897393.363    90946193.083                  
  19124526.626   101944495.468    19124533.434    79290191.759                  
  21203636.695   113305807.225    21203644.629    88126777.405                  
  19874976.200   106355038.495    19874985.903    82720608.519                  
  23417192.703   125002554.329    23417201.351    97224241.170                  
  23121148.290   123682567.160                                                  
  20100142.865   107484494.186    20100151.013    83599103.872                  
  26147046.093   137403664.163                                                  
  23424632.578   123097290.032                                                  
  26905013.648   141386814.959                                                  
  23527774.204   123639308.784                                                  
  23937197.121   125790824.097                                                  
  25179820.718   132320874.455                                                  
                 119653624.454    22978219.783   119653624.454                  
                 124055626.862    23823579.619   124055626.862                  
                 113381447.147    21773708.596   113381447.147                  
 21  9  1 10 42 50.0000000  0 25G30G22G 3G24G 1G14G17G19G 6R13R14R15
                                R17R18R23R24E 1E13E15E21E26E27C23C27
                                C28
  22676721.137   119166978.7871   22676726.087    92857400.3471   22676726.212  
  24354169.271   127982025.8111                   99726225.5511   24354168.967  
  23633964.036   124197324.1741   23633969.987    96777169.9541   23633968.932  
  24203977.953   127192763.6411   24203981.938    99111257.0151   24203981.294  
  23100503.118   121393977.5531   23100508.693    94592734.5291   23100509.015  
  20491707.337   107684672.8611   20491709.821    83910158.1981   20491709.481  
  21003682.238   110375114.5651   21003684.633    86006595.4961   21003684.472  
  20878993.733   109719871.5381                   85496015.5351   20878994.751  
  21775000.008   114428402.4291   21775006.012    89165013.6711   21775005.709  
  21898075.281   116934511.829    21898082.500    90949055.192                  
  19124556.646   101944655.509    19124563.561    79290316.231                  
  21203001.844   113302413.663    21203009.724    88124137.972                  
  19874762.987   106353897.967    19874772.797    82719721.439                  
  23416571.593   124999238.126    23416579.956    97221661.888                  
  23121843.234   123686282.542                                                  
  20100576.189   107486811.435    20100584.230    83600906.191                  
  26146604.818   137401345.488                                                  
  23424820.345   123098276.764                                                  
  26905528.419   141389520.160                                                  
  23527680.178   123638814.708                                                  
  23936859.003   125789047.338                                                  
  25180166.323   132322690.712                                                  
                 119655905.953    22978657.878   119655905.953                  
                 124053634.068    23823196.882   124053634.068                  
                 113381764.518    21773769.458   113381764.518                  
 21  9  1 10 42 51.0000000  0 25G30G22G 3G24G 1G14G17G19G 6R13R14R15
                                R17R18R23R24E 1E13E15E21E26E27C23C27
                                C28
  22677351.127   119170288.8681   22677355.773    92859979.6291   22677356.077  
  24354312.277   127982777.6321                   99726811.3891   24354312.026  
  23633806.038   124196493.2671   23633811.917    96776522.4901   23633810.809  
  24203533.121   127190424.2961   24203536.963    99109434.1421   24203536.123  
  23101156.803   121397413.7661   23101162.646    94595412.1001   23101162.914  
  20491781.905   107685064.5011   20491784.335    83910463.3751   20491784.013  
  21003815.434   110375814.8121   21003818.132    86007141.1431   21003817.739  
  20878840.524   109719066.0151                   85495387.8571   20878841.489  
  21774459.971   114425563.4441   21774465.868    89162801.4751   21774465.492  
  21898764.453   116938192.359    21898772.387    90951917.824                  
  19124586.844   101944816.649    19124593.563    79290441.564                  
  21202367.154   113299020.783    21202374.909    88121499.057                  
  19874550.042   106352758.365    19874559.548    82718835.077                  
  23415950.448   124995922.554    23415958.740    97219083.108                  
  23122538.107   123689998.206                                                  
  20101009.656   107489129.388    20101017.554    83602709.039                  
  26146163.774   137399027.177                                                  
  23425008.220   123099264.150                                                  
  26906043.172   141392225.733                                                  
  23527586.258   123638321.237                                                  
  23936520.957   125787271.231                                                  
  25180511.927   132324507.555                                                  
                 119658188.135    22979096.116   119658188.135                  
                 124051641.817    23822814.289   124051641.817                  
                 113382082.501    21773830.517   113382082.501                  
 21  9  1 10 42 52.0000000  0 25G30G22G 3G24G 1G14G17G19G 6R13R14R15
                                R17R18R23R24E 1E13E15E21E26E27C23C27
                                C28
  22677981.100   119173599.0821   22677985.907    92862559.0141   22677986.014  
  24354455.461   127983529.8861                   99727397.5641   24354455.139  
  23633648.112   124195662.7591   23633654.169    96775875.3411   23633652.829  
  24203087.754   127188085.2851   24203092.275    99107611.5411   24203091.077  
  23101810.720   121400850.1491   23101816.348    94598089.7941   23101816.849  
  20491856.544   107685456.4521   20491858.974    83910768.7931   20491858.634  
  21003948.737   110376515.0891   21003951.417    86007686.8161   21003951.006  
  20878687.315   109718260.6641                   85494760.3131   20878688.244  
  21773919.647   114422724.7461   21773925.598    89160589.5011   21773925.330  
  21899453.840   116941873.227    21899461.899    90954780.704                  
  19124617.186   101944978.488    19124623.994    79290567.437                  
  21201732.375   113295628.152    21201740.094    88118860.350                  
  19874337.061   106351619.241    19874346.800    82717949.090                  
  23415329.446   124992607.221    23415337.541    97216504.520                  
  23123232.926   123693713.711                                                  
  20101443.212   107491447.646    20101450.985    83604512.122                  
  26145722.481   137396708.840                                                  
  23425196.220   123100251.774                                                  
  26906558.032   141394931.271                                                  
  23527492.410   123637827.962                                                  
  23936183.000   125785495.350                                                  
  25180857.693   132326324.565                                                  
                 119660470.593    22979534.353   119660470.593                  
                 124049649.711    23822431.748   124049649.711                  
                 113382400.657    21773891.629   113382400.657                  
 21  9  1 10 42 53.0000000  0 25G30G22G 3G24G 1G14G17G19G 6R13R14R15
                                R17R18R23R24E 1E13E15E21E26E27C23C27
                                C28
  22678611.001   119176909.3391   22678616.111    92865138.4351   22678616.004  
  24354598.967   127984282.4791                   99727983.9811   24354598.342  
  23633490.203   124194832.6191   23633495.725    96775228.4831   23633494.849  
  24202642.619   127185746.5441   24202647.032    99105789.1431   24202646.085  
  23102464.636   121404286.5961   23102470.712    94600767.5451   23102470.783  
  20491931.057   107685848.6291   20491933.362    83911074.3821   20491933.273  
  21004082.076   110377215.3341   21004084.524    86008232.4591   21004084.291  
  20878534.034   109717455.4071                   85494132.8431   20878535.035  
  21773379.360   114419886.2981   21773385.506    89158377.7191   21773385.238  
  21900143.102   116945554.282    21900150.929    90957643.770                  
  19124647.599   101945140.949    19124654.389    79290693.798                  
  21201097.721   113292235.685    21201105.494    88116221.760                  
  19874124.491   106350480.508    19874134.015    82717063.416                  
  23414708.390   124989292.007    23414716.646    97213926.011                  
  23123927.620   123697428.971                                                  
  20101876.857   107493766.107    20101884.201    83606315.365                  
  26145281.277   137394390.361                                                  
  23425384.220   123101239.559                                                  
  26907072.946   141397636.642                                                  
  23527398.508   123637334.795                                                  
  23935845.133   125783719.615                                                  
  25181203.459   132328141.637                                                  
                 119662753.238    22979972.734   119662753.238                  
                 124047657.678    23822049.244   124047657.678                  
                 113382718.925    21773952.812   113382718.925                  
 21  9  1 10 42 54.0000000  0 25G30G22G 3G24G 1G14G17G19G 6R13R14R15
                                R17R18R23R24E 1E13E15E21E26E27C23C27
                                C28
  22679241.027   119180219.8721   22679246.227    92867718.0741   22679245.976  
  24354742.366   127985035.6611                   99728570.8901   24354741.634  
  23633332.545   124194003.0591   23633336.655    96774582.0681   23633337.012  
  24202197.698   127183408.2731   24202202.076    99103967.1231   24202201.111  
  23103118.607   121407723.3581   23103124.950    94603445.5391   23103124.790  
  20492005.714   107686241.2621   20492008.055    83911380.3311   20492007.983  
  21004215.289   110377915.7601   21004217.469    86008778.2501   21004217.594  
  20878380.915   109716650.4821                   85493505.6311   20878381.880  
  21772839.340   114417048.2881   21772845.433    89156166.2861   21772845.201  
  21900832.453   116949235.802    21900840.190    90960507.156                  
  19124678.155   101945304.261    19124685.017    79290820.816                  
  21200462.942   113288843.608    21200470.751    88113583.481                  
  19873911.760   106349342.433    19873921.606    82716178.248                  
  23414087.210   124985977.145    23414095.644    97211347.804                  
  23124622.207   123701144.235                                                  
  20102310.628   107496084.993    20102317.990    83608118.947                  
  26144840.287   137392072.009                                                  
  23425572.256   123102227.738                                                  
  26907587.770   141400342.112                                                  
  23527304.696   123636841.969                                                  
  23935507.247   125781944.245                                                  
  25181549.349   132329959.029                                                  
                 119665036.307    22980411.276   119665036.307                  
                 124045665.924    23821666.793   124045665.924                  
                 113383037.526    21774014.031   113383037.526                  
 21  9  1 10 42 55.0000000  0 25G30G22G 3G24G 1G14G17G19G 6R13R14R15
                                R17R18R23R24E 1E13E15E21E26E27C23C27
                                C28
  22679870.803   119183530.3171   22679876.324    92870297.6351   22679875.949  
  24354885.783   127985789.0511                   99729157.9361   24354884.961  
  23633174.493   124193173.6721   23633178.532    96773935.7861   23633179.157  
  24201752.491   127181070.1251   24201757.101    99102145.1961   24201756.226  
  23103772.595   121411160.0311   23103779.153    94606123.4661   23103778.778  
  20492080.460   107686633.9761   20492082.998    83911686.3381   20492082.712  
  21004348.592   110378616.0081   21004350.826    86009323.8971   21004350.861  
  20878227.741   109715845.5131                   85492878.3801   20878228.706  
  21772299.338   114414210.3851   21772305.378    89153954.9341   21772305.145  
  21901522.037   116952917.406    21901529.470    90963370.642                  
  19124708.836   101945468.035    19124715.805    79290948.189                  
  21199828.180   113285451.583    21199836.025    88110945.239                  
  19873699.208   106348204.603    19873708.536    82715293.272                  
  23413465.725   124982662.249    23413474.606    97208769.568                  
  23125316.436   123704859.107                                                  
  20102744.363   107498403.911    20102751.796    83609922.559                  
  26144399.030   137389753.384                                                  
  23425760.345   123103215.928                                                  
  26908102.577   141403047.313                                                  
  23527210.830   123636349.111                                                  
  23935169.416   125780168.903                                                  
  25181895.222   132331776.365                                                  
                 119667319.431    22980849.782   119667319.431                  
                 124043674.107    23821284.432   124043674.107                  
                 113383356.090    21774075.251   113383356.090                  
 21  9  1 10 42 56.0000000  0 25G30G22G 3G24G 1G14G17G19G 6R13R14R15
                                R17R18R23R24E 1E13E15E21E26E27C23C27
                                C28
  22680500.829   119186841.4961   22680505.957    92872877.7741   22680506.011  
  24355029.378   127986543.4831                   99729745.7981   24355028.503  
  23633016.638   124192345.3511   23633021.749    96773290.3411   23633021.588  
  24201307.517   127178732.9431   24201311.895    99100324.0221   24201311.484  
  23104426.619   121414597.4911   23104433.445    94608802.0091   23104432.909  
  20492155.439   107687027.6031   20492158.012    83911993.0601   20492157.637  
  21004482.092   110379316.9041   21004484.021    86009870.0501   21004484.236  
  20878074.711   109715041.3281                   85492251.7391   20878075.694  
  21771759.479   114411373.3961   21771765.376    89151744.2951   21771765.322  
  21902211.727   116956599.922    21902218.768    90966234.828                  
  19124739.821   101945633.107    19124746.879    79291076.580                  
  21199193.634   113282060.470    21199201.264    88108307.693                  
  19873486.817   106347067.857    19873496.127    82714409.132                  
  23412843.990   124979348.198    23412854.193    97206191.966                  
  23126010.970   123708574.442                                                  
  20103178.365   107500723.689    20103185.799    83611726.842                  
  26143958.022   137387435.340                                                  
  23425948.596   123104204.969                                                  
  26908617.312   141405753.068                                                  
  23527117.196   123635857.057                                                  
  23934831.709   125778394.390                                                  
  25182241.113   132333594.465                                                  
                 119669603.436    22981288.520   119669603.436                  
                 124041683.022    23820902.124   124041683.022                  
                 113383675.471    21774136.559   113383675.471                  
 21  9  1 10 42 57.0000000  0 25G30G22G 3G24G 1G14G17G19G 6R13R14R15
                                R17R18R23R24E 1E13E15E21E26E27C23C27
                                C28
  22681130.855   119190152.8161   22681136.108    92875458.0211   22681136.126  
  24355172.795   127987298.3551                   99730333.9961   24355172.116  
  23632859.159   124191517.4491   23632864.519    96772645.2251   23632864.091  
  24200862.685   127176396.0831   24200866.992    99098503.0941   24200866.777  
  23105080.929   121418035.1001   23105087.487    94611480.6611   23105087.059  
  20492230.471   107687421.5501   20492232.901    83912300.0311   20492232.597  
  21004615.484   110380017.8431   21004617.324    86010416.2351   21004617.628  
  20877921.681   109714237.3301                   85491625.2501   20877922.681  
  21771219.745   114408536.7201   21771225.731    89149533.8991   21771225.517  
  21902901.150   116960282.763    21902908.994    90969099.221                  
  19124770.931   101945798.899    19124778.043    79291205.523                  
  21198559.051   113278669.617    21198566.556    88105670.379                  
  19873274.480   106345931.620    19873283.789    82713525.396                  
  23412222.917   124976034.307    23412233.334    97203614.518                  
  23126705.610   123712289.630                                                  
  20103612.368   107503043.741    20103619.712    83613531.316                  
  26143516.907   137385117.249                                                  
  23426136.846   123105194.260                                                  
  26909132.279   141408458.782                                                  
  23527023.634   123635365.208                                                  
  23934494.163   125776620.108                                                  
  25182587.057   132335412.731                                                  
                 119671887.720    22981727.276   119671887.720                  
                 124039692.117    23820519.835   124039692.117                  
                 113383995.032    21774197.939   113383995.032                  
 21  9  1 10 42 58.0000000  0 25G30G22G 3G24G 1G14G17G19G 6R13R14R15
                                R17R18R23R24E 1E13E15E21E26E27C23C27
                                C28
  22681761.024   119193464.4171   22681766.420    92878038.4921   22681766.277  
  24355316.498   127988053.8321                   99730922.6931   24355315.908  
  23632701.804   124190690.1221   23632708.058    96772000.5521   23632706.700  
  24200418.193   127174059.7541   24200422.303    99096682.5901   24200422.196  
  23105735.186   121421473.0441   23105741.511    94614159.5741   23105741.279  
  20492305.467   107687815.9661   20492307.790    83912607.3711   20492307.647  
  21004749.001   110380718.9951   21004750.591    86010962.5841   21004751.056  
  20877768.668   109713433.6811                   85490999.0281   20877769.723  
  21770679.922   114405700.5231   21770686.087    89147323.8751   21770685.819  
  21903590.251   116963966.078    21903598.631    90971964.047                  
  19124802.094   101945965.569    19124809.188    79291335.162                  
  21197924.451   113275279.170    21197932.188    88103033.362                  
  19873062.303   106344796.064    19873071.380    82712642.197                  
  23411602.987   124972720.852    23411612.779    97201037.386                  
  23127400.125   123716004.822                                                  
  20104046.407   107505364.224    20104053.519    83615336.143                  
  26143075.793   137382799.296                                                  
  23426325.149   123106183.961                                                  
  26909647.086   141411164.596                                                  
  23526930.125   123634873.712                                                  
  23934156.635   125774846.228                                                  
  25182933.252   132337231.329                                                  
                 119674172.446    22982166.103   119674172.446                  
                 124037701.497    23820137.705   124037701.497                  
                 113384314.951    21774259.373   113384314.951                  
 21  9  1 10 42 59.0000000  0 25G30G22G 3G24G 1G14G17G19G 6R13R14R15
                                R17R18R23R24E 1E13E15E21E26E27C23C27
                                C28
  22682391.175   119196776.1181   22682396.678    92880619.0361   22682396.482  
  24355459.933   127988809.7191                   99731511.7171   24355459.807  
  23632544.324   124189863.1861   23632550.847    96771356.1861   23632549.381  
  24199973.791   127171723.7041   24199977.990    99094862.2851   24199977.668  
  23106389.460   121424911.0941   23106395.553    94616838.5711   23106395.553  
  20492380.553   107688210.6461   20492382.947    83912914.9161   20492382.733  
  21004882.447   110381420.1431   21004884.073    86011508.9331   21004884.502  
  20877615.781   109712630.1621                   85490372.9111   20877616.764  
  21770140.367   114402864.5811   21770146.335    89145114.0521   21770146.174  
  21904279.959   116967649.641    21904287.768    90974829.043                  
  19124833.419   101946132.912    19124840.674    79291465.322                  
  21197289.939   113271888.959    21197297.677    88100396.522                  
  19872850.269   106343660.956    19872859.329    82711759.324                  
  23410981.395   124969407.549    23410992.009    97198460.368                  
  23128094.551   123719719.831                                                  
  20104480.392   107507684.928    20104487.253    83617141.123                  
  26142634.714   137380481.267                                                  
  23426513.543   123107173.871                                                  
  26910162.053   141413870.319                                                  
  23526836.599   123634382.376                                                  
  23933819.179   125773072.536                                                  
  25183279.410   132339050.050                                                  
                 119676457.400    22982604.931   119676457.400                  
                 124035710.991    23819755.380   124035710.991                  
                 113384635.021    21774320.807   113384635.021                  
 21  9  1 10 43  0.0000000  0 25G30G22G 3G24G 1G14G17G19G 6R13R14R15
                                R17R18R23R24E 1E13E15E21E26E27C23C27
                                C28
  22683021.522   119200088.1101   22683027.240    92883199.8081   22683026.722  
  24355603.760   127989566.1821                   99732101.1681   24355603.760  
  23632387.542   124189036.8341   23632393.313    96770712.2781   23632392.170  
  24199529.460   127169388.1861   24199533.730    99093042.3951   24199533.230  
  23107043.627   121428349.4611   23107049.685    94619517.8201   23107049.846  
  20492455.871   107688605.7841   20492458.247    83913222.8161   20492457.908  
  21005015.857   110382121.4881   21005017.805    86012055.4381   21005017.984  
  20877462.947   109711826.9741                   85489747.0481   20877463.912  
  21769600.812   114400029.1231   21769606.583    89142904.6001   21769606.619  
  21904969.775   116971333.669    21904978.031    90977694.400                  
  19124864.922   101946301.109    19124872.373    79291596.149                  
  21196655.500   113268499.153    21196663.112    88097760.006                  
  19872638.324   106342526.493    19872647.491    82710876.969                  
  23410361.161   124966094.609    23410370.792    97195883.612                  
  23128788.995   123723434.835                                                  
  20104914.609   107510006.094    20104921.256    83618946.465                  
  26142193.581   137378163.358                                                  
  23426701.971   123108164.171                                                  
  26910676.878   141416576.162                                                  
  23526743.162   123633891.387                                                  
  23933481.704   125771299.219                                                  
  25183625.623   132340869.088                                                  
                 119678742.798    22983043.901   119678742.798                  
                 124033720.793    23819373.215   124033720.793                  
                 113384955.429    21774382.294   113384955.429                  
 21  9  1 10 43  1.0000000  0 25G30G22G 3G24G 1G14G17G19G 6R13R14R15
                                R17R18R23R24E 1E13E15E21E26E27C23C27
                                C28
  22683651.888   119203400.7911   22683657.606    92885781.1251   22683657.123  
  24355747.892   127990323.6481                   99732691.4001   24355747.892  
  23632230.652   124188211.4941   23632236.334    96770069.1601   23632235.137  
  24199085.414   127167053.5651   24199089.435    99091223.2081   24199088.935  
  23107698.134   121431788.5461   23107703.691    94622197.6271   23107704.281  
  20492531.224   107689001.8121   20492533.190    83913531.4091   20492533.261  
  21005149.392   110382823.4371   21005151.286    86012602.4121   21005151.555  
  20877310.131   109711024.5291                   85489121.7661   20877311.186  
  21769061.292   114397194.5281   21769067.421    89140695.8271   21769067.243  
  21905660.252   116975018.591    21905668.240    90980560.439                  
  19124896.747   101946470.562    19124904.127    79291727.948                  
  21196021.239   113265110.171    21196029.065    88095124.145                  
  19872426.577   106341393.097    19872435.725    82709995.441                  
  23409741.124   124962782.448    23409750.934    97193307.507                  
  23129483.403   123727150.271                                                  
  20105348.791   107512328.109    20105355.384    83620752.484                  
  26141752.520   137375845.965                                                  
  23426890.579   123109155.278                                                  
  26911191.988   141419282.492                                                  
  23526649.939   123633401.164                                                  
  23933144.409   125769526.718                                                  
  25183971.960   132342688.860                                                  
                 119681029.016    22983482.979   119681029.016                  
                 124031731.290    23818991.211   124031731.290                  
                 113385276.601    21774443.996   113385276.601                  
 21  9  1 10 43  2.0000000  0 25G30G22G 3G24G 1G14G17G19G 6R13R14R15
                                R17R18R23R24E 1E13E15E21E26E27C23C27
                                C28
  22684282.271   119206713.2141   22684288.204    92888362.2361   22684287.435  
  24355892.291   127991081.1611                   99733281.6581   24355892.023  
  23632073.726   124187386.1621   23632079.247    96769426.0401   23632078.122  
  24198641.369   127164718.8831   24198645.211    99089403.9841   24198644.586  
  23108352.748   121435227.4091   23108357.912    94624877.2581   23108358.644  
  20492606.453   107689397.7451   20492608.418    83913839.9261   20492608.615  
  21005282.624   110383525.0381   21005285.000    86013149.1151   21005285.090  
  20877157.387   109710221.8721                   85488496.3221   20877158.441  
  21768521.952   114394359.8571   21768527.777    89138486.9901   21768527.848  
  21906350.872   116978703.404    21906358.252    90983426.418                  
  19124928.643   101946640.292    19124936.041    79291859.956                  
  21195386.924   113261721.043    21195394.876    88092488.150                  
  19872214.846   106340259.776    19872223.942    82709113.974                  
  23409120.550   124959470.146    23409130.468    97190731.282                  
  23130177.776   123730865.161                                                  
  20105783.133   107514649.950    20105789.566    83622558.358                  
  26141311.495   137373528.173                                                  
  23427079.169   123110146.247                                                  
  26911706.830   141421988.391                                                  
  23526556.609   123632910.742                                                  
  23932806.970   125767754.047                                                  
  25184318.154   132344508.397                                                  
                 119683315.129    22983921.895   119683315.129                  
                 124029741.545    23818609.118   124029741.545                  
                 113385597.569    21774505.626   113385597.569                  
 21  9  1 10 43  3.0000000  0 25G30G22G 3G24G 1G14G17G19G 6R13R14R15
                                R17R18R23R24E 1E13E15E21E26E27C23C27
                                C28
  22684912.601   119210025.8451   22684918.158    92890943.5051   22684917.783  
  24356036.602   127991839.1821                   99733872.3421   24356036.244  
  23631916.961   124186561.3301   23631921.875    96768783.3161   23631921.196  
  24198197.395   127162384.6371   24198201.219    99087585.0851   24198200.397  
  23109007.343   121438666.4941   23109012.740    94627557.0671   23109013.079  
  20492681.896   107689794.0721   20492684.004    83914148.7481   20492684.022  
  21005416.177   110384226.7581   21005418.875    86013695.9111   21005418.643  
  20877004.714   109709419.4761                   85487871.0761   20877005.750  
  21767982.521   114391525.5791   21767988.418    89136278.4591   21767988.472  
  21907040.920   116982388.630    21907048.532    90986292.678                  
  19124960.628   101946810.784    19124967.919    79291992.565                  
  21194752.610   113258332.273    21194760.436    88089852.442                  
  19872003.277   106339127.014    19872012.194    82708232.932                  
  23408500.585   124956158.145    23408510.305    97188155.279                  
  23130872.130   123734579.971                                                  
  20106217.457   107516972.096    20106224.140    83624364.476                  
  26140870.469   137371210.393                                                  
  23427267.848   123111137.521                                                  
  26912221.583   141424694.302                                                  
  23526463.386   123632420.592                                                  
  23932469.692   125765981.682                                                  
  25184664.385   132346328.184                                                  
                 119685601.597    22984360.919   119685601.597                  
                 124027752.030    23818226.971   124027752.030                  
                 113385918.797    21774567.239   113385918.797                  
 21  9  1 10 43  4.0000000  0 25G30G22G 3G24G 1G14G17G19G 6R13R14R15
                                R17R18R23R24E 1E13E15E21E26E27C23C27
                                C28
  22685542.859   119213338.8081   22685548.667    92893525.0301   22685548.238  
  24356180.894   127992597.8511                   99734463.4921   24356180.626  
  23631760.017   124185737.1341   23631764.467    96768141.0881   23631764.431  
  24197753.279   127160050.9411   24197757.424    99085766.6181   24197756.334  
  23109661.832   121442105.9581   23109667.497    94630237.1641   23109667.586  
  20492757.375   107690190.9031   20492759.537    83914457.9691   20492759.519  
  21005549.712   110384928.7341   21005552.518    86014242.9071   21005552.232  
  20876852.256   109708617.4621                   85487246.1301   20876853.113  
  21767443.306   114388691.8231   21767449.185    89134070.3381   21767449.185  
  21907731.254   116986074.349    21907738.562    90989159.323                  
  19124992.703   101946982.205    19125000.333    79292125.886                  
  21194118.509   113254943.995    21194126.461    88087217.112                  
  19871791.601   106337994.975    19871800.535    82707352.452                  
  23407880.905   124952846.607    23407889.947    97185579.635                  
  23131566.467   123738294.837                                                  
  20106651.764   107519294.752    20106658.929    83626171.001                  
  26140429.355   137368892.778                                                  
  23427456.580   123112129.259                                                  
  26912736.461   141427400.385                                                  
  23526370.235   123631930.838                                                  
  23932132.522   125764209.768                                                  
  25185010.686   132348148.334                                                  
                 119687888.542    22984800.086   119687888.542                  
                 124025762.888    23817845.003   124025762.888                  
                 113386240.437    21774628.994   113386240.437                  
 21  9  1 10 43  5.0000000  0 25G30G22G 3G24G 1G14G17G19G 6R13R14R15
                                R17R18R23R24E 1E13E15E21E26E27C23C27
                                C28
  22686173.278   119216652.0121   22686178.871    92896106.7471   22686178.693  
  24356325.294   127993357.0551                   99735055.0681   24356325.115  
  23631603.377   124184913.4791   23631607.898    96767499.2851   23631607.737  
  24197309.180   127157717.6821   24197313.701    99083948.4871   24197312.325  
  23110316.643   121445545.6751   23110321.914    94632917.4651   23110322.128  
  20492832.978   107690588.1481   20492835.284    83914767.5081   20492835.123  
  21005683.301   110385630.8451   21005685.552    86014790.0041   21005685.838  
  20876699.654   109707815.7331                   85486621.4081   20876700.530  
  21766904.126   114385858.4701   21766910.041    89131862.5321   21766910.005  
  21908421.338   116989760.473    21908429.111    90992026.375                  
  19125024.885   101947154.444    19125032.766    79292259.852                  
  21193484.481   113251556.096    21193492.379    88084582.089                  
  19871580.210   106336863.524    19871589.323    82706472.456                  
  23407260.743   124949535.351    23407269.391    97183004.233                  
  23132260.821   123742009.631                                                  
  20107086.142   107521617.818    20107093.129    83627977.822                  
  26139988.347   137366575.256                                                  
  23427645.367   123113121.332                                                  
  26913251.482   141430106.504                                                  
  23526277.102   123631441.387                                                  
  23931795.351   125762438.159                                                  
  25185357.095   132349968.740                                                  
                 119690175.859    22985239.343   119690175.859                  
                 124023773.963    23817462.891   124023773.963                  
                 113386562.356    21774690.821   113386562.356                  
 21  9  1 10 43  6.0000000  0 25G30G22G 3G24G 1G14G17G19G 6R13R14R15
                                R17R18R23R24E 1E13E15E21E26E27C23C27
                                C28
  22686803.787   119219965.5851   22686809.576    92898688.7481   22686809.219  
  24356470.193   127994116.9241                   99735647.1741   24356469.729  
  23631446.452   124184090.4691   23631450.919    96766857.9721   23631451.116  
  24196865.474   127155385.0041   24196869.727    99082130.8291   24196868.512  
  23110971.238   121448985.7811   23110976.760    94635598.0651   23110976.760  
  20492908.725   107690985.9301   20492911.120    83915077.4681   20492910.852  
  21005816.997   110386333.2311   21005819.070    86015337.3211   21005819.481  
  20876547.196   109707014.4111                   85485997.0021   20876548.018  
  21766365.125   114383025.6681   21766370.932    89129655.1541   21766370.968  
  21909111.100   116993447.155    21909118.730    90994893.762                  
  19125057.264   101947327.606    19125065.144    79292394.538                  
  21192850.452   113248168.687    21192858.493    88081947.433                  
  19871368.909   106335732.812    19871378.505    82705592.990                  
  23406639.794   124946224.549    23406648.907    97180429.148                  
  23132955.372   123745724.530                                                  
  20107520.520   107523941.391    20107527.561    83629785.032                  
  26139547.411   137364257.905                                                  
  23427834.242   123114113.885                                                  
  26913766.485   141432812.811                                                  
  23526184.004   123630952.364                                                  
  23931458.377   125760667.032                                                  
  25185703.683   132351789.553                                                  
                 119692463.685    22985678.653   119692463.685                  
                 124021785.411    23817081.120   124021785.411                  
                 113386884.700    21774752.755   113386884.700                  
 21  9  1 10 43  7.0000000  0 25G30G22G 3G24G 1G14G17G19G 6R13R14R15
                                R17R18R23R24E 1E13E15E21E26E27C23C27
                                C28
  22687434.367   119223279.1881   22687440.103    92901270.7801   22687439.781  
  24356615.076   127994877.1261                   99736239.5571   24356614.379  
  23631289.740   124183267.7871   23631294.762    96766216.9211   23631294.583  
  24196421.947   127153052.5661   24196425.360    99080313.3501   24196424.699  
  23111625.816   121452425.9551   23111631.195    94638278.7181   23111631.392  
  20492984.490   107691383.9351   20492987.063    83915387.6021   20492986.634  
  21005950.657   110387035.5711   21005952.891    86015884.5981   21005953.105  
  20876394.880   109706213.1721                   85485372.6641   20876395.541  
  21765826.159   114380193.0801   21765831.859    89127447.9471   21765831.949  
  21909801.309   116997134.048    21909809.761    90997761.362                  
  19125089.821   101947501.376    19125097.791    79292529.687                  
  21192216.584   113244781.423    21192224.500    88079312.888                  
  19871157.554   106334602.485    19871167.525    82704713.851                  
  23406018.988   124942913.842    23406027.691    97177854.147                  
  23133649.780   123749439.172                                                  
  20107954.898   107526265.135    20107961.849    83631592.397                  
  26139106.439   137361940.439                                                  
  23428023.136   123115106.589                                                  
  26914281.453   141435518.971                                                  
  23526090.907   123630463.441                                                  
  23931121.492   125758896.045                                                  
  25186050.235   132353610.428                                                  
                 119694751.700    22986118.070   119694751.700                  
                 124019796.926    23816699.259   124019796.926                  
                 113387207.143    21774814.653   113387207.143                  
 21  9  1 10 43  8.0000000  0 25G30G22G 3G24G 1G14G17G19G 6R13R14R15
                                R17R18R23R24E 1E13E15E21E26E27C23C27
                                C28
  22688064.786   119226593.0981   22688070.879    92903853.0491   22688070.450  
  24356759.815   127995637.9491                   99736832.4061   24356759.136  
  23631133.583   124182445.7341   23631137.711    96765576.3631   23631138.211  
  24195978.349   127150720.6741   24195981.547    99078496.2941   24195980.940  
  23112280.555   121455866.4551   23112285.523    94640959.6321   23112286.095  
  20493060.237   107691782.4251   20493062.685    83915698.1161   20493062.506  
  21006084.407   110387738.1341   21006086.766    86016432.0521   21006086.801  
  20876242.439   109705412.2991                   85484748.6001   20876243.118  
  21765287.319   114377361.0051   21765293.001    89125241.1361   21765293.001  
  21910492.036   117000821.434    21910500.416    91000629.345                  
  19125122.611   101947675.993    19125130.188    79292665.510                  
  21191582.699   113241394.587    21191590.722    88076678.693                  
  19870946.628   106333472.834    19870956.385    82703835.227                  
  23405399.273   124939603.525    23405407.421    97175279.463                  
  23134344.010   123753153.853                                                  
  20108389.437   107528589.302    20108396.299    83633400.090                  
  26138665.539   137359623.113                                                  
  23428212.136   123116099.712                                                  
  26914796.456   141438225.263                                                  
  23525997.952   123629974.905                                                  
  23930784.590   125757125.478                                                  
  25186396.822   132355431.658                                                  
                 119697040.171    22986557.487   119697040.171                  
                 124017808.769    23816317.559   124017808.769                  
                 113387529.961    21774876.694   113387529.961                  
 21  9  1 10 43  9.0000000  0 25G30G22G 3G24G 1G14G17G19G 6R13R14R15
                                R17R18R23R24E 1E13E15E21E26E27C23C27
                                C28
  22688695.491   119229907.3441   22688701.888    92906435.5801   22688701.156  
  24356904.679   127996399.4151                   99737425.7501   24356904.035  
  23630977.247   124181624.2971   23630981.053    96764936.2821   23630981.946  
  24195534.697   127148389.3311   24195538.127    99076679.6651   24195537.305  
  23112935.258   121459307.3311   23112940.405    94643640.8311   23112940.869  
  20493136.109   107692181.4271   20493138.646    83916009.0321   20493138.467  
  21006218.264   110388440.9431   21006220.765    86016979.6961   21006220.551  
  20876090.052   109704611.8141                   85484124.8461   20876090.767  
  21764748.514   114374529.4241   21764754.143    89123034.7111   21764754.161  
  21911182.638   117004509.344    21911190.965    91003497.708                  
  19125155.633   101947851.528    19125163.013    79292802.035                  
  21190948.974   113238008.237    21190956.622    88074044.870                  
  19870735.810   106332343.860    19870745.280    82702957.157                  
  23404779.915   124936293.617    23404787.152    97172705.099                  
  23135038.329   123756868.584                                                  
  20108824.065   107530913.942    20108830.730    83635208.134                  
  26138224.603   137357305.964                                                  
  23428401.208   123117093.284                                                  
  26915311.691   141440931.702                                                  
  23525905.033   123629486.763                                                  
  23930447.723   125755355.334                                                  
  25186743.553   132357253.255                                                  
                 119699329.105    22986997.083   119699329.105                  
                 124015820.964    23815935.715   124015820.964                  
                 113387853.177    21774938.789   113387853.177                  
 21  9  1 10 43 10.0000000  0 25G30G22G 3G24G 1G14G17G19G 6R13R14R15
                                R17R18R23R24E 1E13E15E21E26E27C23C27
                                C28
  22689326.357   119233221.6151   22689332.843    92909018.1291   22689331.896  
  24357049.418   127997161.2001                   99738019.3351   24357049.007  
  23630820.679   124180803.1791   23630825.682    96764296.4551   23630825.682  
  24195090.937   127146058.2291   24195094.297    99074863.2151   24195093.743  
  23113589.640   121462748.2451   23113595.233    94646322.0611   23113595.644  
  20493212.070   107692580.6211   20493214.446    83916320.0921   20493214.428  
  21006352.031   110389143.6821   21006354.122    86017527.2821   21006354.265  
  20875937.630   109703811.3961                   85483501.1411   20875938.434  
  21764209.853   114371698.0481   21764215.338    89120828.4441   21764215.392  
  21911872.972   117008197.431    21911880.995    91006366.222                  
  19125188.691   101948027.675    19125195.856    79292939.029                  
  21190315.284   113234622.050    21190323.075    88071411.165                  
  19870524.919   106331215.269    19870534.068    82702079.362                  
  23404160.574   124932983.831    23404166.882    97170130.838                  
  23135733.058   123760583.059                                                  
  20109258.676   107533238.745    20109265.448    83637016.319                  
  26137783.667   137354988.657                                                  
  23428590.298   123118086.985                                                  
  26915826.694   141443637.977                                                  
  23525812.168   123628998.705                                                  
  23930110.963   125753585.313                                                  
  25187090.212   132359074.899                                                  
                 119701618.219    22987436.750   119701618.219                  
                 124013833.194    23815553.997   124013833.194                  
                 113388176.466    21775000.955   113388176.466                  
 21  9  1 10 43 11.0000000  0 25G30G22G 3G24G 1G14G17G19G 6R13R14R15
                                R17R18R23R24E 1E13E15E21E26E27C23C27
                                C28
  22689957.294   119236536.1981   22689963.191    92911600.9251   22689962.709  
  24357194.461   127997923.5941                   99738613.4151   24357194.103  
  23630664.593   124179982.6721   23630669.507    96763657.0981   23630669.560  
  24194647.089   127143727.6311   24194651.109    99073047.1581   24194650.305  
  23114244.147   121466189.5051   23114250.025    94649003.5621   23114250.526  
  20493288.138   107692980.3191   20493290.354    83916631.5401   20493290.515  
  21006485.906   110389846.6521   21006488.122    86018075.0491   21006488.032  
  20875785.296   109703011.3331                   85482877.7181   20875786.172  
  21763671.209   114368867.1741   21763676.784    89118622.5681   21763676.677  
  21912563.931   117011886.027    21912571.937    91009235.100                  
  19125222.017   101948204.722    19125229.039    79293076.737                  
  21189681.774   113231236.297    21189689.815    88068777.796                  
  19870314.261   106330087.378    19870322.767    82701202.104                  
  23403541.002   124929674.489    23403547.631    97167556.901                  
  23136427.502   123764297.569                                                  
  20109693.447   107535563.976    20109700.273    83638824.822                  
  26137342.713   137352671.493                                                  
  23428779.424   123119081.117                                                  
  26916341.662   141446344.377                                                  
  23525719.320   123628511.023                                                  
  23929774.186   125751815.714                                                  
  25187436.978   132360896.893                                                  
                 119703907.790    22987876.471   119703907.790                  
                 124011845.743    23815172.386   124011845.743                  
                 113388500.124    21775063.158   113388500.124                  
 21  9  1 10 43 12.0000000  0 25G30G22G 3G24G 1G14G17G19G 6R13R14R15
                                R17R18R23R24E 1E13E15E21E26E27C23C27
                                C28
  22690587.999   119239850.8451   22690593.968    92914183.7671   22690593.539  
  24357339.611   127998686.3861                   99739207.7941   24357339.271  
  23630508.560   124179162.5441   23630513.617    96763018.0331   23630513.492  
  24194202.972   127141397.3241   24194207.886    99071231.3481   24194206.957  
  23114898.868   121469630.8671   23114904.443    94651685.1361   23114905.425  
  20493364.296   107693380.2731   20493366.476    83916943.1921   20493366.655  
  21006619.530   110390549.6081   21006621.925    86018622.8071   21006621.800  
  20875633.088   109702211.4061                   85482254.4001   20875633.928  
  21763132.654   114366036.5551   21763138.265    89116416.8891   21763137.961  
  21913255.034   117015574.864    21913262.789    91012104.233                  
  19125255.503   101948382.423    19125262.454    79293214.945                  
  21189048.371   113227850.738    21189056.108    88066144.595                  
  19870103.353   106328959.923    19870111.859    82700325.185                  
  23402921.340   124926365.264    23402928.326    97164983.082                  
  23137121.839   123768011.874                                                  
  20110128.182   107537889.400    20110135.527    83640633.481                  
  26136901.652   137350354.259                                                  
  23428968.586   123120075.435                                                  
  26916856.718   141449050.678                                                  
  23525626.544   123628023.482                                                  
  23929437.516   125750046.286                                                  
  25187783.798   132362718.994                                                  
                 119706197.576    22988316.138   119706197.576                  
                 124009858.409    23814790.686   124009858.409                  
                 113388823.922    21775125.378   113388823.922                  
 21  9  1 10 43 13.0000000  0 25G30G22G 3G24G 1G14G17G19G 6R13R14R15
                                R17R18R23R24E 1E13E15E21E26E27C23C27
                                C28
  22691218.847   119243165.9361   22691224.976    92916766.9501   22691224.351  
  24357485.118   127999449.8881                   99739802.7371   24357484.564  
  23630352.903   124178343.1341   23630358.067    96762379.5251   23630357.585  
  24193759.391   127139067.6631   24193764.359    99069416.0301   24193763.716  
  23115553.660   121473072.6821   23115559.753    94654367.0701   23115560.361  
  20493440.472   107693780.8221   20493443.027    83917255.3111   20493442.902  
  21006753.262   110391252.8991   21006755.371    86019170.8251   21006755.621  
  20875480.826   109701411.9471                   85481631.4461   20875481.791  
  21762594.082   114363206.5441   21762599.621    89114211.6881   21762599.407  
  21913946.279   117019264.316    21913953.015    91014973.811                  
  19125289.097   101948561.107    19125295.941    79293353.921                  
  21188415.075   113224465.742    21188422.687    88063511.812                  
  19869892.553   106327833.232    19869901.791    82699448.868                  
  23402301.928   124923056.569    23402308.629    97162409.629                  
  23137816.515   123771726.322                                                  
  20110563.097   107540215.392    20110570.262    83642442.602                  
  26136460.806   137348037.274                                                  
  23429157.872   123121070.286                                                  
  26917371.757   141451757.214                                                  
  23525533.911   123627536.443                                                  
  23929100.899   125748277.380                                                  
  25188130.582   132364541.560                                                  
                 119708487.929    22988755.841   119708487.929                  
                 124007871.500    23814409.040   124007871.500                  
                 113389148.205    21775187.633   113389148.205                  
 21  9  1 10 43 14.0000000  0 25G30G22G 3G24G 1G14G17G19G 6R13R14R15
                                R17R18R23R24E 1E13E15E21E26E27C23C27
                                C28
  22691849.642   119246481.1321   22691855.610    92919350.2221   22691855.181  
  24357630.322   128000213.8221                   99740398.0011   24357629.947  
  23630197.478   124177524.1271   23630202.232    96761741.3461   23630201.785  
  24193316.007   127136738.3391   24193321.296    99067600.9771   24193320.510  
  23116208.738   121476514.6311   23116214.993    94657049.1081   23116215.332  
  20493516.951   107694181.6741   20493519.506    83917567.6631   20493519.220  
  21006887.173   110391956.2211   21006889.442    86019718.8691   21006889.460  
  20875328.814   109700612.6621                   85481008.6311   20875329.690  
  21762055.599   114360376.8351   21762061.531    89112006.7221   21762060.924  
  21914637.560   117022954.069    21914645.065    91017843.612                  
  19125322.744   101948740.463    19125329.517    79293493.420                  
  21187781.743   113221080.997    21187789.337    88060879.223                  
  19869681.966   106326706.993    19869691.312    82698572.906                  
  23401682.212   124919748.026    23401688.770    97159836.330                  
  23138510.834   123775440.602                                                  
  20110998.207   107542541.704    20111005.623    83644251.960                  
  26136019.798   137345720.240                                                  
  23429347.302   123122065.366                                                  
  26917886.742   141454463.697                                                  
  23525441.261   123627049.577                                                  
  23928764.264   125746508.694                                                  
  25188477.473   132366364.275                                                  
                 119710778.555    22989195.741   119710778.555                  
                 124005884.713    23814027.536   124005884.713                  
                 113389472.660    21775249.996   113389472.660                  
 21  9  1 10 43 15.0000000  0 25G30G22G 3G24G 1G14G17G19G 6R13R14R15
                                R17R18R23R24E 1E13E15E21E26E27C23C27
                                C28
  22692480.454   119249796.8531   22692486.458    92921933.9011   22692486.136  
  24357775.937   128000978.5771                   99740993.8941   24357775.454  
  23630041.786   124176705.9351   23630046.485    96761103.8011   23630046.110  
  24192872.963   127134409.7391   24192878.037    99065786.4771   24192877.412  
  23116863.978   121479957.1271   23116869.749    94659731.5721   23116870.428  
  20493593.395   107694583.2121   20493595.986    83917880.5521   20493595.646  
  21007021.137   110392659.9731   21007023.406    86020267.2471   21007023.424  
  20875176.927   109699813.9411                   85480386.2501   20875177.678  
  21761517.169   114357547.8241   21761523.156    89109802.2961   21761522.584  
  21915328.501   117026644.505    21915337.043    91020713.949                  
  19125356.624   101948920.892    19125363.343    79293633.746                  
  21187148.643   113217696.930    21187156.220    88058247.168                  
  19869471.719   106325581.665    19869481.225    82697697.663                  
  23401062.586   124916440.097    23401069.037    97157263.496                  
  23139205.099   123779155.122                                                  
  20111433.372   107544868.717    20111440.376    83646061.857                  
