     2.11           OBSERVATION DATA    M (MIXED)           RINEX VERSION / TYPE
CONVBIN 2.4.3                           20210831 165432 UTC PGM / RUN BY / DATE 
log: logs/21_08_31_09_18_27_arlr_P1.rtcm                    COMMENT             
format: RTCM 3, station ID: 3583                            COMMENT             
3583                                                        MARKER NAME         
                                                            MARKER NUMBER       
                                                            OBSERVER / AGENCY   
                                                            REC # / TYPE / VERS 
                                                            ANT # / TYPE        
  -194284.8900 -5249181.1730  3605825.9340                  APPROX POSITION XYZ 
        0.0000        0.0000        0.0000                  ANTENNA: DELTA H/E/N
     1     1                                                WAVELENGTH FACT L1/2
     5    C1    L1    C2    L2    P2                        # / TYPES OF OBSERV 
  2021     8    31     9    18   32.0000000     GPS         TIME OF FIRST OBS   
  2021     8    31     9    48   31.0000000     GPS         TIME OF LAST OBS    
                                                            END OF HEADER       
 21  8 31  9 18 32.0000000  0 24G 1G17G19G30G21G 7G14G13R12R13R14R22
                                R23R24E 1E 9E12E24E26E31E33C23C27C28
  21021177.566   110467034.6591   21021183.642    86078234.4281   21021182.534  
  20767843.675   109135753.1211   20767846.158    85040857.8291   20767845.980  
  22395814.628   117690803.9831                   91707118.4871   22395814.021  
  20471752.338   107579781.6591   20471757.324    83828417.1251   20471756.841  
  23090265.312   121340166.0631                   94550783.5001   23090267.581  
  21733429.317   114209941.8611   21733431.157    88994768.3061   21733430.353  
  20814636.034   109381650.3091   20814637.857    85232462.1171   20814637.357  
  23173254.111   121776275.8791                   94890612.6641   23173259.097  
  19730699.618   105397853.986    19730706.998    81976144.043                  
  20358249.484   108711907.997    20358255.577    84553738.550                  
  24619705.061   131236898.977    24619710.225   102073158.082                  
  20480079.035   109324048.152                                                  
  19739869.965   105595000.232                                                  
  22724896.416   121520222.597                                                  
  25841833.103   135799751.262                                                  
  25790029.233   135527514.782                                                  
  23717076.597   124634071.722                                                  
  26218023.711   137776639.143                                                  
  25783823.643   135494904.345                                                  
  23753457.141   124825262.530                                                  
  23874267.926   125460126.039                                                  
                 130809240.922    25120539.984   130809240.922                  
                 113828698.301    21859605.669   113828698.301                  
                 116161299.357    22307555.968   116161299.357                  
 21  8 31  9 18 33.0000000  0 24G 1G17G19G30G21G 7G14G13R12R13R14R22
                                R23R24E 1E 9E12E24E26E31E33C23C27C28
  21021247.381   110467400.8671   21021253.099    86078519.7871   21021252.241  
  20767691.306   109134951.7641   20767693.235    85040233.3951   20767693.468  
  22395311.562   117688160.8461                   91705058.8951   22395311.061  
  20471945.306   107580795.8401   20471949.862    83829207.3911   20471949.862  
  23090713.020   121342519.0771                   94552617.0221   23090715.396  
  21733981.559   114212843.6811   21733983.489    88997029.4671   21733982.560  
  20814454.967   109380699.8061   20814456.987    85231721.4651   20814456.468  
  23173375.120   121776910.4391                   94891107.1521   23173379.820  
  19730844.107   105398625.575    19730851.255    81976744.187                  
  20357784.675   108709424.669    20357790.285    84551807.049                  
  24619024.841   131233275.170    24619030.451   102070339.528                  
  20480619.930   109326932.975                                                  
  19739463.480   105592825.333                                                  
  22724125.689   121516103.408                                                  
  25842109.930   135801205.595                                                  
  25790449.798   135529722.453                                                  
  23716560.539   124631359.910                                                  
  26217651.838   137774685.748                                                  
  25784227.018   135497024.008                                                  
  23753360.720   124824755.784                                                  
  23874215.087   125459848.191                                                  
                 130811959.828    25121062.439   130811959.828                  
                 113827228.029    21859323.213   113827228.029                  
                 116162898.916    22307863.118   116162898.916                  
 21  8 31  9 18 34.0000000  0 24G 1G17G19G30G21G 7G14G13R12R13R14R22
                                R23R24E 1E 9E12E24E26E31E33C23C27C28
  21021317.284   110467767.6001   21021322.752    86078805.5531   21021322.020  
  20767538.865   109134150.5861   20767540.830    85039609.1031   20767540.991  
  22394808.173   117685517.7391                   91702999.3201   22394808.084  
  20472138.148   107581810.4251   20472143.026    83829997.9751   20472142.919  
  23091160.639   121344872.2851                   94554450.6881   23091163.212  
  21734533.712   114215745.6661   21734535.928    88999290.7521   21734534.784  
  20814274.115   109379749.2761   20814276.313    85230980.7901   20814275.545  
  23173496.290   121777545.4721                   94891602.0351   23173500.668  
  19730988.614   105399397.510    19730995.636    81977344.565                  
  20357319.919   108706941.365    20357324.547    84549875.626                  
  24618345.085   131229650.849    24618350.678   102067520.711                  
  20481160.754   109329818.141                                                  
  19739057.067   105590650.941                                                  
  22723354.659   121511984.381                                                  
  25842386.596   135802659.911                                                  
  25790869.899   135531929.994                                                  
  23716044.571   124628648.080                                                  
  26217279.930   137772732.136                                                  
  25784630.232   135499143.778                                                  
  23753264.156   124824248.951                                                  
  23874162.373   125459570.618                                                  
                 130814678.713    25121584.303   130814678.713                  
                 113825757.965    21859040.829   113825757.965                  
                 116164498.635    22308170.483   116164498.635                  
 21  8 31  9 18 35.0000000  0 24G 1G17G19G30G21G 7G14G13R12R13R14R22
                                R23R24E 1E 9E12E24E26E31E33C23C27C28
  21021387.259   110468134.9871   21021392.477    86079091.8281   21021391.888  
  20767386.567   109133349.7521   20767388.497    85038985.0731   20767388.604  
  22394305.125   117682874.9011                   91700939.9681   22394305.214  
  20472331.384   107582825.5101   20472336.012    83830788.9541   20472336.065  
  23091608.508   121347225.8211                   94556284.6141   23091611.063  
  21735086.025   114218647.9851   21735088.491    89001552.2971   21735087.098  
  20814093.334   109378798.8791   20814095.264    85230240.2211   20814094.621  
  23173617.496   121778180.9321                   94892097.1901   23173621.605  
  19731133.138   105400169.956    19731140.232    81977945.353                  
  20356854.377   108704458.342    20356859.542    84547944.367                  
  24617663.989   131226026.372    24617670.923   102064701.660                  
  20481701.614   109332703.784                                                  
  19738650.940   105588477.225                                                  
  22722583.807   121507865.467                                                  
  25842663.298   135804114.288                                                  
  25791290.125   135534137.536                                                  
  23715528.514   124625936.415                                                  
  26216908.165   137770778.392                                                  
  25785033.661   135501263.738                                                  
  23753167.663   124823742.175                                                  
  23874109.624   125459293.421                                                  
                 130817397.692    25122106.025   130817397.692                  
                 113824288.252    21858758.570   113824288.252                  
                 116166098.634    22308477.938   116166098.634                  
 21  8 31  9 18 36.0000000  0 24G 1G17G19G30G21G 7G14G13R12R13R14R22
                                R23R24E 1E 9E12E24E26E31E33C23C27C28
  21021457.556   110468503.9291   21021462.810    86079379.3111   21021462.059  
  20767234.359   109132550.1291   20767236.593    85038361.9961   20767236.432  
  22393802.433   117680233.2461                   91698881.5401   22393802.523  
  20472524.816   107583842.0731   20472529.605    83831581.0881   20472529.533  
  23092056.538   121349580.6281                   94558119.5271   23092059.218  
  21735638.589   114221551.5891   21735640.912    89003814.8411   21735639.661  
  20813912.661   109377849.5201   20813914.483    85229500.4611   20813913.929  
  23173738.987   121778817.8541                   94892593.5181   23173742.811  
  19731277.895   105400943.824    19731284.972    81978547.267                  
  20356389.819   108701976.476    20356395.072    84546014.029                  
  24616984.109   131222402.661    24616990.560   102061883.213                  
  20482242.473   109335590.843                                                  
  19738244.992   105586305.110                                                  
  22721812.795   121503747.748                                                  
  25842940.196   135805569.663                                                  
  25791710.368   135536346.016                                                  
  23715012.582   124623225.851                                                  
  26216536.758   137768825.511                                                  
  25785437.269   135503384.860                                                  
  23753071.385   124823236.397                                                  
  23874057.071   125459017.571                                                  
                 130820117.747    25122628.247   130820117.747                  
                 113822819.810    21858476.507   113822819.810                  
                 116167699.859    22308785.482   116167699.859                  
 21  8 31  9 18 37.0000000  0 24G 1G17G19G30G21G 7G14G13R12R13R14R22
                                R23R24E 1E 9E12E24E26E31E33C23C27C28
  21021527.889   110468873.1881   21021532.910    86079667.0461   21021532.302  
  20767082.222   109131750.4951   20767084.616    85037738.9081   20767084.277  
  22393299.617   117677591.4061                   91696822.9591   22393299.760  
  20472718.302   107584858.7801   20472723.001    83832373.3321   20472723.019  
  23092504.800   121351935.4201                   94559954.4391   23092507.302  
  21736191.117   114224455.1291   21736193.440    89006077.3491   21736192.172  
  20813732.112   109376899.9361   20813733.792    85228760.5251   20813733.166  
  23173860.264   121779454.8231                   94893089.8481   23173864.017  
  19731422.581   105401717.749    19731430.122    81979149.204                  
  20355924.581   108699494.427    20355930.567    84544083.570                  
  24616304.246   131218778.217    24616311.715   102059064.226                  
  20482783.154   109338478.021                                                  
  19737839.115   105584133.288                                                  
  22721041.496   121499629.772                                                  
  25843217.059   135807024.750                                                  
  25792130.344   135538554.133                                                  
  23714496.435   124620515.045                                                  
  26216165.261   137766872.166                                                  
  25785840.805   135505505.814                                                  
  23752975.106   124822730.316                                                  
  23874004.465   125458741.742                                                  
                 130822837.531    25123150.541   130822837.531                  
                 113821351.347    21858194.641   113821351.347                  
                 116169300.971    22309093.133   116169300.971                  
 21  8 31  9 18 38.0000000  0 24G 1G17G19G30G21G 7G14G13R12R13R14R22
                                R23R24E 1E 9E12E24E26E31E33C23C27C28
  21021598.436   110469243.3191   21021603.385    86079955.4641   21021602.778  
  20766930.317   109130951.4241   20766932.837    85037116.2541   20766932.247  
  22392797.122   117674950.1501                   91694764.8401   22392797.158  
  20472911.734   107585876.2771   20472916.469    83833166.1961   20472916.666  
  23092953.116   121354290.7731                   94561789.7761   23092955.511  
  21736743.610   114227359.2361   21736746.040    89008340.2821   21736744.771  
  20813551.492   109375950.6861   20813553.261    85228020.8471   20813552.492  
  23173981.041   121780092.5491                   94893586.7571   23173985.419  
  19731567.356   105402492.378    19731575.182    81979751.684                  
  20355459.539   108697012.850    20355466.062    84542153.480                  
  24615623.776   131215153.910    24615631.567   102056245.293                  
  20483324.103   109341365.938                                                  
  19737433.488   105581962.329                                                  
  22720271.055   121495512.235                                                  
  25843493.814   135808480.154                                                  
  25792549.891   135540762.546                                                  
  23713980.538   124617804.657                                                  
  26215793.406   137764919.055                                                  
  25786244.609   135507627.244                                                  
  23752878.792   124822224.520                                                  
  23873952.001   125458466.544                                                  
                 130825557.737    25123673.317   130825557.737                  
                 113819883.496    21857912.740   113819883.496                  
                 116170902.630    22309401.034   116170902.630                  
 21  8 31  9 18 39.0000000  0 24G 1G17G19G30G21G 7G14G13R12R13R14R22
                                R23R24E 1E 9E12E24E26E31E33C23C27C28
  21021668.947   110469613.9721   21021674.022    86080244.2871   21021673.360  
  20766778.395   109130152.5471   20766780.986    85036493.7431   20766780.236  
  22392294.538   117672308.9301                   91692706.7231   22392294.574  
  20473105.398   107586894.1661   20473110.491    83833959.3551   20473110.384  
  23093401.361   121356646.3161                   94563625.2581   23093403.755  
  21737296.227   114230263.5301   21737298.479    89010603.3681   21737297.406  
  20813370.872   109375001.4361   20813372.802    85227281.1671   20813371.872  
  23174102.371   121780730.6331                   94894083.9291   23174106.857  
  19731712.345   105403267.332    19731720.118    81980354.419                  
  20354994.480   108694531.401    20355001.807    84540223.422                  
  24614944.396   131211529.189    24614951.597   102053426.057                  
  20483865.177   109344254.198                                                  
  19737027.986   105579791.958                                                  
  22719500.865   121491394.688                                                  
  25843770.820   135809935.474                                                  
  25792969.652   135542970.795                                                  
  23713464.803   124615094.292                                                  
  26215421.606   137762965.614                                                  
  25786648.324   135509748.769                                                  
  23752782.443   124821718.635                                                  
  23873899.645   125458191.586                                                  
                 130828277.916    25124195.825   130828277.916                  
                 113818415.882    21857631.017   113818415.882                  
                 116172504.440    22309708.720   116172504.440                  
 21  8 31  9 18 40.0000000  0 24G 1G17G19G30G21G 7G14G13R12R13R14R22
                                R23R24E 1E 9E12E24E26E31E33C23C27C28
  21021739.637   110469985.8991   21021744.461    86080534.0981   21021744.140  
  20766626.222   109129354.6001   20766629.278    85035871.9661   20766628.385  
  22391791.864   117669668.4981                   91690649.2501   22391792.115  
  20473299.277   107587913.1621   20473304.102    83834753.3771   20473304.263  
  23093849.534   121359002.8131                   94565461.4891   23093852.143  
  21737849.184   114233168.7831   21737851.203    89012867.2071   21737850.274  
  20813190.412   109374052.9101   20813192.396    85226542.0611   20813191.395  
  23174224.292   121781369.8621                   94894582.0131   23174228.527  
  19731857.638   105404043.354    19731865.411    81980958.021                  
  20354529.367   108692050.713    20354537.176    84538294.016                  
  24614264.158   131207904.719    24614271.341   102050607.077                  
  20484406.465   109347143.552                                                  
  19736622.556   105577622.857                                                  
  22718730.281   121487278.044                                                  
  25844047.879   135811391.532                                                  
  25793390.092   135545179.698                                                  
  23712949.228   124612384.710                                                  
  26215050.144   137761012.709                                                  
  25787051.985   135511871.120                                                  
  23752686.325   124821213.447                                                  
  23873847.575   125457917.652                                                  
                 130830998.808    25124718.065   130830998.808                  
                 113816949.185    21857349.437   113816949.185                  
                 116174107.122    22310016.550   116174107.122                  
 21  8 31  9 18 41.0000000  0 24G 1G17G19G30G21G 7G14G13R12R13R14R22
                                R23R24E 1E 9E12E24E26E31E33C23C27C28
  21021810.559   110470358.6711   21021815.580    86080824.5671   21021815.044  
  20766474.282   109128557.2021   20766477.624    85035250.6351   20766476.659  
  22391289.727   117667028.5361                   91688592.1561   22391289.638  
  20473493.335   107588932.8951   20473498.106    83835547.9761   20473498.302  
  23094298.225   121361359.8531                   94567298.1391   23094300.691  
  21738401.980   114236074.5831   21738404.071    89015131.4731   21738403.231  
  20813009.917   109373104.7341   20813011.901    85225803.2251   20813010.954  
  23174346.802   121782009.7101                   94895080.5311   23174350.286  
  19732002.877   105404820.151    19732010.847    81981562.200                  
  20354064.648   108689570.501    20354072.456    84536364.970                  
  24613584.134   131204280.320    24613591.425   102047788.105                  
  20484948.004   109350033.571                                                  
  19736217.376   105575454.640                                                  
  22717961.037   121483161.845                                                  
  25844324.831   135812847.814                                                  
  25793810.675   135547388.765                                                  
  23712433.510   124609675.469                                                  
  26214678.540   137759059.916                                                  
  25787455.665   135513993.903                                                  
  23752590.208   124820708.522                                                  
  23873795.540   125457644.341                                                  
                 130833720.079    25125240.377   130833720.079                  
                 113815483.060    21857067.803   113815483.060                  
                 116175710.322    22310324.273   116175710.322                  
 21  8 31  9 18 42.0000000  0 24G 1G17G19G30G21G 7G14G13R12R13R14R22
                                R23R24E 1E 9E12E24E26E31E33C23C27C28
  21021881.356   110470731.5361   21021886.431    86081115.1141   21021885.930  
  20766322.574   109127759.5871   20766325.862    85034629.1191   20766324.897  
  22390787.393   117664388.2671                   91686534.7861   22390787.179  
  20473687.249   107589952.5891   20473691.681    83836342.5441   20473692.360  
  23094746.541   121363716.6761                   94569134.6311   23094749.185  
  21738954.848   114238980.1271   21738957.171    89017395.5241   21738956.098  
  20812829.476   109372156.1331   20812831.084    85225064.0601   20812830.459  
  23174467.954   121782649.6221                   94895579.2211   23174472.099  
  19732148.206   105405596.865    19732156.444    81982166.301                  
  20353600.125   108687089.938    20353607.129    84534435.636                  
  24612904.361   131200655.075    24612911.401   102044968.433                  
  20485489.596   109352923.545                                                  
  19735812.071   105573286.507                                                  
  22717191.436   121479045.188                                                  
  25844601.783   135814303.652                                                  
  25794231.133   135549597.331                                                  
  23711917.828   124606965.820                                                  
  26214306.990   137757106.506                                                  
  25787859.344   135516116.328                                                  
  23752494.054   124820203.092                                                  
  23873743.345   125457370.835                                                  
                 130836440.883    25125762.814   130836440.883                  
                 113814016.752    21856786.294   113814016.752                  
                 116177313.234    22310632.138   116177313.234                  
 21  8 31  9 18 43.0000000  0 24G 1G17G19G30G21G 7G14G13R12R13R14R22
                                R23R24E 1E 9E12E24E26E31E33C23C27C28
  21021952.385   110471105.2591   21021957.817    86081406.3241   21021956.995  
  20766170.848   109126962.4931   20766173.922    85034008.0051   20766173.243  
  22390284.684   117661748.4101                   91684477.7621   22390284.737  
  20473881.450   107590973.0411   20473885.238    83837137.7011   20473886.525  
  23095195.178   121366074.0331                   94570971.5331   23095197.805  
  21739507.858   114241886.2051   21739509.931    89019659.9961   21739509.037  
  20812649.017   109371207.8301   20812650.697    85224325.1181   20812649.982  
  23174589.767   121783290.0531                   94896078.2521   23174593.966  
  19732293.553   105406374.211    19732302.166    81982770.911                  
  20353135.959   108684609.804    20353142.838    84532506.636                  
  24612224.945   131197029.819    24612231.270   102042148.787                  
  20486030.706   109355814.174                                                  
  19735406.873   105571119.275                                                  
  22716422.193   121474928.923                                                  
  25844878.860   135815759.755                                                  
  25794651.860   135551806.128                                                  
  23711402.163   124604256.517                                                  
  26213935.207   137755153.173                                                  
  25788263.255   135518239.205                                                  
  23752397.955   124819697.918                                                  
  23873691.400   125457097.940                                                  
                 130839162.028    25126285.304   130839162.028                  
                 113812550.991    21856504.911   113812550.991                  
                 116178916.644    22310940.003   116178916.644                  
 21  8 31  9 18 44.0000000  0 24G 1G17G19G30G21G 7G14G13R12R13R14R22
                                R23R24E 1E 9E12E24E26E31E33C23C27C28
  21022023.629   110471479.8231   21022028.990    86081698.1881   21022028.257  
  20766019.265   109126165.9111   20766022.321    85033387.2941   20766021.713  
  22389782.546   117659109.0061                   91682421.0821   22389782.439  
  20474075.883   107591994.1941   20474079.653    83837933.3991   20474080.850  
  23095643.959   121368431.9121                   94572808.8411   23095646.496  
  21740060.904   114244792.8081   21740062.745    89021924.8821   21740062.119  
  20812468.486   109370259.8541   20812470.362    85223586.4361   20812469.522  
  23174711.330   121783931.1781                   94896577.8411   23174715.958  
  19732439.025   105407152.208    19732447.870    81983376.019                  
  20352671.918   108682130.028    20352678.565    84530577.944                  
  24611545.886   131193404.461    24611551.032   102039329.055                  
  20486572.388   109358705.487                                                  
  19735001.818   105568952.860                                                  
  22715653.253   121470813.097                                                  
  25845156.062   135817216.125                                                  
  25795072.157   135554015.046                                                  
  23710886.606   124601547.560                                                  
  26213563.424   137753199.972                                                  
  25788667.202   135520362.472                                                  
  23752301.891   124819192.991                                                  
  23873639.687   125456825.638                                                  
                 130841883.496    25126807.883   130841883.496                  
                 113811085.771    21856223.652   113811085.771                  
                 116180520.527    22311247.976   116180520.527                  
 21  8 31  9 18 45.0000000  0 24G 1G17G19G30G21G 7G14G13R12R13R14R22
                                R23R24E 1E 9E12E24E26E31E33C23C27C28
  21022094.926   110471854.6731   21022100.484    86081990.2781   21022099.572  
  20765867.539   109125369.3201   20765870.684    85032766.5691   20765870.148  
  22389279.962   117656469.4841                   91680364.3301   22389280.194  
  20474270.298   107593015.4991   20474274.068    83838729.2221   20474275.158  
  23096092.471   121370789.7621                   94574646.1241   23096095.152  
  21740613.897   114247699.3791   21740616.059    89024189.7311   21740615.201  
  20812288.080   109369311.6281   20812289.760    85222847.5541   20812289.081  
  23174832.875   121784572.5481                   94897077.6291   23174837.986  
  19732584.603   105407930.321    19732593.645    81983981.209                  
  20352207.449   108679650.159    20352214.239    84528649.130                  
  24610864.862   131189778.502    24610870.705   102036508.844                  
  20487113.640   109361596.957                                                  
  19734596.691   105566786.761                                                  
  22714884.099   121466697.014                                                  
  25845433.193   135818672.201                                                  
  25795492.990   135556223.697                                                  
  23710371.031   124598838.448                                                  
  26213191.284   137751246.319                                                  
  25789071.310   135522485.586                                                  
  23752205.720   124818687.770                                                  
  23873587.920   125456553.357                                                  
                 130844604.743    25127330.731   130844604.743                  
                 113809620.548    21855942.269   113809620.548                  
                 116182124.340    22311556.092   116182124.340                  
 21  8 31  9 18 46.0000000  0 24G 1G17G19G30G21G 7G14G13R12R13R14R22
                                R23R24E 1E 9E12E24E26E31E33C23C27C28
  21022166.295   110472230.5291   21022171.942    86082283.1531   21022171.084  
  20765716.189   109124573.3831   20765719.030    85032146.3561   20765718.673  
  22388778.129   117653830.5381                   91678308.0101   22388778.057  
  20474464.820   107594037.6851   20474468.823    83839525.7301   20474469.609  
  23096541.252   121373148.2981                   94576483.9451   23096544.004  
  21741167.176   114250606.6171   21741169.338    89026455.1081   21741168.373  
  20812107.782   109368363.8691   20812109.569    85222109.0441   20812108.747  
  23174955.582   121785214.6581                   94897577.9741   23174960.156  
  19732730.307   105408709.263    19732739.832    81984587.060                  
  20351743.605   108677170.812    20351749.966    84526720.781                  
  24610185.321   131186152.681    24610190.646   102033688.761                  
  20487655.679   109364489.232                                                  
  19734191.529   105564621.692                                                  
  22714115.177   121462581.534                                                  
  25845710.270   135820128.691                                                  
  25795913.627   135558432.665                                                  
  23709855.474   124596129.770                                                  
  26212819.429   137749292.868                                                  
  25789475.597   135524609.279                                                  
  23752109.692   124818182.948                                                  
  23873536.296   125456281.815                                                  
                 130847326.426    25127853.793   130847326.426                  
                 113808156.046    21855661.100   113808156.046                  
                 116183728.764    22311864.261   116183728.764                  
 21  8 31  9 18 47.0000000  0 24G 1G17G19G30G21G 7G14G13R12R13R14R22
                                R23R24E 1E 9E12E24E26E31E33C23C27C28
  21022238.075   110472607.2061   21022243.525    86082576.6731   21022242.721  
  20765564.928   109123778.0041   20765567.322    85031526.5781   20765567.251  
  22388276.259   117651191.9961                   91676251.9971   22388276.027  
  20474659.432   107595060.5921   20474663.667    83840322.7971   20474664.185  
  23096989.907   121375507.3511                   94578322.1661   23096992.981  
  21741720.508   114253514.4031   21741722.491    89028720.9181   21741721.687  
  20811927.555   109367416.4441   20811929.235    85221370.7891   20811928.466  
  23175078.109   121785857.5461                   94898078.8391   23175082.487  
  19732876.440   105409488.909    19732885.929    81985193.449                  
  20351279.653   108674691.919    20351286.354    84524792.728                  
  24609505.047   131182526.796    24609510.050   102030868.656                  
  20488197.361   109367382.214                                                  
  19733786.563   105562457.484                                                  
  22713345.665   121458466.485                                                  
  25845987.686   135821585.480                                                  
  25796333.942   135560641.876                                                  
  23709340.185   124593421.444                                                  
  26212447.521   137747339.538                                                  
  25789879.794   135526733.412                                                  
  23752013.574   124817678.390                                                  
  23873484.816   125456010.862                                                  
                 130850048.446    25128376.998   130850048.446                  
                 113806692.096    21855380.038   113806692.096                  
                 116185333.686    22312172.358   116185333.686                  
 21  8 31  9 18 48.0000000  0 24G 1G17G19G30G21G 7G14G13R12R13R14R22
                                R23R24E 1E 9E12E24E26E31E33C23C27C28
  21022309.837   110472984.2181   21022315.376    86082870.4481   21022314.465  
  20765413.577   109122982.5691   20765415.954    85030906.7511   20765415.846  
  22387774.354   117648553.3551                   91674195.9061   22387773.979  
  20474854.115   107596083.6561   20474858.457    83841119.9891   20474858.796  
  23097439.099   121377866.3751                   94580160.3681   23097441.886  
  21742273.983   114256422.1211   21742276.091    89030986.6701   21742275.019  
  20811747.274   109366468.7901   20811748.954    85220632.3621   20811748.096  
  23175199.637   121786500.5131                   94898579.8631   23175204.819  
  19733022.520   105410268.618    19733031.990    81985799.887                  
  20350814.809   108672212.885    20350822.028    84522864.607                  
  24608822.558   131178900.287    24608829.812   102028048.051                  
  20488738.953   109370275.312                                                  
  19733381.830   105560293.589                                                  
  22712576.154   121454351.241                                                  
  25846264.799   135823041.985                                                  
  25796754.454   135562850.700                                                  
  23708824.896   124590712.987                                                  
  26212076.060   137745385.764                                                  
  25790283.848   135528857.371                                                  
  23751917.582   124817173.539                                                  
  23873433.246   125455739.957                                                  
                 130852770.275    25128899.810   130852770.275                  
                 113805228.123    21855099.047   113805228.123                  
                 116186938.543    22312480.402   116186938.543                  
 21  8 31  9 18 49.0000000  0 24G 1G17G19G30G21G 7G14G13R12R13R14R22
                                R23R24E 1E 9E12E24E26E31E33C23C27C28
  21022381.814   110473362.3371   21022387.549    86083165.0841   21022386.424  
  20765262.423   109122187.9401   20765264.514    85030287.5581   20765264.621  
  22387272.592   117645915.3741                   91672140.3431   22387272.092  
  20475048.887   107597107.7401   20475052.800    83841917.9761   20475053.640  
  23097888.576   121380226.2611                   94581999.2451   23097890.935  
  21742827.583   114259330.6411   21742829.334    89033253.0521   21742828.548  
  20811567.083   109365521.7291   20811568.638    85219894.3971   20811567.887  
  23175321.789   121787144.4131                   94899081.6061   23175327.329  
  19733168.778   105411049.272    19733177.730    81986407.058                  
  20350350.768   108669734.561    20350357.647    84520936.996                  
  24608142.445   131175274.015    24608149.003   102025227.648                  
  20489280.742   109373169.355                                                  
  19732977.150   105558130.827                                                  
  22711806.213   121450236.681                                                  
  25846541.983   135824499.018                                                  
  25797174.572   135565060.008                                                  
  23708309.840   124588005.130                                                  
  26211704.134   137743432.425                                                  
  25790688.135   135530982.038                                                  
  23751821.643   124816669.221                                                  
  23873381.926   125455469.917                                                  
                 130855492.650    25129422.997   130855492.650                  
                 113803764.961    21854818.057   113803764.961                  
                 116188544.127    22312788.661   116188544.127                  
 21  8 31  9 18 50.0000000  0 24G 1G17G19G30G21G 7G14G13R12R13R14R22
                                R23R24E 1E 9E12E24E26E31E33C23C27C28
  21022453.951   110473741.2681   21022459.901    86083460.3551   21022458.543  
  20765111.430   109121393.8141   20765113.199    85029668.7581   20765113.520  
  22386770.848   117643277.8481                   91670085.1531   22386770.222  
  20475243.802   107598132.5141   20475247.858    83842716.5021   20475248.573  
  23098337.607   121382586.5971                   94583838.4701   23098340.091  
  21743381.183   114262239.6981   21743382.934    89035519.8511   21743382.148  
  20811386.946   109364574.9151   20811388.607    85219156.6101   20811387.732  
  23175445.014   121787789.0591                   94899583.9341   23175450.017  
  19733315.161   105411830.586    19733323.845    81987014.737                  
  20349886.120   108667256.601    20349893.285    84519009.696                  
  24607463.708   131171647.675    24607468.515   102022407.131                  
  20489822.924   109376064.032                                                  
  19732572.721   105555968.918                                                  
  22711036.934   121446122.506                                                  
  25846819.257   135825956.309                                                  
  25797595.048   135567269.527                                                  
  23707794.640   124585297.562                                                  
  26211332.280   137741479.072                                                  
  25791092.422   135533107.104                                                  
  23751725.758   124816165.112                                                  
  23873330.624   125455200.441                                                  
                 130858215.339    25129946.256   130858215.339                  
                 113802302.355    21854537.156   113802302.355                  
                 116190150.177    22313097.205   116190150.177                  
 21  8 31  9 18 51.0000000  0 24G 1G17G19G30G21G 7G14G13R12R13R14R22
                                R23R24E 1E 9E12E24E26E31E33C23C27C28
  21022526.159   110474120.8651   21022531.878    86083756.1451   21022530.770  
  20764960.418   109120600.0191   20764962.259    85029050.2151   20764962.456  
  22386268.978   117640640.5561                   91668030.1271   22386268.335  
  20475439.021   107599157.7871   20475443.095    83843515.4091   20475443.596  
  23098786.941   121384947.2901                   94585677.9741   23098789.300  
  21743934.855   114265149.0561   21743936.892    89037786.8861   21743935.731  
  20811206.969   109363628.2681   20811208.684    85218418.9681   20811207.594  
  23175567.917   121788434.0121                   94900086.4911   23175572.742  
  19733461.579   105412612.347    19733469.978    81987622.773                  
  20349422.061   108664778.906    20349429.638    84517082.602                  
  24606784.185   131168021.082    24606789.099   102019586.439                  
  20490364.963   109378959.208                                                  
  19732168.630   105553807.685                                                  
  22710268.387   121442008.498                                                  
  25847096.566   135827413.662                                                  
  25798015.542   135569479.017                                                  
  23707279.404   124582590.181                                                  
  26210960.658   137739525.674                                                  
  25791496.780   135535232.373                                                  
  23751629.783   124815661.068                                                  
  23873279.411   125454931.364                                                  
                 130860938.199    25130469.228   130860938.199                  
                 113800840.104    21854256.309   113800840.104                  
                 116191756.517    22313405.732   116191756.517                  
 21  8 31  9 18 52.0000000  0 24G 1G17G19G30G21G 7G14G13R12R13R14R22
                                R23R24E 1E 9E12E24E26E31E33C23C27C28
  21022598.529   110474501.0671   21022604.122    86084052.4041   21022603.103  
  20764809.568   109119806.4891   20764811.284    85028431.8791   20764811.462  
  22385767.109   117638003.4081                   91665975.1961   22385766.519  
  20475634.258   107600183.5671   20475638.743    83844314.7231   20475638.761  
  23099236.687   121387308.2971                   94587517.7261   23099238.599  
  21744488.509   114268058.6851   21744490.617    89040054.1251   21744489.402  
  20811026.921   109362681.6821   20811028.707    85217681.3641   20811027.457  
  23175690.231   121789079.4971                   94900589.5371   23175695.609  
  19733608.123   105413394.537    19733616.039    81988231.148                  
  20348957.377   108662301.346    20348965.811    84515155.622                  
  24606103.250   131164394.108    24606109.558   102016765.522                  
  20490907.555   109381854.804                                                  
  19731764.523   105551647.080                                                  
  22709498.876   121437894.577                                                  
  25847373.894   135828871.047                                                  
  25798435.875   135571688.501                                                  
  23706764.401   124579882.909                                                  
  26210588.928   137737572.132                                                  
  25791901.138   135537357.826                                                  
  23751533.880   124815157.035                                                  
  23873228.342   125454662.618                                                  
                 130863661.086    25130991.879   130863661.086                  
                 113799378.134    21853975.497   113799378.134                  
                 116193363.087    22313714.205   116193363.087                  
 21  8 31  9 18 53.0000000  0 24G 1G17G19G30G21G 7G14G13R12R13R14R22
                                R23R24E 1E 9E12E24E26E31E33C23C27C28
  21022671.310   110474882.1581   21022676.492    86084349.3551   21022675.580  
  20764658.736   109119013.5601   20764660.773    85027814.0171   20764660.594  
  22385265.204   117635366.8241                   91663920.7071   22385264.757  
  20475829.674   107601210.1281   20475833.498    83845114.6431   20475834.088  
  23099686.182   121389669.8531                   94589357.9051   23099687.987  
  21745042.270   114270968.8891   21745044.825    89042321.8191   21745043.199  
  20810846.872   109361735.4981   20810848.784    85216944.0741   20810847.426  
  23175812.902   121789725.7621                   94901093.0861   23175818.584  
  19733754.739   105414177.512    19733762.726    81988840.119                  
  20348493.533   108659824.325    20348502.628    84513229.023                  
  24605422.011   131160767.310    24605429.766   102013944.644                  
  20491449.773   109384751.160                                                  
  19731360.647   105549487.379                                                  
  22708729.150   121433781.116                                                  
  25847651.364   135830328.772                                                  
  25798856.441   135573898.238                                                  
  23706249.255   124577176.053                                                  
  26210217.324   137735618.776                                                  
  25792305.585   135539483.734                                                  
  23751437.959   124814653.352                                                  
  23873177.361   125454394.545                                                  
                 130866384.359    25131514.477   130866384.359                  
                 113797916.781    21853694.667   113797916.781                  
                 116194970.212    22314022.892   116194970.212                  
 21  8 31  9 18 54.0000000  0 24G 1G17G19G30G21G 7G14G13R12R13R14R22
                                R23R24E 1E 9E12E24E26E31E33C23C27C28
  21022743.840   110475263.3281   21022749.254    86084646.3731   21022748.093  
  20764507.850   109118220.3641   20764509.422    85027195.9421   20764509.672  
  22384763.066   117632729.8201                   91661865.8991   22384762.905  
  20476025.107   107602236.6101   20476029.110    83845914.4961   20476029.414  
  23100135.802   121392031.1421                   94591197.8651   23100137.339  
  21745596.084   114273878.8411   21745598.872    89044589.3161   21745596.942  
  20810666.699   109360788.8041   20810668.557    85216206.3881   20810667.271  
  23175936.001   121790371.9071                   94901596.5111   23175941.523  
  19733901.425   105414960.350    19733909.145    81989448.998                  
  20348029.778   108657346.869    20348038.749    84511302.152                  
  24604742.381   131157139.670    24604748.831   102011123.023                  
  20491992.420   109387647.387                                                  
  19730957.004   105547327.723                                                  
  22707959.298   121429667.347                                                  
  25847928.852   135831785.996                                                  
  25799276.541   135576107.420                                                  
  23705734.056   124574468.725                                                  
  26209845.434   137733664.697                                                  
  25792710.015   135541609.293                                                  
  23751341.949   124814149.096                                                  
  23873126.202   125454126.266                                                  
                 130869107.206    25132036.824   130869107.206                  
                 113796455.207    21853413.766   113796455.207                  
                 116196577.024    22314331.419   116196577.024                  
 21  8 31  9 18 55.0000000  0 24G 1G17G19G30G21G 7G14G13R12R13R14R22
                                R23R24E 1E 9E12E24E26E31E33C23C27C28
  21022816.638   110475646.2621   21022822.321    86084944.7661   21022820.963  
  20764357.071   109117428.6111   20764358.768    85026578.9921   20764359.019  
  22384261.447   117630094.1511                   91659812.1221   22384261.340  
  20476220.702   107603264.7351   20476225.008    83846715.6301   20476225.062  
  23100585.548   121394393.9131                   94593038.9861   23100586.959  
  21746150.060   114276790.2451   21746152.919    89046857.9401   21746150.918  
  20810486.776   109359843.3811   20810488.813    85215469.6961   20810487.365  
  23176059.244   121791019.6221                   94902101.1721   23176064.765  
  19734048.434   105415744.790    19734056.153    81990059.115                  
  20347566.506   108654870.808    20347575.119    84509376.306                  
  24604062.000   131153512.800    24604069.183   102008302.152                  
  20492535.298   109390545.240                                                  
  19730553.914   105545169.865                                                  
  22707189.233   121425554.850                                                  
  25848206.554   135833244.378                                                  
  25799697.107   135578317.705                                                  
  23705219.070   124571762.715                                                  
  26209473.830   137731711.663                                                  
  25793114.927   135543736.190                                                  
  23751246.296   124813646.038                                                  
  23873075.276   125453859.507                                                  
                 130871831.287    25132559.761   130871831.287                  
                 113794995.082    21853133.187   113794995.082                  
                 116198185.242    22314640.160   116198185.242                  
 21  8 31  9 18 56.0000000  0 24G 1G17G19G30G21G 7G14G13R12R13R14R22
                                R23R24E 1E 9E12E24E26E31E33C23C27C28
  21022889.687   110476029.7531   21022895.226    86085243.5881   21022893.922  
  20764206.524   109116637.0971   20764208.401    85025962.2281   20764208.401  
  22383760.185   117627458.6791                   91657758.5231   22383759.846  
  20476416.510   107604293.3241   20476421.085    83847517.1241   20476420.781  
  23101035.204   121396756.9391                   94594880.3121   23101036.616  
  21746704.160   114279701.8751   21746706.751    89049126.7411   21746704.965  
  20810306.835   109358898.0071   20810308.747    85214733.0391   20810307.424  
  23176183.094   121791667.7161                   94902606.2091   23176188.097  
  19734195.371   105416529.584    19734203.144    81990669.509                  
  20347103.162   108652394.861    20347110.828    84507450.546                  
  24603382.244   131149885.615    24603388.463   102005481.022                  
  20493078.392   109393443.479                                                  
  19730151.003   105543012.587                                                  
  22706419.596   121421442.530                                                  
  25848483.953   135834702.779                                                  
  25800117.654   135580527.905                                                  
  23704704.264   124569056.763                                                  
  26209102.226   137729758.439                                                  
  25793519.660   135545863.210                                                  
  23751150.590   124813142.947                                                  
  23873024.528   125453593.050                                                  
                 130874555.407    25133082.680   130874555.407                  
                 113793535.252    21852852.876   113793535.252                  
                 116199793.633    22314948.883   116199793.633                  
 21  8 31  9 18 57.0000000  0 24G 1G17G19G30G21G 7G14G13R12R13R14R22
                                R23R24E 1E 9E12E24E26E31E33C23C27C28
  21022962.789   110476413.5411   21022968.239    86085542.6501   21022966.970  
  20764056.014   109115845.5471   20764057.568    85025345.4421   20764057.765  
  22383258.620   117624823.1481                   91655704.8841   22383258.387  
  20476612.176   107605322.0151   20476617.144    83848318.7041   20476616.483  
  23101484.521   121399119.9011                   94596721.5691   23101486.236  
  21747258.279   114282613.4611   21747260.620    89051395.5071   21747259.065  
  20810126.751   109357952.3551   20810128.609    85213996.1631   20810127.501  
  23176306.944   121792315.9651                   94903111.3501   23176311.465  
  19734342.433   105417314.465    19734350.134    81991279.988                  
  20346639.872   108649918.728    20346647.788    84505524.697                  
  24602702.971   131146257.822    24602707.778   102002659.438                  
  20493621.628   109396341.829                                                  
  19729748.093   105540855.617                                                  
  22705650.353   121417329.938                                                  
  25848761.441   135836160.836                                                  
  25800537.987   135582737.762                                                  
  23704189.386   124566350.597                                                  
  26208730.514   137727804.774                                                  
  25793924.430   135547990.095                                                  
  23751054.919   124812639.540                                                  
  23872973.869   125453326.640                                                  
                 130877279.239    25133605.778   130877279.239                  
                 113792075.379    21852572.421   113792075.379                  
                 116201401.962    22315257.820   116201401.962                  
 21  8 31  9 18 58.0000000  0 23G 1G17G19G30G21G 7G14G13R12R13R22R23
                                R24E 1E 9E12E24E26E31E33C23C27C28
  21023036.106   110476798.0361   21023041.341    86085842.2521   21023040.126  
  20763905.414   109115054.3901   20763907.111    85024728.9541   20763907.200  
  22382756.965   117622187.8671                   91653651.3921   22382756.947  
  20476807.931   107606351.3351   20476813.131    83849120.7801   20476812.327  
  23101934.212   121401483.2851                   94598563.1691   23101935.981  
  21747812.379   114285525.4641   21747814.506    89053664.6051   21747813.291  
  20809946.738   109357006.9251   20809948.507    85213259.4691   20809947.632  
  23176430.580   121792964.7711                   94903616.9431   23176434.958  
  19734489.441   105418099.892    19734497.393    81991890.880                  
  20346176.689   108647442.927    20346184.248    84503599.072                  
  20494164.882   109399240.722                                                  
  19729345.468   105538699.390                                                  
  22704881.163   121413217.733                                                  
  25849039.090   135837619.101                                                  
  25800959.071   135584947.698                                                  
  23703674.526   124563644.660                                                  
  26208358.642   137725851.080                                                  
  25794329.234   135550117.262                                                  
  23750959.230   124812136.270                                                  
  23872923.246   125453060.679                                                  
                 130880003.338    25134128.715   130880003.338                  
                 113790615.983    21852292.181   113790615.983                  
                 116203010.646    22315566.651   116203010.646                  
 21  8 31  9 18 59.0000000  0 23G 1G17G19G30G21G 7G14G13R12R13R22R23
                                R24E 1E 9E12E24E26E31E33C23C27C28
  21023109.422   110477183.4821   21023115.087    86086142.5991   21023113.461  
  20763754.956   109114263.8591   20763756.833    85024112.9561   20763756.797  
  22382255.685   117619553.0731                   91651598.2741   22382255.488  
  20477003.919   107607381.4581   20477009.297    83849923.4801   20477008.350  
  23102383.868   121403847.2921                   94600405.2541   23102385.780  
  21748366.659   114288438.0801   21748368.946    89055934.1731   21748367.623  
  20809766.708   109356061.8921   20809768.977    85212523.0891   20809767.833  
  23176554.752   121793614.3561                   94904123.1811   23176558.576  
  19734636.521   105418886.092    19734644.634    81992502.360                  
  20345713.542   108644967.618    20345721.369    84501673.845                  
  20494708.618   109402140.378                                                  
  19728942.879   105536544.134                                                  
  22704113.152   121409105.921                                                  
  25849316.775   135839077.698                                                  
  25801379.654   135587157.971                                                  
  23703159.576   124560939.178                                                  
  26207987.038   137723897.573                                                  
  25794734.146   135552244.922                                                  
  23750863.595   124811633.344                                                  
  23872872.784   125452795.385                                                  
                 130882727.810    25134651.616   130882727.810                  
                 113789157.198    21852011.995   113789157.198                  
                 116204619.891    22315875.749   116204619.891                  
 21  8 31  9 19  0.0000000  0 23G 1G17G19G30G21G 7G14G13R12R13R22R23
                                R24E 1E 9E12E24E26E31E33C23C27C28
  21023182.810   110477569.5351   21023188.671    86086443.4201   21023186.938  
  20763604.696   109113473.6211   20763606.429    85023497.1861   20763606.411  
  22381754.655   117616918.4781                   91649545.3361   22381754.119  
  20477200.121   107608412.1071   20477205.410    83850726.5811   20477204.463  
  23102833.614   121406211.6211                   94602247.5821   23102835.615  
