     2.11           OBSERVATION DATA    M (MIXED)           RINEX VERSION / TYPE
CONVBIN 2.4.3                           20210831 165242 UTC PGM / RUN BY / DATE 
log: logs/21_08_31_07_17_54_txlm_SW.rtcm                    COMMENT             
format: RTCM 3, station ID: 1510                            COMMENT             
1510                                                        MARKER NAME         
                                                            MARKER NUMBER       
                                                            OBSERVER / AGENCY   
                    SWFT                                    REC # / TYPE / VERS 
                    NULL                                    ANT # / TYPE        
  -491239.0844 -5588289.7352  3024736.2942                  APPROX POSITION XYZ 
        0.0000        0.0000        0.0000                  ANTENNA: DELTA H/E/N
     1     1                                                WAVELENGTH FACT L1/2
     5    C1    L1    P2    L2    C2                        # / TYPES OF OBSERV 
  2021     8    31     7    17   59.0000000     GPS         TIME OF FIRST OBS   
  2021     8    31     7    47   57.0000000     GPS         TIME OF LAST OBS    
                                                            END OF HEADER       
 21  8 31  7 17 59.0000000  0 17G 1G 4G 7G 8G 9G14G17G21G27E 1E 4E 9
                                E19E21E26E31E33
  23265500.315   122260977.259    23265503.925    95268280.031                  
  24050113.103   126384185.816    24050114.801    98481182.191                  
  20496157.993   107708049.316    20496157.474    83928352.851                  
  21770868.440   114406642.188    21770870.995    89148022.152                  
  21922361.999   115202750.908    21922364.411    89768367.464                  
  22795636.358   119791878.766    22795637.108    93344323.497                  
  23221158.960   122028010.753    23221159.318    95086760.220                  
  22551170.648   118507197.069    22551170.094    92343269.922                  
  24342291.624   127919572.544    24342293.661    99677581.637                  
  24892611.304   130811523.872                                                  
  25008943.611   131422893.160                                                  
  24103587.280   126665197.012                                                  
  27564080.128   144850194.008                                                  
  27830976.036   146252731.167                                                  
  25182840.243   132336686.223                                                  
  25016448.565   131462302.321                                                  
  25954808.607   136393457.420                                                  
 21  8 31  7 18  0.0000000  0 17G 1G 4G 7G 8G 9G14G17G21G27E 1E 4E 9
                                E19E21E26E31E33
  23264951.879   122258095.129    23264955.489    95266034.216                  
  24050811.067   126387853.621    24050812.765    98484040.223                  
  20495950.372   107706958.344    20495949.872    83927502.745                  
  21771369.112   114409273.258    21771371.685    89150072.336                  
  21922889.099   115205520.763    21922891.494    89770525.793                  
  22795316.538   119790198.137    22795317.306    93343013.918                  
  23220529.488   122024702.888    23220529.864    95084182.660                  
  22550957.059   118506074.775    22550956.541    92342395.407                  
  24342983.924   127923210.574    24342985.961    99680416.465                  
  24892751.951   130812263.063                                                  
  25009299.205   131424761.723                                                  
  24103474.527   126664604.500                                                  
  27564637.338   144853122.144                                                  
  27831263.996   146254244.418                                                  
  25182705.118   132335976.089                                                  
  25016309.133   131461569.715                                                  
  25954324.320   136390912.573                                                  
 21  8 31  7 18  1.0000000  0 23G 1G 4G 7G 8G 9G14G17G21G27C20C23C25
                                C27C28C32E 1E 4E 9E19E21E26E31E33
  23264403.443   122255213.128    23264407.035    95263788.501                  
  24051509.031   126391521.464    24051510.747    98486898.281                  
  20495742.859   107705867.730    20495742.341    83926652.919                  
  21771869.874   114411904.719    21771872.411    89152122.828                  
  21923416.236   115208290.979    21923418.666    89772684.403                  
  22794996.754   119788517.669    22794997.505    93341704.458                  
  23219900.088   122021395.277    23219900.445    95081605.305                  
  22550743.578   118504952.929    22550743.060    92341521.242                  
  24343676.241   127926848.741    24343678.278    99683251.403                  
                 133363694.708                   133363694.708    25611091.035  
                 119439895.663                   119439895.663    22937167.293  
                 136416809.929                   136416809.929    26197413.312  
                 129844391.602                   129844391.602    24935251.832  
                 115887667.132                   115887667.132    22255007.889  
                 134032832.770                   134032832.770    25739603.440  
  24892892.616   130813002.253                                                  
  25009654.834   131426630.591                                                  
  24103361.862   126664012.440                                                  
  27565194.512   144856050.204                                                  
  27831551.955   146255757.646                                                  
  25182570.064   132335266.399                                                  
  25016169.737   131460837.142                                                  
  25953840.088   136388367.898                                                  
 21  8 31  7 18  2.0000000  0 23G 1G 4G 7G 8G 9G14G17G21G27C20C23C25
                                C27C28C32E 1E 4E 9E19E21E26E31E33
  23263855.043   122252331.250    23263858.635    95261542.879                  
  24052206.995   126395189.343    24052208.693    98489756.368                  
  20495535.382   107704777.453    20495534.882    83925803.352                  
  21772370.707   114414536.585    21772373.262    89154173.632                  
  21923943.479   115211061.547    21923945.873    89774843.285                  
  22794677.024   119786837.366    22794677.756    93340395.138                  
  23219270.705   122018087.919    23219271.080    95079028.141                  
  22550530.204   118503831.539    22550529.668    92340647.433                  
  24344368.576   127930487.035    24344370.613    99686086.433                  
                 133364752.448                   133364752.448    25611294.152  
                 119440509.258                   119440509.258    22937285.139  
                 136418752.518                   136418752.518    26197786.381  
                 129841067.691                   129841067.691    24934613.515  
                 115886127.403                   115886127.403    22254712.192  
                 134035250.050                   134035250.050    25740067.641  
  24893033.281   130813741.441                                                  
  25010010.517   131428499.767                                                  
  24103249.288   126663420.829                                                  
  27565751.704   144858978.156                                                  
  27831839.896   146257270.823                                                  
  25182435.099   132334557.134                                                  
  25016030.341   131460104.583                                                  
  25953355.873   136385823.338                                                  
 21  8 31  7 18  3.0000000  0 23G 1G 4G 7G 8G 9G14G17G21G27C20C23C25
                                C27C28C32E 1E 4E 9E19E21E26E31E33
  23263306.661   122249449.507    23263310.252    95259297.368                  
  24052904.995   126398857.265    24052906.693    98492614.489                  
  20495327.976   107703687.523    20495327.458    83924954.054                  
  21772871.593   114417168.855    21772874.167    89156224.750                  
  21924470.758   115213832.477    21924473.188    89777002.453                  
  22794357.293   119785157.239    22794358.044    93339085.945                  
  23218641.376   122014780.825    23218641.769    95076451.187                  
  22550316.884   118502710.594    22550316.348    92339773.970                  
  24345060.947   127934125.445    24345062.984    99688921.563                  
                 133365810.563                   133365810.563    25611497.358  
                 119441123.025                   119441123.025    22937403.003  
                 136420695.238                   136420695.238    26198159.433  
                 129837743.855                   129837743.855    24933975.216  
                 115884588.154                   115884588.154    22254416.603  
                 134037667.322                   134037667.322    25740531.860  
  24893173.946   130814480.629                                                  
  25010366.271   131430369.277                                                  
  24103136.784   126662829.673                                                  
  27566308.860   144861906.064                                                  
  27832127.838   146258783.980                                                  
  25182300.206   132333848.297                                                  
  25015890.945   131459372.054                                                  
  25952871.676   136383278.937                                                  
 21  8 31  7 18  4.0000000  0 23G 1G 4G 7G 8G 9G14G17G21G27C20C23C25
                                C27C28C32E 1E 4E 9E19E21E26E31E33
  23262758.314   122246567.891    23262761.923    95257051.952                  
  24053602.977   126402525.223    24053604.675    98495472.636                  
  20495120.642   107702597.945    20495120.124    83924105.031                  
  21773372.587   114419801.507    21773375.142    89158276.167                  
  21924998.127   115216603.773    21925000.539    89779161.907                  
  22794037.598   119783477.273    22794038.367    93337776.883                  
  23218012.118   122011473.983    23218012.476    95073874.429                  
  22550103.653   118501590.090    22550103.117    92338900.847                  
  24345753.336   127937763.985    24345755.373    99691756.788                  
                 133366869.038                   133366869.038    25611700.636  
                 119441736.960                   119441736.960    22937520.903  
                 136422638.086                   136422638.086    26198532.556  
                 129834420.089                   129834420.089    24933336.916  
                 115883049.387                   115883049.387    22254121.103  
                 134040084.581                   134040084.581    25740996.062  
  24893314.593   130815219.813                                                  
  25010722.097   131432239.073                                                  
  24103024.388   126662238.956                                                  
  27566865.998   144864833.863                                                  
  27832415.779   146260297.085                                                  
  25182165.402   132333139.886                                                  
  25015751.548   131458639.548                                                  
  25952387.533   136380734.685                                                  
 21  8 31  7 18  5.0000000  0 23G 1G 4G 7G 8G 9G14G17G21G27C20C23C25
                                C27C28C32E 1E 4E 9E19E21E26E31E33
  23262209.985   122243686.403    23262213.577    95254806.637                  
  24054300.977   126406193.219    24054302.674    98498330.812                  
  20494913.362   107701508.704    20494912.843    83923256.270                  
  21773873.635   114422434.573    21773876.208    89160327.907                  
  21925525.549   115219375.421    21925527.961    89781321.628                  
  22793717.957   119781797.477    22793718.708    93336467.949                  
  23217382.878   122008167.403    23217383.254    95071297.876                  
  22549890.529   118500470.040    22549889.975    92338028.081                  
  24346445.761   127941402.660    24346447.798    99694592.117                  
                 133367927.883                   133367927.883    25611903.986  
                 119442351.070                   119442351.070    22937638.839  
                 136424581.062                   136424581.062    26198905.679  
                 129831096.401                   129831096.401    24932698.635  
                 115881511.097                   115881511.097    22253825.674  
                 134042501.832                   134042501.832    25741460.281  
  24893455.276   130815959.004                                                  
  25011077.959   131434109.203                                                  
  24102912.063   126661648.680                                                  
  27567423.118   144867761.594                                                  
  27832703.721   146261810.163                                                  
  25182030.687   132332431.907                                                  
  25015612.152   131457907.078                                                  
  25951903.407   136378190.574                                                  
 21  8 31  7 18  6.0000000  0 23G 1G 4G 7G 8G 9G14G17G21G27C20C23C25
                                C27C28C32E 1E 4E 9E19E21E26E31E33
  23261661.674   122240805.042    23261665.284    95252561.425                  
  24054998.977   126409861.262    24055000.674    98501189.028                  
  20494706.134   107700419.789    20494705.634    83922407.765                  
  21774374.753   114425068.032    21774377.327    89162379.953                  
  21926053.042   115222147.433    21926055.455    89783481.637                  
  22793398.316   119780117.843    22793399.085    93335159.146                  
  23216753.728   122004861.060    23216754.085    95068721.500                  
  22549677.459   118499350.436    22549676.940    92337155.665                  
  24347138.186   127945041.441    24347140.223    99697427.531                  
                 133368987.091                   133368987.091    25612107.389  
                 119442965.351                   119442965.351    22937756.792  
                 136426524.169                   136426524.169    26199278.838  
                 129827772.786                   129827772.786    24932060.389  
                 115879973.293                   115879973.293    22253530.353  
                 134044919.066                   134044919.066    25741924.483  
  24893595.941   130816698.188                                                  
  25011433.892   131435979.605                                                  
  24102799.828   126661058.844                                                  
  27567980.239   144870689.273                                                  
  27832991.644   146263323.199                                                  
  25181896.044   132331724.346                                                  
  25015472.774   131457174.622                                                  
  25951419.300   136375646.630                                                  
 21  8 31  7 18  7.0000000  0 23G 1G 4G 7G 8G 9G14G17G21G27C20C23C25
                                C27C28C32E 1E 4E 9E19E21E26E31E33
  23261113.399   122237923.824    23261117.008    95250316.316                  
  24055696.994   126413529.343    24055698.692    98504047.273                  
  20494498.997   107699331.223    20494498.479    83921559.536                  
  21774875.962   114427701.870    21774878.517    89164432.296                  
  21926580.607   115224919.794    21926583.020    89785641.919                  
  22793078.747   119778438.376    22793079.479    93333850.465                  
  23216124.578   122001554.952    23216124.953    95066145.316                  
  22549464.496   118498231.276    22549463.960    92336283.594                  
  24347830.646   127948680.351    24347832.683    99700263.047                  
                 133370046.669                   133370046.669    25612310.863  
                 119443579.810                   119443579.810    22937874.799  
                 136428467.403                   136428467.403    26199652.014  
                 129824449.241                   129824449.241    24931422.125  
                 115878435.969                   115878435.969    22253235.139  
                 134047336.293                   134047336.293    25742388.684  
  24893736.606   130817437.364                                                  
  25011789.879   131437850.304                                                  
  24102687.664   126660469.446                                                  
  27568537.359   144873616.884                                                  
  27833279.532   146264836.192                                                  
  25181761.455   132331017.224                                                  
  25015333.395   131456442.192                                                  
  25950935.246   136373102.836                                                  
 21  8 31  7 18  8.0000000  0 23G 1G 4G 7G 8G 9G14G17G21G27C20C23C25
                                C27C28C32E 1E 4E 9E19E21E26E31E33
  23260565.141   122235042.710    23260568.733    95248071.294                  
  24056395.012   126417197.442    24056396.727    98506905.531                  
  20494291.895   107698242.974    20494291.394    83920711.548                  
  21775377.259   114430336.133    21775379.797    89166484.964                  
  21927108.244   115227692.534    21927110.656    89787802.495                  
  22792759.177   119776759.073    22792759.928    93332541.922                  
  23215495.516   121998249.211    23215495.874    95063569.414                  
  22549251.622   118497112.573    22549251.086    92335411.876                  
  24348523.142   127952319.398    24348525.179    99703098.669                  
                 133371106.612                   133371106.612    25612514.427  
                 119444194.437                   119444194.437    22937992.842  
                 136430410.766                   136430410.766    26200025.227  
                 129821125.774                   129821125.774    24930783.879  
                 115876899.124                   115876899.124    22252939.996  
                 134049753.509                   134049753.509    25742852.886  
  24893877.253   130818176.566                                                  
  25012145.937   131439721.429                                                  
  24102575.608   126659880.555                                                  
  27569094.426   144876544.266                                                  
  27833567.456   146266349.185                                                  
  25181627.008   132330310.573                                                  
  25015194.035   131455709.804                                                  
  25950451.174   136370559.124                                                  
 21  8 31  7 18  9.0000000  0 23G 1G 4G 7G 8G 9G14G17G21G27C20C23C25
                                C27C28C32E 1E 4E 9E19E21E26E31E33
  23260016.920   122232161.739    23260020.494    95245826.384                  
  24057093.047   126420865.593    24057094.745    98509763.831                  
  20494084.900   107697155.097    20494084.382    83919863.852                  
  21775878.593   114432970.754    21775881.166    89168537.918                  
  21927635.934   115230465.614    21927638.364    89789963.337                  
  22792439.643   119775079.947    22792440.394    93331233.508                  
  23214866.491   121994943.657    23214866.866    95060993.656                  
  22549038.820   118495994.325    22549038.284    92334540.516                  
  24349215.638   127955958.566    24349217.675    99705934.382                  
                 133372166.923                   133372166.923    25612718.045  
                 119444809.239                   119444809.239    22938110.903  
                 136432354.257                   136432354.257    26200398.439  
                 129817802.374                   129817802.374    24930145.652  
                 115875362.765                   115875362.765    22252644.961  
                 134052170.708                   134052170.708    25743317.087  
  24894017.918   130818915.754                                                  
  25012502.049   131441592.783                                                  
  24102463.604   126659292.063                                                  
  27569651.475   144879471.684                                                  
  27833855.361   146267862.116                                                  
  25181492.597   132329604.319                                                  
  25015054.674   131454977.430                                                  
  25949967.174   136368015.618                                                  
 21  8 31  7 18 10.0000000  0 23G 1G 4G 7G 8G 9G14G17G21G27C20C23C25
                                C27C28C32E 1E 4E 9E19E21E26E31E33
  23259468.698   122229280.891    23259472.308    95243581.567                  
  24057791.065   126424533.774    24057792.780    98512622.152                  
  20493877.941   107696067.558    20493877.441    83919016.419                  
  21776380.033   114435605.778    21776382.588    89170591.180                  
  21928163.713   115233239.064    21928166.126    89792124.464                  
  22792120.145   119773400.973    22792120.896    93329925.218                  
  23214237.519   121991638.359    23214237.877    95058418.101                  
  22548826.107   118494876.515    22548825.589    92333669.497                  
  24349908.188   127959597.854    24349910.225    99708770.195                  
                 133373227.596                   133373227.596    25612921.734  
                 119445424.212                   119445424.212    22938228.999  
                 136434297.878                   136434297.878    26200771.705  
                 129814479.056                   129814479.056    24929507.442  
                 115873826.886                   115873826.886    22252349.997  
                 134054587.898                   134054587.898    25743781.289  
  24894158.583   130819654.933                                                  
  25012858.196   131443464.441                                                  
  24102351.709   126658704.035                                                  
  27570208.542   144882399.004                                                  
  27834143.267   146269375.012                                                  
  25181358.276   132328898.496                                                  
  25014915.296   131454245.082                                                  
  25949483.173   136365472.237                                                  
 21  8 31  7 18 11.0000000  0 23G 1G 4G 7G 8G 9G14G17G21G27C20C23C25
                                C27C28C32E 1E 4E 9E19E21E26E31E33
  23258920.512   122226400.169    23258924.122    95241336.847                  
  24058489.100   126428201.993    24058490.798    98515480.509                  
  20493671.053   107694980.372    20493670.535    83918169.263                  
  21776881.545   114438241.182    21776884.100    89172644.747                  
  21928691.564   115236012.860    21928693.959    89794285.864                  
  22791800.683   119771722.172    22791801.415    93328617.062                  
  23213608.583   121988333.337    23213608.959    95055842.757                  
  22548613.483   118493759.159    22548612.947    92332798.828                  
  24350600.738   127963237.275    24350602.775    99711606.105                  
                 133374288.639                   133374288.639    25613125.494  
                 119446039.360                   119446039.360    22938347.113  
                 136436241.627                   136436241.627    26201144.971  
                 129811155.805                   129811155.805    24928869.267  
                 115872291.487                   115872291.487    22252055.140  
                 134057005.073                   134057005.073    25744245.472  
  24894299.248   130820394.114                                                  
  25013214.433   131445336.429                                                  
  24102239.902   126658116.438                                                  
  27570765.573   144885326.243                                                  
  27834431.137   146270887.870                                                  
  25181224.062   132328193.099                                                  
  25014775.953   131453512.764                                                  
  25948999.226   136362928.995                                                  
 21  8 31  7 18 12.0000000  0 23G 1G 4G 7G 8G 9G14G17G21G27C20C23C25
                                C27C28C32E 1E 4E 9E19E21E26E31E33
  23258372.362   122223519.583    23258375.954    95239092.234                  
  24059187.154   126431870.262    24059188.851    98518338.898                  
  20493464.237   107693893.531    20493463.719    83917322.372                  
  21777383.129   114440876.995    21777385.666    89174698.625                  
  21929219.469   115238787.032    21929221.881    89796447.554                  
  22791481.238   119770043.538    22791482.007    93327309.038                  
  23212979.701   121985028.558    23212980.076    95053267.609                  
  22548400.931   118492642.267    22548400.395    92331928.522                  
  24351293.323   127966876.812    24351295.360    99714442.108                  
                 133375350.051                   133375350.051    25613329.326  
                 119446654.679                   119446654.679    22938465.299  
                 136438185.508                   136438185.508    26201518.273  
                 129807832.632                   129807832.632    24928231.075  
                 115870756.570                   115870756.570    22251760.372  
                 134059422.242                   134059422.242    25744709.656  
  24894439.895   130821133.302                                                  
  25013570.723   131447208.721                                                  
  24102128.167   126657529.296                                                  
  27571322.604   144888253.411                                                  
  27834719.025   146272400.696                                                  
  25181089.901   132327488.142                                                  
  25014636.593   131452780.470                                                  
  25948515.298   136360385.926                                                  
 21  8 31  7 18 13.0000000  0 23G 1G 4G 7G 8G 9G14G17G21G27C20C23C25
                                C27C28C32E 1E 4E 9E19E21E26E31E33
  23257824.248   122220639.128    23257827.822    95236847.726                  
  24059885.225   126435538.557    24059886.923    98521197.310                  
  20493257.475   107692807.043    20493256.975    83916475.753                  
  21777884.766   114443513.195    21777887.321    89176752.804                  
  21929747.445   115241561.550    21929749.839    89798609.521                  
  22791161.847   119768365.078    22791162.598    93326001.149                  
  23212350.872   121981724.035    23212351.247    95050692.656                  
  22548188.487   118491525.818    22548187.968    92331058.562                  
  24351985.926   127970516.488    24351987.963    99717278.219                  
                 133376411.824                   133376411.824    25613533.212  
                 119447270.173                   119447270.173    22938583.503  
                 136440129.516                   136440129.516    26201891.593  
                 129804509.531                   129804509.531    24927592.901  
                 115869222.136                   115869222.136    22251465.712  
                 134061839.394                   134061839.394    25745173.857  
  24894580.578   130821872.492                                                  
  25013927.067   131449081.325                                                  
  24102016.522   126656942.606                                                  
  27571879.599   144891180.476                                                  
  27835006.895   146273913.480                                                  
  25180955.848   132326783.619                                                  
  25014497.268   131452048.208                                                  
  25948031.387   136357842.991                                                  
 21  8 31  7 18 14.0000000  0 24G 1G 4G 7G 8G 9G14G17G21G27G30C20C23
                                C25C27C28C32E 1E 4E 9E19E21E26E31E33
  23257276.115   122217758.800    23257279.725    95234603.317                  
  24060583.278   126439206.900    24060584.976    98524055.753                  
  20493050.802   107691720.895    20493050.284    83915629.411                  
  21778386.492   114446149.782    21778389.047    89178807.290                  
  21930275.475   115244336.435    21930277.887    89800771.766                  
  22790842.474   119766686.779    22790843.225    93324693.379                  
  23211722.097   121978419.772    23211722.454    95048117.911                  
  22547976.113   118490409.818    22547975.577    92330188.954                  
  24352678.565   127974156.278    24352680.603    99720114.422                  
  22051062.600   115879076.083    22051064.781    90295374.039                  
                 133377473.963                   133377473.963    25613737.205  
                 119447885.836                   119447885.836    22938701.724  
                 136442073.655                   136442073.655    26202264.966  
                 129801186.504                   129801186.504    24926954.762  
                 115867688.185                   115867688.185    22251171.141  
                 134064256.535                   134064256.535    25745638.041  
  24894721.243   130822611.671                                                  
  25014283.483   131450954.239                                                  
  24101904.965   126656356.344                                                  
  27572436.576   144894107.477                                                  
  27835294.765   146275426.238                                                  
  25180821.866   132326079.515                                                  
  25014357.925   131451315.957                                                  
  25947547.493   136355300.207                                                  
 21  8 31  7 18 15.0000000  0 24G 1G 4G 7G 8G 9G14G17G21G27G30C20C23
                                C25C27C28C32E 1E 4E 9E19E21E26E31E33
  23256728.037   122214878.597    23256731.646    95232359.001                  
  24061281.332   126442875.268    24061283.047    98526914.227                  
  20492844.182   107690635.096    20492843.664    83914783.332                  
  21778888.308   114448786.774    21778890.863    89180862.087                  
  21930803.576   115247111.669    21930806.006    89802934.286                  
  22790523.137   119765008.644    22790523.887    93323385.746                  
  23211093.358   121975115.777    23211093.733    95045543.367                  
  22547763.847   118489294.278    22547763.293    92329319.702                  
  24353371.205   127977796.188    24353373.242    99722950.715                  
  22050591.913   115876602.636    22050594.093    90293446.676                  
                 133378536.472                   133378536.472    25613941.233  
                 119448501.672                   119448501.672    22938819.999  
                 136444017.922                   136444017.922    26202638.321  
                 129797863.555                   129797863.555    24926316.624  
                 115866154.716                   115866154.716    22250876.642  
                 134066673.664                   134066673.664    25746102.225  
  24894861.908   130823350.859                                                  
  25014639.934   131452827.453                                                  
  24101793.480   126655770.546                                                  
  27572993.554   144897034.375                                                  
  27835582.617   146276938.940                                                  
  25180687.937   132325375.846                                                  
  25014218.583   131450583.754                                                  
  25947063.654   136352757.572                                                  
 21  8 31  7 18 16.0000000  0 24G 1G 4G 7G 8G 9G14G17G21G27G30C20C23
                                C25C27C28C32E 1E 4E 9E19E21E26E31E33
  23256179.976   122211998.562    23256183.586    95230114.825                  
  24061979.421   126446543.696    24061981.119    98529772.742                  
  20492637.616   107689549.697    20492637.116    83913937.586                  
  21779390.159   114451424.130    21779392.715    89182917.167                  
  21931331.766   115249887.190    21931334.178    89805096.992                  
  22790203.835   119763330.706    22790204.586    93322078.273                  
  23210464.672   121971812.040    23210465.065    95042969.024                  
  22547551.635   118488179.144    22547551.098    92328450.741                  
  24354063.879   127981436.204    24354065.916    99725787.073                  
  22050121.278   115874129.207    22050123.458    90291519.262                  
                 133379599.347                   133379599.347    25614145.369  
                 119449117.684                   119449117.684    22938938.292  
                 136445962.317                   136445962.317    26203011.712  
                 129794540.675                   129794540.675    24925678.503  
                 115864621.727                   115864621.727    22250582.232  
                 134069090.781                   134069090.781    25746566.408  
  24895002.555   130824090.079                                                  
  25014996.457   131454700.981                                                  
  24101682.103   126655185.226                                                  
  27573550.514   144899961.211                                                  
  27835870.487   146278451.578                                                  
  25180554.116   132324672.656                                                  
  25014079.240   131449851.491                                                  
  25946579.832   136350215.072                                                  
 21  8 31  7 18 17.0000000  0 24G 1G 4G 7G 8G 9G14G17G21G27G30C20C23
                                C25C27C28C32E 1E 4E 9E19E21E26E31E33
  23255631.933   122209118.642    23255635.543    95227870.731                  
  24062677.492   126450212.140    24062679.208    98532631.270                  
  20492431.140   107688464.593    20492430.622    83913092.051                  
  21779892.118   114454061.868    21779894.655    89184972.547                  
  21931860.028   115252663.152    21931862.422    89807260.079                  
  22789884.552   119761652.911    22789885.302    93320770.899                  
  23209836.057   121968508.558    23209836.415    95040394.887                  
  22547339.547   118487064.508    22547338.993    92327582.199                  
  24354756.572   127985076.376    24354758.627    99728623.570                  
  22049650.644   115871656.040    22049652.824    90289592.121                  
                 133380662.585                   133380662.585    25614349.540  
                 119449733.870                   119449733.870    22939056.621  
                 136447906.840                   136447906.840    26203385.157  
                 129791217.875                   129791217.875    24925040.382  
                 115863089.218                   115863089.218    22250287.947  
                 134071507.886                   134071507.886    25747030.574  
  24895143.220   130824829.260                                                  
  25015353.033   131456574.823                                                  
  24101570.779   126654600.311                                                  
  27574107.455   144902888.054                                                  
  27836158.321   146279964.228                                                  
  25180420.384   132323969.852                                                  
  25013939.915   131449119.323                                                  
  25946096.046   136347672.754                                                  
 21  8 31  7 18 18.0000000  0 24G 1G 4G 7G 8G 9G14G17G21G27G30C20C23
                                C25C27C28C32E 1E 4E 9E19E21E26E31E33
  23255083.944   122206238.848    23255087.535    95225626.738                  
  24063375.599   126453880.635    24063377.297    98535489.836                  
  20492224.717   107687379.839    20492224.199    83912246.788                  
  21780394.113   114456700.001    21780396.686    89187028.233                  
  21932388.326   115255439.472    21932390.738    89809423.445                  
  22789565.322   119759975.278    22789566.054    93319463.652                  
  23209207.479   121965205.344    23209207.836    95037820.953                  
  22547127.495   118485950.322    22547126.977    92326713.999                  
  24355449.300   127988716.671    24355451.338    99731460.164                  
  22049180.045   115869183.024    22049182.225    90287665.094                  
                 133381726.193                   133381726.193    25614553.801  
                 119450350.227                   119450350.227    22939174.985  
                 136449851.496                   136449851.496    26203758.602  
                 129787895.144                   129787895.144    24924402.280  
                 115861557.195                   115861557.195    22249993.734  
                 134073924.977                   134073924.977    25747494.757  
  24895283.885   130825568.445                                                  
  25015709.681   131458448.985                                                  
  24101459.562   126654015.854                                                  
  27574664.379   144905814.723                                                  
  27836446.155   146281476.833                                                  
  25180286.724   132323267.483                                                  
  25013800.608   131448387.207                                                  
  25945612.278   136345130.556                                                  
 21  8 31  7 18 19.0000000  0 24G 1G 4G 7G 8G 9G14G17G21G27G30C20C23
                                C25C27C28C32E 1E 4E 9E19E21E26E31E33
  23254535.954   122203359.177    23254539.564    95223382.840                  
  24064073.688   126457549.157    24064075.386    98538348.421                  
  20492018.365   107686295.429    20492017.847    83911401.797                  
  21780896.214   114459338.531    21780898.787    89189084.231                  
  21932916.695   115258216.141    21932919.125    89811587.083                  
  22789246.091   119758297.824    22789246.842    93318156.547                  
  23208578.936   121961902.378    23208579.293    95035247.214                  
  22546915.587   118484836.581    22546915.033    92325846.152                  
  24356142.065   127992357.089    24356144.102    99734296.855                  
  22048709.465   115866710.144    22048711.645    90285738.176                  
                 133382790.161                   133382790.161    25614758.115  
                 119450966.759                   119450966.759    22939293.385  
                 136451796.278                   136451796.278    26204132.082  
                 129784572.488                   129784572.488    24923764.195  
                 115860025.651                   115860025.651    22249699.627  
                 134076342.054                   134076342.054    25747958.941  
  24895424.532   130826307.641                                                  
  25016066.383   131460323.452                                                  
  24101348.435   126653431.846                                                  
  27575221.303   144908741.304                                                  
  27836734.007   146282989.409                                                  
  25180153.153   132322565.546                                                  
  25013661.284   131447655.095                                                  
  25945128.546   136342588.499                                                  
 21  8 31  7 18 20.0000000  0 24G 1G 4G 7G 8G 9G14G17G21G27G30C20C23
                                C25C27C28C32E 1E 4E 9E19E21E26E31E33
  23253988.001   122200479.626    23253991.592    95221139.032                  
  24064771.795   126461217.728    24064773.493    98541207.046                  
  20491812.068   107685211.364    20491811.567    83910557.067                  
  21781398.405   114461977.442    21781400.943    89191140.523                  
  21933445.153   115260993.171    21933447.583    89813751.000                  
  22788926.915   119756620.523    22788927.665    93316849.559                  
  23207950.464   121958599.686    23207950.822    95032673.692                  
  22546703.714   118483723.295    22546703.178    92324978.656                  
  24356834.829   127995997.633    24356836.866    99737133.641                  
  22048238.920   115864237.419    22048241.100    90283811.376                  
                 133383854.501                   133383854.501    25614962.519  
                 119451583.460                   119451583.460    22939411.821  
                 136453741.190                   136453741.190    26204505.580  
                 129781249.911                   129781249.911    24923126.145  
                 115858494.593                   115858494.593    22249405.593  
                 134078759.121                   134078759.121    25748423.125  
  24895565.197   130827046.823                                                  
  25016423.138   131462198.221                                                  
  24101237.379   126652848.284                                                  
  27575778.209   144911667.812                                                  
  27837021.824   146284501.950                                                  
  25180019.654   132321864.039                                                  
  25013521.977   131446923.012                                                  
  25944644.831   136340046.600                                                  
 21  8 31  7 18 21.0000000  0 24G 1G 4G 7G 8G 9G14G17G21G27G30C20C23
                                C25C27C28C32E 1E 4E 9E19E21E26E31E33
  23253440.065   122197600.216    23253443.657    95218895.336                  
  24065469.902   126464886.319    24065471.600    98544065.691                  
  20491605.841   107684127.649    20491605.323    83909712.614                  
  21781900.632   114464616.750    21781903.205    89193197.128                  
  21933973.683   115263770.562    21933976.096    89815915.198                  
  22788607.774   119754943.392    22788608.525    93315542.704                  
  23207322.029   121955297.243    23207322.386    95030100.355                  
  22546491.966   118482610.468    22546491.412    92324111.520                  
  24357527.629   127999638.298    24357529.666    99739970.525                  
  22047768.393   115861764.827    22047770.573    90281884.685                  
                 133384919.199                   133384919.199    25615166.977  
                 119452200.335                   119452200.335    22939530.275  
                 136455686.231                   136455686.231    26204879.097  
                 129777927.407                   129777927.407    24922488.078  
                 115856964.015                   115856964.015    22249111.665  
                 134081176.174                   134081176.174    25748887.273  
  24895705.862   130827786.010                                                  
  25016779.946   131464073.313                                                  
  24101126.412   126652265.159                                                  
  27576335.079   144914594.226                                                  
  27837309.640   146286014.450                                                  
  25179886.244   132321162.950                                                  
  25013382.652   131446190.958                                                  
  25944161.153   136337504.849                                                  
 21  8 31  7 18 22.0000000  0 24G 1G 4G 7G 8G 9G14G17G21G27G30C20C23
                                C25C27C28C32E 1E 4E 9E19E21E26E31E33
  23252892.165   122194720.932    23252895.739    95216651.743                  
  24066168.027   126468554.952    24066169.725    98546924.370                  
  20491399.686   107683044.277    20491399.168    83908868.432                  
  21782402.966   114467256.439    21782405.503    89195254.036                  
  21934502.267   115266548.308    21934504.679    89818079.683                  
  22788288.651   119753266.422    22788289.402    93314235.977                  
  23206693.647   121951995.056    23206694.004    95027527.231                  
  22546280.271   118481498.083    22546279.735    92323244.731                  
  24358220.446   128003279.082    24358222.483    99742807.504                  
  22047297.919   115859292.378    22047300.099    90279958.106                  
                 133385984.269                   133385984.269    25615371.523  
                 119452817.387                   119452817.387    22939648.782  
                 136457631.402                   136457631.402    26205252.666  
                 129774604.973                   129774604.973    24921850.047  
                 115855433.919                   115855433.919    22248817.827  
                 134083593.216                   134083593.216    25749351.438  
  24895846.527   130828525.186                                                  
  25017136.826   131465948.696                                                  
  24101015.535   126651682.484                                                  
  27576891.931   144917520.558                                                  
  27837597.456   146287526.903                                                  
  25179752.923   132320462.294                                                  
  25013243.363   131445458.918                                                  
  25943677.492   136334963.238                                                  
 21  8 31  7 18 23.0000000  0 24G 1G 4G 7G 8G 9G14G17G21G27G30C20C23
                                C25C27C28C32E 1E 4E 9E19E21E26E31E33
  23252344.265   122191841.778    23252347.857    95214408.250                  
  24066866.134   126472223.620    24066867.832    98549783.077                  
  20491193.585   107681961.242    20491193.085    83908024.516                  
  21782905.336   114469896.536    21782907.909    89197311.254                  
  21935030.922   115269326.406    21935033.334    89820244.437                  
  22787969.564   119751589.611    22787970.315    93312929.375                  
  23206065.300   121948693.120    23206065.658    95024954.302                  
  22546068.684   118480386.153    22546068.148    92322378.297                  
  24358913.282   128006919.996    24358915.319    99745644.582                  
  22046827.445   115856820.070    22046829.626    90278031.632                  
                 133387049.703                   133387049.703    25615576.124  
                 119453434.608                   119453434.608    22939767.325  
                 136459576.704                   136459576.704    26205626.218  
                 129771282.617                   129771282.617    24921212.016  
                 115853904.304                   115853904.304    22248524.078  
                 134086010.243                   134086010.243    25749815.622  
  24895987.174   130829264.371                                                  
  25017493.760   131467824.407                                                  
  24100904.747   126651100.251                                                  
  27577448.784   144920446.819                                                  
  27837885.255   146289039.332                                                  
  25179619.656   132319762.079                                                  
  25013104.074   131444726.914                                                  
  25943193.885   136332421.785                                                  
 21  8 31  7 18 24.0000000  0 24G 1G 4G 7G 8G 9G14G17G21G27G30C20C23
                                C25C27C28C32E 1E 4E 9E19E21E26E31E33
  23251796.401   122188962.755    23251799.993    95212164.859                  
  24067564.277   126475892.320    24067565.974    98552641.809                  
  20490987.555   107680878.554    20490987.037    83907180.868                  
  21783407.813   114472537.020    21783410.386    89199368.781                  
  21935559.648   115272104.868    21935562.061    89822409.477                  
  22787650.513   119749912.975    22787651.263    93311622.915                  
  23205437.008   121945391.446    23205437.383    95022381.571                  
  22545857.187   118479274.669    22545856.633    92321512.208                  
  24359606.136   128010561.025    24359608.173    99748481.754                  
  22046357.008   115854347.914    22046359.188    90276105.282                  
                 133388115.500                   133388115.500    25615780.795  
                 119454052.004                   119454052.004    22939885.886  
                 136461522.134                   136461522.134    26205999.824  
                 129767960.340                   129767960.340    24920574.020  
                 115852375.173                   115852375.173    22248230.418  
                 134088427.253                   134088427.253    25750279.788  
  24896127.857   130830003.556                                                  
  25017850.747   131469700.406                                                  
  24100794.048   126650518.464                                                  
  27578005.618   144923372.992                                                  
  27838173.053   146290551.723                                                  
  25179486.496   132319062.290                                                  
  25012964.785   131443994.934                                                  
  25942710.277   136329880.468                                                  
 21  8 31  7 18 25.0000000  0 24G 1G 4G 7G 8G 9G14G17G21G27G30C20C23
                                C25C27C28C32E 1E 4E 9E19E21E26E31E33
  23251248.572   122186083.867    23251252.164    95209921.574                  
  24068262.420   126479561.070    24068264.117    98555500.573                  
  20490781.597   107679796.203    20490781.079    83906337.478                  
  21783910.361   114475177.874    21783912.898    89201426.594                  
  21936088.446   115274883.679    21936090.841    89824574.786                  
  22787331.497   119748236.499    22787332.248    93310316.569                  
  23204808.769   121942090.030    23204809.144    95019809.044                  
  22545645.742   118478163.637    22545645.224    92320646.473                  
  24360299.043   128014202.188    24360301.080    99751319.024                  
  22045886.606   115851875.891    22045888.786    90274179.032                  
                 133389181.664                   133389181.664    25615985.539  
                 119454669.574                   119454669.574    22940004.483  
                 136463467.686                   136463467.686    26206373.465  
                 129764638.132                   129764638.132    24919936.025  
                 115850846.523                   115850846.523    22247936.866  
                 134090844.259                   134090844.259    25750743.936  
  24896268.521   130830742.737                                                  
  25018207.806   131471576.739                                                  
  24100683.421   126649937.132                                                  
  27578562.435   144926299.077                                                  
  27838460.852   146292064.079                                                  
  25179353.425   132318362.937                                                  
  25012825.496   131443262.974                                                  
  25942226.724   136327339.312                                                  
 21  8 31  7 18 26.0000000  0 24G 1G 4G 7G 8G 9G14G17G21G27G30C20C23
                                C25C27C28C32E 1E 4E 9E19E21E26E31E33
  23250700.762   122183205.112    23250704.353    95207678.390                  
  24068960.562   126483229.853    24068962.260    98558359.363                  
  20490575.692   107678714.208    20490575.174    83905494.364                  
  21784412.963   114477819.106    21784415.518    89203484.695                  
  21936617.298   115277662.851    21936619.692    89826740.375                  
  22787012.499   119746560.192    22787013.232    93309010.356                  
  23204180.583   121938788.867    23204180.940    95017236.706                  
  22545434.423   118477053.054    22545433.887    92319781.081                  
  24360991.932   128017843.469    24360993.987    99754156.386                  
  22045416.222   115849404.000    22045418.402    90272252.883                  
                 133390248.197                   133390248.197    25616190.353  
                 119455287.315                   119455287.315    22940123.098  
                 136465413.375                   136465413.375    26206747.106  
                 129761316.003                   129761316.003    24919298.047  
                 115849318.358                   115849318.358    22247643.403  
                 134093261.243                   134093261.243    25751208.101  
  24896409.186   130831481.910                                                  
  25018564.919   131473453.363                                                  
  24100572.865   126649356.235                                                  
  27579119.234   144929225.089                                                  
  27838748.632   146293576.397                                                  
  25179220.426   132317664.013                                                  
  25012686.225   131442531.046                                                  
  25941743.188   136324798.297                                                  
 21  8 31  7 18 27.0000000  0 24G 1G 4G 7G 8G 9G14G17G21G27G30C20C23
                                C25C27C28C32E 1E 4E 9E19E21E26E31E33
  23250152.987   122180326.488    23250156.578    95205435.305                  
  24069658.723   126486898.662    24069660.421    98561218.177                  
  20490369.859   107677632.558    20490369.358    83904651.523                  
  21784915.636   114480460.750    21784918.192    89205543.118                  
  21937146.221   115280442.378    21937148.633    89828906.238                  
  22786693.537   119744884.050    22786694.288    93307704.274                  
  23203552.433   121935487.956    23203552.809    95014664.570                  
  22545223.158   118475942.925    22545222.622    92318916.051                  
  24361684.875   128021484.870    24361686.912    99756993.844                  
  22044945.855   115846932.270    22044948.035    90270326.864                  
                 133391315.090                   133391315.090    25616395.240  
                 119455905.234                   119455905.234    22940241.766  
                 136467359.192                   136467359.192    26207120.783  
                 129757993.947                   129757993.947    24918660.087  
                 115847790.676                   115847790.676    22247350.012  
                 134095678.220                   134095678.220    25751672.231  
  24896549.833   130832221.098                                                  
  25018922.085   131475330.309                                                  
  24100462.417   126648775.801                                                  
  27579676.015   144932151.013                                                  
  27839036.413   146295088.677                                                  
  25179087.498   132316965.523                                                  
  25012546.936   131441799.145                                                  
  25941259.652   136322257.428                                                  
 21  8 31  7 18 28.0000000  0 24G 1G 4G 7G 8G 9G14G17G21G27G30C20C23
                                C25C27C28C32E 1E 4E 9E19E21E26E31E33
  23249605.212   122177448.000    23249608.821    95203192.329                  
  24070356.884   126490567.511    24070358.581    98564077.019                  
  20490164.097   107676551.261    20490163.579    83903808.953                  
  21785418.399   114483102.777    21785420.955    89207601.839                  
  21937675.216   115283222.272    21937677.646    89831072.391                  
