     2.11           OBSERVATION DATA    M (MIXED)           RINEX VERSION / TYPE
CONVBIN 2.4.3                           20210901 190736 UTC PGM / RUN BY / DATE 
log: logs/21_09_01_08_12_03_ohlc_SW.rtcm                    COMMENT             
format: RTCM 3, station ID: 1948                            COMMENT             
1948                                                        MARKER NAME         
                                                            MARKER NUMBER       
                                                            OBSERVER / AGENCY   
                    SWFT                                    REC # / TYPE / VERS 
                    NULL                                    ANT # / TYPE        
   544965.1059 -4802677.2300  4147584.0683                  APPROX POSITION XYZ 
        0.0000        0.0000        0.0000                  ANTENNA: DELTA H/E/N
     1     1                                                WAVELENGTH FACT L1/2
     5    C1    L1    P2    L2    C2                        # / TYPES OF OBSERV 
  2021     9     1     8    12    8.0000000     GPS         TIME OF FIRST OBS   
  2021     9     1     8    42    6.0000000     GPS         TIME OF LAST OBS    
                                                            END OF HEADER       
 21  9  1  8 12  8.0000000  0  8G 1G 7G 8G13G14G17G21G30
  21575831.986   113381720.633    21575834.934    88349381.341                  
  20445679.218   107442784.176    20445678.539    83721653.378                  
  22326869.594   117328454.574    22326871.703    91424760.608                  
  23671774.228   124396031.238    23671773.227    96931976.660                  
  22001827.796   115620400.376    22001827.778    90093824.285                  
  22757116.194   119589459.390    22757116.016    93186592.798                  
  21550818.463   113250322.051    21550817.248    88247006.445                  
  20678830.066   108667951.866    20678831.817    84676317.813                  
 21  9  1  8 12  9.0000000  0  8G 1G 7G 8G13G14G17G21G30
  21575328.615   113379075.395    21575331.564    88347320.117                  
  20445927.436   107444088.568    20445926.757    83722669.785                  
  22327426.232   117331379.782    22327428.358    91427039.991                  
  23671568.698   124394951.290    23671567.715    96931135.140                  
  22001413.091   115618221.052    22001413.056    90092126.113                  
  22756590.291   119586695.794    22756590.112    93184439.349                  
  21550797.395   113250211.434    21550796.198    88246920.255                  
  20678650.607   108667008.832    20678652.359    84675582.983                  
 21  9  1  8 12 10.0000000  0  8G 1G 7G 8G13G14G17G21G30
  21574825.334   113376430.664    21574828.301    88345259.290                  
  20446175.762   107445393.540    20446175.083    83723686.644                  
  22327982.924   117334305.184    22327985.032    91429319.527                  
  23671363.312   124393871.950    23671362.329    96930294.098                  
  22000998.423   115616041.898    22000998.387    90090428.071                  
  22756064.459   119583932.500    22756064.281    93182286.128                  
  21550776.488   113250101.442    21550775.255    88246834.542                  
  20678471.256   108666066.375    20678473.025    84674848.597                  
 21  9  1  8 12 11.0000000  0 12G 1G 7G 8G13G14G17G21G30C23C25C28C34
  21574322.160   113373786.442    21574325.127    88343198.854                  
  20446424.195   107446699.103    20446423.516    83724703.968                  
  22328539.669   117337230.797    22328541.777    91431599.225                  
  23671158.032   124392793.218    23671157.032    96929453.532                  
  22000583.754   115613862.894    22000583.736    90088730.146                  
  22755538.681   119581169.514    22755538.503    93180133.157                  
  21550755.653   113249992.098    21550754.456    88246749.340                  
  20678292.012   108665124.499    20678293.781    84674114.672                  
                 115582095.685                   115582095.685    22196316.422  
                 117859629.327                   117859629.327    22633699.266  
                 130528523.923                   130528523.923    25066631.733  
                 119699632.668                   119699632.668    22987054.978  
 21  9  1  8 12 12.0000000  0 12G 1G 7G 8G13G14G17G21G30C23C25C28C34
  21573819.076   113371142.747    21573822.042    88341138.835                  
  20446672.753   107448005.261    20446672.074    83725721.758                  
  22329096.414   117340156.621    22329098.540    91433879.091                  
  23670952.878   124391715.136    23670951.895    96928613.464                  
  22000169.139   115611684.063    22000169.121    90087032.355                  
  22755012.957   119578406.837    22755012.778    93177980.419                  
  21550734.979   113249883.383    21550733.764    88246664.629                  
  20678112.893   108664183.198    20678114.662    84673381.187                  
                 115580924.865                   115580924.865    22196091.576  
                 117861281.093                   117861281.093    22634016.477  
                 130525283.095                   130525283.095    25066009.355  
                 119701510.298                   119701510.298    22987415.540  
 21  9  1  8 12 13.0000000  0 12G 1G 7G 8G13G14G17G21G30C23C25C28C34
  21573316.099   113368499.546    21573319.065    88339079.200                  
  20446921.419   107449312.003    20446920.740    83726739.996                  
  22329653.213   117343082.656    22329655.339    91436159.118                  
  23670747.867   124390637.683    23670746.866    96927773.895                  
  21999754.560   115609505.400    21999754.542    90085334.691                  
  22754487.304   119575644.456    22754487.125    93175827.919                  
  21550714.394   113249775.290    21550713.196    88246580.398                  
  20677933.881   108663242.488    20677935.668    84672648.167                  
                 115579754.388                   115579754.388    22195866.801  
                 117862933.227                   117862933.227    22634333.742  
                 130522042.430                   130522042.430    25065387.048  
                 119703388.314                   119703388.314    22987776.208  
 21  9  1  8 12 14.0000000  0 12G 1G 7G 8G13G14G17G21G30C23C25C28C34
  21572813.229   113365856.866    21572816.159    88337019.969                  
  20447170.191   107450619.353    20447169.512    83727758.708                  
  22330210.065   117346008.894    22330212.173    91438439.301                  
  23670542.945   124389560.867    23670541.962    96926934.812                  
  21999339.999   115607326.897    21999339.981    90083637.161                  
  22753961.704   119572882.397    22753961.526    93173675.663                  
  21550693.951   113249667.839    21550692.736    88246496.672                  
  20677754.976   108662302.349    20677756.745    84671915.590                  
                 115578584.254                   115578584.254    22195642.098  
                 117864585.720                   117864585.720    22634651.096  
                 130518801.931                   130518801.931    25064764.724  
                 119705266.711                   119705266.711    22988136.912  
 21  9  1  8 12 15.0000000  0 12G 1G 7G 8G13G14G17G21G30C23C25C28C34
  21572310.412   113363214.683    21572313.378    88334961.121                  
  20447419.107   107451927.286    20447418.428    83728777.875                  
  22330766.953   117348935.328    22330769.062    91440719.640                  
  23670338.148   124388484.664    23670337.165    96926096.215                  
  21998925.473   115605148.551    21998925.437    90081939.750                  
  22753436.158   119570120.641    22753435.980    93171523.645                  
  21550673.634   113249561.010    21550672.419    88246413.429                  
  20677576.197   108661362.785    20677577.966    84671183.465                  
                 115577414.466                   115577414.466    22195417.449  
                 117866238.579                   117866238.579    22634968.503  
                 130515561.598                   130515561.598    25064142.453  
                 119707145.495                   119707145.495    22988497.741  
 21  9  1  8 12 16.0000000  0 12G 1G 7G 8G13G14G17G21G30C23C25C28C34
  21571807.721   113360573.022    21571810.687    88332902.688                  
  20447668.094   107453235.769    20447667.415    83729797.449                  
  22331323.877   117351861.953    22331326.003    91443000.118                  
  23670133.458   124387409.059    23670132.475    96925258.063                  
  21998510.983   115602970.392    21998510.965    90080242.484                  
  22752910.666   119567359.220    22752910.488    93169371.907                  
  21550653.424   113249454.824    21550652.227    88246330.687                  
  20677397.506   108660423.788    20677399.275    84670451.765                  
                 115576245.016                   115576245.016    22195192.853  
                 117867891.804                   117867891.804    22635285.982  
                 130512321.433                   130512321.433    25063520.218  
                 119709024.669                   119709024.669    22988858.606  
 21  9  1  8 12 17.0000000  0 12G 1G 7G 8G13G14G17G21G30C23C25C28C34
  21571305.119   113357931.863    21571308.085    88330844.640                  
  20447917.224   107454544.902    20447916.545    83730817.550                  
  22331880.836   117354788.802    22331882.963    91445280.776                  
  23669928.912   124386334.106    23669927.929    96924420.438                  
  21998096.511   115600792.374    21998096.493    90078545.329                  
  22752385.245   119564598.074    22752385.067    93167220.362                  
  21550633.340   113249349.269    21550632.125    88246248.439                  
  20677218.941   108659485.387    20677220.692    84669720.548                  
                 115575075.914                   115575075.914    22194968.365  
                 117869545.395                   117869545.395    22635603.532  
                 130509081.434                   130509081.434    25062898.000  
                 119710904.223                   119710904.223    22989219.560  
 21  9  1  8 12 18.0000000  0 12G 1G 7G 8G13G14G17G21G30C23C25C28C34
  21570802.642   113355291.224    21570805.572    88328787.001                  
  20448166.461   107455854.626    20448165.782    83731838.114                  
  22332437.814   117357715.835    22332439.940    91447561.581                  
  23669724.472   124385259.773    23669723.471    96923583.297                  
  21997682.075   115598614.532    21997682.057    90076848.309                  
  22751859.860   119561837.245    22751859.682    93165069.069                  
  21550613.362   113249244.336    21550612.165    88246166.673                  
  20677040.483   108658547.570    20677042.235    84668989.778                  
                 115573907.153                   115573907.153    22194743.894  
                 117871199.347                   117871199.347    22635921.154  
                 130505841.597                   130505841.597    25062275.837  
                 119712784.164                   119712784.164    22989580.586  
 21  9  1  8 12 19.0000000  0 12G 1G 7G 8G13G14G17G21G30C23C25C28C34
  21570300.219   113352651.086    21570303.185    88326729.751                  
  20448415.805   107457164.937    20448415.126    83732859.138                  
  22332994.863   117360643.067    22332996.971    91449842.542                  
  23669520.158   124384186.070    23669519.157    96922746.645                  
  21997267.675   115596436.848    21997267.657    90075151.411                  
  22751334.565   119559076.727    22751334.386    93162918.016                  
  21550593.527   113249140.043    21550592.295    88246085.403                  
  20676862.115   108657610.333    20676863.884    84668259.464                  
                 115572738.734                   115572738.734    22194519.513  
                 117872853.663                   117872853.663    22636238.866  
                 130502601.930                   130502601.930    25061653.673  
                 119714664.492                   119714664.492    22989941.683  
 21  9  1  8 12 20.0000000  0 12G 1G 7G 8G13G14G17G21G30C23C25C28C34
  21569797.920   113350011.461    21569800.887    88324672.898                  
  20448665.257   107458475.849    20448664.578    83733880.625                  
  22333551.947   117363570.511    22333554.056    91452123.667                  
  23669315.933   124383112.986    23669314.968    96921910.473                  
  21996853.328   115594259.329    21996853.292    90073454.640                  
  22750809.305   119556316.509    22750809.126    93160767.199                  
  21550573.782   113249036.375    21550572.585    88246004.620                  
  20676683.871   108656673.672    20676685.640    84667529.598                  
                 115571570.659                   115571570.659    22194295.203  
                 117874508.348                   117874508.348    22636556.613  
                 130499362.431                   130499362.431    25061031.581  
                 119716545.204                   119716545.204    22990302.834  
 21  9  1  8 12 21.0000000  0 12G 1G 7G 8G13G14G17G21G30C23C25C28C34
  21569295.712   113347372.347    21569298.678    88322616.450                  
  20448914.815   107459787.350    20448914.136    83734902.577                  
  22334109.032   117366498.164    22334111.159    91454404.957                  
  23669111.868   124382040.515    23669110.886    96921074.784                  
  21996438.981   115592081.965    21996438.963    90071757.996                  
  22750284.099   119553556.604    22750283.920    93158616.624                  
  21550554.180   113248933.341    21550552.983    88245924.336                  
  20676505.753   108655737.595    20676507.522    84666800.188                  
                 115570402.930                   115570402.930    22194070.964  
                 117876163.393                   117876163.393    22636874.467  
                 130496123.095                   130496123.095    25060409.507  
                 119718426.300                   119718426.300    22990664.092  
 21  9  1  8 12 22.0000000  0 12G 1G 7G 8G13G14G17G21G30C23C25C28C34
  21568793.592   113344733.747    21568796.558    88320560.403                  
  20449164.517   107461099.445    20449163.820    83735924.993                  
  22334666.206   117369426.012    22334668.315    91456686.397                  
  23668907.893   124380968.676    23668906.928    96920239.594                  
  21996024.687   115589904.766    21996024.634    90070061.484                  
  22749758.982   119550797.008    22749758.803    93156466.296                  
  21550534.703   113248830.923    21550533.488    88245844.534                  
  20676327.742   108654802.087    20676329.493    84666071.227                  
                 115569235.544                   115569235.544    22193846.762  
                 117877818.805                   117877818.805    22637192.357  
                 130492883.924                   130492883.924    25059787.432  
                 119720307.782                   119720307.782    22991025.404  
 21  9  1  8 12 23.0000000  0 12G 1G 7G 8G13G14G17G21G30C23C25C28C34
  21568291.597   113342095.657    21568294.546    88318504.751                  
  20449414.308   107462412.132    20449413.611    83736947.871                  
  22335223.380   117372354.067    22335225.507    91458968.005                  
  23668704.061   124379897.450    23668703.061    96919404.872                  
  21995610.394   115587727.725    21995610.358    90068365.095                  
  22749233.900   119548037.714    22749233.722    93154316.204                  
  21550515.315   113248729.141    21550514.118    88245765.231                  
  20676149.820   108653867.160    20676151.589    84665342.715                  
                 115568068.501                   115568068.501    22193622.666  
                 117879474.583                   117879474.583    22637510.336  
                 130489644.923                   130489644.923    25059165.412  
                 119722189.648                   119722189.648    22991386.805  
 21  9  1  8 12 24.0000000  0 12G 1G 7G 8G13G14G17G21G30C23C25C28C34
  21567789.675   113339458.070    21567792.641    88316449.492                  
  20449664.224   107463725.409    20449663.545    83737971.206                  
  22335780.626   117375282.309    22335782.734    91461249.754                  
  23668500.319   124378826.842    23668499.336    96918570.637                  
  21995196.154   115585550.855    21995196.119    90066668.837                  
  22748708.873   119545278.734    22748708.694    93152166.351                  
  21550496.088   113248628.000    21550494.855    88245686.426                  
  20675972.023   108652932.817    20675973.774    84664614.660                  
                 115566901.802                   115566901.802    22193398.607  
                 117881130.722                   117881130.722    22637828.387  
                 130486406.087                   130486406.087    25058543.445  
                 119724071.898                   119724071.898    22991748.259  
 21  9  1  8 12 25.0000000  0 12G 1G 7G 8G13G14G17G21G30C23C25C28C34
  21567287.859   113336821.004    21567290.825    88314394.636                  
  20449914.248   107465039.282    20449913.569    83738995.001                  
  22336337.871   117378210.750    22336339.998    91463531.659                  
  23668296.719   124377756.872    23668295.719    96917736.894                  
  21994781.933   115583374.148    21994781.915    90064972.699                  
  22748183.917   119542520.056    22748183.738    93150016.730                  
  21550476.932   113248527.477    21550475.735    88245608.095                  
  20675794.333   108651999.046    20675796.102    84663887.046                  
                 115565735.442                   115565735.442    22193174.619  
                 117882787.227                   117882787.227    22638146.509  
                 130483167.417                   130483167.417    25057921.495  
                 119725954.535                   119725954.535    22992109.803  
 21  9  1  8 12 26.0000000  0 12G 1G 7G 8G13G14G17G21G30C23C25C28C34
  21566786.132   113334184.437    21566789.099    88312340.168                  
  20450164.360   107466353.739    20450163.681    83740019.253                  
  22336895.188   117381139.394    22336897.297    91465813.719                  
  23668093.227   124376687.524    23668092.244    96916903.636                  
  21994367.764   115581197.600    21994367.729    90063276.688                  
  22747659.014   119539761.680    22747658.835    93147867.349                  
  21550457.937   113248427.597    21550456.740    88245530.268                  
  20675616.769   108651065.853    20675618.520    84663159.879                  
                 115564569.429                   115564569.429    22192950.702  
                 117884444.099                   117884444.099    22638464.685  
                 130479928.915                   130479928.915    25057299.582  
                 119727837.555                   119727837.555    22992471.419  
 21  9  1  8 12 27.0000000  0 12G 1G 7G 8G13G14G17G21G30C23C25C28C34
  21566284.513   113331548.384    21566287.461    88310286.101                  
  20450414.616   107467668.786    20450413.937    83741043.964                  
  22337452.523   117384068.238    22337454.631    91468095.938                  
  23667889.859   124375618.792    23667888.859    96916070.860                  
  21993953.596   115579021.220    21993953.578    90061580.805                  
  22747134.183   119537003.618    22747134.004    93145718.212                  
  21550439.068   113248328.337    21550437.835    88245452.923                  
  20675439.276   108650133.241    20675441.045    84662433.173                  
                 115563403.761                   115563403.761    22192726.839  
                 117886101.331                   117886101.331    22638782.932  
                 130476690.579                   130476690.579    25056677.686  
                 119729720.960                   119729720.960    22992833.124  
 21  9  1  8 12 28.0000000  0 12G 1G 7G 8G13G14G17G21G30C23C25C28C34
  21565782.983   113328912.845    21565785.932    88308232.438                  
  20450664.979   107468984.422    20450664.300    83742069.136                  
  22338009.893   117386997.284    22338012.020    91470378.309                  
  23667686.599   124374550.700    23667685.616    96915238.578                  
  21993539.482   115576844.992    21993539.464    90059885.047                  
  22746609.405   119534245.862    22746609.227    93143569.308                  
  21550420.287   113248229.716    21550419.072    88245376.075                  
  20675261.926   108649201.219    20675263.677    84661706.917                  
                 115562238.437                   115562238.437    22192503.047  
                 117887758.929                   117887758.929    22639101.269  
                 130473452.409                   130473452.409    25056055.826  
                 119731604.751                   119731604.751    22993194.882  
 21  9  1  8 12 29.0000000  0 12G 1G 7G 8G13G14G17G21G30C23C25C28C34
  21565281.561   113326277.821    21565284.527    88306179.169                  
  20450915.431   107470300.660    20450914.752    83743094.778                  
  22338567.318   117389926.544    22338569.444    91472660.847                  
  23667483.464   124373483.227    23667482.481    96914406.781                  
  21993125.403   115574668.943    21993125.367    90058189.422                  
  22746084.664   119531488.414    22746084.485    93141420.652                  
  21550401.632   113248131.734    21550400.417    88245299.724                  
  20675084.683   108648269.778    20675086.434    84660981.121                  
                 115561073.458                   115561073.458    22192279.327  
                 117889416.891                   117889416.891    22639419.659  
                 130470214.405                   130470214.405    25055434.002  
                 119733488.923                   119733488.923    22993556.694  
 21  9  1  8 12 30.0000000  0 12G 1G 7G 8G13G14G17G21G30C23C25C28C34
  21564780.227   113323643.309    21564783.176    88304126.304                  
  20451166.026   107471617.476    20451165.347    83744120.866                  
  22339124.778   117392855.995    22339126.904    91474943.539                  
  23667280.436   124372416.367    23667279.454    96913575.464                  
  21992711.342   115572493.046    21992711.306    90056493.919                  
  22745559.993   119528731.259    22745559.815    93139272.220                  
  21550383.120   113248034.367    21550381.905    88245223.853                  
  20674907.547   108647338.901    20674909.299    84660255.765                  
                 115559908.817                   115559908.817    22192055.678  
                 117891075.220                   117891075.220    22639738.121  
                 130466976.569                   130466976.569    25054812.196  
                 119735373.482                   119735373.482    22993918.613  
 21  9  1  8 12 31.0000000  0 12G 1G 7G 8G13G14G17G21G30C23C25C28C34
  21564279.001   113321009.316    21564281.932    88302073.844                  
  20451416.729   107472934.894    20451416.032    83745147.425                  
  22339682.255   117395785.640    22339684.382    91477226.379                  
  23667077.552   124371350.141    23667076.569    96912744.641                  
  21992297.299   115570317.320    21992297.281    90054798.548                  
  22745035.395   119525974.426    22745035.198    93137124.034                  
  21550364.697   113247937.641    21550363.500    88245148.485                  
  20674730.501   108646408.622    20674732.288    84659530.867                  
                 115558744.522                   115558744.522    22191832.083  
                 117892733.912                   117892733.912    22640056.654  
                 130463738.899                   130463738.899    25054190.443  
                 119737258.424                   119737258.424    22994280.604  
 21  9  1  8 12 32.0000000  0 12G 1G 7G 8G13G14G17G21G30C23C25C28C34
  21563777.864   113318375.815    21563780.813    88300021.766                  
  20451667.538   107474252.902    20451666.859    83746174.444                  
  22340239.805   117398715.476    22340241.913    91479509.367                  
  23666874.774   124370284.534    23666873.773    96911914.298                  
  21991883.291   115568141.746    21991883.273    90053103.298                  
  22744510.832   119523217.891    22744510.653    93134976.089                  
  21550346.417   113247841.538    21550345.202    88245073.597                  
  20674553.598   108645478.916    20674555.367    84658806.421                  
                 115557580.573                   115557580.573    22191608.559  
                 117894392.970                   117894392.970    22640375.258  
                 130460501.398                   130460501.398    25053568.727  
                 119739143.754                   119739143.754    22994642.666  
 21  9  1  8 12 33.0000000  0 12G 1G 7G 8G13G14G17G21G30C23C25C28C34
  21563276.817   113315742.841    21563279.783    88297970.097                  
  20451918.455   107475571.505    20451917.776    83747201.925                  
  22340797.354   117401645.517    22340799.480    91481792.511                  
  23666672.121   124369219.558    23666671.121    96911084.446                  
  21991469.337   115565966.349    21991469.320    90051408.180                  
  22743986.340   119520461.672    22743986.161    93132828.386                  
  21550328.262   113247746.066    21550327.047    88244999.207                  
  20674376.784   108644549.784    20674378.553    84658082.427                  
                 115556416.967                   115556416.967    22191385.107  
                 117896052.386                   117896052.386    22640693.935  
                 130457264.062                   130457264.062    25052947.027  
                 119741029.464                   119741029.464    22995004.800  
 21  9  1  8 12 34.0000000  0 12G 1G 7G 8G13G14G17G21G30C23C25C28C34
  21562775.877   113313110.367    21562778.825    88295918.820                  
  20452169.479   107476890.698    20452168.800    83748229.870                  
  22341354.975   117404575.780    22341357.101    91484075.836                  
  23666469.576   124368155.207    23666468.575    96910255.082                  
  21991055.419   115563791.113    21991055.384    90049713.191                  
  22743461.920   119517705.761    22743461.741    93130680.925                  
  21550310.196   113247651.233    21550308.999    88244925.312                  
  20674200.077   108643621.242    20674201.864    84657358.888                  
                 115555253.708                   115555253.708    22191161.709  
                 117897712.171                   117897712.171    22641012.682  
                 130454026.895                   130454026.895    25052325.364  
                 119742915.558                   119742915.558    22995367.005  
 21  9  1  8 12 35.0000000  0 12G 1G 7G 8G13G14G17G21G30C23C25C28C34
  21562275.044   113310478.414    21562277.974    88293867.944                  
  20452420.646   107478210.484    20452419.967    83749258.277                  
  22341912.613   117407506.238    22341914.740    91486359.312                  
  23666267.156   124367091.476    23666266.155    96909426.200                  
  21990641.501   115561616.035    21990641.483    90048018.328                  
  22742937.536   119514950.156    22742937.357    93128533.700                  
  21550292.274   113247557.032    21550291.059    88244851.906                  
  20674023.495   108642693.276    20674025.264    84656635.797                  
                 115554090.794                   115554090.794    22190938.382  
                 117899372.325                   117899372.325    22641331.501  
                 130450789.891                   130450789.891    25051703.719  
                 119744802.039                   119744802.039    22995729.281  
 21  9  1  8 12 36.0000000  0 12G 1G 7G 8G13G14G17G21G30C23C25C28C34
  21561774.282   113307846.973    21561777.249    88291817.474                  
  20452671.903   107479530.859    20452671.224    83750287.141                  
  22342470.305   117410436.878    22342472.414    91488642.925                  
  23666064.860   124366028.360    23666063.860    96908597.796                  
  21990227.637   115559441.124    21990227.601    90046323.595                  
  22742413.223   119512194.858    22742413.044    93126386.715                  
  21550274.458   113247463.446    21550273.261    88244778.984                  
  20673847.021   108641765.890    20673848.808    84655913.159                  
                 115552928.220                   115552928.220    22190715.126  
                 117901032.837                   117901032.837    22641650.374  
                 130447553.059                   130447553.059    25051082.127  
                 119746688.903                   119746688.903    22996091.611  
 21  9  1  8 12 37.0000000  0 12G 1G 7G 8G13G14G17G21G30C23C25C28C34
  21561273.646   113305216.056    21561276.576    88289767.405                  
  20452923.266   107480851.828    20452922.587    83751316.460                  
  22343028.033   117413367.731    22343030.160    91490926.707                  
  23665862.655   124364965.878    23665861.672    96907769.891                  
  21989813.808   115557266.378    21989813.755    90044628.985                  
  22741888.964   119509439.875    22741888.785    93124239.972                  
  21550256.786   113247370.512    21550255.589    88244706.566                  
  20673670.654   108640839.089    20673672.423    84655190.974                  
                 115551765.990                   115551765.990    22190491.924  
                 117902693.716                   117902693.716    22641969.336  
                 130444316.389                   130444316.389    25050460.553  
                 119748576.149                   119748576.149    22996454.067  
 21  9  1  8 12 38.0000000  0 12G 1G 7G 8G13G14G17G21G30C23C25C28C34
  21560773.081   113302585.639    21560776.047    88287717.735                  
  20453174.755   107482173.383    20453174.058    83752346.246                  
  22343585.797   117416298.779    22343587.906    91493210.640                  
  23665660.592   124363904.025    23665659.627    96906942.472                  
  21989399.979   115555091.793    21989399.962    90042934.503                  
  22741364.758   119506685.191    22741364.579    93122093.468                  
  21550239.220   113247278.191    21550238.005    88244634.630                  
  20673494.394   108639912.863    20673496.180    84654469.241                  
                 115550604.105                   115550604.105    22190268.794  
                 117904354.957                   117904354.957    22642288.352  
                 130441079.891                   130441079.891    25049839.015  
                 119750463.781                   119750463.781    22996816.558  
 21  9  1  8 12 39.0000000  0 12G 1G 7G 8G13G14G17G21G30C23C25C28C34
  21560272.641   113299955.734    21560275.572    88285668.458                  
  20453426.333   107483495.531    20453425.654    83753376.493                  
  22344143.579   117419230.028    22344145.705    91495494.731                  
  23665458.654   124362842.790    23665457.653    96906115.534                  
  21988986.204   115552917.370    21988986.187    90041240.147                  
  22740840.624   119503930.812    22740840.445    93119947.203                  
  21550221.762   113247186.511    21550220.565    88244563.188                  
  20673318.259   108638987.226    20673320.046    84653747.961                  
                 115549442.567                   115549442.567    22190045.735  
                 117906016.566                   117906016.566    22642607.457  
                 130437843.559                   130437843.559    25049217.512  
                 119752351.792                   119752351.792    22997179.120  
 21  9  1  8 12 40.0000000  0 12G 1G 7G 8G13G14G17G21G30C23C25C28C34
  21559772.273   113297326.345    21559775.221    88283619.581                  
  20453678.054   107484818.278    20453677.375    83754407.202                  
  22344701.414   117422161.466    22344703.540    91497778.966                  
  23665256.823   124361782.172    23665255.840    96905289.083                  
  21988572.465   115550743.117    21988572.447    90039545.926                  
  22740316.543   119501176.753    22740316.364    93117801.181                  
  21550204.447   113247095.458    21550203.214    88244492.237                  
  20673142.249   108638062.165    20673144.000    84653027.132                  
                 115548281.371                   115548281.371    22189822.747  
                 117907678.535                   117907678.535    22642926.615  
                 130434607.395                   130434607.395    25048596.045  
                 119754240.191                   119754240.191    22997541.772  
 21  9  1  8 12 41.0000000  0 12G 1G 7G 8G13G14G17G21G30C23C25C28C34
  21559272.012   113294697.472    21559274.960    88281571.109                  
  20453929.882   107486141.614    20453929.203    83755438.376                  
  22345259.302   117425093.083    22345261.429    91500063.345                  
  23665055.118   124360722.185    23665054.117    96904463.117                  
  21988158.744   115548569.022    21988158.726    90037851.824                  
  22739792.516   119498422.996    22739792.337    93115655.394                  
  21550187.240   113247005.038    21550186.024    88244421.786                  
  20672966.292   108637137.675    20672968.079    84652306.758                  
                 115547120.519                   115547120.519    22189599.813  
                 117909340.870                   117909340.870    22643245.863  
                 130431371.397                   130431371.397    25047974.597  
                 119756128.975                   119756128.975    22997904.495  
 21  9  1  8 12 42.0000000  0 12G 1G 7G 8G13G14G17G21G30C23C25C28C34
  21558771.858   113292069.110    21558774.806    88279523.035                  
  20454181.817   107487465.540    20454181.138    83756470.005                  
  22345817.191   117428024.925    22345819.318    91502347.895                  
  23664853.519   124359662.828    23664852.537    96903637.644                  
  21987745.058   115546395.098    21987745.040    90036157.860                  
  22739268.561   119495669.556    22739268.382    93113509.858                  
  21550170.139   113246915.241    21550168.942    88244351.812                  
  20672790.497   108636213.785    20672792.266    84651586.841                  
                 115545960.013                   115545960.013    22189376.969  
                 117911003.571                   117911003.571    22643565.165  
                 130428135.568                   130428135.568    25047353.201  
                 119758018.140                   119758018.140    22998267.272  
 21  9  1  8 12 43.0000000  0 12G 1G 7G 8G13G14G17G21G30C23C25C28C34
  21558271.793   113289441.250    21558274.741    88277475.356                  
  20454433.860   107488790.051    20454433.181    83757502.091                  
  22346375.151   117430956.965    22346377.278    91504632.601                  
  23664652.064   124358604.091    23664651.063    96902812.652                  
  21987331.408   115544221.332    21987331.372    90034464.011                  
  22738744.659   119492916.410    22738744.480    93111364.554                  
  21550153.181   113246826.081    21550151.966    88244282.336                  
  20672614.809   108635290.464    20672616.560    84650867.367                  
                 115544799.853                   115544799.853    22189154.160  
                 117912666.637                   117912666.637    22643884.520  
                 130424899.907                   130424899.907    25046731.824  
                 119759907.691                   119759907.691    22998630.156  
 21  9  1  8 12 44.0000000  0 12G 1G 7G 8G13G14G17G21G30C23C25C28C34
  21557771.818   113286813.909    21557774.784    88275428.078                  
  20454686.027   107490115.159    20454685.348    83758534.641                  
  22346933.147   117433889.204    22346935.256    91506917.465                  
  23664450.698   124357545.985    23664449.715    96901988.156                  
  21986917.776   115542047.730    21986917.758    90032770.296                  
  22738220.793   119490163.571    22738220.614    93109219.481                  
  21550136.349   113246737.555    21550135.116    88244213.354                  
  20672439.192   108634367.723    20672440.961    84650148.351                  
                 115543640.030                   115543640.030    22188931.422  
                 117914330.065                   117914330.065    22644203.983  
                 130421664.409                   130421664.409    25046110.482  
                 119761797.621                   119761797.621    22998993.094  
 21  9  1  8 12 45.0000000  0 12G 1G 7G 8G13G14G17G21G30C23C25C28C34
  21557271.968   113284187.085    21557274.898    88273381.199                  
  20454938.302   107491440.864    20454937.623    83759567.659                  
  22347491.161   117436821.659    22347493.288    91509202.493                  
  23664249.475   124356488.506    23664248.474    96901164.149                  
  21986504.197   115539874.296    21986504.161    90031076.715                  
  22737697.016   119487411.044    22737696.837    93107074.657                  
  21550119.605   113246649.653    21550118.408    88244144.860                  
  20672263.718   108633445.570    20672265.505    84649429.793                  
                 115542480.559                   115542480.559    22188708.757  
                 117915993.860                   117915993.860    22644523.481  
                 130418429.083                   130418429.083    25045489.158  
                 119763687.937                   119763687.937    22999356.121  
 21  9  1  8 12 46.0000000  0 12G 1G 7G 8G13G14G17G21G30C23C25C28C34
  21556772.189   113281560.780    21556775.137    88271334.730                  
  20455190.684   107492767.161    20455190.005    83760601.136                  
  22348049.229   117439754.306    22348051.337    91511487.672                  
  23664048.359   124355431.647    23664047.376    96900340.622                  
  21986090.636   115537701.023    21986090.601    90029383.253                  
  22737173.275   119484658.825    22737173.096    93104930.070                  
  21550103.005   113246562.386    21550101.772    88244076.859                  
  20672088.352   108632523.992    20672090.121    84648711.675                  
                 115541321.434                   115541321.434    22188486.162  
                 117917658.016                   117917658.016    22644843.086  
                 130415193.925                   130415193.925    25044867.906  
                 119765578.637                   119765578.637    22999719.202  
 21  9  1  8 12 47.0000000  0 12G 1G 7G 8G13G14G17G21G30C23C25C28C34
  21556272.517   113278934.986    21556275.466    88269288.652                  
  20455443.174   107494094.043    20455442.495    83761635.071                  
  22348607.332   117442687.173    22348609.458    91513773.023                  
  23663847.368   124354375.431    23663846.385    96899517.594                  
  21985677.094   115535527.911    21985677.076    90027689.917                  
  22736649.623   119481906.922    22736649.444    93102785.731                  
  21550086.512   113246475.749    21550085.297    88244009.348                  
  20671913.092   108631602.989    20671914.861    84647994.013                  
                 115540162.649                   115540162.649    22188263.621  
                 117919322.534                   117919322.534    22645162.727  
                 130411958.934                   130411958.934    25044246.636  
                 119767469.718                   119767469.718    23000082.354  
 21  9  1  8 12 48.0000000  0 12G 1G 7G 8G13G14G17G21G30C23C25C28C34
  21555772.935   113276309.708    21555775.902    88267242.983                  
  20455695.788   107495421.523    20455695.091    83762669.469                  
  22349165.489   117445620.239    22349167.597    91516058.531                  
  23663646.503   124353319.821    23663645.502    96898695.039                  
  21985263.604   115533354.964    21985263.587    90025996.714                  
  22736126.007   119479155.314    22736125.828    93100641.620                  
  21550070.144   113246389.743    21550068.947    88243942.333                  
  20671737.940   108630682.570    20671739.691    84647276.805                  
                 115539004.210                   115539004.210    22188041.152  
                 117920987.423                   117920987.423    22645482.458  
                 130408724.110                   130408724.110    25043625.437  
                 119769361.183                   119769361.183    23000445.595  
 21  9  1  8 12 49.0000000  0 12G 1G 7G 8G13G14G17G21G30C23C25C28C34
  21555273.460   113273684.938    21555276.427    88265197.710                  
  20455948.527   107496749.589    20455947.848    83763704.329                  
  22349723.663   117448553.520    22349725.772    91518344.200                  
  23663445.744   124352264.852    23663444.761    96897872.987                  
  21984850.133   115531182.184    21984850.097    90024303.641                  
  22735602.445   119476404.028    22735602.266    93098497.761                  
  21550053.901   113246304.371    21550052.686    88243875.809                  
  20671562.895   108629762.738    20671564.682    84646560.051                  
                 115537846.118                   115537846.118    22187818.754  
                 117922652.672                   117922652.672    22645802.242  
                 130405489.453                   130405489.453    25043004.238  
                 119771253.034                   119771253.034    23000808.908  
 21  9  1  8 12 50.0000000  0 12G 1G 7G 8G13G14G17G21G30C23C25C28C34
  21554774.075   113271060.672    21554777.041    88263152.828                  
  20456201.338   107498078.255    20456200.659    83764739.648                  
  22350281.874   117451486.988    22350284.000    91520630.024                  
  23663245.093   124351210.505    23663244.128    96897051.418                  
  21984436.698   115529009.559    21984436.680    90022610.684                  
  22735078.954   119473653.035    22735078.757    93096354.132                  
  21550037.783   113246219.624    21550036.568    88243809.772                  
  20671387.975   108628843.480    20671389.744    84645843.746                  
                 115536688.368                   115536688.368    22187596.428  
                 117924318.284                   117924318.284    22646122.097  
                 130402254.964                   130402254.964    25042383.093  
                 119773145.266                   119773145.266    23001172.293  
 21  9  1  8 12 51.0000000  0 12G 1G 7G 8G13G14G17G21G30C23C25C28C34
  21554274.796   113268436.938    21554277.763    88261108.360                  
  20456454.292   107499407.513    20456453.613    83765775.433                  
  22350840.138   117454420.644    22350842.264    91522915.987                  
  23663044.585   124350156.785    23663043.602    96896230.340                  
  21984023.298   115526837.111    21984023.262    90020917.867                  
  22734555.516   119470902.356    22734555.338    93094210.751                  
  21550021.754   113246135.514    21550020.557    88243744.234                  
  20671213.163   108627924.804    20671214.914    84645127.895                  
                 115535530.956                   115535530.956    22187374.155  
                 117925984.265                   117925984.265    22646442.042  
                 130399020.661                   130399020.661    25041761.984  
                 119775037.883                   119775037.883    23001535.767  
 21  9  1  8 12 52.0000000  0 12G 1G 7G 8G13G14G17G21G30C23C25C28C34
  21553775.625   113265813.714    21553778.556    88259064.294                  
  20456707.353   107500737.358    20456706.674    83766811.681                  
  22351398.438   117457354.491    22351400.564    91525202.102                  
  23662844.201   124349103.694    23662843.201    96895409.749                  
  21983609.916   115524664.821    21983609.898    90019225.171                  
  22734032.133   119468151.995    22734031.954    93092067.610                  
  21550005.887   113246052.035    21550004.672    88243679.183                  
  20671038.457   108627006.712    20671040.226    84644412.496                  
                 115534373.898                   115534373.898    22187151.954  
                 117927650.610                   117927650.610    22646762.040  
                 130395786.507                   130395786.507    25041140.893  
                 119776930.883                   119776930.883    23001899.276  
 21  9  1  8 12 53.0000000  0 12G 1G 7G 8G13G14G17G21G30C23C25C28C34
  21553276.543   113263191.004    21553279.474    88257020.621                  
  20456960.540   107502067.796    20456959.861    83767848.383                  
  22351956.755   117460288.543    22351958.882    91527488.374                  
  23662643.925   124348051.234    23662642.925    96894589.648                  
  21983196.587   115522492.695    21983196.552    90017532.608                  
  22733508.821   119465401.938    22733508.642    93089924.711                  
  21549990.126   113245969.187    21549988.893    88243614.624                  
  20670863.859   108626089.204    20670865.628    84643697.555                  
                 115533217.184                   115533217.184    22186929.824  
                 117929317.316                   117929317.316    22647082.128  
                 130392552.524                   130392552.524    25040519.837  
                 119778824.261                   119778824.261    23002262.875  
 21  9  1  8 12 54.0000000  0 12G 1G 7G 8G13G14G17G21G30C23C25C28C34
  21552777.533   113260568.801    21552780.499    88254977.344                  
  20457213.815   107503398.829    20457213.136    83768885.550                  
  22352515.144   117463222.798    22352517.253    91529774.809                  
  23662443.756   124346999.383    23662442.756    96893770.027                  
  21982783.277   115520320.734    21982783.241    90015840.171                  
  22732985.562   119462652.181    22732985.383    93087782.043                  
  21549974.473   113245886.972    21549973.258    88243550.565                  
  20670689.368   108625172.277    20670691.137    84642983.066                  
                 115532060.815                   115532060.815    22186707.765  
                 117930984.388                   117930984.388    22647402.252  
                 130389318.710                   130389318.710    25039898.817  
                 119780718.023                   119780718.023    23002626.563  
 21  9  1  8 12 55.0000000  0 12G 1G 7G 8G13G14G17G21G30C23C25C28C34
  21552278.666   113257947.133    21552281.596    88252934.488                  
  20457467.216   107504730.450    20457466.537    83769923.181                  
  22353073.533   117466157.246    22353075.660    91532061.390                  
  23662243.713   124345948.173    23662242.712    96892950.902                  
  21982370.002   115518148.942    21982369.966    90014147.864                  
  22732462.357   119459902.738    22732462.160    93085639.622                  
  21549958.945   113245805.392    21549957.748    88243486.991                  
  20670515.002   108624255.934    20670516.753    84642269.030                  
                 115530904.793                   115530904.793    22186485.761  
                 117932651.821                   117932651.821    22647722.483  
                 130386085.061                   130386085.061    25039277.832  
                 119782612.168                   119782612.168    23002990.323  
 21  9  1  8 12 56.0000000  0 12G 1G 7G 8G13G14G17G21G30C23C25C28C34
  21551779.852   113255325.960    21551782.818    88250892.016                  
  20457720.741   107506062.672    20457720.062    83770961.274                  
  22353631.976   117469091.897    22353634.120    91534348.133                  
  23662043.794   124344897.585    23662042.793    96892132.262                  
  21981956.745   115515977.304    21981956.727    90012455.683                  
  22731939.223   119457153.609    22731939.027    93083497.441                  
  21549943.542   113245724.430    21549942.327    88243423.909                  
  20670340.743   108623340.172    20670342.495    84641555.454                  
                 115529749.116                   115529749.116    22186263.827  
                 117934319.622                   117934319.622    22648042.767  
                 130382851.587                   130382851.587    25038656.884  
                 119784506.701                   119784506.701    23003354.136  
 21  9  1  8 12 57.0000000  0 12G 1G 7G 8G13G14G17G21G30C23C25C28C34
  21551281.163   113252705.298    21551284.112    88248849.937                  
  20457974.356   107507395.481    20457973.677    83771999.824                  
  22354190.472   117472026.757    22354192.599    91536635.036                  
  23661844.001   124343847.622    23661843.000    96891314.109                  
  21981543.524   115513805.835    21981543.506    90010763.625                  
  22731416.126   119454404.785    22731415.947    93081355.500                  
  21549928.264   113245644.109    21549927.049    88243361.321                  
  20670166.574   108622424.979    20670168.343    84640842.317                  
                 115528593.786                   115528593.786    22186041.948  
                 117935987.785                   117935987.785    22648363.123  
                 130379618.273                   130379618.273    25038035.953  
                 119786401.608                   119786401.608    23003718.039  
 21  9  1  8 12 58.0000000  0 12G 1G 7G 8G13G14G17G21G30C23C25C28C34
  21550782.582   113250085.165    21550785.512    88246808.276                  
  20458228.097   107508728.888    20458227.418    83773038.840                  
  22354749.005   117474961.824    22354751.113    91538922.102                  
  23661644.314   124342798.286    23661643.314    96890496.445                  
  21981130.339   115511634.531    21981130.321    90009071.704                  
  22730893.099   119451656.269    22730892.921    93079213.800                  
  21549913.093   113245564.421    21549911.878    88243299.226                  
  20669992.548   108621510.388    20669994.299    84640129.644                  
                 115527438.796                   115527438.796    22185820.140  
                 117937656.314                   117937656.314    22648683.532  
                 130376385.133                   130376385.133    25037415.058  
                 119788296.902                   119788296.902    23004081.995  
 21  9  1  8 12 59.0000000  0 12G 1G 7G 8G13G14G17G21G30C23C25C28C34
  21550284.072   113247465.538    21550287.020    88244767.012                  
  20458481.944   107510062.871    20458481.265    83774078.312                  
  22355307.554   117477897.071    22355309.681    91541209.305                  
  23661444.735   124341749.567    23661443.752    96889679.261                  
  21980717.171   115509463.392    21980717.153    90007379.902                  
  22730370.145   119448908.058    22730369.948    93077072.339                  
  21549898.047   113245485.364    21549896.832    88243237.626                  
  20669818.593   108620596.360    20669820.362    84639417.419                  
                 115526284.158                   115526284.158    22185598.403  
                 117939325.203                   117939325.203    22649004.049  
                 130373152.160                   130373152.160    25036794.199  
                 119790192.578                   119790192.578    23004446.059  
 21  9  1  8 13  0.0000000  0 12G 1G 7G 8G13G14G17G21G30C23C25C28C34
  21549785.687   113244846.429    21549788.617    88242726.149                  
  20458735.898   107511397.452    20458735.237    83775118.245                  
  22355866.158   117480832.511    22355868.284    91543496.661                  
  23661245.299   124340701.467    23661244.316    96888862.562                  
  21980304.057   115507292.413    21980304.039    90005688.235                  
  22729847.226   119446160.167    22729847.047    93074931.130                  
  21549883.127   113245406.929    21549881.894    88243176.508                  
  20669644.781   108619682.931    20669646.532    84638705.653                  
                 115525129.859                   115525129.859    22185376.738  
                 117940994.462                   117940994.462    22649324.601  
                 130369919.354                   130369919.354    25036173.376  
                 119792088.637                   119792088.637    23004810.158  
 21  9  1  8 13  1.0000000  0 12G 1G 7G 8G13G14G17G21G30C23C25C28C34
  21549287.373   113242227.847    21549290.322    88240685.696                  
  20458989.978   107512732.617    20458989.299    83776158.634                  
  22356424.779   117483768.145    22356426.906    91545784.168                  
  23661045.988   124339654.004    23661044.987    96888046.355                  
  21979890.979   115505121.597    21979890.943    90003996.692                  
  22729324.378   119443412.579    22729324.199    93072790.147                  
  21549868.313   113245329.134    21549867.098    88243115.886                  
  20669471.076   108618770.074    20669472.845    84637994.336                  
                 115523975.907                   115523975.907    22185155.144  
                 117942664.081                   117942664.081    22649645.225  
                 130366686.718                   130366686.718    25035552.588  
                 119793985.074                   119793985.074    23005174.364  
 21  9  1  8 13  2.0000000  0 12G 1G 7G 8G13G14G17G21G30C23C25C28C34
  21548789.185   113239609.771    21548792.116    88238645.636                  
  20459244.183   107514068.387    20459243.504    83777199.493                  
  22356983.454   117486703.984    22356985.581    91548071.832                  
  23660846.766   124338607.172    23660845.783    96887230.641                  
  21979477.919   115502950.953    21979477.883    90002305.277                  
  22728801.584   119440665.304    22728801.405    93070649.418                  
  21549853.643   113245251.975    21549852.428    88243055.762                  
  20669297.478   108617857.798    20669299.247    84637283.472                  
                 115522822.301                   115522822.301    22184933.604  
                 117944334.066                   117944334.066    22649965.938  
                 130363454.253                   130363454.253    25034931.818  
                 119795881.897                   119795881.897    23005538.624  
 21  9  1  8 13  3.0000000  0 12G 1G 7G 8G13G14G17G21G30C23C25C28C34
  21548291.068   113236992.207    21548294.017    88236605.977                  
  20459498.477   107515404.747    20459497.798    83778240.808                  
  22357542.165   117489640.020    22357544.274    91550359.653                  
  23660647.687   124337560.965    23660646.705    96886415.417                  
  21979064.876   115500780.473    21979064.858    90000613.996                  
  22728278.861   119437918.340    22728278.683    93068508.925                  
  21549839.079   113245175.445    21549837.864    88242996.128                  
  20669123.988   108616946.109    20669125.739    84636573.062                  
                 115521669.044                   115521669.044    22184712.117  
                 117946004.416                   117946004.416    22650286.705  
                 130360221.956                   130360221.956    25034311.102  
                 119797779.102                   119797779.102    23005902.956  
 21  9  1  8 13  4.0000000  0 12G 1G 7G 8G13G14G17G21G30C23C25C28C34
  21547793.058   113234375.169    21547796.007    88234566.726                  
  20459752.878   107516741.708    20459752.199    83779282.603                  
  22358100.912   117492576.265    22358103.038    91552647.640                  
  23660448.716   124336515.350    23660447.733    96885600.637                  
  21978651.887   115498610.155    21978651.852    89998922.839                  
  22727756.175   119435171.676    22727755.996    93066368.665                  
  21549824.641   113245099.540    21549823.426    88242936.977                  
  20668950.605   108616035.003    20668952.356    84635863.117                  
                 115520516.133                   115520516.133    22184490.720  
                 117947675.137                   117947675.137    22650607.543  
                 130356989.878                   130356989.878    25033690.386  
                 119799676.688                   119799676.688    23006267.377  
 21  9  1  8 13  5.0000000  0 12G 1G 7G 8G13G14G17G21G30C23C25C28C34
  21547295.138   113231758.636    21547298.104    88232527.872                  
  20460007.405   107518079.235    20460006.726    83780324.827                  
  22358659.694   117495512.703    22358661.820    91554935.773                  
