% program   : rnx2rtkp ver.2.4.3 b31
% inp file  : ngs/21_09_01_11_12_50_talh.obs
% inp file  : ngs/21_09_01_11_12_50_talh_VZ.obs
% inp file  : ngs/21_09_01_11_12_50_brdc.nav
% obs start : 2021/09/01 11:00:00.0 GPST (week2173 298800.0s)
% obs end   : 2021/09/01 11:59:59.0 GPST (week2173 302399.0s)
% ref pos   :   541906.5699  -5479021.0959   3209021.2120
%
% (x/y/z-ecef=WGS84,Q=1:fix,2:float,3:sbas,4:dgps,5:single,6:ppp,ns=# of satellites)
%  GPST              x-ecef(m)      y-ecef(m)      z-ecef(m)   Q  ns   sdx(m)   sdy(m)   sdz(m)  sdxy(m)  sdyz(m)  sdzx(m) age(s)  ratio
2173 299548.000    541527.5580  -5479445.6816   3208362.1567   2   7   0.5062   1.0114   0.7726  -0.1333  -0.7077  -0.2429 -30.00    3.0
2173 299549.000    541527.6081  -5479445.8909   3208362.1561   1   7   0.0233   0.0438   0.0355   0.0095  -0.0289  -0.0157 -29.00    3.0
2173 299550.000    541527.6092  -5479445.8862   3208362.1532   1   7   0.0225   0.0423   0.0344   0.0091  -0.0280  -0.0152 -28.00    3.0
2173 299551.000    541527.6099  -5479445.8934   3208362.1538   1   7   0.0218   0.0409   0.0332   0.0088  -0.0271  -0.0146 -27.00    3.0
2173 299552.000    541527.6077  -5479445.8902   3208362.1544   1   7   0.0210   0.0395   0.0321   0.0084  -0.0261  -0.0141 -26.00    3.0
2173 299553.000    541527.6081  -5479445.8899   3208362.1532   1   7   0.0203   0.0381   0.0309   0.0080  -0.0252  -0.0136 -25.00    3.0
2173 299554.000    541527.6098  -5479445.8908   3208362.1503   1   7   0.0196   0.0367   0.0298   0.0077  -0.0243  -0.0131 -24.00    3.1
2173 299555.000    541527.6074  -5479445.8885   3208362.1515   1   7   0.0188   0.0353   0.0287   0.0073  -0.0233  -0.0126 -23.00    3.2
2173 299556.000    541527.6099  -5479445.8901   3208362.1465   1   7   0.0181   0.0339   0.0275   0.0069  -0.0224  -0.0121 -22.00    3.2
2173 299557.000    541527.6079  -5479445.8898   3208362.1505   1   7   0.0174   0.0326   0.0264   0.0065  -0.0215  -0.0116 -21.00    3.3
2173 299558.000    541527.6076  -5479445.8852   3208362.1473   1   7   0.0166   0.0312   0.0253   0.0061  -0.0206  -0.0111 -20.00    3.4
2173 299559.000    541527.6075  -5479445.8849   3208362.1443   1   7   0.0159   0.0298   0.0242   0.0057  -0.0196  -0.0106 -19.00    3.5
2173 299560.000    541527.6075  -5479445.8855   3208362.1469   1   7   0.0152   0.0285   0.0231   0.0053  -0.0187  -0.0100 -18.00    3.6
2173 299561.000    541527.6076  -5479445.8861   3208362.1410   1   7   0.0145   0.0271   0.0219   0.0050  -0.0178  -0.0096 -17.00    3.8
2173 299562.000    541527.6062  -5479445.8789   3208362.1395   1   7   0.0138   0.0258   0.0209   0.0045  -0.0169  -0.0090 -16.00    3.9
2173 299563.000    541527.6065  -5479445.8761   3208362.1362   1   7   0.0131   0.0245   0.0198   0.0041  -0.0160  -0.0086 -15.00    4.1
2173 299564.000    541527.6075  -5479445.8759   3208362.1331   1   7   0.0124   0.0231   0.0187   0.0037  -0.0152  -0.0081 -14.00    4.3
2173 299565.000    541527.6073  -5479445.8778   3208362.1330   1   7   0.0117   0.0218   0.0176   0.0033  -0.0143  -0.0076 -13.00    4.5
2173 299566.000    541527.6089  -5479445.8754   3208362.1307   1   7   0.0110   0.0206   0.0166   0.0028  -0.0135  -0.0071 -12.00    4.6
2173 299567.000    541527.6094  -5479445.8747   3208362.1297   1   7   0.0104   0.0193   0.0155   0.0023  -0.0126  -0.0066 -11.00    4.8
2173 299568.000    541527.6081  -5479445.8741   3208362.1270   1   7   0.0098   0.0181   0.0145   0.0018  -0.0119  -0.0061 -10.00    5.2
2173 299569.000    541527.6089  -5479445.8704   3208362.1237   1   7   0.0091   0.0169   0.0135   0.0011  -0.0111  -0.0056  -9.00    5.6
2173 299570.000    541527.6087  -5479445.8714   3208362.1243   1   7   0.0085   0.0158   0.0126  -0.0007  -0.0104  -0.0050  -8.00    6.0
2173 299571.000    541527.6069  -5479445.8664   3208362.1236   1   7   0.0080   0.0147   0.0117  -0.0010  -0.0097  -0.0047  -7.00    6.5
2173 299572.000    541527.6080  -5479445.8717   3208362.1260   1   7   0.0075   0.0137   0.0108  -0.0014  -0.0091  -0.0041  -6.00    7.3
2173 299573.000    541527.6088  -5479445.8671   3208362.1244   1   7   0.0067   0.0128   0.0100  -0.0014  -0.0085  -0.0038  -5.00    8.3
2173 299574.000    541527.6088  -5479445.8711   3208362.1252   1   7   0.0061   0.0119   0.0093  -0.0014  -0.0080  -0.0035  -4.00    9.3
2173 299575.000    541527.6090  -5479445.8698   3208362.1223   1   7   0.0059   0.0112   0.0087  -0.0016  -0.0077  -0.0030  -3.00   11.0
2173 299576.000    541527.6125  -5479445.8673   3208362.1203   1   7   0.0053   0.0107   0.0081  -0.0020  -0.0074  -0.0030  -2.00   12.4
2173 299577.000    541527.6123  -5479445.8695   3208362.1200   1   7   0.0052   0.0104   0.0080  -0.0018  -0.0072  -0.0025  -1.00   14.2
2173 299578.000    541527.6152  -5479445.8708   3208362.1182   1   7   0.0049   0.0103   0.0077  -0.0006  -0.0072  -0.0025   0.00   16.3
2173 299579.000    541527.6144  -5479445.8691   3208362.1189   1   7   0.0053   0.0102   0.0078  -0.0016  -0.0073  -0.0022   0.00   17.9
2173 299580.000    541527.6127  -5479445.8706   3208362.1165   1   7   0.0051   0.0102   0.0078  -0.0015  -0.0072  -0.0027   0.00   20.0
2173 299581.000    541527.6134  -5479445.8641   3208362.1134   1   7   0.0047   0.0102   0.0077  -0.0010  -0.0072  -0.0024   0.00   21.7
2173 299582.000    541527.6155  -5479445.8671   3208362.1140   1   7   0.0052   0.0103   0.0079  -0.0015  -0.0072  -0.0025   0.00   23.5
2173 299583.000    541527.6150  -5479445.8696   3208362.1156   1   7   0.0051   0.0102   0.0078  -0.0011  -0.0071  -0.0025   0.00   24.9
2173 299584.000    541527.6160  -5479445.8654   3208362.1130   1   7   0.0052   0.0102   0.0079  -0.0010  -0.0072  -0.0026   0.00   25.7
2173 299585.000    541527.6129  -5479445.8699   3208362.1188   1   7   0.0051   0.0103   0.0078  -0.0015  -0.0071  -0.0022   0.00   26.7
2173 299586.000    541527.6140  -5479445.8675   3208362.1163   1   7   0.0052   0.0102   0.0079  -0.0018  -0.0072  -0.0026   0.00   27.0
2173 299587.000    541527.6172  -5479445.8671   3208362.1147   1   7   0.0052   0.0102   0.0078  -0.0016  -0.0072  -0.0025   0.00   27.4
2173 299588.000    541527.6122  -5479445.8687   3208362.1188   1   7   0.0055   0.0102   0.0077  -0.0014  -0.0072  -0.0024   0.00   28.0
2173 299589.000    541527.6127  -5479445.8720   3208362.1210   1   7   0.0051   0.0102   0.0079  -0.0012  -0.0072  -0.0025   0.00   28.4
2173 299590.000    541527.6125  -5479445.8642   3208362.1198   1   7   0.0049   0.0102   0.0078  -0.0017  -0.0072  -0.0025   0.00   28.1
2173 299591.000    541527.6117  -5479445.8683   3208362.1188   1   7   0.0052   0.0102   0.0077  -0.0012  -0.0072  -0.0022   0.00   27.9
2173 299592.000    541527.6144  -5479445.8679   3208362.1180   1   7   0.0051   0.0102   0.0078  -0.0011  -0.0072  -0.0028   0.00   27.8
2173 299593.000    541527.6143  -5479445.8603   3208362.1154   1   7   0.0050   0.0103   0.0078  -0.0015  -0.0072  -0.0028   0.00   27.6
2173 299594.000    541527.6170  -5479445.8614   3208362.1147   1   7   0.0052   0.0102   0.0078  -0.0014  -0.0072  -0.0020   0.00   27.3
2173 299595.000    541527.6139  -5479445.8663   3208362.1184   1   7   0.0057   0.0102   0.0079  -0.0019  -0.0072  -0.0015   0.00   27.4
2173 299596.000    541527.6157  -5479445.8599   3208362.1133   1   7   0.0054   0.0103   0.0078  -0.0011  -0.0072  -0.0020   0.00   27.2
2173 299597.000    541527.6138  -5479445.8645   3208362.1163   1   7   0.0051   0.0102   0.0078  -0.0010  -0.0072  -0.0026   0.00   27.2
2173 299598.000    541527.6159  -5479445.8693   3208362.1187   1   7   0.0054   0.0102   0.0079  -0.0016  -0.0072  -0.0018   0.00   27.2
2173 299599.000    541527.6166  -5479445.8627   3208362.1143   1   7   0.0051   0.0102   0.0078  -0.0015  -0.0072  -0.0025   0.00   27.7
2173 299600.000    541527.6129  -5479445.8621   3208362.1151   1   7   0.0051   0.0102   0.0079  -0.0010  -0.0072  -0.0025   0.00   28.1
2173 299601.000    541527.6137  -5479445.8672   3208362.1199   1   7   0.0052   0.0102   0.0079  -0.0014  -0.0072  -0.0018   0.00   29.0
2173 299602.000    541527.6164  -5479445.8627   3208362.1148   1   7   0.0051   0.0102   0.0078  -0.0013  -0.0072  -0.0026   0.00   29.4
2173 299603.000    541527.6155  -5479445.8665   3208362.1184   1   7   0.0050   0.0103   0.0079  -0.0004  -0.0072  -0.0026   0.00   29.3
2173 299604.000    541527.6141  -5479445.8649   3208362.1178   1   7   0.0053   0.0102   0.0078  -0.0015  -0.0072  -0.0024   0.00   29.2
2173 299605.000    541527.6133  -5479445.8659   3208362.1196   1   7   0.0052   0.0102   0.0078  -0.0014  -0.0072  -0.0026   0.00   29.2
2173 299606.000    541527.6132  -5479445.8680   3208362.1176   1   7   0.0054   0.0102   0.0079  -0.0009  -0.0072  -0.0024   0.00   29.5
2173 299607.000    541527.6157  -5479445.8653   3208362.1166   1   7   0.0051   0.0102   0.0078  -0.0014  -0.0072  -0.0023   0.00   29.1
2173 299608.000    541527.6134  -5479445.8697   3208362.1204   1   7   0.0048   0.0103   0.0078  -0.0012  -0.0072  -0.0024   0.00   28.9
2173 299609.000    541527.6139  -5479445.8727   3208362.1214   1   7   0.0050   0.0102   0.0079  -0.0014  -0.0072  -0.0023   0.00   28.8
2173 299610.000    541527.6157  -5479445.8644   3208362.1173   1   7   0.0053   0.0102   0.0079  -0.0011  -0.0073  -0.0026   0.00   28.7
2173 299611.000    541527.6119  -5479445.8664   3208362.1201   1   7   0.0048   0.0102   0.0079  -0.0015  -0.0072  -0.0030   0.00   28.7
2173 299612.000    541527.6177  -5479445.8736   3208362.1229   1   7   0.0049   0.0102   0.0079  -0.0016  -0.0072  -0.0023   0.00   28.4
2173 299613.000    541527.6151  -5479445.8626   3208362.1169   1   7   0.0051   0.0103   0.0079  -0.0010  -0.0072  -0.0028   0.00   27.9
2173 299614.000    541527.6136  -5479445.8661   3208362.1183   1   7   0.0051   0.0102   0.0078  -0.0010  -0.0073  -0.0021   0.00   27.6
2173 299615.000    541527.6141  -5479445.8637   3208362.1168   1   7   0.0052   0.0102   0.0077  -0.0012  -0.0072  -0.0022   0.00   27.6
2173 299616.000    541527.6160  -5479445.8715   3208362.1214   1   7   0.0046   0.0103   0.0078  -0.0009  -0.0071  -0.0032   0.00   27.5
2173 299617.000    541527.6148  -5479445.8655   3208362.1169   1   7   0.0051   0.0102   0.0078  -0.0011  -0.0073  -0.0022   0.00   27.4
2173 299618.000    541527.6125  -5479445.8648   3208362.1191   1   7   0.0047   0.0102   0.0078  -0.0012  -0.0072  -0.0021   0.00   27.4
2173 299619.000    541527.6127  -5479445.8594   3208362.1143   1   7   0.0052   0.0102   0.0077  -0.0013  -0.0072  -0.0018   0.00   27.3
2173 299620.000    541527.6116  -5479445.8582   3208362.1160   1   7   0.0050   0.0103   0.0079  -0.0003  -0.0072  -0.0026   0.00   27.3
2173 299621.000    541527.6163  -5479445.8557   3208362.1108   1   7   0.0050   0.0104   0.0077  -0.0015  -0.0071  -0.0020   0.00   27.0
2173 299622.000    541527.6140  -5479445.8583   3208362.1147   1   7   0.0050   0.0102   0.0079  -0.0010  -0.0072  -0.0023   0.00   26.8
2173 299623.000    541527.6152  -5479445.8676   3208362.1174   1   7   0.0049   0.0102   0.0078  -0.0014  -0.0072  -0.0022   0.00   26.5
2173 299624.000    541527.6134  -5479445.8651   3208362.1175   1   7   0.0051   0.0103   0.0079  -0.0015  -0.0072  -0.0022   0.00   26.3
2173 299625.000    541527.6158  -5479445.8682   3208362.1164   1   7   0.0054   0.0101   0.0079  -0.0018  -0.0072  -0.0020   0.00   26.0
2173 299626.000    541527.6140  -5479445.8711   3208362.1205   1   7   0.0048   0.0103   0.0077  -0.0016  -0.0072  -0.0026   0.00   26.0
2173 299627.000    541527.6148  -5479445.8630   3208362.1143   1   7   0.0053   0.0102   0.0079  -0.0017  -0.0072  -0.0029   0.00   25.8
2173 299628.000    541527.6170  -5479445.8590   3208362.1123   1   7   0.0050   0.0103   0.0078  -0.0009  -0.0072  -0.0026   0.00   25.7
2173 299629.000    541527.6121  -5479445.8577   3208362.1141   1   7   0.0048   0.0102   0.0078  -0.0013  -0.0073  -0.0026   0.00   26.2
2173 299630.000    541527.6160  -5479445.8627   3208362.1155   1   7   0.0050   0.0102   0.0078  -0.0018  -0.0071  -0.0024   0.00   26.1
2173 299631.000    541527.6153  -5479445.8640   3208362.1145   1   7   0.0054   0.0102   0.0079  -0.0015  -0.0072  -0.0023   0.00   25.9
2173 299632.000    541527.6115  -5479445.8620   3208362.1173   1   7   0.0054   0.0102   0.0079  -0.0013  -0.0072  -0.0020   0.00   26.1
2173 299633.000    541527.6146  -5479445.8563   3208362.1109   1   7   0.0053   0.0103   0.0079  -0.0012  -0.0072  -0.0022   0.00   26.1
2173 299634.000    541527.6129  -5479445.8559   3208362.1099   1   7   0.0053   0.0103   0.0079  -0.0014  -0.0072  -0.0015   0.00   25.9
2173 299635.000    541527.6136  -5479445.8578   3208362.1150   1   7   0.0051   0.0103   0.0078  -0.0011  -0.0072  -0.0024   0.00   25.7
2173 299636.000    541527.6129  -5479445.8559   3208362.1124   1   7   0.0050   0.0102   0.0078  -0.0017  -0.0072  -0.0024   0.00   25.5
2173 299637.000    541527.6067  -5479445.8471   3208362.1088   1   7   0.0053   0.0102   0.0077  -0.0014  -0.0071  -0.0021   0.00   25.7
2173 299638.000    541527.6132  -5479445.8590   3208362.1148   1   7   0.0053   0.0103   0.0078  -0.0019  -0.0071  -0.0025   0.00   25.6
2173 299639.000    541527.6146  -5479445.8631   3208362.1137   1   7   0.0052   0.0102   0.0079  -0.0014  -0.0072  -0.0022   0.00   25.4
2173 299640.000    541527.6133  -5479445.8595   3208362.1134   1   7   0.0051   0.0102   0.0077  -0.0016  -0.0072  -0.0026   0.00   25.2
2173 299641.000    541527.6119  -5479445.8570   3208362.1110   1   7   0.0050   0.0102   0.0078  -0.0019  -0.0072  -0.0024   0.00   25.1
2173 299642.000    541527.6137  -5479445.8575   3208362.1122   1   7   0.0051   0.0103   0.0079  -0.0014  -0.0071  -0.0029   0.00   24.8
2173 299643.000    541527.6114  -5479445.8579   3208362.1139   1   7   0.0050   0.0103   0.0078  -0.0014  -0.0071  -0.0027   0.00   24.7
2173 299644.000    541527.6108  -5479445.8593   3208362.1126   1   7   0.0050   0.0102   0.0078  -0.0017  -0.0073  -0.0025   0.00   24.7
2173 299645.000    541527.6126  -5479445.8561   3208362.1129   1   7   0.0049   0.0102   0.0077  -0.0014  -0.0072  -0.0026   0.00   24.5
2173 299646.000    541527.6110  -5479445.8587   3208362.1124   1   7   0.0052   0.0102   0.0079  -0.0009  -0.0071  -0.0017   0.00   24.2
2173 299647.000    541527.6126  -5479445.8549   3208362.1102   1   7   0.0051   0.0103   0.0079  -0.0003  -0.0072  -0.0021   0.00   24.0
2173 299648.000    541527.6124  -5479445.8554   3208362.1110   1   7   0.0050   0.0102   0.0078  -0.0011  -0.0072  -0.0024   0.00   23.9
2173 299649.000    541527.6103  -5479445.8484   3208362.1098   1   7   0.0050   0.0102   0.0078  -0.0012  -0.0072  -0.0021   0.00   23.9
2173 299650.000    541527.6142  -5479445.8509   3208362.1058   1   7   0.0049   0.0102   0.0078  -0.0009  -0.0072  -0.0029   0.00   23.6
2173 299651.000    541527.6141  -5479445.8587   3208362.1146   1   7   0.0055   0.0102   0.0079  -0.0010  -0.0073  -0.0024   0.00   23.3
2173 299652.000    541527.6118  -5479445.8604   3208362.1131   1   7   0.0051   0.0102   0.0079  -0.0014  -0.0073  -0.0026   0.00   23.1
2173 299653.000    541527.6130  -5479445.8544   3208362.1110   1   7   0.0049   0.0101   0.0078  -0.0009  -0.0073  -0.0024   0.00   23.0
2173 299654.000    541527.6131  -5479445.8501   3208362.1091   1   7   0.0052   0.0103   0.0078  -0.0010  -0.0072  -0.0024   0.00   22.9
2173 299655.000    541527.6119  -5479445.8558   3208362.1136   1   7   0.0055   0.0102   0.0079  -0.0015  -0.0072  -0.0024   0.00   22.8
2173 299656.000    541527.6121  -5479445.8548   3208362.1123   1   7   0.0051   0.0102   0.0078  -0.0015  -0.0072  -0.0028   0.00   22.6
2173 299657.000    541527.6130  -5479445.8532   3208362.1113   1   7   0.0052   0.0102   0.0077  -0.0007  -0.0072  -0.0027   0.00   22.5
2173 299658.000    541527.6124  -5479445.8524   3208362.1075   1   7   0.0049   0.0102   0.0078  -0.0002  -0.0072  -0.0029   0.00   22.3
2173 299659.000    541527.6127  -5479445.8539   3208362.1125   1   7   0.0048   0.0102   0.0078  -0.0010  -0.0073  -0.0023   0.00   22.3
2173 299660.000    541527.6151  -5479445.8601   3208362.1152   1   7   0.0051   0.0102   0.0079  -0.0016  -0.0072  -0.0023   0.00   22.1
2173 299661.000    541527.6129  -5479445.8573   3208362.1116   1   7   0.0050   0.0103   0.0079  -0.0020  -0.0072  -0.0023   0.00   22.0
2173 299662.000    541527.6139  -5479445.8582   3208362.1119   1   7   0.0051   0.0102   0.0079  -0.0006  -0.0073  -0.0025   0.00   21.8
2173 299663.000    541527.6151  -5479445.8583   3208362.1111   1   7   0.0048   0.0101   0.0079  -0.0020  -0.0073  -0.0020   0.00   21.7
2173 299664.000    541527.6110  -5479445.8526   3208362.1122   1   7   0.0049   0.0103   0.0078  -0.0015  -0.0072  -0.0021   0.00   21.6
2173 299665.000    541527.6122  -5479445.8625   3208362.1167   1   7   0.0053   0.0102   0.0078  -0.0015  -0.0072  -0.0026   0.00   21.6
2173 299666.000    541527.6123  -5479445.8568   3208362.1119   1   7   0.0054   0.0102   0.0077  -0.0014  -0.0073  -0.0019   0.00   21.5
2173 299667.000    541527.6129  -5479445.8522   3208362.1094   1   7   0.0046   0.0102   0.0078  -0.0007  -0.0072  -0.0026   0.00   21.5
2173 299668.000    541527.6125  -5479445.8603   3208362.1165   1   7   0.0054   0.0102   0.0080  -0.0007  -0.0073  -0.0019   0.00   21.4
2173 299669.000    541527.6160  -5479445.8566   3208362.1117   1   7   0.0051   0.0102   0.0077  -0.0015  -0.0072  -0.0024   0.00   21.4
2173 299670.000    541527.6160  -5479445.8516   3208362.1115   1   7   0.0051   0.0102   0.0080  -0.0009  -0.0073  -0.0020   0.00   21.3
2173 299671.000    541527.6150  -5479445.8569   3208362.1156   1   7   0.0051   0.0102   0.0079  -0.0012  -0.0072  -0.0026   0.00   21.2
2173 299672.000    541527.6142  -5479445.8615   3208362.1162   1   7   0.0052   0.0102   0.0080  -0.0012  -0.0072  -0.0031   0.00   21.0
2173 299673.000    541527.6133  -5479445.8528   3208362.1093   1   7   0.0051   0.0102   0.0078  -0.0013  -0.0072  -0.0025   0.00   20.8
2173 299674.000    541527.6135  -5479445.8567   3208362.1145   1   7   0.0053   0.0102   0.0079  -0.0020  -0.0072  -0.0021   0.00   20.7
2173 299675.000    541527.6147  -5479445.8612   3208362.1199   1   7   0.0049   0.0102   0.0078  -0.0010  -0.0072  -0.0025   0.00   20.5
2173 299676.000    541527.6152  -5479445.8630   3208362.1174   1   7   0.0055   0.0102   0.0078  -0.0010  -0.0073  -0.0026   0.00   20.5
2173 299677.000    541527.6141  -5479445.8557   3208362.1113   1   7   0.0051   0.0102   0.0078  -0.0008  -0.0072  -0.0025   0.00   20.3
2173 299678.000    541527.6170  -5479445.8570   3208362.1102   1   7   0.0051   0.0102   0.0080  -0.0015  -0.0073  -0.0028   0.00   20.1
2173 299679.000    541527.6161  -5479445.8610   3208362.1155   1   7   0.0051   0.0103   0.0078  -0.0014  -0.0072  -0.0021   0.00   20.0
2173 299680.000    541527.6152  -5479445.8563   3208362.1107   1   7   0.0052   0.0102   0.0079  -0.0014  -0.0073  -0.0024   0.00   19.9
2173 299681.000    541527.6139  -5479445.8533   3208362.1091   1   7   0.0054   0.0103   0.0078  -0.0005  -0.0071  -0.0020   0.00   19.8
2173 299682.000    541527.6155  -5479445.8539   3208362.1096   1   7   0.0053   0.0102   0.0080  -0.0015  -0.0073  -0.0026   0.00   19.8
2173 299683.000    541527.6153  -5479445.8576   3208362.1125   1   7   0.0050   0.0101   0.0080  -0.0008  -0.0073  -0.0031   0.00   19.6
2173 299684.000    541527.5742  -5479445.6321   3208362.0483   2   6   0.0430   0.0877   0.0591  -0.0164  -0.0601  -0.0140   0.00    2.1
2173 299685.000    541527.6170  -5479445.8608   3208362.1136   1   6   0.0057   0.0109   0.0081  -0.0025  -0.0076  -0.0026   0.00    3.0
2173 299686.000    541527.6141  -5479445.8601   3208362.1160   1   6   0.0055   0.0109   0.0080  -0.0028  -0.0076  -0.0026   0.00    4.1
2173 299687.000    541527.6113  -5479445.8536   3208362.1128   1   6   0.0055   0.0109   0.0081  -0.0028  -0.0076  -0.0018   0.00    5.2
2173 299688.000    541527.6131  -5479445.8552   3208362.1123   1   6   0.0054   0.0109   0.0080  -0.0029  -0.0075  -0.0016   0.00    6.4
2173 299689.000    541527.5752  -5479445.6232   3208362.0359   2   7   0.0422   0.0863   0.0578  -0.0166  -0.0589  -0.0129   0.00    1.7
2173 299690.000    541527.5732  -5479445.6206   3208362.0352   2   7   0.0420   0.0859   0.0575  -0.0164  -0.0587  -0.0128   0.00    2.4
2173 299691.000    541527.6121  -5479445.8533   3208362.1108   1   7   0.0054   0.0102   0.0081  -0.0006  -0.0073  -0.0019   0.00    3.0
2173 299692.000    541527.6174  -5479445.8526   3208362.1089   1   7   0.0053   0.0102   0.0078  -0.0010  -0.0072  -0.0021   0.00    3.6
2173 299693.000    541527.6159  -5479445.8553   3208362.1114   1   7   0.0047   0.0102   0.0079  -0.0012  -0.0072  -0.0029   0.00    4.2
2173 299694.000    541527.6170  -5479445.8633   3208362.1175   1   7   0.0052   0.0102   0.0079  -0.0015  -0.0072  -0.0026   0.00    4.7
2173 299695.000    541527.6135  -5479445.8584   3208362.1162   1   7   0.0049   0.0101   0.0078  -0.0010  -0.0073  -0.0029   0.00    5.3
2173 299696.000    541527.6133  -5479445.8621   3208362.1203   1   7   0.0050   0.0102   0.0078  -0.0008  -0.0073  -0.0026   0.00    5.8
2173 299697.000    541527.6156  -5479445.8640   3208362.1194   1   7   0.0054   0.0102   0.0079  -0.0008  -0.0072  -0.0024   0.00    6.3
2173 299698.000    541527.6136  -5479445.8571   3208362.1172   1   7   0.0049   0.0102   0.0079  -0.0012  -0.0072  -0.0024   0.00    6.8
2173 299699.000    541527.6148  -5479445.8641   3208362.1186   1   7   0.0050   0.0102   0.0078  -0.0016  -0.0073  -0.0026   0.00    7.3
2173 299700.000    541527.6137  -5479445.8529   3208362.1133   1   7   0.0048   0.0102   0.0079  -0.0009  -0.0072  -0.0028   0.00    7.8
2173 299701.000    541527.6142  -5479445.8638   3208362.1186   1   7   0.0053   0.0103   0.0079  -0.0014  -0.0072  -0.0021   0.00    8.2
2173 299702.000    541527.6127  -5479445.8560   3208362.1129   1   7   0.0049   0.0102   0.0079  -0.0020  -0.0072  -0.0021   0.00    8.6
2173 299703.000    541527.6152  -5479445.8582   3208362.1159   1   7   0.0049   0.0102   0.0078   0.0008  -0.0073  -0.0025   0.00    9.0
2173 299704.000    541527.6114  -5479445.8544   3208362.1166   1   7   0.0051   0.0103   0.0078  -0.0006  -0.0072  -0.0020   0.00    9.5
2173 299705.000    541527.6136  -5479445.8464   3208362.1075   1   7   0.0051   0.0102   0.0079  -0.0017  -0.0072  -0.0023   0.00    9.9
2173 299706.000    541527.6118  -5479445.8529   3208362.1142   1   7   0.0051   0.0102   0.0079  -0.0012  -0.0073  -0.0029   0.00   10.5
2173 299707.000    541527.6141  -5479445.8525   3208362.1109   1   7   0.0054   0.0102   0.0079  -0.0012  -0.0073  -0.0027   0.00   10.8
2173 299708.000    541527.6146  -5479445.8451   3208362.1078   1   7   0.0049   0.0102   0.0079  -0.0008  -0.0072  -0.0021   0.00   11.2
2173 299709.000    541527.6119  -5479445.8604   3208362.1166   1   7   0.0047   0.0102   0.0078  -0.0014  -0.0073  -0.0027   0.00   11.5
2173 299710.000    541527.6142  -5479445.8488   3208362.1101   1   7   0.0052   0.0102   0.0078  -0.0014  -0.0072  -0.0023   0.00   12.0
2173 299711.000    541527.6158  -5479445.8466   3208362.1060   1   7   0.0050   0.0102   0.0079  -0.0013  -0.0072  -0.0023   0.00   12.3
2173 299712.000    541527.6142  -5479445.8512   3208362.1118   1   7   0.0049   0.0101   0.0078  -0.0015  -0.0073  -0.0022   0.00   12.8
2173 299713.000    541527.6156  -5479445.8537   3208362.1105   1   7   0.0053   0.0102   0.0079  -0.0016  -0.0073  -0.0028   0.00   13.1
2173 299714.000    541527.6146  -5479445.8477   3208362.1097   1   7   0.0051   0.0102   0.0079  -0.0012  -0.0072  -0.0024   0.00   13.5
2173 299715.000    541527.6158  -5479445.8545   3208362.1118   1   7   0.0051   0.0103   0.0078  -0.0016  -0.0072  -0.0021   0.00   14.0
2173 299716.000    541527.6159  -5479445.8512   3208362.1096   1   7   0.0051   0.0103   0.0079  -0.0013  -0.0072  -0.0024   0.00   14.4
2173 299717.000    541527.6147  -5479445.8563   3208362.1151   1   7   0.0051   0.0102   0.0078  -0.0018  -0.0072  -0.0023   0.00   14.5
2173 299718.000    541527.6136  -5479445.8506   3208362.1100   1   7   0.0053   0.0102   0.0079  -0.0018  -0.0072  -0.0023   0.00   14.5
2173 299719.000    541527.6146  -5479445.8555   3208362.1141   1   7   0.0050   0.0103   0.0078  -0.0015  -0.0072  -0.0025   0.00   14.5
2173 299720.000    541527.6167  -5479445.8488   3208362.1092   1   7   0.0052   0.0101   0.0079  -0.0009  -0.0073  -0.0025   0.00   14.5
2173 299721.000    541527.6158  -5479445.8534   3208362.1121   1   7   0.0051   0.0102   0.0078  -0.0017  -0.0072  -0.0024   0.00   14.4
2173 299722.000    541527.6144  -5479445.8532   3208362.1141   1   6   0.0054   0.0120   0.0082  -0.0041  -0.0080  -0.0018   0.00   14.8
2173 299723.000    541527.5756  -5479445.5631   3208361.9713   2   6   0.0376   0.0774   0.0497  -0.0164  -0.0522  -0.0059   0.00    1.8
2173 299724.000    541527.5742  -5479445.5572   3208361.9688   2   6   0.0374   0.0772   0.0495  -0.0163  -0.0520  -0.0057   0.00    2.6
2173 299725.000    541527.5727  -5479445.5523   3208361.9679   2   7   0.0374   0.0770   0.0493  -0.0165  -0.0518  -0.0054   0.00    1.5
2173 299726.000    541527.5721  -5479445.5514   3208361.9649   2   7   0.0372   0.0767   0.0491  -0.0162  -0.0516  -0.0052   0.00    2.0
2173 299727.000    541527.5753  -5479445.5493   3208361.9635   2   7   0.0371   0.0764   0.0489  -0.0161  -0.0514  -0.0050   0.00    2.5
2173 299728.000    541527.5699  -5479445.5465   3208361.9625   2   7   0.0369   0.0762   0.0487  -0.0160  -0.0513  -0.0045   0.00    2.9
2173 299729.000    541527.6202  -5479445.8596   3208362.1138   1   7   0.0052   0.0102   0.0078   0.0005  -0.0073  -0.0024   0.00    3.4
2173 299730.000    541527.6158  -5479445.8534   3208362.1113   1   7   0.0050   0.0102   0.0080  -0.0008  -0.0073  -0.0028   0.00    3.9
2173 299731.000    541527.6191  -5479445.8600   3208362.1135   1   7   0.0054   0.0101   0.0078  -0.0016  -0.0073  -0.0019   0.00    4.4
2173 299732.000    541527.6195  -5479445.8515   3208362.1090   1   7   0.0050   0.0102   0.0078  -0.0013  -0.0073  -0.0019   0.00    4.8
2173 299733.000    541527.6174  -5479445.8556   3208362.1129   1   7   0.0051   0.0101   0.0079  -0.0010  -0.0073  -0.0030   0.00    5.3
2173 299734.000    541527.6168  -5479445.8566   3208362.1123   1   7   0.0049   0.0101   0.0080  -0.0014  -0.0073  -0.0029   0.00    5.7
2173 299735.000    541527.6190  -5479445.8503   3208362.1114   1   7   0.0049   0.0102   0.0078  -0.0017  -0.0073  -0.0026   0.00    6.1
2173 299736.000    541527.6139  -5479445.8534   3208362.1128   1   7   0.0053   0.0102   0.0080  -0.0010  -0.0072  -0.0025   0.00    6.5
2173 299737.000    541527.6172  -5479445.8583   3208362.1132   1   7   0.0053   0.0102   0.0079  -0.0017  -0.0072  -0.0024   0.00    6.9
2173 299738.000    541527.6143  -5479445.8502   3208362.1119   1   7   0.0049   0.0102   0.0080  -0.0011  -0.0073  -0.0031   0.00    7.3
2173 299739.000    541527.6147  -5479445.8560   3208362.1143   1   7   0.0051   0.0102   0.0078  -0.0011  -0.0072  -0.0024   0.00    7.7
2173 299740.000    541527.6153  -5479445.8546   3208362.1144   1   7   0.0051   0.0102   0.0077  -0.0007  -0.0074  -0.0023   0.00    8.1
2173 299741.000    541527.6152  -5479445.8497   3208362.1080   1   7   0.0050   0.0101   0.0080  -0.0013  -0.0072  -0.0027   0.00    8.5
2173 299742.000    541527.6153  -5479445.8594   3208362.1160   1   7   0.0051   0.0102   0.0079  -0.0011  -0.0072  -0.0028   0.00    8.9
2173 299743.000    541527.6179  -5479445.8562   3208362.1127   1   7   0.0051   0.0102   0.0080   0.0009  -0.0073  -0.0024   0.00    9.3
2173 299744.000    541527.6115  -5479445.8447   3208362.1065   1   7   0.0054   0.0102   0.0080  -0.0017  -0.0073  -0.0023   0.00    9.7
2173 299745.000    541527.6157  -5479445.8538   3208362.1098   1   7   0.0052   0.0102   0.0079  -0.0012  -0.0072  -0.0026   0.00   10.0
2173 299746.000    541527.6166  -5479445.8566   3208362.1138   1   7   0.0053   0.0101   0.0080  -0.0011  -0.0073  -0.0027   0.00   10.4
2173 299747.000    541527.6177  -5479445.8594   3208362.1138   1   7   0.0053   0.0102   0.0079  -0.0016  -0.0073  -0.0013   0.00   10.7
2173 299748.000    541527.6194  -5479445.8593   3208362.1141   1   7   0.0050   0.0102   0.0079  -0.0015  -0.0072  -0.0024   0.00   11.0
2173 299749.000    541527.6173  -5479445.8592   3208362.1121   1   7   0.0054   0.0102   0.0079  -0.0019  -0.0073  -0.0027   0.00   11.4
2173 299750.000    541527.6181  -5479445.8564   3208362.1118   1   7   0.0051   0.0101   0.0079  -0.0009  -0.0073  -0.0024   0.00   11.7
2173 299751.000    541527.6172  -5479445.8586   3208362.1124   1   7   0.0050   0.0101   0.0079  -0.0015  -0.0073  -0.0024   0.00   12.0
2173 299752.000    541527.6179  -5479445.8558   3208362.1126   1   7   0.0055   0.0102   0.0079  -0.0017  -0.0073  -0.0024   0.00   12.3
2173 299753.000    541527.6186  -5479445.8538   3208362.1100   1   7   0.0053   0.0102   0.0079  -0.0018  -0.0072  -0.0020   0.00   12.6
2173 299754.000    541527.6179  -5479445.8546   3208362.1099   1   7   0.0051   0.0102   0.0079  -0.0017  -0.0072  -0.0026   0.00   13.0
2173 299755.000    541527.6165  -5479445.8530   3208362.1109   1   7   0.0053   0.0102   0.0080  -0.0011  -0.0073  -0.0025   0.00   13.3
2173 299756.000    541527.6160  -5479445.8523   3208362.1102   1   7   0.0052   0.0101   0.0078  -0.0021  -0.0073  -0.0020   0.00   13.2
2173 299757.000    541527.6171  -5479445.8530   3208362.1106   1   7   0.0050   0.0102   0.0078  -0.0006  -0.0073  -0.0025   0.00   13.2
2173 299758.000    541527.6169  -5479445.8575   3208362.1133   1   7   0.0046   0.0102   0.0079  -0.0009  -0.0072  -0.0023   0.00   13.2
2173 299759.000    541527.6196  -5479445.8492   3208362.1090   1   7   0.0051   0.0102   0.0079  -0.0006  -0.0073  -0.0024   0.00   13.1
2173 299760.000    541527.6169  -5479445.8614   3208362.1120   1   7   0.0054   0.0103   0.0079  -0.0010  -0.0072  -0.0021   0.00   13.0
2173 299761.000    541527.6161  -5479445.8484   3208362.1081   1   7   0.0052   0.0102   0.0079  -0.0007  -0.0073  -0.0028   0.00   13.1
2173 299762.000    541527.6146  -5479445.8599   3208362.1145   1   7   0.0052   0.0102   0.0080  -0.0015  -0.0072  -0.0025   0.00   13.0
2173 299763.000    541527.6133  -5479445.8517   3208362.1080   1   7   0.0052   0.0102   0.0079  -0.0017  -0.0073  -0.0025   0.00   13.0
2173 299764.000    541527.6168  -5479445.8607   3208362.1143   1   7   0.0052   0.0101   0.0078  -0.0015  -0.0073  -0.0022   0.00   12.9
2173 299765.000    541527.6154  -5479445.8520   3208362.1114   1   7   0.0048   0.0101   0.0079  -0.0012  -0.0074  -0.0027   0.00   12.9
2173 299766.000    541527.6151  -5479445.8602   3208362.1154   1   7   0.0053   0.0102   0.0078  -0.0013  -0.0072  -0.0024   0.00   12.9
2173 299767.000    541527.6166  -5479445.8581   3208362.1128   1   7   0.0049   0.0102   0.0079  -0.0009  -0.0073  -0.0025   0.00   12.9
2173 299768.000    541527.6208  -5479445.8570   3208362.1112   1   7   0.0046   0.0102   0.0078  -0.0017  -0.0073  -0.0030   0.00   12.8
2173 299769.000    541527.6176  -5479445.8572   3208362.1124   1   7   0.0050   0.0102   0.0078   0.0008  -0.0073  -0.0027   0.00   12.8
2173 299770.000    541527.6180  -5479445.8530   3208362.1111   1   7   0.0051   0.0103   0.0079  -0.0010  -0.0072  -0.0024   0.00   12.8
2173 299771.000    541527.6136  -5479445.8491   3208362.1072   1   7   0.0052   0.0101   0.0079  -0.0015  -0.0073  -0.0022   0.00   12.8
2173 299772.000    541527.6192  -5479445.8550   3208362.1097   1   7   0.0051   0.0102   0.0079  -0.0016  -0.0072  -0.0021   0.00   12.8
2173 299773.000    541527.6184  -5479445.8626   3208362.1153   1   7   0.0048   0.0101   0.0079  -0.0012  -0.0073  -0.0027   0.00   12.8
2173 299774.000    541527.6142  -5479445.8536   3208362.1085   1   7   0.0048   0.0101   0.0078  -0.0013  -0.0072  -0.0025   0.00   12.8
2173 299775.000    541527.6170  -5479445.8526   3208362.1096   1   7   0.0049   0.0101   0.0080  -0.0013  -0.0073  -0.0027   0.00   12.9
2173 299776.000    541527.6161  -5479445.8477   3208362.1044   1   7   0.0046   0.0102   0.0078  -0.0011  -0.0073  -0.0025   0.00   12.9
2173 299777.000    541527.6180  -5479445.8581   3208362.1109   1   7   0.0051   0.0102   0.0078  -0.0015  -0.0072  -0.0019   0.00   12.9
2173 299778.000    541527.6202  -5479445.8598   3208362.1139   1   7   0.0047   0.0103   0.0079   0.0008  -0.0072  -0.0027   0.00   12.9
2173 299779.000    541527.6154  -5479445.8559   3208362.1126   1   7   0.0050   0.0101   0.0080  -0.0007  -0.0074  -0.0023   0.00   12.9
2173 299780.000    541527.6172  -5479445.8562   3208362.1105   1   7   0.0051   0.0102   0.0080  -0.0011  -0.0073  -0.0029   0.00   13.0
2173 299781.000    541527.6154  -5479445.8552   3208362.1125   1   7   0.0050   0.0102   0.0079  -0.0014  -0.0073  -0.0026   0.00   13.0
2173 299782.000    541527.6165  -5479445.8598   3208362.1141   1   7   0.0052   0.0101   0.0079  -0.0014  -0.0073  -0.0024   0.00   13.0
2173 299783.000    541527.6174  -5479445.8609   3208362.1133   1   7   0.0052   0.0102   0.0078  -0.0004  -0.0072  -0.0025   0.00   13.0
2173 299784.000    541527.6174  -5479445.8655   3208362.1141   1   7   0.0050   0.0102   0.0079  -0.0014  -0.0072  -0.0026   0.00   13.0
2173 299785.000    541527.6198  -5479445.8591   3208362.1116   1   7   0.0047   0.0102   0.0078   0.0014  -0.0073  -0.0027   0.00   13.0
2173 299786.000    541527.6221  -5479445.8611   3208362.1147   1   7   0.0049   0.0101   0.0080  -0.0012  -0.0073  -0.0029   0.00   13.0
2173 299787.000    541527.6148  -5479445.8565   3208362.1136   1   7   0.0050   0.0103   0.0078  -0.0013  -0.0072  -0.0022   0.00   13.0
2173 299788.000    541527.6181  -5479445.8536   3208362.1089   1   7   0.0050   0.0102   0.0078  -0.0009  -0.0073  -0.0020   0.00   13.0
2173 299789.000    541527.6204  -5479445.8612   3208362.1120   1   7   0.0051   0.0102   0.0078  -0.0016  -0.0072  -0.0020   0.00   13.0
2173 299790.000    541527.6189  -5479445.8553   3208362.1092   1   7   0.0051   0.0101   0.0079  -0.0008  -0.0073  -0.0025   0.00   12.9
2173 299791.000    541527.6169  -5479445.8605   3208362.1138   1   7   0.0049   0.0104   0.0079  -0.0010  -0.0071  -0.0024   0.00   12.9
2173 299792.000    541527.6199  -5479445.8545   3208362.1092   1   7   0.0045   0.0102   0.0078  -0.0014  -0.0073  -0.0025   0.00   12.9
2173 299793.000    541527.6160  -5479445.8601   3208362.1124   1   7   0.0050   0.0102   0.0077  -0.0013  -0.0072  -0.0023   0.00   12.8
2173 299794.000    541527.6155  -5479445.8608   3208362.1139   1   7   0.0048   0.0101   0.0079   0.0006  -0.0074  -0.0018   0.00   12.8
2173 299795.000    541527.6187  -5479445.8631   3208362.1142   1   7   0.0054   0.0102   0.0080  -0.0008  -0.0073  -0.0019   0.00   12.8
2173 299796.000    541527.6218  -5479445.8587   3208362.1121   1   7   0.0053   0.0102   0.0079  -0.0012  -0.0072  -0.0024   0.00   12.8
2173 299797.000    541527.6165  -5479445.8536   3208362.1101   1   7   0.0050   0.0101   0.0079  -0.0012  -0.0073  -0.0027   0.00   12.8
2173 299798.000    541527.6153  -5479445.8575   3208362.1102   1   7   0.0049   0.0102   0.0079  -0.0004  -0.0073  -0.0029   0.00   12.8
2173 299799.000    541527.6158  -5479445.8569   3208362.1113   1   7   0.0052   0.0101   0.0079  -0.0015  -0.0073  -0.0026   0.00   12.8
2173 299800.000    541527.6153  -5479445.8526   3208362.1085   1   7   0.0049   0.0103   0.0080  -0.0005  -0.0072  -0.0024   0.00   12.8
2173 299801.000    541527.6191  -5479445.8580   3208362.1098   1   7   0.0047   0.0102   0.0079  -0.0013  -0.0073  -0.0028   0.00   12.7
2173 299802.000    541527.6172  -5479445.8609   3208362.1136   1   7   0.0046   0.0102   0.0078  -0.0012  -0.0072  -0.0028   0.00   12.7
2173 299803.000    541527.6214  -5479445.8616   3208362.1113   1   7   0.0053   0.0101   0.0080  -0.0017  -0.0073  -0.0022   0.00   12.8
2173 299804.000    541527.6204  -5479445.8615   3208362.1135   1   7   0.0047   0.0102   0.0080  -0.0006  -0.0073  -0.0023   0.00   12.7
2173 299805.000    541527.6176  -5479445.8587   3208362.1105   1   7   0.0050   0.0102   0.0079  -0.0016  -0.0072  -0.0027   0.00   12.7
2173 299806.000    541527.6166  -5479445.8524   3208362.1072   1   7   0.0054   0.0101   0.0080  -0.0019  -0.0074  -0.0019   0.00   12.7
2173 299807.000    541527.6158  -5479445.8618   3208362.1133   1   7   0.0049   0.0101   0.0080   0.0006  -0.0073  -0.0027   0.00   12.7
2173 299808.000    541527.6168  -5479445.8600   3208362.1116   1   7   0.0048   0.0101   0.0080  -0.0011  -0.0074  -0.0022   0.00   12.7
2173 299809.000    541527.6198  -5479445.8472   3208362.1047   1   7   0.0050   0.0102   0.0081  -0.0012  -0.0073  -0.0029   0.00   12.8
2173 299810.000    541527.6179  -5479445.8517   3208362.1090   1   7   0.0048   0.0102   0.0078  -0.0008  -0.0073  -0.0027   0.00   12.8
2173 299811.000    541527.6160  -5479445.8571   3208362.1082   1   7   0.0053   0.0101   0.0080  -0.0005  -0.0073  -0.0020   0.00   12.8
2173 299812.000    541527.6163  -5479445.8536   3208362.1056   1   7   0.0051   0.0102   0.0080  -0.0016  -0.0072  -0.0025   0.00   12.8
2173 299813.000    541527.6166  -5479445.8568   3208362.1119   1   7   0.0051   0.0102   0.0080  -0.0013  -0.0072  -0.0025   0.00   12.8
2173 299814.000    541527.6177  -5479445.8577   3208362.1086   1   7   0.0051   0.0102   0.0080  -0.0014  -0.0072  -0.0027   0.00   12.8
2173 299815.000    541527.6156  -5479445.8542   3208362.1096   1   7   0.0055   0.0103   0.0078  -0.0018  -0.0072  -0.0024   0.00   12.8
2173 299816.000    541527.6181  -5479445.8518   3208362.1045   1   7   0.0054   0.0102   0.0079  -0.0010  -0.0073  -0.0018   0.00   12.9
2173 299817.000    541527.6144  -5479445.8587   3208362.1116   1   7   0.0051   0.0102   0.0080  -0.0010  -0.0073  -0.0024   0.00   12.9
2173 299818.000    541527.6189  -5479445.8596   3208362.1085   1   7   0.0051   0.0101   0.0080  -0.0011  -0.0073  -0.0029   0.00   12.9
2173 299819.000    541527.6171  -5479445.8501   3208362.1056   1   7   0.0054   0.0102   0.0081   0.0001  -0.0073  -0.0028   0.00   12.9
2173 299820.000    541527.6152  -5479445.8551   3208362.1086   1   7   0.0050   0.0101   0.0079  -0.0016  -0.0073  -0.0019   0.00   13.0
2173 299821.000    541527.6147  -5479445.8530   3208362.1064   1   7   0.0047   0.0102   0.0080  -0.0015  -0.0073  -0.0028   0.00   13.0
2173 299822.000    541527.6148  -5479445.8484   3208362.1057   1   7   0.0047   0.0102   0.0080   0.0006  -0.0072  -0.0029   0.00   13.1
2173 299823.000    541527.6166  -5479445.8528   3208362.1063   1   7   0.0052   0.0102   0.0079  -0.0011  -0.0073  -0.0025   0.00   13.1
2173 299824.000    541527.6161  -5479445.8516   3208362.1061   1   7   0.0053   0.0102   0.0080   0.0004  -0.0073  -0.0025   0.00   13.2
2173 299825.000    541527.6166  -5479445.8559   3208362.1072   1   7   0.0051   0.0102   0.0079  -0.0010  -0.0073  -0.0022   0.00   13.2
2173 299826.000    541527.6165  -5479445.8592   3208362.1087   1   7   0.0051   0.0101   0.0080  -0.0017  -0.0074  -0.0029   0.00   13.2
2173 299827.000    541527.6177  -5479445.8613   3208362.1093   1   7   0.0050   0.0101   0.0079  -0.0009  -0.0073  -0.0029   0.00   13.3
2173 299828.000    541527.6160  -5479445.8555   3208362.1046   1   7   0.0047   0.0102   0.0081  -0.0011  -0.0073  -0.0026   0.00   13.4
2173 299829.000    541527.6179  -5479445.8564   3208362.1070   1   7   0.0053   0.0101   0.0080  -0.0004  -0.0074  -0.0026   0.00   13.5
2173 299830.000    541527.6134  -5479445.8575   3208362.1087   1   7   0.0049   0.0102   0.0078   0.0009  -0.0073  -0.0022   0.00   13.5
2173 299831.000    541527.6189  -5479445.8574   3208362.1064   1   7   0.0053   0.0102   0.0080  -0.0011  -0.0073  -0.0026   0.00   13.6
2173 299832.000    541527.6178  -5479445.8577   3208362.1071   1   7   0.0052   0.0103   0.0080   0.0009  -0.0072  -0.0029   0.00   13.7
2173 299833.000    541527.6149  -5479445.8558   3208362.1046   1   7   0.0049   0.0102   0.0081  -0.0017  -0.0073  -0.0024   0.00   13.8
2173 299834.000    541527.6170  -5479445.8515   3208362.0998   1   7   0.0051   0.0102   0.0080  -0.0013  -0.0073  -0.0023   0.00   13.8
2173 299835.000    541527.6153  -5479445.8544   3208362.1036   1   7   0.0052   0.0102   0.0079  -0.0009  -0.0073  -0.0025   0.00   13.9
2173 299836.000    541527.6164  -5479445.8550   3208362.1028   1   7   0.0047   0.0102   0.0079  -0.0007  -0.0072  -0.0028   0.00   14.0
2173 299837.000    541527.6158  -5479445.8570   3208362.1044   1   7   0.0046   0.0102   0.0079  -0.0016  -0.0072  -0.0026   0.00   14.0
2173 299838.000    541527.6167  -5479445.8515   3208362.1006   1   7   0.0050   0.0100   0.0080   0.0003  -0.0074  -0.0028   0.00   14.1
2173 299839.000    541527.6185  -5479445.8549   3208362.1023   1   7   0.0051   0.0102   0.0079  -0.0006  -0.0072  -0.0029   0.00   14.1
2173 299840.000    541527.6159  -5479445.8484   3208362.0987   1   7   0.0053   0.0101   0.0079  -0.0013  -0.0073  -0.0023   0.00   14.2
2173 299841.000    541527.6169  -5479445.8557   3208362.1031   1   7   0.0049   0.0101   0.0080  -0.0012  -0.0073  -0.0027   0.00   14.2
2173 299842.000    541527.6166  -5479445.8575   3208362.1050   1   7   0.0050   0.0101   0.0077  -0.0013  -0.0073  -0.0027   0.00   14.3
2173 299843.000    541527.6149  -5479445.8533   3208362.1014   1   7   0.0047   0.0102   0.0079  -0.0007  -0.0072  -0.0030   0.00   14.3
2173 299844.000    541527.6178  -5479445.8576   3208362.1031   1   7   0.0049   0.0102   0.0079   0.0008  -0.0072  -0.0029   0.00   14.3
2173 299845.000    541527.6167  -5479445.8596   3208362.1060   1   7   0.0053   0.0102   0.0079  -0.0009  -0.0073  -0.0021   0.00   14.4
2173 299846.000    541527.6153  -5479445.8574   3208362.1045   1   7   0.0050   0.0100   0.0079  -0.0009  -0.0074  -0.0024   0.00   14.4
2173 299847.000    541527.6157  -5479445.8594   3208362.1068   1   7   0.0049   0.0101   0.0081  -0.0003  -0.0073  -0.0036   0.00   14.5
2173 299848.000    541527.6164  -5479445.8541   3208362.1030   1   7   0.0050   0.0102   0.0080  -0.0007  -0.0073  -0.0026   0.00   14.6
2173 299849.000    541527.6195  -5479445.8618   3208362.1043   1   7   0.0049   0.0101   0.0079  -0.0013  -0.0073  -0.0022   0.00   14.6
2173 299850.000    541527.6164  -5479445.8591   3208362.1037   1   7   0.0049   0.0102   0.0078  -0.0018  -0.0072  -0.0017   0.00   14.7
2173 299851.000    541527.6154  -5479445.8509   3208362.0999   1   7   0.0056   0.0102   0.0079  -0.0017  -0.0072  -0.0023   0.00   14.8
2173 299852.000    541527.6155  -5479445.8582   3208362.1036   1   7   0.0053   0.0102   0.0079  -0.0010  -0.0073  -0.0027   0.00   14.9
2173 299853.000    541527.6147  -5479445.8530   3208362.1014   1   7   0.0051   0.0101   0.0079   0.0011  -0.0074  -0.0026   0.00   15.0
2173 299854.000    541527.6160  -5479445.8571   3208362.1009   1   7   0.0048   0.0102   0.0080  -0.0014  -0.0073  -0.0025   0.00   15.0
2173 299855.000    541527.6160  -5479445.8628   3208362.1041   1   7   0.0048   0.0102   0.0078  -0.0013  -0.0072  -0.0026   0.00   15.1
2173 299856.000    541527.6167  -5479445.8605   3208362.1023   1   7   0.0053   0.0101   0.0079  -0.0015  -0.0073  -0.0028   0.00   15.2
2173 299857.000    541527.6173  -5479445.8610   3208362.1056   1   7   0.0052   0.0102   0.0079  -0.0008  -0.0073  -0.0029   0.00   15.3
2173 299858.000    541527.6172  -5479445.8581   3208362.0998   1   7   0.0050   0.0101   0.0080  -0.0008  -0.0073  -0.0020   0.00   15.4
2173 299859.000    541527.6155  -5479445.8563   3208362.0989   1   7   0.0053   0.0100   0.0080  -0.0007  -0.0074  -0.0027   0.00   15.5
2173 299860.000    541527.6172  -5479445.8638   3208362.1026   1   7   0.0053   0.0102   0.0080  -0.0005  -0.0073  -0.0023   0.00   15.6
2173 299861.000    541527.6148  -5479445.8556   3208362.1016   1   7   0.0049   0.0102   0.0078  -0.0013  -0.0073  -0.0021   0.00   15.7
2173 299862.000    541527.6150  -5479445.8603   3208362.1036   1   7   0.0047   0.0102   0.0080  -0.0006  -0.0073  -0.0024   0.00   15.8
2173 299863.000    541527.6139  -5479445.8515   3208362.0976   1   7   0.0054   0.0101   0.0079  -0.0018  -0.0073  -0.0015   0.00   15.8
2173 299864.000    541527.6138  -5479445.8548   3208362.1011   1   7   0.0049   0.0102   0.0078  -0.0012  -0.0073  -0.0024   0.00   15.9
2173 299865.000    541527.6121  -5479445.8540   3208362.1001   1   7   0.0053   0.0102   0.0080  -0.0010  -0.0073  -0.0020   0.00   16.0
2173 299866.000    541527.6132  -5479445.8550   3208362.0993   1   7   0.0050   0.0101   0.0079  -0.0015  -0.0073  -0.0021   0.00   16.1
2173 299867.000    541527.6148  -5479445.8582   3208362.0980   1   7   0.0050   0.0102   0.0080  -0.0011  -0.0073  -0.0029   0.00   16.1
2173 299868.000    541527.6162  -5479445.8598   3208362.1005   1   7   0.0052   0.0101   0.0080   0.0011  -0.0073  -0.0022   0.00   16.2
2173 299869.000    541527.6143  -5479445.8608   3208362.1007   1   7   0.0050   0.0102   0.0079  -0.0003  -0.0073  -0.0023   0.00   16.2
2173 299870.000    541527.6149  -5479445.8539   3208362.1000   1   7   0.0049   0.0101   0.0080   0.0001  -0.0074  -0.0025   0.00   16.3
2173 299871.000    541527.6134  -5479445.8587   3208362.1012   1   7   0.0045   0.0101   0.0079  -0.0015  -0.0072  -0.0018   0.00   16.4
2173 299872.000    541527.6155  -5479445.8558   3208362.1011   1   7   0.0053   0.0102   0.0079  -0.0007  -0.0073  -0.0028   0.00   16.4
2173 299873.000    541527.6154  -5479445.8606   3208362.0993   1   7   0.0048   0.0101   0.0079   0.0009  -0.0073  -0.0030   0.00   16.5
2173 299874.000    541527.6135  -5479445.8595   3208362.1000   1   7   0.0048   0.0101   0.0079  -0.0015  -0.0073  -0.0028   0.00   16.5
2173 299875.000    541527.6153  -5479445.8541   3208362.0965   1   7   0.0050   0.0101   0.0080  -0.0013  -0.0073  -0.0027   0.00   16.6
2173 299876.000    541527.6137  -5479445.8594   3208362.1007   1   7   0.0051   0.0102   0.0080  -0.0011  -0.0073  -0.0020   0.00   16.6
2173 299877.000    541527.6162  -5479445.8541   3208362.0955   1   7   0.0046   0.0101   0.0079  -0.0015  -0.0073  -0.0028   0.00   16.7
2173 299878.000    541527.6144  -5479445.8566   3208362.0984   1   7   0.0048   0.0102   0.0080  -0.0014  -0.0072  -0.0026   0.00   16.7
2173 299879.000    541527.6136  -5479445.8541   3208362.0980   1   7   0.0049   0.0101   0.0078  -0.0018  -0.0073  -0.0027   0.00   16.8
2173 299880.000    541527.6133  -5479445.8549   3208362.0997   1   7   0.0052   0.0101   0.0079  -0.0009  -0.0073  -0.0027   0.00   16.9
2173 299881.000    541527.6174  -5479445.8585   3208362.0992   1   7   0.0053   0.0101   0.0081  -0.0014  -0.0073  -0.0028   0.00   17.0
2173 299882.000    541527.6161  -5479445.8601   3208362.1006   1   7   0.0053   0.0102   0.0080  -0.0017  -0.0072  -0.0023   0.00   17.1
2173 299883.000    541527.6164  -5479445.8595   3208362.1009   1   7   0.0050   0.0102   0.0079  -0.0015  -0.0073  -0.0028   0.00   17.2
2173 299884.000    541527.6154  -5479445.8612   3208362.1016   1   7   0.0050   0.0102   0.0080  -0.0006  -0.0073  -0.0028   0.00   17.3
2173 299885.000    541527.6165  -5479445.8603   3208362.1006   1   7   0.0050   0.0101   0.0080   0.0011  -0.0073  -0.0026   0.00   17.4
2173 299886.000    541527.6130  -5479445.8529   3208362.0975   1   7   0.0048   0.0102   0.0079  -0.0007  -0.0073  -0.0024   0.00   17.5
2173 299887.000    541527.6153  -5479445.8542   3208362.0985   1   7   0.0048   0.0101   0.0080  -0.0008  -0.0073  -0.0031   0.00   17.6
2173 299888.000    541527.5601  -5479445.5522   3208361.9545   2   8   0.0258   0.0550   0.0291  -0.0139  -0.0354   0.0106   0.00    1.2
2173 299889.000    541527.6111  -5479445.8552   3208362.0972   1   7   0.0049   0.0102   0.0080   0.0004  -0.0073  -0.0025   0.00   17.8
2173 299890.000    541527.6151  -5479445.8575   3208362.1017   1   7   0.0047   0.0101   0.0080  -0.0013  -0.0073  -0.0026   0.00   17.9
2173 299891.000    541527.6130  -5479445.8570   3208362.1004   1   7   0.0049   0.0101   0.0080  -0.0013  -0.0073  -0.0031   0.00   18.1
2173 299892.000    541527.6140  -5479445.8664   3208362.1078   1   7   0.0051   0.0102   0.0080   0.0011  -0.0073  -0.0026   0.00   18.2
2173 299893.000    541527.6153  -5479445.8604   3208362.1051   1   7   0.0052   0.0102   0.0081  -0.0010  -0.0073  -0.0031   0.00   18.3
2173 299894.000    541527.6179  -5479445.8577   3208362.0995   1   7   0.0048   0.0101   0.0080  -0.0008  -0.0073  -0.0027   0.00   18.4
2173 299895.000    541527.6157  -5479445.8592   3208362.1030   1   7   0.0045   0.0102   0.0080  -0.0011  -0.0073  -0.0030   0.00   18.6
2173 299896.000    541527.6141  -5479445.8533   3208362.0994   1   7   0.0050   0.0102   0.0080  -0.0011  -0.0073  -0.0028   0.00   18.7
2173 299897.000    541527.6151  -5479445.8587   3208362.1029   1   7   0.0052   0.0101   0.0079  -0.0006  -0.0074  -0.0028   0.00   18.8
2173 299898.000    541527.6144  -5479445.8552   3208362.1016   1   7   0.0048   0.0102   0.0080   0.0008  -0.0072  -0.0025   0.00   19.0
2173 299899.000    541527.6145  -5479445.8544   3208362.1018   1   7   0.0052   0.0101   0.0079  -0.0010  -0.0073  -0.0022   0.00   19.1
2173 299900.000    541527.6143  -5479445.8583   3208362.1028   1   7   0.0049   0.0102   0.0079  -0.0012  -0.0073  -0.0023   0.00   19.3
2173 299901.000    541527.6145  -5479445.8578   3208362.1034   1   7   0.0051   0.0102   0.0079  -0.0018  -0.0072  -0.0025   0.00   19.4
2173 299902.000    541527.6139  -5479445.8591   3208362.1033   1   7   0.0050   0.0102   0.0080   0.0002  -0.0073  -0.0028   0.00   19.5
2173 299903.000    541527.6139  -5479445.8573   3208362.1024   1   7   0.0051   0.0102   0.0079   0.0002  -0.0072  -0.0026   0.00   19.7
2173 299904.000    541527.6128  -5479445.8588   3208362.1039   1   7   0.0051   0.0101   0.0079  -0.0005  -0.0073  -0.0022   0.00   19.8
2173 299905.000    541527.6137  -5479445.8546   3208362.0999   1   7   0.0053   0.0102   0.0079  -0.0014  -0.0073  -0.0021   0.00   20.0
2173 299906.000    541527.6127  -5479445.8592   3208362.1017   1   7   0.0051   0.0101   0.0080  -0.0014  -0.0073  -0.0028   0.00   20.2
2173 299907.000    541527.6123  -5479445.8555   3208362.1010   1   7   0.0050   0.0102   0.0079  -0.0006  -0.0073  -0.0024   0.00   20.3
2173 299908.000    541527.6124  -5479445.8489   3208362.0946   1   7   0.0050   0.0102   0.0080  -0.0018  -0.0073  -0.0028   0.00   20.5
2173 299909.000    541527.6138  -5479445.8543   3208362.0999   1   7   0.0049   0.0101   0.0081  -0.0018  -0.0073  -0.0033   0.00   20.6
2173 299910.000    541527.6116  -5479445.8542   3208362.0982   1   7   0.0051   0.0101   0.0079  -0.0007  -0.0073  -0.0026   0.00   20.7
2173 299911.000    541527.6124  -5479445.8546   3208362.0997   1   7   0.0052   0.0102   0.0081   0.0009  -0.0073  -0.0026   0.00   20.9
2173 299912.000    541527.6127  -5479445.8549   3208362.1007   1   7   0.0049   0.0101   0.0080  -0.0013  -0.0074  -0.0024   0.00   21.0
2173 299913.000    541527.6104  -5479445.8480   3208362.0965   1   7   0.0050   0.0101   0.0081  -0.0015  -0.0073  -0.0027   0.00   21.1
2173 299914.000    541527.6149  -5479445.8579   3208362.1011   1   7   0.0050   0.0102   0.0080  -0.0012  -0.0072  -0.0028   0.00   21.2
2173 299915.000    541527.6133  -5479445.8566   3208362.1032   1   7   0.0053   0.0102   0.0079  -0.0014  -0.0072  -0.0019   0.00   21.3
2173 299916.000    541527.6121  -5479445.8517   3208362.0988   1   7   0.0052   0.0103   0.0080  -0.0001  -0.0072  -0.0030   0.00   21.5
2173 299917.000    541527.6136  -5479445.8532   3208362.0996   1   7   0.0051   0.0102   0.0081  -0.0017  -0.0073  -0.0020   0.00   21.6
2173 299918.000    541527.6125  -5479445.8518   3208362.0995   1   7   0.0051   0.0101   0.0080  -0.0017  -0.0073  -0.0019   0.00   21.6
2173 299919.000    541527.6120  -5479445.8590   3208362.1021   1   7   0.0053   0.0102   0.0079  -0.0015  -0.0073  -0.0023   0.00   21.7
2173 299920.000    541527.6126  -5479445.8522   3208362.0997   1   7   0.0053   0.0102   0.0081   0.0007  -0.0073  -0.0024   0.00   21.8
2173 299921.000    541527.6097  -5479445.8568   3208362.1029   1   7   0.0051   0.0102   0.0080  -0.0015  -0.0073  -0.0028   0.00   21.9
2173 299922.000    541527.6125  -5479445.8562   3208362.1015   1   7   0.0050   0.0102   0.0079  -0.0011  -0.0073  -0.0023   0.00   21.9
2173 299923.000    541527.6119  -5479445.8576   3208362.1025   1   7   0.0054   0.0102   0.0080  -0.0010  -0.0072  -0.0020   0.00   22.0
2173 299924.000    541527.6117  -5479445.8597   3208362.1064   1   7   0.0050   0.0102   0.0080  -0.0019  -0.0072  -0.0023   0.00   22.1
2173 299925.000    541527.6099  -5479445.8574   3208362.1022   1   7   0.0048   0.0101   0.0080  -0.0004  -0.0074  -0.0030   0.00   22.1
2173 299926.000    541527.6094  -5479445.8525   3208362.1007   1   7   0.0049   0.0102   0.0080   0.0009  -0.0073  -0.0025   0.00   22.2
2173 299927.000    541527.6108  -5479445.8564   3208362.1023   1   7   0.0053   0.0101   0.0079  -0.0011  -0.0073  -0.0028   0.00   22.2
2173 299928.000    541527.6094  -5479445.8586   3208362.1037   1   7   0.0049   0.0102   0.0079  -0.0015  -0.0072  -0.0025   0.00   22.3
2173 299929.000    541527.6124  -5479445.8600   3208362.1017   1   7   0.0051   0.0100   0.0081   0.0008  -0.0074  -0.0026   0.00   22.4
2173 299930.000    541527.6089  -5479445.8512   3208362.1002   1   7   0.0050   0.0102   0.0079  -0.0006  -0.0073  -0.0028   0.00   22.4
2173 299931.000    541527.6110  -5479445.8514   3208362.1002   1   7   0.0054   0.0101   0.0080  -0.0012  -0.0074  -0.0028   0.00   22.5
2173 299932.000    541527.6105  -5479445.8521   3208362.1002   1   7   0.0046   0.0101   0.0079   0.0004  -0.0074  -0.0026   0.00   22.5
2173 299933.000    541527.6112  -5479445.8538   3208362.0998   1   7   0.0052   0.0100   0.0081  -0.0005  -0.0074  -0.0028   0.00   22.5
2173 299934.000    541527.6098  -5479445.8544   3208362.1022   1   7   0.0049   0.0101   0.0080  -0.0014  -0.0073  -0.0026   0.00   22.6
2173 299935.000    541527.6116  -5479445.8534   3208362.1000   1   7   0.0053   0.0101   0.0079  -0.0018  -0.0073  -0.0025   0.00   22.6
2173 299936.000    541527.6136  -5479445.8488   3208362.0974   1   7   0.0053   0.0101   0.0079  -0.0013  -0.0073  -0.0015   0.00   22.6
2173 299937.000    541527.6119  -5479445.8494   3208362.0967   1   7   0.0050   0.0102   0.0080   0.0005  -0.0072  -0.0023   0.00   22.6
2173 299938.000    541527.6109  -5479445.8524   3208362.1002   1   7   0.0049   0.0101   0.0080   0.0012  -0.0074  -0.0026   0.00   22.7
2173 299939.000    541527.6126  -5479445.8548   3208362.0997   1   7   0.0052   0.0101   0.0080  -0.0014  -0.0073  -0.0027   0.00   22.7
2173 299940.000    541527.6133  -5479445.8519   3208362.0999   1   7   0.0048   0.0102   0.0079  -0.0013  -0.0072  -0.0025   0.00   22.7
2173 299941.000    541527.6087  -5479445.8533   3208362.1012   1   7   0.0051   0.0102   0.0080   0.0002  -0.0073  -0.0026   0.00   22.7
2173 299942.000    541527.6128  -5479445.8572   3208362.1023   1   7   0.0050   0.0102   0.0079  -0.0018  -0.0073  -0.0025   0.00   22.7
2173 299943.000    541527.6123  -5479445.8599   3208362.1048   1   7   0.0052   0.0102   0.0079  -0.0010  -0.0073  -0.0022   0.00   22.7
2173 299944.000    541527.6100  -5479445.8532   3208362.0997   1   7   0.0050   0.0101   0.0080  -0.0016  -0.0074  -0.0028   0.00   22.7
2173 299945.000    541527.6090  -5479445.8551   3208362.1015   1   7   0.0055   0.0101   0.0079  -0.0005  -0.0073  -0.0021   0.00   22.6
2173 299946.000    541527.6116  -5479445.8564   3208362.1026   1   7   0.0054   0.0102   0.0080  -0.0013  -0.0073  -0.0026   0.00   22.6
2173 299947.000    541527.6121  -5479445.8500   3208362.0973   1   7   0.0053   0.0102   0.0081  -0.0017  -0.0073  -0.0021   0.00   22.6
2173 299948.000    541527.6111  -5479445.8544   3208362.1031   1   7   0.0049   0.0102   0.0078   0.0005  -0.0072  -0.0021   0.00   22.6
2173 299949.000    541527.6100  -5479445.8555   3208362.1005   1   7   0.0047   0.0102   0.0081  -0.0014  -0.0073  -0.0027   0.00   22.6
2173 299950.000    541527.6121  -5479445.8579   3208362.1040   1   7   0.0051   0.0103   0.0079   0.0006  -0.0072  -0.0026   0.00   22.6
2173 299951.000    541527.6135  -5479445.8519   3208362.0978   1   7   0.0050   0.0100   0.0079  -0.0012  -0.0074  -0.0026   0.00   22.5
2173 299952.000    541527.6113  -5479445.8514   3208362.1007   1   7   0.0051   0.0102   0.0080   0.0007  -0.0073  -0.0027   0.00   22.5
2173 299953.000    541527.6108  -5479445.8527   3208362.1011   1   7   0.0048   0.0100   0.0081  -0.0012  -0.0074  -0.0028   0.00   22.5
2173 299954.000    541527.6112  -5479445.8543   3208362.1019   1   7   0.0051   0.0101   0.0080  -0.0008  -0.0074  -0.0029   0.00   22.4
2173 299955.000    541527.6103  -5479445.8528   3208362.0996   1   7   0.0051   0.0101   0.0079  -0.0009  -0.0073  -0.0019   0.00   22.4
2173 299956.000    541527.6107  -5479445.8512   3208362.1017   1   7   0.0051   0.0102   0.0080  -0.0013  -0.0073  -0.0025   0.00   22.4
2173 299957.000    541527.6104  -5479445.8486   3208362.0998   1   7   0.0053   0.0101   0.0079  -0.0013  -0.0072  -0.0027   0.00   22.4
2173 299958.000    541527.6123  -5479445.8526   3208362.1007   1   7   0.0053   0.0101   0.0079  -0.0015  -0.0073  -0.0023   0.00   22.4
2173 299959.000    541527.6088  -5479445.8463   3208362.0973   1   7   0.0049   0.0102   0.0079  -0.0013  -0.0072  -0.0027   0.00   22.4
2173 299960.000    541527.6123  -5479445.8556   3208362.1034   1   7   0.0053   0.0102   0.0080  -0.0013  -0.0073  -0.0015   0.00   22.3
2173 299961.000    541527.6133  -5479445.8483   3208362.0994   1   7   0.0052   0.0102   0.0080  -0.0015  -0.0073  -0.0029   0.00   22.4
2173 299962.000    541527.6111  -5479445.8571   3208362.1047   1   7   0.0052   0.0101   0.0080   0.0009  -0.0074  -0.0025   0.00   22.4
2173 299963.000    541527.6132  -5479445.8537   3208362.1046   1   7   0.0050   0.0101   0.0080   0.0010  -0.0074  -0.0028   0.00   22.4
2173 299964.000    541527.6131  -5479445.8479   3208362.0997   1   7   0.0048   0.0102   0.0080  -0.0015  -0.0072  -0.0032   0.00   22.5
2173 299965.000    541527.6114  -5479445.8551   3208362.1020   1   7   0.0052   0.0103   0.0078   0.0011  -0.0073  -0.0025   0.00   22.5
2173 299966.000    541527.6129  -5479445.8545   3208362.1013   1   7   0.0048   0.0101   0.0081   0.0011  -0.0073  -0.0027   0.00   22.4
2173 299967.000    541527.6113  -5479445.8558   3208362.1024   1   7   0.0054   0.0102   0.0080   0.0006  -0.0073  -0.0026   0.00   22.5
2173 299968.000    541527.6116  -5479445.8531   3208362.1022   1   7   0.0049   0.0101   0.0080  -0.0012  -0.0074  -0.0021   0.00   22.5
2173 299969.000    541527.6107  -5479445.8522   3208362.1018   1   7   0.0052   0.0102   0.0081  -0.0003  -0.0073  -0.0026   0.00   22.5
2173 299970.000    541527.6127  -5479445.8556   3208362.1029   1   7   0.0050   0.0102   0.0080  -0.0009  -0.0072  -0.0030   0.00   22.5
2173 299971.000    541527.6139  -5479445.8511   3208362.1010   1   7   0.0050   0.0101   0.0080  -0.0005  -0.0074  -0.0021   0.00   22.5
2173 299972.000    541527.6108  -5479445.8536   3208362.1023   1   7   0.0052   0.0101   0.0081   0.0004  -0.0074  -0.0031   0.00   22.5
2173 299973.000    541527.6088  -5479445.8553   3208362.1069   1   7   0.0048   0.0101   0.0080  -0.0013  -0.0074  -0.0027   0.00   22.5
2173 299974.000    541527.6108  -5479445.8518   3208362.1024   1   7   0.0051   0.0100   0.0080   0.0012  -0.0074  -0.0026   0.00   22.5
2173 299975.000    541527.6128  -5479445.8601   3208362.1065   1   7   0.0049   0.0101   0.0080   0.0005  -0.0074  -0.0029   0.00   22.5
2173 299976.000    541527.6131  -5479445.8516   3208362.1026   1   7   0.0054   0.0102   0.0080  -0.0011  -0.0073  -0.0027   0.00   22.5
2173 299977.000    541527.6125  -5479445.8542   3208362.1016   1   7   0.0049   0.0102   0.0080  -0.0007  -0.0074  -0.0026   0.00   22.5
2173 299978.000    541527.6110  -5479445.8573   3208362.1054   1   7   0.0051   0.0102   0.0080  -0.0006  -0.0073  -0.0024   0.00   22.5
2173 299979.000    541527.6116  -5479445.8572   3208362.1053   1   7   0.0053   0.0100   0.0080   0.0008  -0.0074  -0.0024   0.00   22.5
2173 299980.000    541527.6101  -5479445.8493   3208362.1007   1   7   0.0053   0.0102   0.0080  -0.0013  -0.0073  -0.0019   0.00   22.5
