% program   : rnx2rtkp ver.2.4.3 b31
% inp file  : ngs/21_08_31_20_49_02_mada.obs
% inp file  : ngs/21_08_31_20_49_02_mada_SNMA.obs
% inp file  : ngs/21_08_31_20_49_02_brdc.nav
% obs start : 2021/08/31 20:00:00.0 GPST (week2173 244800.0s)
% obs end   : 2021/08/31 20:59:59.0 GPST (week2173 248399.0s)
% ref pos   :  1551940.6416  -4514370.6248   4215778.6987
%
% (x/y/z-ecef=WGS84,Q=1:fix,2:float,3:sbas,4:dgps,5:single,6:ppp,ns=# of satellites)
%  GPST              x-ecef(m)      y-ecef(m)      z-ecef(m)   Q  ns   sdx(m)   sdy(m)   sdz(m)  sdxy(m)  sdyz(m)  sdzx(m) age(s)  ratio
2173 247719.000   1551942.1396  -4514375.0293   4215782.7830   2   6   0.4979   1.0280   0.9933  -0.4018  -0.8432   0.3098 -30.00    2.5
2173 247720.000   1551942.1378  -4514375.0247   4215782.7915   2   6   0.3543   0.7309   0.7065  -0.2862  -0.5997   0.2214 -29.00    2.4
2173 247721.000   1551942.1370  -4514375.0203   4215782.7884   2   6   0.2901   0.5984   0.5784  -0.2344  -0.4910   0.1814 -28.00    2.4
2173 247722.000   1551942.1402  -4514375.0240   4215782.7855   2   6   0.2517   0.5191   0.5017  -0.2034  -0.4259   0.1573 -27.00    2.5
2173 247723.000   1551942.1403  -4514375.0216   4215782.7832   2   6   0.2255   0.4649   0.4493  -0.1822  -0.3814   0.1408 -26.00    2.7
2173 247724.000   1551942.1401  -4514375.0155   4215782.7806   2   6   0.2061   0.4248   0.4105  -0.1665  -0.3485   0.1287 -25.00    2.8
2173 247725.000   1551942.2100  -4514375.2451   4215783.0275   1   6   0.0218   0.0477   0.0451  -0.0156  -0.0372  -0.0081 -24.00    3.1
2173 247726.000   1551942.2104  -4514375.2414   4215783.0231   1   6   0.0209   0.0458   0.0434  -0.0150  -0.0358  -0.0077 -23.00    3.2
2173 247727.000   1551942.2129  -4514375.2358   4215783.0204   1   6   0.0201   0.0440   0.0416  -0.0145  -0.0343  -0.0072 -22.00    3.4
2173 247728.000   1551942.2136  -4514375.2389   4215783.0211   1   6   0.0193   0.0421   0.0398  -0.0139  -0.0329  -0.0068 -21.00    3.5
2173 247729.000   1551942.2150  -4514375.2429   4215783.0228   1   6   0.0184   0.0402   0.0381  -0.0133  -0.0314  -0.0063 -20.00    3.7
2173 247730.000   1551942.2158  -4514375.2366   4215783.0192   1   6   0.0176   0.0384   0.0364  -0.0127  -0.0300  -0.0058 -19.00    3.9
2173 247731.000   1551942.2172  -4514375.2346   4215783.0185   1   6   0.0167   0.0365   0.0346  -0.0121  -0.0286  -0.0054 -18.00    4.1
2173 247732.000   1551942.2189  -4514375.2347   4215783.0183   1   6   0.0159   0.0347   0.0329  -0.0116  -0.0272  -0.0049 -17.00    4.4
2173 247733.000   1551942.2227  -4514375.2368   4215783.0194   1   6   0.0151   0.0328   0.0312  -0.0110  -0.0258  -0.0044 -16.00    4.8
2173 247734.000   1551942.2238  -4514375.2335   4215783.0176   1   6   0.0143   0.0310   0.0295  -0.0104  -0.0244  -0.0038 -15.00    5.3
2173 247735.000   1551942.2234  -4514375.2306   4215783.0151   1   6   0.0134   0.0292   0.0278  -0.0099  -0.0230  -0.0033 -14.00    5.7
2173 247736.000   1551942.2266  -4514375.2307   4215783.0155   1   6   0.0126   0.0274   0.0261  -0.0093  -0.0216  -0.0026 -13.00    6.2
2173 247737.000   1551942.2273  -4514375.2318   4215783.0150   1   6   0.0118   0.0256   0.0244  -0.0088  -0.0202  -0.0019 -12.00    6.8
2173 247738.000   1551942.2265  -4514375.2272   4215783.0116   1   6   0.0110   0.0239   0.0228  -0.0082  -0.0189  -0.0008 -11.00    7.2
2173 247739.000   1551942.2317  -4514375.2276   4215783.0125   1   6   0.0103   0.0221   0.0212  -0.0077  -0.0176   0.0016 -10.00    7.8
2173 247740.000   1551942.2300  -4514375.2274   4215783.0148   1   6   0.0095   0.0204   0.0197  -0.0072  -0.0163   0.0022  -9.00    8.3
2173 247741.000   1551942.2305  -4514375.2277   4215783.0126   1   6   0.0088   0.0188   0.0181  -0.0067  -0.0151   0.0026  -8.00    8.9
2173 247742.000   1551942.2323  -4514375.2229   4215783.0086   1   6   0.0081   0.0172   0.0166  -0.0062  -0.0138   0.0028  -7.00    9.5
2173 247743.000   1551942.2340  -4514375.2236   4215783.0080   1   6   0.0075   0.0157   0.0152  -0.0058  -0.0127   0.0030  -6.00   10.5
2173 247744.000   1551942.2353  -4514375.2217   4215783.0092   1   6   0.0068   0.0143   0.0139  -0.0053  -0.0116   0.0032  -5.00   11.2
2173 247745.000   1551942.2357  -4514375.2210   4215783.0086   1   6   0.0062   0.0130   0.0127  -0.0050  -0.0106   0.0033  -4.00   12.0
2173 247746.000   1551942.2371  -4514375.2174   4215783.0067   1   6   0.0058   0.0119   0.0116  -0.0046  -0.0098   0.0032  -3.00   12.4
2173 247747.000   1551942.2375  -4514375.2163   4215783.0046   1   6   0.0055   0.0111   0.0106  -0.0044  -0.0090   0.0032  -2.00   12.5
2173 247748.000   1551942.2392  -4514375.2154   4215783.0044   1   6   0.0051   0.0106   0.0101  -0.0039  -0.0086   0.0032  -1.00   12.9
2173 247749.000   1551942.2408  -4514375.2110   4215783.0018   1   6   0.0051   0.0103   0.0100  -0.0042  -0.0085   0.0031   0.00   13.1
2173 247750.000   1551942.2415  -4514375.2105   4215783.0012   1   6   0.0050   0.0104   0.0100  -0.0040  -0.0086   0.0032   0.00   13.3
2173 247751.000   1551942.2417  -4514375.2138   4215783.0035   1   6   0.0050   0.0104   0.0097  -0.0041  -0.0083   0.0032   0.00   13.5
2173 247752.000   1551942.2414  -4514375.2100   4215782.9996   1   6   0.0050   0.0103   0.0101  -0.0040  -0.0085   0.0033   0.00   13.3
2173 247753.000   1551942.2397  -4514375.2102   4215782.9997   1   6   0.0050   0.0104   0.0099  -0.0040  -0.0084   0.0032   0.00   12.8
2173 247754.000   1551942.2415  -4514375.2104   4215782.9980   1   6   0.0051   0.0103   0.0098  -0.0042  -0.0084   0.0033   0.00   13.1
2173 247755.000   1551942.2407  -4514375.2052   4215782.9963   1   6   0.0051   0.0103   0.0098  -0.0043  -0.0084   0.0033   0.00   13.4
2173 247756.000   1551942.2411  -4514375.2059   4215782.9970   1   6   0.0052   0.0104   0.0099  -0.0041  -0.0084   0.0031   0.00   13.8
2173 247757.000   1551942.2421  -4514375.2047   4215782.9953   1   6   0.0049   0.0103   0.0100  -0.0039  -0.0084   0.0031   0.00   14.0
2173 247758.000   1551942.2438  -4514375.2103   4215782.9984   1   6   0.0046   0.0103   0.0099  -0.0041  -0.0085   0.0029   0.00   14.2
2173 247759.000   1551942.2406  -4514375.2058   4215782.9998   1   6   0.0051   0.0104   0.0099  -0.0039  -0.0085   0.0032   0.00   13.8
2173 247760.000   1551942.2402  -4514375.2117   4215783.0034   1   6   0.0050   0.0103   0.0100  -0.0041  -0.0085   0.0032   0.00   14.0
2173 247761.000   1551942.2416  -4514375.2110   4215783.0038   1   6   0.0048   0.0103   0.0102  -0.0040  -0.0085   0.0030   0.00   14.1
2173 247762.000   1551942.2418  -4514375.2070   4215782.9997   1   6   0.0047   0.0104   0.0100  -0.0038  -0.0085   0.0032   0.00   14.1
2173 247763.000   1551942.2392  -4514375.2091   4215783.0004   1   6   0.0049   0.0105   0.0099  -0.0039  -0.0085   0.0031   0.00   13.8
2173 247764.000   1551942.2416  -4514375.2077   4215782.9966   1   6   0.0051   0.0104   0.0099  -0.0039  -0.0085   0.0033   0.00   14.1
2173 247765.000   1551942.2420  -4514375.2088   4215782.9987   1   6   0.0052   0.0103   0.0100  -0.0042  -0.0085   0.0034   0.00   14.7
2173 247766.000   1551942.2415  -4514375.2105   4215783.0010   1   6   0.0047   0.0103   0.0100  -0.0040  -0.0085   0.0032   0.00   15.2
2173 247767.000   1551942.2406  -4514375.2087   4215783.0004   1   6   0.0053   0.0104   0.0098  -0.0040  -0.0083   0.0031   0.00   15.6
2173 247768.000   1551942.2437  -4514375.2105   4215783.0004   1   6   0.0049   0.0104   0.0098  -0.0039  -0.0084   0.0029   0.00   15.8
2173 247769.000   1551942.2400  -4514375.2067   4215782.9998   1   6   0.0052   0.0103   0.0099  -0.0042  -0.0084   0.0034   0.00   16.2
2173 247770.000   1551942.2410  -4514375.2079   4215782.9983   1   6   0.0052   0.0104   0.0100  -0.0041  -0.0084   0.0031   0.00   16.1
2173 247771.000   1551942.2398  -4514375.2035   4215782.9959   1   6   0.0053   0.0104   0.0098  -0.0044  -0.0083   0.0034   0.00   16.5
2173 247772.000   1551942.2400  -4514375.2050   4215782.9995   1   6   0.0053   0.0103   0.0100  -0.0042  -0.0085   0.0028   0.00   16.5
2173 247773.000   1551942.2396  -4514375.2070   4215782.9986   1   6   0.0051   0.0104   0.0099  -0.0040  -0.0085   0.0031   0.00   16.5
2173 247774.000   1551942.2401  -4514375.2052   4215783.0010   1   6   0.0049   0.0103   0.0099  -0.0041  -0.0084   0.0032   0.00   16.7
2173 247775.000   1551942.2432  -4514375.2107   4215783.0039   1   6   0.0049   0.0103   0.0098  -0.0044  -0.0083   0.0033   0.00   16.9
2173 247776.000   1551942.2432  -4514375.2085   4215783.0019   1   6   0.0051   0.0104   0.0098  -0.0040  -0.0084   0.0032   0.00   17.0
2173 247777.000   1551942.2434  -4514375.2095   4215783.0027   1   6   0.0050   0.0103   0.0099  -0.0041  -0.0084   0.0031   0.00   17.4
2173 247778.000   1551942.2440  -4514375.2073   4215783.0020   1   6   0.0049   0.0103   0.0099  -0.0038  -0.0085   0.0032   0.00   17.8
2173 247779.000   1551942.2434  -4514375.2068   4215783.0000   1   6   0.0053   0.0103   0.0100  -0.0043  -0.0084   0.0034   0.00   18.1
2173 247780.000   1551942.2416  -4514375.2041   4215782.9981   1   6   0.0052   0.0105   0.0098  -0.0040  -0.0084   0.0032   0.00   18.3
2173 247781.000   1551942.2422  -4514375.2034   4215782.9940   1   6   0.0049   0.0103   0.0099  -0.0040  -0.0084   0.0030   0.00   18.5
2173 247782.000   1551942.2427  -4514375.2128   4215783.0039   1   6   0.0049   0.0104   0.0100  -0.0040  -0.0084   0.0031   0.00   18.7
2173 247783.000   1551942.2435  -4514375.2082   4215783.0005   1   6   0.0049   0.0103   0.0099  -0.0042  -0.0084   0.0030   0.00   18.8
2173 247784.000   1551942.2424  -4514375.2078   4215782.9990   1   6   0.0051   0.0104   0.0100  -0.0041  -0.0084   0.0032   0.00   19.0
2173 247785.000   1551942.2426  -4514375.2080   4215782.9993   1   6   0.0048   0.0103   0.0101  -0.0041  -0.0085   0.0031   0.00   19.2
2173 247786.000   1551942.2434  -4514375.2108   4215783.0031   1   6   0.0050   0.0104   0.0098  -0.0040  -0.0084   0.0030   0.00   19.7
2173 247787.000   1551942.2421  -4514375.2064   4215782.9990   1   6   0.0049   0.0103   0.0100  -0.0041  -0.0086   0.0029   0.00   19.9
2173 247788.000   1551942.2411  -4514375.2066   4215782.9984   1   6   0.0050   0.0103   0.0101  -0.0042  -0.0085   0.0033   0.00   20.2
2173 247789.000   1551942.2399  -4514375.2024   4215782.9977   1   6   0.0050   0.0102   0.0100  -0.0042  -0.0084   0.0030   0.00   20.5
2173 247790.000   1551942.2438  -4514375.2068   4215783.0010   1   6   0.0050   0.0103   0.0099  -0.0041  -0.0084   0.0031   0.00   20.8
2173 247791.000   1551942.2418  -4514375.2060   4215782.9972   1   6   0.0050   0.0103   0.0098  -0.0041  -0.0085   0.0030   0.00   21.4
2173 247792.000   1551942.2407  -4514375.2089   4215783.0020   1   6   0.0048   0.0104   0.0098  -0.0039  -0.0084   0.0031   0.00   21.7
2173 247793.000   1551942.2423  -4514375.2064   4215782.9976   1   6   0.0053   0.0104   0.0099  -0.0041  -0.0084   0.0030   0.00   22.2
2173 247794.000   1551942.2418  -4514375.2047   4215782.9983   1   6   0.0051   0.0103   0.0099  -0.0042  -0.0084   0.0030   0.00   22.4
2173 247795.000   1551942.2414  -4514375.2066   4215782.9990   1   6   0.0051   0.0103   0.0099  -0.0041  -0.0084   0.0031   0.00   22.3
2173 247796.000   1551942.2412  -4514375.2113   4215783.0033   1   6   0.0051   0.0103   0.0100  -0.0040  -0.0084   0.0030   0.00   22.4
2173 247797.000   1551942.2428  -4514375.2065   4215783.0025   1   6   0.0051   0.0103   0.0099  -0.0041  -0.0084   0.0034   0.00   22.4
2173 247798.000   1551942.2390  -4514375.2073   4215783.0004   1   6   0.0053   0.0104   0.0097  -0.0041  -0.0083   0.0032   0.00   22.5
2173 247799.000   1551942.2397  -4514375.2078   4215783.0011   1   6   0.0052   0.0103   0.0100  -0.0042  -0.0085   0.0032   0.00   22.8
2173 247800.000   1551942.2428  -4514375.2042   4215782.9964   1   6   0.0049   0.0104   0.0100  -0.0039  -0.0085   0.0031   0.00   23.5
2173 247801.000   1551942.2439  -4514375.2056   4215782.9984   1   6   0.0051   0.0103   0.0100  -0.0041  -0.0085   0.0031   0.00   24.1
2173 247802.000   1551942.2418  -4514375.1999   4215782.9934   1   6   0.0050   0.0104   0.0099  -0.0040  -0.0083   0.0032   0.00   24.6
2173 247803.000   1551942.2432  -4514375.2023   4215782.9930   1   6   0.0051   0.0104   0.0099  -0.0038  -0.0084   0.0030   0.00   25.1
2173 247804.000   1551942.2421  -4514375.2049   4215782.9943   1   6   0.0050   0.0104   0.0097  -0.0041  -0.0084   0.0029   0.00   25.6
2173 247805.000   1551942.2411  -4514375.2081   4215782.9983   1   6   0.0049   0.0104   0.0100  -0.0039  -0.0085   0.0030   0.00   26.0
2173 247806.000   1551942.2423  -4514375.2045   4215782.9957   1   6   0.0049   0.0103   0.0099  -0.0040  -0.0084   0.0031   0.00   26.4
2173 247807.000   1551942.2424  -4514375.2093   4215782.9988   1   6   0.0051   0.0103   0.0099  -0.0041  -0.0084   0.0029   0.00   27.2
2173 247808.000   1551942.2416  -4514375.2080   4215782.9968   1   6   0.0050   0.0102   0.0100  -0.0043  -0.0084   0.0031   0.00   28.1
2173 247809.000   1551942.2422  -4514375.2099   4215783.0011   1   6   0.0052   0.0103   0.0100  -0.0042  -0.0085   0.0032   0.00   28.7
2173 247810.000   1551942.2409  -4514375.2070   4215782.9996   1   6   0.0052   0.0103   0.0099  -0.0041  -0.0085   0.0031   0.00   29.1
2173 247811.000   1551942.2410  -4514375.2072   4215783.0015   1   6   0.0050   0.0104   0.0098  -0.0038  -0.0084   0.0031   0.00   29.7
2173 247812.000   1551942.2405  -4514375.2098   4215783.0017   1   6   0.0049   0.0103   0.0097  -0.0043  -0.0083   0.0031   0.00   30.3
2173 247813.000   1551942.2394  -4514375.2050   4215782.9999   1   6   0.0049   0.0104   0.0098  -0.0040  -0.0084   0.0032   0.00   30.9
2173 247814.000   1551942.2384  -4514375.2063   4215782.9974   1   6   0.0052   0.0103   0.0098  -0.0042  -0.0083   0.0031   0.00   31.5
2173 247815.000   1551942.2400  -4514375.2119   4215782.9987   1   6   0.0051   0.0103   0.0099  -0.0041  -0.0085   0.0032   0.00   32.0
2173 247816.000   1551942.2380  -4514375.2056   4215782.9959   1   6   0.0050   0.0104   0.0098  -0.0040  -0.0084   0.0032   0.00   32.8
2173 247817.000   1551942.2400  -4514375.2120   4215782.9999   1   6   0.0049   0.0102   0.0099  -0.0043  -0.0084   0.0030   0.00   33.7
2173 247818.000   1551942.2400  -4514375.2069   4215782.9963   1   6   0.0050   0.0103   0.0099  -0.0041  -0.0084   0.0030   0.00   34.3
2173 247819.000   1551942.2408  -4514375.2082   4215782.9982   1   6   0.0050   0.0104   0.0098  -0.0039  -0.0083   0.0031   0.00   35.5
2173 247820.000   1551942.2396  -4514375.2069   4215782.9966   1   6   0.0048   0.0104   0.0098  -0.0039  -0.0083   0.0028   0.00   36.9
2173 247821.000   1551942.2411  -4514375.2067   4215782.9965   1   6   0.0048   0.0104   0.0098  -0.0040  -0.0084   0.0031   0.00   38.2
2173 247822.000   1551942.2417  -4514375.2032   4215782.9938   1   6   0.0053   0.0103   0.0098  -0.0042  -0.0084   0.0031   0.00   39.4
2173 247823.000   1551942.2400  -4514375.2050   4215782.9953   1   6   0.0052   0.0103   0.0099  -0.0041  -0.0085   0.0031   0.00   40.8
2173 247824.000   1551942.2406  -4514375.2033   4215782.9925   1   6   0.0050   0.0104   0.0098  -0.0039  -0.0084   0.0029   0.00   42.1
2173 247825.000   1551942.2396  -4514375.2052   4215782.9941   1   6   0.0049   0.0103   0.0098  -0.0042  -0.0083   0.0033   0.00   43.8
2173 247826.000   1551942.2413  -4514375.2067   4215782.9958   1   6   0.0050   0.0102   0.0099  -0.0043  -0.0083   0.0031   0.00   45.2
2173 247827.000   1551942.2397  -4514375.2022   4215782.9930   1   6   0.0051   0.0104   0.0097  -0.0041  -0.0083   0.0031   0.00   46.7
2173 247828.000   1551942.2406  -4514375.2028   4215782.9942   1   6   0.0049   0.0102   0.0099  -0.0042  -0.0083   0.0028   0.00   47.5
2173 247829.000   1551942.2403  -4514375.2039   4215782.9925   1   6   0.0051   0.0103   0.0099  -0.0041  -0.0084   0.0031   0.00   48.8
2173 247830.000   1551942.2406  -4514375.2060   4215782.9947   1   6   0.0049   0.0104   0.0099  -0.0037  -0.0085   0.0030   0.00   49.7
2173 247831.000   1551942.2384  -4514375.2064   4215782.9944   1   6   0.0051   0.0103   0.0098  -0.0042  -0.0082   0.0031   0.00   50.5
2173 247832.000   1551942.2402  -4514375.2068   4215782.9958   1   6   0.0049   0.0103   0.0099  -0.0043  -0.0083   0.0033   0.00   51.2
2173 247833.000   1551942.2397  -4514375.2064   4215782.9948   1   6   0.0050   0.0102   0.0099  -0.0043  -0.0084   0.0032   0.00   52.0
2173 247834.000   1551942.2407  -4514375.2030   4215782.9923   1   6   0.0051   0.0103   0.0097  -0.0041  -0.0084   0.0032   0.00   52.5
2173 247835.000   1551942.2421  -4514375.2028   4215782.9914   1   6   0.0050   0.0104   0.0098  -0.0039  -0.0083   0.0027   0.00   53.2
2173 247836.000   1551942.2414  -4514375.2058   4215782.9945   1   6   0.0050   0.0103   0.0097  -0.0041  -0.0082   0.0029   0.00   53.9
2173 247837.000   1551942.2413  -4514375.2045   4215782.9938   1   6   0.0053   0.0103   0.0096  -0.0042  -0.0083   0.0031   0.00   54.4
2173 247838.000   1551942.2423  -4514375.2034   4215782.9947   1   6   0.0049   0.0104   0.0099  -0.0041  -0.0083   0.0032   0.00   54.8
2173 247839.000   1551942.2412  -4514375.2049   4215782.9926   1   6   0.0049   0.0103   0.0099  -0.0039  -0.0084   0.0031   0.00   55.2
2173 247840.000   1551942.2408  -4514375.2024   4215782.9933   1   6   0.0052   0.0103   0.0097  -0.0042  -0.0084   0.0032   0.00   55.6
2173 247841.000   1551942.2400  -4514375.2089   4215782.9960   1   6   0.0052   0.0103   0.0099  -0.0042  -0.0084   0.0033   0.00   56.2
2173 247842.000   1551942.2393  -4514375.2076   4215782.9963   1   6   0.0050   0.0103   0.0099  -0.0041  -0.0084   0.0029   0.00   56.9
2173 247843.000   1551942.2389  -4514375.2042   4215782.9952   1   6   0.0050   0.0103   0.0098  -0.0041  -0.0084   0.0030   0.00   57.6
2173 247844.000   1551942.2430  -4514375.2073   4215782.9954   1   6   0.0050   0.0104   0.0098  -0.0041  -0.0083   0.0030   0.00   58.2
2173 247845.000   1551942.2428  -4514375.2059   4215782.9968   1   6   0.0049   0.0103   0.0098  -0.0039  -0.0084   0.0028   0.00   58.8
2173 247846.000   1551942.2434  -4514375.2088   4215782.9985   1   6   0.0050   0.0103   0.0099  -0.0041  -0.0084   0.0029   0.00   59.6
2173 247847.000   1551942.2423  -4514375.2067   4215782.9966   1   6   0.0051   0.0103   0.0096  -0.0043  -0.0082   0.0030   0.00   59.9
2173 247848.000   1551942.2422  -4514375.2096   4215783.0005   1   6   0.0052   0.0104   0.0096  -0.0040  -0.0083   0.0031   0.00   60.5
2173 247849.000   1551942.2417  -4514375.2059   4215782.9975   1   6   0.0051   0.0103   0.0099  -0.0041  -0.0084   0.0032   0.00   60.9
2173 247850.000   1551942.2408  -4514375.2041   4215782.9923   1   6   0.0051   0.0104   0.0098  -0.0039  -0.0083   0.0029   0.00   61.9
2173 247851.000   1551942.2423  -4514375.2085   4215782.9930   1   6   0.0049   0.0104   0.0099  -0.0040  -0.0083   0.0032   0.00   62.5
2173 247852.000   1551942.2411  -4514375.2029   4215782.9892   1   6   0.0050   0.0103   0.0100  -0.0041  -0.0084   0.0031   0.00   62.7
2173 247853.000   1551942.2415  -4514375.2037   4215782.9923   1   6   0.0049   0.0103   0.0097  -0.0042  -0.0084   0.0030   0.00   63.1
2173 247854.000   1551942.2414  -4514375.2010   4215782.9893   1   6   0.0052   0.0103   0.0098  -0.0040  -0.0083   0.0029   0.00   63.5
2173 247855.000   1551942.2407  -4514375.2012   4215782.9908   1   6   0.0049   0.0103   0.0097  -0.0041  -0.0083   0.0031   0.00   63.4
2173 247856.000   1551942.2400  -4514375.2046   4215782.9942   1   6   0.0051   0.0104   0.0096  -0.0040  -0.0083   0.0032   0.00   63.4
2173 247857.000   1551942.2399  -4514375.2047   4215782.9924   1   6   0.0048   0.0104   0.0097  -0.0038  -0.0083   0.0031   0.00   63.3
2173 247858.000   1551942.2413  -4514375.2062   4215782.9910   1   6   0.0049   0.0103   0.0098  -0.0039  -0.0084   0.0028   0.00   63.2
2173 247859.000   1551942.2386  -4514375.2020   4215782.9923   1   6   0.0052   0.0104   0.0095  -0.0042  -0.0082   0.0032   0.00   63.4
2173 247860.000   1551942.2395  -4514375.2011   4215782.9923   1   6   0.0051   0.0103   0.0097  -0.0041  -0.0083   0.0031   0.00   63.7
2173 247861.000   1551942.2407  -4514375.2003   4215782.9904   1   6   0.0050   0.0103   0.0099  -0.0040  -0.0084   0.0031   0.00   64.2
2173 247862.000   1551942.2409  -4514375.2036   4215782.9928   1   6   0.0047   0.0103   0.0099  -0.0038  -0.0084   0.0032   0.00   64.4
2173 247863.000   1551942.2411  -4514375.2006   4215782.9901   1   6   0.0049   0.0103   0.0098  -0.0040  -0.0084   0.0029   0.00   64.6
2173 247864.000   1551942.2386  -4514375.2031   4215782.9937   1   6   0.0053   0.0102   0.0097  -0.0045  -0.0082   0.0034   0.00   64.7
2173 247865.000   1551942.2386  -4514375.2053   4215782.9958   1   6   0.0050   0.0102   0.0098  -0.0044  -0.0083   0.0031   0.00   64.8
2173 247866.000   1551942.2382  -4514375.2050   4215782.9958   1   6   0.0050   0.0104   0.0097  -0.0039  -0.0083   0.0031   0.00   65.1
2173 247867.000   1551942.2395  -4514375.2076   4215782.9961   1   6   0.0051   0.0103   0.0097  -0.0040  -0.0084   0.0028   0.00   65.7
2173 247868.000   1551942.2391  -4514375.2041   4215782.9928   1   6   0.0049   0.0103   0.0097  -0.0040  -0.0083   0.0031   0.00   65.9
2173 247869.000   1551942.2390  -4514375.2067   4215782.9932   1   6   0.0048   0.0104   0.0099  -0.0041  -0.0083   0.0031   0.00   65.9
2173 247870.000   1551942.2388  -4514375.2080   4215782.9975   1   6   0.0053   0.0103   0.0097  -0.0041  -0.0083   0.0030   0.00   65.9
2173 247871.000   1551942.2380  -4514375.2034   4215782.9947   1   6   0.0046   0.0102   0.0098  -0.0042  -0.0083   0.0030   0.00   65.4
2173 247872.000   1551942.2383  -4514375.2046   4215782.9934   1   6   0.0051   0.0103   0.0098  -0.0043  -0.0083   0.0032   0.00   65.1
2173 247873.000   1551942.2371  -4514375.2044   4215782.9923   1   6   0.0049   0.0104   0.0096  -0.0040  -0.0082   0.0030   0.00   65.0
2173 247874.000   1551942.2375  -4514375.2039   4215782.9937   1   6   0.0050   0.0103   0.0097  -0.0041  -0.0083   0.0030   0.00   64.8
2173 247875.000   1551942.2387  -4514375.2045   4215782.9920   1   6   0.0051   0.0103   0.0098  -0.0042  -0.0083   0.0033   0.00   65.0
2173 247876.000   1551942.2382  -4514375.2032   4215782.9908   1   6   0.0052   0.0103   0.0097  -0.0041  -0.0083   0.0031   0.00   65.5
2173 247877.000   1551942.2388  -4514375.2048   4215782.9904   1   6   0.0049   0.0102   0.0097  -0.0041  -0.0084   0.0030   0.00   65.7
2173 247878.000   1551942.2376  -4514375.1993   4215782.9880   1   6   0.0050   0.0103   0.0096  -0.0041  -0.0083   0.0031   0.00   65.7
2173 247879.000   1551942.2392  -4514375.2012   4215782.9863   1   6   0.0051   0.0103   0.0096  -0.0042  -0.0083   0.0031   0.00   65.6
2173 247880.000   1551942.2388  -4514375.2001   4215782.9850   1   6   0.0050   0.0102   0.0098  -0.0042  -0.0082   0.0032   0.00   65.4
2173 247881.000   1551942.2388  -4514375.2030   4215782.9863   1   6   0.0051   0.0104   0.0097  -0.0040  -0.0083   0.0031   0.00   65.3
2173 247882.000   1551942.2378  -4514375.2009   4215782.9831   1   6   0.0050   0.0103   0.0098  -0.0039  -0.0083   0.0030   0.00   65.2
2173 247883.000   1551942.2378  -4514375.2022   4215782.9855   1   6   0.0050   0.0104   0.0098  -0.0040  -0.0083   0.0030   0.00   65.0
2173 247884.000   1551942.2382  -4514375.2018   4215782.9867   1   6   0.0051   0.0102   0.0098  -0.0042  -0.0084   0.0028   0.00   65.0
2173 247885.000   1551942.2364  -4514375.2011   4215782.9894   1   6   0.0051   0.0103   0.0099  -0.0042  -0.0084   0.0031   0.00   65.0
2173 247886.000   1551942.2396  -4514375.2060   4215782.9921   1   6   0.0052   0.0104   0.0097  -0.0043  -0.0082   0.0033   0.00   64.9
2173 247887.000   1551942.2390  -4514375.2040   4215782.9936   1   6   0.0050   0.0103   0.0097  -0.0040  -0.0083   0.0034   0.00   64.5
2173 247888.000   1551942.2383  -4514375.2015   4215782.9892   1   6   0.0049   0.0103   0.0097  -0.0040  -0.0083   0.0030   0.00   64.1
2173 247889.000   1551942.2380  -4514375.2044   4215782.9943   1   6   0.0048   0.0103   0.0097  -0.0040  -0.0082   0.0028   0.00   63.9
2173 247890.000   1551942.2375  -4514375.2089   4215782.9948   1   6   0.0052   0.0103   0.0098  -0.0040  -0.0084   0.0031   0.00   63.7
2173 247891.000   1551942.2365  -4514375.2067   4215782.9936   1   6   0.0046   0.0104   0.0097  -0.0039  -0.0083   0.0030   0.00   63.7
2173 247892.000   1551942.2390  -4514375.2073   4215782.9946   1   6   0.0051   0.0103   0.0096  -0.0040  -0.0084   0.0033   0.00   63.8
2173 247893.000   1551942.2387  -4514375.2044   4215782.9926   1   6   0.0051   0.0103   0.0096  -0.0041  -0.0083   0.0029   0.00   63.6
2173 247894.000   1551942.2398  -4514375.2091   4215782.9964   1   6   0.0051   0.0104   0.0096  -0.0042  -0.0081   0.0030   0.00   63.4
2173 247895.000   1551942.2342  -4514375.2031   4215782.9934   1   6   0.0050   0.0104   0.0094  -0.0040  -0.0081   0.0031   0.00   63.1
2173 247896.000   1551942.2353  -4514375.2013   4215782.9942   1   6   0.0051   0.0103   0.0097  -0.0042  -0.0082   0.0032   0.00   63.2
2173 247897.000   1551942.2343  -4514375.2024   4215782.9913   1   6   0.0049   0.0104   0.0098  -0.0037  -0.0083   0.0030   0.00   63.2
2173 247898.000   1551942.2338  -4514375.2012   4215782.9906   1   6   0.0049   0.0103   0.0096  -0.0041  -0.0082   0.0029   0.00   62.9
2173 247899.000   1551942.2336  -4514375.2046   4215782.9952   1   6   0.0052   0.0103   0.0097  -0.0042  -0.0083   0.0034   0.00   63.0
2173 247900.000   1551942.2336  -4514375.2020   4215782.9928   1   6   0.0050   0.0103   0.0098  -0.0040  -0.0084   0.0032   0.00   62.9
2173 247901.000   1551942.2341  -4514375.2034   4215782.9932   1   6   0.0051   0.0103   0.0097  -0.0042  -0.0084   0.0032   0.00   62.6
2173 247902.000   1551942.2348  -4514375.2022   4215782.9899   1   6   0.0052   0.0103   0.0096  -0.0041  -0.0083   0.0032   0.00   62.5
2173 247903.000   1551942.2353  -4514375.2037   4215782.9905   1   6   0.0051   0.0104   0.0097  -0.0039  -0.0083   0.0032   0.00   62.0
2173 247904.000   1551942.2339  -4514375.2007   4215782.9866   1   6   0.0050   0.0103   0.0096  -0.0041  -0.0082   0.0029   0.00   61.4
2173 247905.000   1551942.2333  -4514375.2002   4215782.9895   1   6   0.0050   0.0104   0.0097  -0.0039  -0.0082   0.0031   0.00   61.5
2173 247906.000   1551942.2342  -4514375.2007   4215782.9889   1   6   0.0051   0.0102   0.0097  -0.0043  -0.0082   0.0032   0.00   61.7
2173 247907.000   1551942.2338  -4514375.2001   4215782.9892   1   6   0.0051   0.0103   0.0096  -0.0043  -0.0082   0.0030   0.00   61.5
2173 247908.000   1551942.2338  -4514375.2024   4215782.9891   1   6   0.0051   0.0102   0.0099  -0.0043  -0.0084   0.0033   0.00   61.8
2173 247909.000   1551942.2334  -4514375.2007   4215782.9901   1   6   0.0049   0.0103   0.0094  -0.0040  -0.0081   0.0028   0.00   61.7
2173 247910.000   1551942.2327  -4514375.1999   4215782.9885   1   6   0.0053   0.0103   0.0095  -0.0043  -0.0082   0.0032   0.00   61.1
2173 247911.000   1551942.2322  -4514375.1992   4215782.9898   1   6   0.0049   0.0103   0.0097  -0.0041  -0.0083   0.0032   0.00   60.5
2173 247912.000   1551942.2334  -4514375.2038   4215782.9936   1   6   0.0052   0.0103   0.0096  -0.0044  -0.0082   0.0031   0.00   59.8
2173 247913.000   1551942.2347  -4514375.2055   4215782.9936   1   6   0.0048   0.0103   0.0098  -0.0042  -0.0082   0.0030   0.00   59.2
2173 247914.000   1551942.2324  -4514375.2013   4215782.9909   1   6   0.0050   0.0104   0.0097  -0.0039  -0.0082   0.0028   0.00   58.6
2173 247915.000   1551942.2327  -4514375.1982   4215782.9863   1   6   0.0049   0.0102   0.0098  -0.0042  -0.0083   0.0031   0.00   58.4
2173 247916.000   1551942.2303  -4514375.1969   4215782.9862   1   6   0.0053   0.0102   0.0096  -0.0043  -0.0082   0.0033   0.00   57.9
2173 247917.000   1551942.2311  -4514375.1973   4215782.9874   1   6   0.0052   0.0102   0.0097  -0.0043  -0.0082   0.0030   0.00   57.7
2173 247918.000   1551942.2301  -4514375.1953   4215782.9825   1   6   0.0050   0.0102   0.0099  -0.0042  -0.0083   0.0031   0.00   57.8
2173 247919.000   1551942.2296  -4514375.1990   4215782.9865   1   6   0.0048   0.0103   0.0097  -0.0042  -0.0082   0.0031   0.00   57.7
2173 247920.000   1551942.2314  -4514375.2067   4215782.9966   1   6   0.0050   0.0102   0.0098  -0.0042  -0.0083   0.0031   0.00   57.6
2173 247921.000   1551942.2334  -4514375.2040   4215782.9945   1   6   0.0053   0.0103   0.0095  -0.0042  -0.0082   0.0030   0.00   57.1
2173 247922.000   1551942.2332  -4514375.2055   4215782.9937   1   6   0.0050   0.0104   0.0097  -0.0040  -0.0083   0.0029   0.00   56.8
2173 247923.000   1551942.2322  -4514375.2020   4215782.9911   1   6   0.0047   0.0104   0.0095  -0.0040  -0.0082   0.0030   0.00   56.7
2173 247924.000   1551942.2322  -4514375.2009   4215782.9920   1   6   0.0051   0.0103   0.0095  -0.0041  -0.0082   0.0029   0.00   56.4
2173 247925.000   1551942.2323  -4514375.2025   4215782.9916   1   6   0.0051   0.0103   0.0097  -0.0042  -0.0082   0.0034   0.00   56.1
2173 247926.000   1551942.2307  -4514375.1980   4215782.9901   1   6   0.0051   0.0103   0.0097  -0.0042  -0.0082   0.0033   0.00   55.8
2173 247927.000   1551942.2302  -4514375.1981   4215782.9881   1   6   0.0051   0.0103   0.0098  -0.0040  -0.0082   0.0032   0.00   55.8
2173 247928.000   1551942.2310  -4514375.2017   4215782.9919   1   6   0.0050   0.0103   0.0095  -0.0041  -0.0082   0.0030   0.00   55.5
2173 247929.000   1551942.2303  -4514375.2001   4215782.9922   1   6   0.0053   0.0102   0.0098  -0.0044  -0.0082   0.0033   0.00   55.3
2173 247930.000   1551942.2303  -4514375.1959   4215782.9855   1   6   0.0050   0.0102   0.0096  -0.0042  -0.0082   0.0031   0.00   55.2
2173 247931.000   1551942.2328  -4514375.2021   4215782.9925   1   6   0.0052   0.0103   0.0097  -0.0040  -0.0083   0.0028   0.00   55.4
2173 247932.000   1551942.2321  -4514375.1977   4215782.9886   1   6   0.0053   0.0103   0.0097  -0.0044  -0.0083   0.0031   0.00   55.5
2173 247933.000   1551942.2313  -4514375.2025   4215782.9911   1   6   0.0051   0.0102   0.0098  -0.0042  -0.0084   0.0031   0.00   55.6
2173 247934.000   1551942.2290  -4514375.1993   4215782.9886   1   6   0.0049   0.0103   0.0096  -0.0042  -0.0082   0.0027   0.00   55.5
2173 247935.000   1551942.2312  -4514375.2027   4215782.9924   1   6   0.0048   0.0103   0.0098  -0.0038  -0.0084   0.0027   0.00   55.3
2173 247936.000   1551942.2292  -4514375.2008   4215782.9900   1   6   0.0050   0.0103   0.0096  -0.0042  -0.0083   0.0030   0.00   54.9
2173 247937.000   1551942.2305  -4514375.2019   4215782.9909   1   6   0.0052   0.0104   0.0096  -0.0040  -0.0083   0.0031   0.00   54.8
2173 247938.000   1551942.2296  -4514375.1985   4215782.9907   1   6   0.0052   0.0102   0.0098  -0.0043  -0.0083   0.0030   0.00   54.6
2173 247939.000   1551942.2292  -4514375.1991   4215782.9904   1   6   0.0049   0.0104   0.0095  -0.0039  -0.0082   0.0032   0.00   54.3
2173 247940.000   1551942.2310  -4514375.2038   4215782.9917   1   6   0.0052   0.0103   0.0097  -0.0043  -0.0082   0.0031   0.00   54.6
2173 247941.000   1551942.2329  -4514375.2031   4215782.9904   1   6   0.0051   0.0103   0.0096  -0.0041  -0.0083   0.0031   0.00   54.9
2173 247942.000   1551942.2313  -4514375.2041   4215782.9904   1   6   0.0050   0.0102   0.0097  -0.0043  -0.0082   0.0032   0.00   55.0
2173 247943.000   1551942.2313  -4514375.2030   4215782.9927   1   6   0.0052   0.0104   0.0095  -0.0038  -0.0082   0.0030   0.00   55.1
2173 247944.000   1551942.2330  -4514375.2011   4215782.9897   1   6   0.0051   0.0103   0.0095  -0.0042  -0.0082   0.0031   0.00   55.2
2173 247945.000   1551942.2313  -4514375.2024   4215782.9916   1   6   0.0051   0.0103   0.0095  -0.0042  -0.0082   0.0030   0.00   55.5
2173 247946.000   1551942.2295  -4514375.2021   4215782.9912   1   6   0.0050   0.0102   0.0099  -0.0043  -0.0083   0.0031   0.00   55.8
2173 247947.000   1551942.2309  -4514375.2015   4215782.9915   1   6   0.0050   0.0103   0.0097  -0.0040  -0.0083   0.0026   0.00   56.1
2173 247948.000   1551942.2284  -4514375.2001   4215782.9896   1   6   0.0048   0.0102   0.0096  -0.0042  -0.0082   0.0031   0.00   56.4
2173 247949.000   1551942.2304  -4514375.2056   4215782.9925   1   6   0.0049   0.0102   0.0096  -0.0043  -0.0082   0.0030   0.00   56.9
2173 247950.000   1551942.2300  -4514375.2007   4215782.9920   1   6   0.0050   0.0104   0.0095  -0.0040  -0.0082   0.0030   0.00   57.0
2173 247951.000   1551942.2308  -4514375.2042   4215782.9937   1   6   0.0050   0.0103   0.0096  -0.0041  -0.0081   0.0029   0.00   57.2
2173 247952.000   1551942.2307  -4514375.2032   4215782.9918   1   6   0.0053   0.0102   0.0097  -0.0043  -0.0083   0.0031   0.00   57.1
2173 247953.000   1551942.2298  -4514375.2032   4215782.9936   1   6   0.0050   0.0103   0.0096  -0.0041  -0.0082   0.0033   0.00   57.3
2173 247954.000   1551942.2312  -4514375.2042   4215782.9919   1   6   0.0051   0.0103   0.0096  -0.0041  -0.0082   0.0026   0.00   57.5
2173 247955.000   1551942.2290  -4514375.2047   4215782.9918   1   6   0.0050   0.0103   0.0096  -0.0041  -0.0082   0.0029   0.00   57.9
2173 247956.000   1551942.2301  -4514375.2056   4215782.9946   1   6   0.0050   0.0103   0.0097  -0.0040  -0.0083   0.0028   0.00   57.9
2173 247957.000   1551942.2318  -4514375.2091   4215782.9971   1   6   0.0049   0.0103   0.0097  -0.0040  -0.0082   0.0031   0.00   58.2
2173 247958.000   1551942.2309  -4514375.2063   4215782.9945   1   6   0.0052   0.0102   0.0096  -0.0042  -0.0082   0.0028   0.00   58.6
2173 247959.000   1551942.2298  -4514375.2072   4215782.9950   1   6   0.0053   0.0102   0.0097  -0.0043  -0.0082   0.0030   0.00   58.8
2173 247960.000   1551942.2288  -4514375.2037   4215782.9933   1   6   0.0048   0.0102   0.0096  -0.0042  -0.0082   0.0028   0.00   59.0
2173 247961.000   1551942.2296  -4514375.2043   4215782.9959   1   6   0.0052   0.0102   0.0097  -0.0043  -0.0082   0.0030   0.00   59.7
2173 247962.000   1551942.2301  -4514375.2057   4215782.9957   1   6   0.0053   0.0103   0.0096  -0.0042  -0.0082   0.0030   0.00   60.1
2173 247963.000   1551942.2299  -4514375.2042   4215782.9958   1   6   0.0050   0.0103   0.0095  -0.0041  -0.0081   0.0030   0.00   60.6
2173 247964.000   1551942.2293  -4514375.2032   4215782.9944   1   6   0.0051   0.0102   0.0095  -0.0043  -0.0081   0.0034   0.00   60.7
2173 247965.000   1551942.2302  -4514375.2073   4215782.9977   1   6   0.0051   0.0103   0.0096  -0.0043  -0.0081   0.0028   0.00   61.3
2173 247966.000   1551942.2293  -4514375.2044   4215782.9946   1   6   0.0051   0.0103   0.0095  -0.0042  -0.0081   0.0030   0.00   61.9
2173 247967.000   1551942.2296  -4514375.2069   4215782.9953   1   6   0.0050   0.0103   0.0097  -0.0041  -0.0083   0.0029   0.00   62.5
2173 247968.000   1551942.2291  -4514375.2045   4215782.9963   1   6   0.0051   0.0103   0.0099  -0.0040  -0.0083   0.0031   0.00   63.3
2173 247969.000   1551942.2295  -4514375.2057   4215782.9948   1   6   0.0046   0.0103   0.0094  -0.0040  -0.0082   0.0032   0.00   63.7
2173 247970.000   1551942.2285  -4514375.2028   4215782.9936   1   6   0.0051   0.0102   0.0096  -0.0041  -0.0083   0.0030   0.00   64.1
2173 247971.000   1551942.2280  -4514375.2045   4215782.9960   1   6   0.0051   0.0103   0.0097  -0.0041  -0.0083   0.0032   0.00   64.5
2173 247972.000   1551942.2292  -4514375.2052   4215782.9948   1   6   0.0051   0.0103   0.0096  -0.0042  -0.0082   0.0030   0.00   64.7
2173 247973.000   1551942.2280  -4514375.2034   4215782.9949   1   6   0.0050   0.0103   0.0095  -0.0041  -0.0082   0.0028   0.00   65.1
2173 247974.000   1551942.2274  -4514375.2012   4215782.9892   1   6   0.0051   0.0103   0.0096  -0.0042  -0.0083   0.0029   0.00   65.4
2173 247975.000   1551942.2298  -4514375.2037   4215782.9970   1   6   0.0049   0.0102   0.0096  -0.0041  -0.0082   0.0028   0.00   65.9
2173 247976.000   1551942.2303  -4514375.2033   4215782.9947   1   6   0.0052   0.0102   0.0096  -0.0043  -0.0082   0.0031   0.00   66.2
2173 247977.000   1551942.2294  -4514375.2045   4215782.9921   1   6   0.0048   0.0104   0.0096  -0.0038  -0.0082   0.0030   0.00   67.0
2173 247978.000   1551942.2294  -4514375.2017   4215782.9907   1   6   0.0051   0.0103   0.0097  -0.0043  -0.0083   0.0032   0.00   67.6
2173 247979.000   1551942.2304  -4514375.2030   4215782.9947   1   6   0.0051   0.0103   0.0095  -0.0041  -0.0082   0.0030   0.00   68.2
2173 247980.000   1551942.2302  -4514375.2034   4215782.9962   1   6   0.0049   0.0103   0.0095  -0.0041  -0.0082   0.0030   0.00   68.5
2173 247981.000   1551942.2277  -4514375.2043   4215782.9958   1   6   0.0048   0.0103   0.0095  -0.0041  -0.0082   0.0031   0.00   69.0
2173 247982.000   1551942.2292  -4514375.2051   4215782.9964   1   6   0.0051   0.0102   0.0095  -0.0045  -0.0081   0.0030   0.00   69.7
2173 247983.000   1551942.2279  -4514375.2056   4215782.9972   1   6   0.0048   0.0103   0.0097  -0.0041  -0.0082   0.0031   0.00   70.0
2173 247984.000   1551942.2295  -4514375.2075   4215782.9978   1   6   0.0051   0.0103   0.0096  -0.0044  -0.0081   0.0033   0.00   70.4
2173 247985.000   1551942.2285  -4514375.2011   4215782.9938   1   6   0.0051   0.0103   0.0096  -0.0041  -0.0082   0.0028   0.00   70.9
2173 247986.000   1551942.2300  -4514375.1999   4215782.9936   1   6   0.0050   0.0103   0.0095  -0.0042  -0.0081   0.0026   0.00   71.2
2173 247987.000   1551942.2305  -4514375.2032   4215782.9946   1   6   0.0049   0.0103   0.0094  -0.0042  -0.0081   0.0031   0.00   72.3
2173 247988.000   1551942.2309  -4514375.2025   4215782.9957   1   6   0.0055   0.0103   0.0094  -0.0044  -0.0081   0.0034   0.00   73.0
2173 247989.000   1551942.2304  -4514375.2018   4215782.9938   1   6   0.0051   0.0103   0.0095  -0.0041  -0.0081   0.0028   0.00   73.4
2173 247990.000   1551942.2273  -4514375.2002   4215782.9921   1   6   0.0049   0.0103   0.0096  -0.0041  -0.0081   0.0027   0.00   73.9
2173 247991.000   1551942.2278  -4514375.1994   4215782.9901   1   6   0.0052   0.0103   0.0094  -0.0042  -0.0080   0.0031   0.00   74.2
2173 247992.000   1551942.2281  -4514375.2025   4215782.9907   1   6   0.0051   0.0102   0.0095  -0.0044  -0.0082   0.0028   0.00   74.6
2173 247993.000   1551942.2281  -4514375.2032   4215782.9926   1   6   0.0050   0.0103   0.0096  -0.0040  -0.0082   0.0031   0.00   74.9
2173 247994.000   1551942.2288  -4514375.2013   4215782.9909   1   6   0.0049   0.0104   0.0093  -0.0040  -0.0081   0.0028   0.00   75.4
2173 247995.000   1551942.2281  -4514375.2012   4215782.9935   1   6   0.0051   0.0103   0.0096  -0.0041  -0.0083   0.0029   0.00   76.2
2173 247996.000   1551942.2300  -4514375.2010   4215782.9948   1   6   0.0050   0.0103   0.0096  -0.0043  -0.0081   0.0032   0.00   76.6
2173 247997.000   1551942.2303  -4514375.2060   4215782.9952   1   6   0.0048   0.0102   0.0095  -0.0042  -0.0082   0.0030   0.00   77.4
2173 247998.000   1551942.2303  -4514375.2026   4215782.9920   1   6   0.0049   0.0102   0.0093  -0.0044  -0.0081   0.0030   0.00   78.3
2173 247999.000   1551942.2303  -4514375.2024   4215782.9972   1   6   0.0052   0.0102   0.0094  -0.0043  -0.0080   0.0027   0.00   78.9
2173 248000.000   1551942.2286  -4514375.2052   4215783.0009   1   6   0.0049   0.0103   0.0096  -0.0041  -0.0083   0.0029   0.00   79.7
2173 248001.000   1551942.2283  -4514375.2058   4215783.0002   1   6   0.0051   0.0103   0.0094  -0.0042  -0.0081   0.0032   0.00   80.3
2173 248002.000   1551942.2266  -4514375.2063   4215782.9998   1   6   0.0050   0.0103   0.0093  -0.0041  -0.0082   0.0031   0.00   80.7
2173 248003.000   1551942.2289  -4514375.2095   4215783.0017   1   6   0.0050   0.0103   0.0097  -0.0040  -0.0083   0.0028   0.00   80.8
2173 248004.000   1551942.2280  -4514375.2048   4215782.9986   1   6   0.0050   0.0103   0.0096  -0.0041  -0.0082   0.0026   0.00   81.0
2173 248005.000   1551942.2288  -4514375.2038   4215782.9977   1   6   0.0048   0.0103   0.0095  -0.0041  -0.0081   0.0030   0.00   81.3
2173 248006.000   1551942.2278  -4514375.2002   4215782.9938   1   6   0.0054   0.0103   0.0094  -0.0043  -0.0080   0.0031   0.00   81.6
2173 248007.000   1551942.2293  -4514375.2060   4215782.9977   1   6   0.0049   0.0102   0.0097  -0.0043  -0.0081   0.0029   0.00   82.2
2173 248008.000   1551942.2296  -4514375.2051   4215782.9968   1   6   0.0050   0.0102   0.0096  -0.0041  -0.0082   0.0029   0.00   82.5
2173 248009.000   1551942.2283  -4514375.2065   4215782.9989   1   6   0.0050   0.0103   0.0094  -0.0040  -0.0082   0.0031   0.00   82.8
2173 248010.000   1551942.2281  -4514375.2094   4215782.9987   1   6   0.0054   0.0103   0.0094  -0.0044  -0.0081   0.0031   0.00   82.7
2173 248011.000   1551942.2277  -4514375.2075   4215782.9987   1   6   0.0053   0.0102   0.0097  -0.0045  -0.0081   0.0029   0.00   82.9
2173 248012.000   1551942.2277  -4514375.2074   4215783.0014   1   6   0.0049   0.0103   0.0096  -0.0040  -0.0082   0.0029   0.00   83.1
2173 248013.000   1551942.2281  -4514375.2068   4215783.0012   1   6   0.0048   0.0104   0.0094  -0.0039  -0.0082   0.0028   0.00   82.9
2173 248014.000   1551942.2254  -4514375.2091   4215782.9986   1   6   0.0049   0.0103   0.0095  -0.0041  -0.0082   0.0030   0.00   83.4
2173 248015.000   1551942.2254  -4514375.2058   4215782.9953   1   6   0.0051   0.0103   0.0095  -0.0040  -0.0081   0.0027   0.00   83.3
2173 248016.000   1551942.2276  -4514375.2107   4215782.9987   1   6   0.0050   0.0103   0.0095  -0.0042  -0.0081   0.0031   0.00   83.6
2173 248017.000   1551942.2256  -4514375.2130   4215783.0003   1   6   0.0050   0.0103   0.0095  -0.0041  -0.0081   0.0028   0.00   83.7
2173 248018.000   1551942.2249  -4514375.2102   4215782.9982   1   6   0.0050   0.0102   0.0097  -0.0043  -0.0081   0.0029   0.00   84.1
2173 248019.000   1551942.2296  -4514375.2093   4215782.9986   1   6   0.0051   0.0103   0.0095  -0.0042  -0.0081   0.0030   0.00   84.2
2173 248020.000   1551942.2301  -4514375.2125   4215783.0003   1   6   0.0049   0.0103   0.0094  -0.0042  -0.0081   0.0026   0.00   84.5
2173 248021.000   1551942.2287  -4514375.2102   4215783.0020   1   6   0.0049   0.0103   0.0094  -0.0044  -0.0080   0.0030   0.00   84.8
2173 248022.000   1551942.2266  -4514375.2099   4215783.0031   1   6   0.0051   0.0102   0.0095  -0.0043  -0.0080   0.0031   0.00   85.2
2173 248023.000   1551942.2293  -4514375.2132   4215783.0057   1   6   0.0052   0.0103   0.0096  -0.0043  -0.0081   0.0029   0.00   85.8
2173 248024.000   1551942.2281  -4514375.2106   4215783.0031   1   6   0.0051   0.0103   0.0096  -0.0041  -0.0081   0.0030   0.00   85.9
2173 248025.000   1551942.2274  -4514375.2093   4215782.9995   1   6   0.0049   0.0103   0.0097  -0.0042  -0.0082   0.0032   0.00   86.1
2173 248026.000   1551942.2249  -4514375.2074   4215783.0016   1   6   0.0053   0.0102   0.0095  -0.0044  -0.0081   0.0031   0.00   85.8
2173 248027.000   1551942.2269  -4514375.2097   4215783.0011   1   6   0.0050   0.0103   0.0095  -0.0042  -0.0080   0.0028   0.00   85.6
2173 248028.000   1551942.2261  -4514375.2077   4215782.9992   1   6   0.0051   0.0103   0.0095  -0.0042  -0.0081   0.0034   0.00   85.6
2173 248029.000   1551942.2237  -4514375.2098   4215783.0000   1   6   0.0052   0.0102   0.0096  -0.0043  -0.0082   0.0030   0.00   85.1
2173 248030.000   1551942.2260  -4514375.2150   4215783.0069   1   6   0.0051   0.0103   0.0096  -0.0042  -0.0082   0.0027   0.00   84.4
2173 248031.000   1551942.2277  -4514375.2174   4215783.0061   1   6   0.0047   0.0103   0.0095  -0.0040  -0.0080   0.0030   0.00   84.2
2173 248032.000   1551942.2273  -4514375.2194   4215783.0105   1   6   0.0050   0.0102   0.0093  -0.0043  -0.0081   0.0028   0.00   83.5
2173 248033.000   1551942.2273  -4514375.2164   4215783.0107   1   6   0.0051   0.0103   0.0095  -0.0043  -0.0081   0.0031   0.00   82.6
2173 248034.000   1551942.2271  -4514375.2198   4215783.0089   1   6   0.0051   0.0103   0.0095  -0.0041  -0.0081   0.0029   0.00   82.2
2173 248035.000   1551942.2280  -4514375.2173   4215783.0051   1   6   0.0051   0.0103   0.0096  -0.0042  -0.0082   0.0029   0.00   82.4
2173 248036.000   1551942.2268  -4514375.2136   4215782.9981   1   6   0.0050   0.0102   0.0097  -0.0042  -0.0082   0.0029   0.00   82.3
2173 248037.000   1551942.2272  -4514375.2119   4215783.0026   1   6   0.0052   0.0103   0.0096  -0.0043  -0.0081   0.0032   0.00   82.5
2173 248038.000   1551942.2271  -4514375.2142   4215783.0014   1   6   0.0050   0.0102   0.0097  -0.0041  -0.0082   0.0030   0.00   82.7
2173 248039.000   1551942.2277  -4514375.2091   4215783.0005   1   6   0.0053   0.0102   0.0096  -0.0045  -0.0082   0.0034   0.00   82.6
2173 248040.000   1551942.2278  -4514375.2156   4215783.0060   1   6   0.0053   0.0103   0.0095  -0.0042  -0.0081   0.0028   0.00   82.6
2173 248041.000   1551942.2255  -4514375.2104   4215783.0031   1   6   0.0047   0.0103   0.0096  -0.0041  -0.0081   0.0028   0.00   82.6
2173 248042.000   1551942.2260  -4514375.2139   4215783.0042   1   6   0.0049   0.0102   0.0094  -0.0043  -0.0081   0.0027   0.00   82.9
2173 248043.000   1551942.2239  -4514375.2150   4215783.0038   1   6   0.0051   0.0102   0.0097  -0.0042  -0.0082   0.0031   0.00   82.7
2173 248044.000   1551942.2255  -4514375.2139   4215783.0051   1   6   0.0049   0.0103   0.0094  -0.0040  -0.0082   0.0029   0.00   82.7
2173 248045.000   1551942.2292  -4514375.2174   4215783.0085   1   6   0.0050   0.0103   0.0095  -0.0041  -0.0081   0.0030   0.00   82.6
2173 248046.000   1551942.2280  -4514375.2135   4215783.0052   1   6   0.0053   0.0103   0.0096  -0.0042  -0.0081   0.0033   0.00   82.7
2173 248047.000   1551942.2276  -4514375.2165   4215783.0069   1   6   0.0050   0.0102   0.0097  -0.0043  -0.0083   0.0031   0.00   82.4
2173 248048.000   1551942.2285  -4514375.2152   4215783.0089   1   6   0.0051   0.0103   0.0095  -0.0042  -0.0081   0.0030   0.00   82.0
2173 248049.000   1551942.2280  -4514375.2197   4215783.0112   1   6   0.0052   0.0102   0.0096  -0.0044  -0.0082   0.0031   0.00   82.0
2173 248050.000   1551942.2272  -4514375.2156   4215783.0062   1   6   0.0051   0.0103   0.0095  -0.0043  -0.0082   0.0030   0.00   82.0
2173 248051.000   1551942.2284  -4514375.2171   4215783.0077   1   6   0.0050   0.0102   0.0095  -0.0043  -0.0081   0.0030   0.00   82.4
2173 248052.000   1551942.2289  -4514375.2205   4215783.0073   1   6   0.0053   0.0102   0.0094  -0.0043  -0.0081   0.0030   0.00   83.0
2173 248053.000   1551942.2290  -4514375.2196   4215783.0070   1   6   0.0049   0.0102   0.0095  -0.0042  -0.0080   0.0028   0.00   83.7
2173 248054.000   1551942.2214  -4514375.2121   4215783.0079   1   6   0.0050   0.0102   0.0094  -0.0043  -0.0081   0.0031   0.00   83.3
2173 248055.000   1551942.2222  -4514375.2125   4215783.0040   1   6   0.0050   0.0104   0.0095  -0.0039  -0.0081   0.0028   0.00   83.0
2173 248056.000   1551942.2216  -4514375.2099   4215783.0026   1   6   0.0049   0.0103   0.0094  -0.0042  -0.0081   0.0030   0.00   82.4
2173 248057.000   1551942.2237  -4514375.2132   4215783.0041   1   6   0.0050   0.0103   0.0095  -0.0042  -0.0081   0.0028   0.00   82.8
2173 248058.000   1551942.2201  -4514375.2115   4215783.0046   1   6   0.0048   0.0102   0.0096  -0.0042  -0.0082   0.0028   0.00   82.9
2173 248059.000   1551942.2213  -4514375.2175   4215783.0086   1   6   0.0051   0.0103   0.0094  -0.0042  -0.0080   0.0031   0.00   83.2
2173 248060.000   1551942.2239  -4514375.2118   4215783.0045   1   6   0.0051   0.0103   0.0094  -0.0042  -0.0082   0.0029   0.00   83.5
2173 248061.000   1551942.2260  -4514375.2148   4215783.0054   1   6   0.0051   0.0102   0.0095  -0.0042  -0.0082   0.0030   0.00   83.8
2173 248062.000   1551942.2278  -4514375.2148   4215783.0064   1   6   0.0050   0.0104   0.0094  -0.0039  -0.0082   0.0028   0.00   83.8
2173 248063.000   1551942.2261  -4514375.2161   4215783.0071   1   6   0.0053   0.0103   0.0097  -0.0041  -0.0082   0.0031   0.00   83.6
2173 248064.000   1551942.2267  -4514375.2159   4215783.0073   1   6   0.0051   0.0104   0.0095  -0.0040  -0.0081   0.0028   0.00   83.8
2173 248065.000   1551942.2268  -4514375.2187   4215783.0067   1   6   0.0052   0.0102   0.0097  -0.0044  -0.0082   0.0032   0.00   84.1
2173 248066.000   1551942.2256  -4514375.2145   4215783.0081   1   6   0.0049   0.0102   0.0096  -0.0042  -0.0082   0.0032   0.00   84.1
2173 248067.000   1551942.2239  -4514375.2177   4215783.0028   1   6   0.0049   0.0102   0.0094  -0.0042  -0.0080   0.0029   0.00   84.5
2173 248068.000   1551942.2243  -4514375.2191   4215783.0139   1   6   0.0052   0.0103   0.0095  -0.0044  -0.0080   0.0032   0.00   84.9
2173 248069.000   1551942.2259  -4514375.2170   4215783.0048   1   6   0.0049   0.0102   0.0095  -0.0044  -0.0081   0.0029   0.00   85.5
2173 248070.000   1551942.2270  -4514375.2161   4215783.0020   1   6   0.0049   0.0103   0.0094  -0.0041  -0.0082   0.0028   0.00   85.2
2173 248071.000   1551942.2275  -4514375.2153   4215783.0045   1   6   0.0051   0.0103   0.0094  -0.0040  -0.0081   0.0030   0.00   85.1
2173 248072.000   1551942.2283  -4514375.2196   4215783.0043   1   6   0.0051   0.0103   0.0095  -0.0042  -0.0081   0.0031   0.00   84.7
2173 248073.000   1551942.2275  -4514375.2196   4215783.0076   1   6   0.0051   0.0103   0.0094  -0.0042  -0.0081   0.0028   0.00   83.9
2173 248074.000   1551942.2266  -4514375.2191   4215783.0041   1   6   0.0050   0.0102   0.0094  -0.0042  -0.0081   0.0028   0.00   83.6
2173 248075.000   1551942.2274  -4514375.2172   4215783.0126   1   6   0.0052   0.0103   0.0095  -0.0044  -0.0080   0.0031   0.00   83.0
2173 248076.000   1551942.2244  -4514375.2116   4215783.0093   1   6   0.0050   0.0102   0.0095  -0.0043  -0.0080   0.0030   0.00   82.2
2173 248077.000   1551942.2254  -4514375.2152   4215783.0088   1   6   0.0051   0.0103   0.0094  -0.0043  -0.0080   0.0028   0.00   82.1
2173 248078.000   1551942.2266  -4514375.2195   4215783.0059   1   6   0.0052   0.0102   0.0096  -0.0044  -0.0081   0.0030   0.00   82.0
2173 248079.000   1551942.2249  -4514375.2175   4215783.0097   1   6   0.0048   0.0104   0.0093  -0.0039  -0.0081   0.0029   0.00   81.7
2173 248080.000   1551942.2245  -4514375.2124   4215783.0078   1   6   0.0049   0.0104   0.0095  -0.0039  -0.0081   0.0028   0.00   81.3
2173 248081.000   1551942.2243  -4514375.2172   4215783.0090   1   6   0.0051   0.0102   0.0093  -0.0044  -0.0080   0.0028   0.00   81.3
2173 248082.000   1551942.2254  -4514375.2173   4215783.0091   1   6   0.0050   0.0103   0.0093  -0.0041  -0.0081   0.0029   0.00   81.0
2173 248083.000   1551942.2254  -4514375.2169   4215783.0096   1   6   0.0052   0.0102   0.0096  -0.0042  -0.0081   0.0030   0.00   81.1
2173 248084.000   1551942.2241  -4514375.2176   4215783.0073   1   6   0.0052   0.0102   0.0094  -0.0043  -0.0081   0.0030   0.00   81.3
2173 248085.000   1551942.2247  -4514375.2190   4215783.0076   1   6   0.0052   0.0103   0.0093  -0.0041  -0.0080   0.0030   0.00   80.8
2173 248086.000   1551942.2255  -4514375.2187   4215783.0098   1   6   0.0048   0.0102   0.0094  -0.0041  -0.0081   0.0031   0.00   80.2
2173 248087.000   1551942.2266  -4514375.2189   4215783.0134   1   6   0.0049   0.0103   0.0095  -0.0040  -0.0081   0.0029   0.00   80.2
2173 248088.000   1551942.2251  -4514375.2202   4215783.0107   1   6   0.0048   0.0102   0.0095  -0.0041  -0.0080   0.0030   0.00   79.4
2173 248089.000   1551942.2235  -4514375.2165   4215783.0062   1   6   0.0052   0.0103   0.0095  -0.0043  -0.0080   0.0031   0.00   80.4
2173 248090.000   1551942.2244  -4514375.2153   4215783.0042   1   6   0.0052   0.0101   0.0094  -0.0044  -0.0081   0.0029   0.00   80.7
2173 248091.000   1551942.2252  -4514375.2148   4215783.0026   1   6   0.0050   0.0102   0.0096  -0.0042  -0.0082   0.0030   0.00   81.8
2173 248092.000   1551942.2253  -4514375.2168   4215783.0077   1   6   0.0049   0.0103   0.0096  -0.0041  -0.0081   0.0029   0.00   82.6
2173 248093.000   1551942.2251  -4514375.2186   4215783.0055   1   6   0.0050   0.0103   0.0095  -0.0040  -0.0081   0.0029   0.00   83.4
2173 248094.000   1551942.2256  -4514375.2172   4215783.0080   1   6   0.0051   0.0102   0.0093  -0.0043  -0.0080   0.0032   0.00   84.1
2173 248095.000   1551942.2287  -4514375.2220   4215783.0123   1   6   0.0049   0.0103   0.0093  -0.0041  -0.0080   0.0029   0.00   84.1
2173 248096.000   1551942.2290  -4514375.2225   4215783.0133   1   6   0.0049   0.0104   0.0093  -0.0039  -0.0080   0.0028   0.00   84.1
2173 248097.000   1551942.2307  -4514375.2179   4215783.0104   1   6   0.0049   0.0103   0.0094  -0.0040  -0.0080   0.0030   0.00   84.4
2173 248098.000   1551942.2293  -4514375.2219   4215783.0135   1   6   0.0048   0.0103   0.0092  -0.0040  -0.0080   0.0027   0.00   84.4
2173 248099.000   1551942.2299  -4514375.2217   4215783.0127   1   6   0.0053   0.0103   0.0093  -0.0044  -0.0080   0.0030   0.00   84.4
2173 248100.000   1551942.2274  -4514375.2157   4215783.0064   1   6   0.0051   0.0103   0.0095  -0.0042  -0.0080   0.0031   0.00   84.8
2173 248101.000   1551942.2277  -4514375.2157   4215783.0074   1   6   0.0048   0.0103   0.0093  -0.0042  -0.0079   0.0027   0.00   85.2
2173 248102.000   1551942.2272  -4514375.2161   4215783.0103   1   6   0.0051   0.0103   0.0096  -0.0041  -0.0081   0.0029   0.00   85.6
2173 248103.000   1551942.2271  -4514375.2176   4215783.0078   1   6   0.0052   0.0103   0.0093  -0.0043  -0.0081   0.0027   0.00   86.0
2173 248104.000   1551942.2278  -4514375.2200   4215783.0082   1   6   0.0049   0.0102   0.0092  -0.0044  -0.0080   0.0029   0.00   86.1
2173 248105.000   1551942.2271  -4514375.2164   4215783.0095   1   6   0.0051   0.0103   0.0096  -0.0039  -0.0082   0.0031   0.00   85.7
2173 248106.000   1551942.2272  -4514375.2187   4215783.0061   1   6   0.0051   0.0102   0.0095  -0.0044  -0.0080   0.0032   0.00   85.7
2173 248107.000   1551942.2275  -4514375.2153   4215783.0079   1   6   0.0049   0.0102   0.0094  -0.0042  -0.0080   0.0029   0.00   85.8
2173 248108.000   1551942.2264  -4514375.2166   4215783.0105   1   6   0.0049   0.0103   0.0094  -0.0041  -0.0081   0.0028   0.00   85.5
2173 248109.000   1551942.2280  -4514375.2178   4215783.0102   1   6   0.0053   0.0103   0.0093  -0.0042  -0.0080   0.0028   0.00   85.2
2173 248110.000   1551942.2289  -4514375.2196   4215783.0035   1   6   0.0049   0.0104   0.0095  -0.0039  -0.0081   0.0028   0.00   86.2
2173 248111.000   1551942.2301  -4514375.2188   4215783.0049   1   6   0.0049   0.0102   0.0094  -0.0044  -0.0080   0.0032   0.00   87.1
2173 248112.000   1551942.2304  -4514375.2213   4215783.0055   1   6   0.0048   0.0103   0.0095  -0.0042  -0.0080   0.0030   0.00   87.9
2173 248113.000   1551942.2295  -4514375.2208   4215783.0021   1   6   0.0051   0.0103   0.0094  -0.0040  -0.0081   0.0030   0.00   88.7
2173 248114.000   1551942.2275  -4514375.2178   4215783.0045   1   6   0.0052   0.0103   0.0095  -0.0042  -0.0080   0.0031   0.00   89.2
2173 248115.000   1551942.2260  -4514375.2211   4215783.0113   1   6   0.0049   0.0102   0.0094  -0.0043  -0.0081   0.0030   0.00   89.8
2173 248116.000   1551942.2289  -4514375.2203   4215783.0132   1   6   0.0050   0.0104   0.0092  -0.0041  -0.0080   0.0028   0.00   89.7
2173 248117.000   1551942.2290  -4514375.2188   4215783.0092   1   6   0.0051   0.0103   0.0094  -0.0042  -0.0081   0.0027   0.00   90.6
2173 248118.000   1551942.2292  -4514375.2208   4215783.0130   1   6   0.0051   0.0102   0.0094  -0.0043  -0.0081   0.0031   0.00   90.8
2173 248119.000   1551942.2282  -4514375.2201   4215783.0127   1   6   0.0053   0.0102   0.0094  -0.0044  -0.0081   0.0028   0.00   92.0
2173 248120.000   1551942.2306  -4514375.2216   4215783.0134   1   6   0.0049   0.0102   0.0092  -0.0042  -0.0080   0.0026   0.00   93.3
2173 248121.000   1551942.2313  -4514375.2205   4215783.0108   1   6   0.0048   0.0102   0.0092  -0.0044  -0.0079   0.0030   0.00   94.6
2173 248122.000   1551942.2284  -4514375.2202   4215783.0099   1   6   0.0050   0.0103   0.0093  -0.0042  -0.0080   0.0030   0.00   96.0
2173 248123.000   1551942.2291  -4514375.2197   4215783.0137   1   6   0.0049   0.0103   0.0094  -0.0041  -0.0080   0.0028   0.00   97.3
2173 248124.000   1551942.2291  -4514375.2166   4215783.0109   1   6   0.0053   0.0103   0.0095  -0.0043  -0.0080   0.0029   0.00   98.5
2173 248125.000   1551942.2294  -4514375.2213   4215783.0112   1   6   0.0050   0.0103   0.0094  -0.0042  -0.0080   0.0028   0.00   99.6
2173 248126.000   1551942.2290  -4514375.2236   4215783.0131   1   6   0.0053   0.0102   0.0095  -0.0044  -0.0081   0.0027   0.00  100.8
2173 248127.000   1551942.2285  -4514375.2186   4215783.0098   1   6   0.0052   0.0102   0.0094  -0.0044  -0.0081   0.0028   0.00  101.9
2173 248128.000   1551942.2310  -4514375.2197   4215783.0108   1   6   0.0052   0.0102   0.0091  -0.0044  -0.0079   0.0031   0.00  102.8
2173 248129.000   1551942.2313  -4514375.2223   4215783.0092   1   6   0.0053   0.0102   0.0096  -0.0044  -0.0081   0.0032   0.00  103.8
2173 248130.000   1551942.2309  -4514375.2263   4215783.0132   1   6   0.0052   0.0103   0.0095  -0.0043  -0.0081   0.0030   0.00  105.5
2173 248131.000   1551942.2312  -4514375.2250   4215783.0109   1   6   0.0049   0.0104   0.0094  -0.0040  -0.0079   0.0029   0.00  107.3
2173 248132.000   1551942.2320  -4514375.2260   4215783.0103   1   6   0.0051   0.0102   0.0095  -0.0045  -0.0080   0.0031   0.00  108.6
2173 248133.000   1551942.2308  -4514375.2252   4215783.0174   1   6   0.0051   0.0102   0.0092  -0.0043  -0.0081   0.0032   0.00  109.9
2173 248134.000   1551942.2341  -4514375.2273   4215783.0114   1   6   0.0051   0.0103   0.0095  -0.0042  -0.0080   0.0030   0.00  111.9
2173 248135.000   1551942.2311  -4514375.2174   4215783.0086   1   6   0.0051   0.0103   0.0094  -0.0041  -0.0081   0.0030   0.00  114.1
2173 248136.000   1551942.2309  -4514375.2146   4215783.0062   1   6   0.0047   0.0103   0.0094  -0.0041  -0.0079   0.0031   0.00  115.9
2173 248137.000   1551942.2300  -4514375.2189   4215783.0093   1   6   0.0049   0.0102   0.0093  -0.0043  -0.0079   0.0031   0.00  117.7
2173 248138.000   1551942.2311  -4514375.2199   4215783.0079   1   6   0.0052   0.0104   0.0095  -0.0040  -0.0080   0.0030   0.00  119.4
2173 248139.000   1551942.2319  -4514375.2213   4215783.0084   1   6   0.0053   0.0103   0.0093  -0.0045  -0.0080   0.0036   0.00  121.6
2173 248140.000   1551942.2301  -4514375.2210   4215783.0149   1   6   0.0050   0.0102   0.0095  -0.0044  -0.0080   0.0030   0.00  122.9
2173 248141.000   1551942.2318  -4514375.2191   4215783.0123   1   6   0.0048   0.0104   0.0094  -0.0040  -0.0081   0.0030   0.00  124.4
2173 248142.000   1551942.2322  -4514375.2218   4215783.0156   1   6   0.0050   0.0104   0.0093  -0.0041  -0.0080   0.0028   0.00  126.2
2173 248143.000   1551942.2329  -4514375.2218   4215783.0158   1   6   0.0049   0.0103   0.0094  -0.0042  -0.0080   0.0029   0.00  127.5
2173 248144.000   1551942.2318  -4514375.2222   4215783.0137   1   6   0.0051   0.0103   0.0092  -0.0042  -0.0079   0.0027   0.00  129.4
2173 248145.000   1551942.2301  -4514375.2226   4215783.0171   1   6   0.0052   0.0102   0.0095  -0.0043  -0.0080   0.0030   0.00  131.4
2173 248146.000   1551942.2290  -4514375.2218   4215783.0166   1   6   0.0052   0.0103   0.0093  -0.0042  -0.0080   0.0032   0.00  133.3
2173 248147.000   1551942.2309  -4514375.2214   4215783.0103   1   6   0.0052   0.0103   0.0095  -0.0042  -0.0080   0.0030   0.00  135.7
2173 248148.000   1551942.2300  -4514375.2244   4215783.0123   1   6   0.0051   0.0103   0.0093  -0.0043  -0.0080   0.0030   0.00  138.5
2173 248149.000   1551942.2296  -4514375.2220   4215783.0087   1   6   0.0050   0.0103   0.0092  -0.0041  -0.0080   0.0026   0.00  141.4
2173 248150.000   1551942.2288  -4514375.2225   4215783.0116   1   6   0.0051   0.0104   0.0095  -0.0042  -0.0080   0.0031   0.00  143.9
2173 248151.000   1551942.2280  -4514375.2188   4215783.0058   1   6   0.0052   0.0102   0.0093  -0.0043  -0.0080   0.0029   0.00  146.6
