% program   : rnx2rtkp ver.2.4.3 b31
% inp file  : ngs/21_09_02_06_46_49_talh.obs
% inp file  : ngs/21_09_02_06_46_49_talh_SW.obs
% inp file  : ngs/21_09_02_06_46_49_brdc.nav
% obs start : 2021/09/02 06:00:00.0 GPST (week2173 367200.0s)
% obs end   : 2021/09/02 06:59:59.0 GPST (week2173 370799.0s)
% ref pos   :   546420.2590  -5528946.1897   3122095.9476
%
% (x/y/z-ecef=WGS84,Q=1:fix,2:float,3:sbas,4:dgps,5:single,6:ppp,ns=# of satellites)
%  GPST              x-ecef(m)      y-ecef(m)      z-ecef(m)   Q  ns   sdx(m)   sdy(m)   sdz(m)  sdxy(m)  sdyz(m)  sdzx(m) age(s)  ratio
2173 369984.000    541527.3380  -5479445.6447   3208362.0316   2   8   0.5175   1.1242   0.5543  -0.4227  -0.6613   0.2799 -30.00    1.1
2173 369985.000    541527.3390  -5479445.6535   3208362.0383   2   8   0.3681   0.7997   0.3943  -0.3008  -0.4703   0.1989 -29.00    1.0
2173 369986.000    541527.3403  -5479445.6552   3208362.0380   2   8   0.3014   0.6547   0.3228  -0.2463  -0.3850   0.1628 -28.00    1.0
2173 369987.000    541527.3354  -5479445.6452   3208362.0307   2   8   0.2615   0.5680   0.2800  -0.2137  -0.3340   0.1412 -27.00    1.0
2173 369988.000    541527.3393  -5479445.6457   3208362.0326   2   8   0.2342   0.5087   0.2508  -0.1914  -0.2992   0.1265 -26.00    1.0
2173 369989.000    541527.3379  -5479445.6489   3208362.0353   2   8   0.2140   0.4649   0.2292  -0.1749  -0.2734   0.1156 -25.00    1.0
2173 369990.000    541527.3362  -5479445.6525   3208362.0367   2   8   0.1983   0.4307   0.2123  -0.1621  -0.2533   0.1071 -24.00    1.0
2173 369991.000    541527.3388  -5479445.6584   3208362.0422   2   8   0.1856   0.4031   0.1987  -0.1517  -0.2371   0.1003 -23.00    1.0
2173 369992.000    541527.3404  -5479445.6662   3208362.0439   2   8   0.1750   0.3802   0.1874  -0.1431  -0.2236   0.0946 -22.00    1.0
2173 369993.000    541527.3413  -5479445.6655   3208362.0454   2   8   0.1661   0.3608   0.1779  -0.1358  -0.2122   0.0898 -21.00    1.0
2173 369994.000    541527.3445  -5479445.6722   3208362.0501   2   8   0.1584   0.3441   0.1696  -0.1295  -0.2023   0.0856 -20.00    1.0
2173 369995.000    541527.3449  -5479445.6790   3208362.0529   2   8   0.1517   0.3294   0.1624  -0.1240  -0.1937   0.0819 -19.00    1.0
2173 369996.000    541527.3464  -5479445.6835   3208362.0567   2   8   0.1457   0.3165   0.1560  -0.1192  -0.1861   0.0787 -18.00    1.0
2173 369997.000    541527.3451  -5479445.6823   3208362.0547   2   8   0.1404   0.3049   0.1503  -0.1148  -0.1793   0.0758 -17.00    1.0
2173 369998.000    541527.3472  -5479445.6851   3208362.0560   2   8   0.1356   0.2945   0.1452  -0.1109  -0.1731   0.0732 -16.00    1.0
2173 369999.000    541527.3510  -5479445.6939   3208362.0612   2   8   0.1313   0.2850   0.1405  -0.1073  -0.1676   0.0709 -15.00    1.0
2173 370000.000    541527.3514  -5479445.6907   3208362.0613   2   8   0.1273   0.2764   0.1362  -0.1041  -0.1625   0.0687 -14.00    1.0
2173 370001.000    541527.3549  -5479445.6972   3208362.0625   2   8   0.1237   0.2684   0.1323  -0.1011  -0.1578   0.0667 -13.00    1.0
2173 370002.000    541527.3554  -5479445.6991   3208362.0635   2   8   0.1203   0.2611   0.1287  -0.0983  -0.1535   0.0649 -12.00    1.1
2173 370003.000    541527.3565  -5479445.7087   3208362.0681   2   8   0.1173   0.2543   0.1254  -0.0958  -0.1495   0.0632 -11.00    1.1
2173 370004.000    541527.3597  -5479445.7106   3208362.0690   2   8   0.1144   0.2480   0.1223  -0.0934  -0.1457   0.0616 -10.00    1.1
2173 370005.000    541527.3624  -5479445.7236   3208362.0705   2   8   0.1117   0.2421   0.1194  -0.0912  -0.1422   0.0601  -9.00    1.1
2173 370006.000    541527.3646  -5479445.7304   3208362.0763   2   8   0.1092   0.2366   0.1166  -0.0891  -0.1389   0.0587  -8.00    1.1
2173 370007.000    541527.3648  -5479445.7362   3208362.0781   2   8   0.1068   0.2313   0.1141  -0.0871  -0.1359   0.0574  -7.00    1.1
2173 370008.000    541527.3683  -5479445.7398   3208362.0812   2   8   0.1046   0.2264   0.1117  -0.0852  -0.1329   0.0561  -6.00    1.1
2173 370009.000    541527.3711  -5479445.7475   3208362.0835   2   8   0.1026   0.2218   0.1094  -0.0835  -0.1302   0.0550  -5.00    1.1
2173 370010.000    541527.3725  -5479445.7536   3208362.0875   2   8   0.1006   0.2174   0.1073  -0.0818  -0.1276   0.0538  -4.00    1.1
2173 370011.000    541527.3729  -5479445.7585   3208362.0915   2   8   0.0987   0.2132   0.1052  -0.0802  -0.1251   0.0528  -3.00    1.1
2173 370012.000    541527.3770  -5479445.7658   3208362.0947   2   8   0.0970   0.2092   0.1033  -0.0787  -0.1227   0.0518  -2.00    1.0
2173 370013.000    541527.3797  -5479445.7726   3208362.0997   2   8   0.0953   0.2055   0.1014  -0.0773  -0.1205   0.0508  -1.00    1.0
2173 370014.000    541527.3806  -5479445.7737   3208362.1001   2   8   0.0938   0.2019   0.0997  -0.0759  -0.1184   0.0499   0.00    1.0
2173 370015.000    541527.3795  -5479445.7776   3208362.1015   2   8   0.0923   0.1985   0.0980  -0.0746  -0.1163   0.0491   0.00    1.0
2173 370016.000    541527.3801  -5479445.7763   3208362.1009   2   8   0.0909   0.1953   0.0965  -0.0734  -0.1144   0.0483   0.00    1.0
2173 370017.000    541527.3779  -5479445.7707   3208362.0971   2   8   0.0895   0.1922   0.0950  -0.0722  -0.1126   0.0475   0.00    1.1
2173 370018.000    541527.3773  -5479445.7769   3208362.0988   2   8   0.0882   0.1892   0.0935  -0.0710  -0.1108   0.0467   0.00    1.1
2173 370019.000    541527.3777  -5479445.7805   3208362.0996   2   8   0.0869   0.1863   0.0921  -0.0699  -0.1091   0.0460   0.00    1.1
2173 370020.000    541527.3770  -5479445.7801   3208362.0946   2   8   0.0857   0.1835   0.0907  -0.0688  -0.1074   0.0452   0.00    1.0
2173 370021.000    541527.3803  -5479445.7888   3208362.0994   2   8   0.0846   0.1808   0.0895  -0.0678  -0.1058   0.0446   0.00    1.0
2173 370022.000    541527.3829  -5479445.8095   3208362.1084   2   8   0.0835   0.1782   0.0882  -0.0668  -0.1042   0.0439   0.00    1.0
2173 370023.000    541527.3843  -5479445.8199   3208362.1118   2   8   0.0824   0.1757   0.0870  -0.0658  -0.1027   0.0433   0.00    1.0
2173 370024.000    541527.3836  -5479445.8345   3208362.1152   2   8   0.0814   0.1732   0.0858  -0.0649  -0.1012   0.0427   0.00    1.0
2173 370025.000    541527.3891  -5479445.8506   3208362.1211   2   8   0.0804   0.1708   0.0847  -0.0639  -0.0998   0.0420   0.00    1.0
2173 370026.000    541527.3947  -5479445.8697   3208362.1296   2   8   0.0794   0.1685   0.0836  -0.0630  -0.0984   0.0414   0.00    1.0
2173 370027.000    541527.4000  -5479445.8894   3208362.1363   2   8   0.0785   0.1663   0.0825  -0.0621  -0.0970   0.0409   0.00    1.0
2173 370028.000    541527.4007  -5479445.8942   3208362.1414   2   8   0.0776   0.1640   0.0814  -0.0613  -0.0957   0.0403   0.00    1.0
2173 370029.000    541527.4055  -5479445.9015   3208362.1468   2   8   0.0767   0.1619   0.0804  -0.0604  -0.0944   0.0397   0.00    1.0
2173 370030.000    541527.4134  -5479445.9091   3208362.1533   2   8   0.0759   0.1598   0.0794  -0.0596  -0.0931   0.0392   0.00    1.0
2173 370031.000    541527.4118  -5479445.9038   3208362.1524   2   8   0.0751   0.1577   0.0785  -0.0587  -0.0918   0.0387   0.00    1.1
2173 370032.000    541527.4082  -5479445.8924   3208362.1491   2   8   0.0742   0.1557   0.0775  -0.0579  -0.0906   0.0381   0.00    1.1
2173 370033.000    541527.4097  -5479445.8755   3208362.1446   2   8   0.0735   0.1537   0.0766  -0.0571  -0.0894   0.0375   0.00    1.1
2173 370034.000    541527.4020  -5479445.8588   3208362.1387   2   8   0.0727   0.1518   0.0757  -0.0563  -0.0882   0.0371   0.00    1.1
2173 370035.000    541527.3901  -5479445.8272   3208362.1184   2   8   0.0720   0.1499   0.0748  -0.0556  -0.0871   0.0366   0.00    1.1
2173 370036.000    541527.3843  -5479445.8020   3208362.1051   2   8   0.0713   0.1480   0.0739  -0.0548  -0.0859   0.0361   0.00    1.0
2173 370037.000    541527.3780  -5479445.7830   3208362.0940   2   8   0.0706   0.1462   0.0731  -0.0541  -0.0848   0.0356   0.00    1.0
2173 370038.000    541527.3750  -5479445.7790   3208362.0899   2   8   0.0699   0.1444   0.0722  -0.0533  -0.0837   0.0351   0.00    1.0
2173 370039.000    541527.3724  -5479445.7650   3208362.0830   2   8   0.0692   0.1426   0.0715  -0.0526  -0.0826   0.0347   0.00    1.0
2173 370040.000    541527.3700  -5479445.7468   3208362.0740   2   8   0.0686   0.1409   0.0706  -0.0519  -0.0815   0.0342   0.00    1.0
2173 370041.000    541527.3691  -5479445.7424   3208362.0729   2   8   0.0680   0.1392   0.0699  -0.0512  -0.0805   0.0337   0.00    1.1
2173 370042.000    541527.3702  -5479445.7310   3208362.0698   2   8   0.0674   0.1375   0.0691  -0.0505  -0.0795   0.0333   0.00    1.1
2173 370043.000    541527.3648  -5479445.7135   3208362.0623   2   8   0.0668   0.1359   0.0683  -0.0498  -0.0784   0.0329   0.00    1.1
2173 370044.000    541527.3608  -5479445.6960   3208362.0540   2   8   0.0662   0.1342   0.0676  -0.0492  -0.0774   0.0324   0.00    1.1
2173 370045.000    541527.3561  -5479445.6667   3208362.0436   2   8   0.0656   0.1326   0.0669  -0.0485  -0.0764   0.0320   0.00    1.1
2173 370046.000    541527.3542  -5479445.6484   3208362.0356   2   8   0.0650   0.1310   0.0662  -0.0478  -0.0755   0.0315   0.00    1.1
2173 370047.000    541527.3475  -5479445.6316   3208362.0256   2   8   0.0645   0.1295   0.0654  -0.0472  -0.0745   0.0311   0.00    1.1
2173 370048.000    541527.3430  -5479445.6131   3208362.0166   2   8   0.0640   0.1280   0.0648  -0.0465  -0.0735   0.0307   0.00    1.1
2173 370049.000    541527.3381  -5479445.6015   3208362.0094   2   8   0.0634   0.1265   0.0641  -0.0459  -0.0726   0.0302   0.00    1.1
2173 370050.000    541527.3388  -5479445.6021   3208362.0052   2   8   0.0629   0.1250   0.0635  -0.0453  -0.0717   0.0299   0.00    1.1
2173 370051.000    541527.3356  -5479445.6051   3208362.0006   2   8   0.0624   0.1235   0.0628  -0.0447  -0.0708   0.0295   0.00    1.2
2173 370052.000    541527.3371  -5479445.6157   3208362.0032   2   8   0.0619   0.1221   0.0621  -0.0440  -0.0699   0.0291   0.00    1.2
2173 370053.000    541527.3380  -5479445.6242   3208362.0019   2   8   0.0614   0.1207   0.0615  -0.0434  -0.0690   0.0287   0.00    1.2
2173 370054.000    541527.3417  -5479445.6240   3208362.0045   2   8   0.0609   0.1193   0.0609  -0.0428  -0.0681   0.0283   0.00    1.2
2173 370055.000    541527.3436  -5479445.6279   3208362.0052   2   8   0.0605   0.1179   0.0603  -0.0422  -0.0672   0.0279   0.00    1.2
2173 370056.000    541527.3432  -5479445.6335   3208362.0039   2   8   0.0601   0.1165   0.0597  -0.0416  -0.0664   0.0276   0.00    1.2
2173 370057.000    541527.3431  -5479445.6294   3208361.9998   2   8   0.0596   0.1152   0.0591  -0.0411  -0.0655   0.0272   0.00    1.2
2173 370058.000    541527.3413  -5479445.6250   3208361.9962   2   8   0.0592   0.1139   0.0586  -0.0405  -0.0647   0.0268   0.00    1.2
2173 370059.000    541527.3375  -5479445.6120   3208361.9899   2   8   0.0587   0.1126   0.0579  -0.0399  -0.0639   0.0265   0.00    1.3
2173 370060.000    541527.3379  -5479445.6106   3208361.9884   2   8   0.0583   0.1113   0.0574  -0.0394  -0.0631   0.0261   0.00    1.3
2173 370061.000    541527.3378  -5479445.6087   3208361.9859   2   8   0.0579   0.1100   0.0568  -0.0388  -0.0623   0.0257   0.00    1.3
2173 370062.000    541527.3353  -5479445.5945   3208361.9834   2   8   0.0575   0.1088   0.0563  -0.0383  -0.0615   0.0254   0.00    1.3
2173 370063.000    541527.3342  -5479445.5924   3208361.9799   2   8   0.0571   0.1076   0.0558  -0.0378  -0.0607   0.0250   0.00    1.3
2173 370064.000    541527.3331  -5479445.5847   3208361.9820   2   8   0.0567   0.1064   0.0552  -0.0372  -0.0599   0.0247   0.00    1.3
2173 370065.000    541527.3337  -5479445.5756   3208361.9780   2   8   0.0563   0.1052   0.0547  -0.0367  -0.0592   0.0244   0.00    1.3
2173 370066.000    541527.3306  -5479445.5634   3208361.9762   2   8   0.0559   0.1040   0.0541  -0.0362  -0.0584   0.0241   0.00    1.3
2173 370067.000    541527.3294  -5479445.5512   3208361.9751   2   8   0.0556   0.1028   0.0536  -0.0356  -0.0577   0.0237   0.00    1.3
2173 370068.000    541527.3256  -5479445.5532   3208361.9723   2   8   0.0552   0.1017   0.0532  -0.0351  -0.0570   0.0234   0.00    1.3
2173 370069.000    541527.3234  -5479445.5494   3208361.9696   2   8   0.0549   0.1006   0.0527  -0.0346  -0.0563   0.0230   0.00    1.3
2173 370070.000    541527.3191  -5479445.5476   3208361.9662   2   8   0.0545   0.0995   0.0522  -0.0341  -0.0555   0.0227   0.00    1.3
2173 370071.000    541527.3171  -5479445.5444   3208361.9645   2   8   0.0542   0.0984   0.0517  -0.0336  -0.0549   0.0224   0.00    1.3
2173 370072.000    541527.3161  -5479445.5423   3208361.9587   2   8   0.0538   0.0973   0.0513  -0.0332  -0.0542   0.0221   0.00    1.3
2173 370073.000    541527.3155  -5479445.5372   3208361.9572   2   8   0.0535   0.0962   0.0507  -0.0327  -0.0535   0.0219   0.00    1.3
2173 370074.000    541527.3173  -5479445.5340   3208361.9538   2   8   0.0531   0.0952   0.0503  -0.0322  -0.0528   0.0215   0.00    1.3
2173 370075.000    541527.3157  -5479445.5290   3208361.9473   2   8   0.0528   0.0942   0.0500  -0.0317  -0.0521   0.0212   0.00    1.3
2173 370076.000    541527.3178  -5479445.5291   3208361.9447   2   8   0.0525   0.0932   0.0495  -0.0313  -0.0515   0.0209   0.00    1.3
2173 370077.000    541527.3191  -5479445.5360   3208361.9452   2   8   0.0522   0.0921   0.0490  -0.0308  -0.0509   0.0207   0.00    1.3
2173 370078.000    541527.3191  -5479445.5402   3208361.9452   2   8   0.0519   0.0912   0.0487  -0.0303  -0.0502   0.0204   0.00    1.3
2173 370079.000    541527.3195  -5479445.5421   3208361.9455   2   8   0.0516   0.0902   0.0483  -0.0299  -0.0496   0.0201   0.00    1.3
2173 370080.000    541527.3229  -5479445.5482   3208361.9471   2   8   0.0513   0.0892   0.0478  -0.0295  -0.0490   0.0198   0.00    1.3
2173 370081.000    541527.3198  -5479445.5477   3208361.9465   2   8   0.0510   0.0883   0.0474  -0.0290  -0.0484   0.0195   0.00    1.3
2173 370082.000    541527.3211  -5479445.5416   3208361.9447   2   8   0.0507   0.0874   0.0469  -0.0286  -0.0478   0.0192   0.00    1.3
2173 370083.000    541527.3180  -5479445.5466   3208361.9464   2   8   0.0504   0.0864   0.0466  -0.0281  -0.0472   0.0189   0.00    1.3
2173 370084.000    541527.3184  -5479445.5416   3208361.9409   2   8   0.0502   0.0855   0.0462  -0.0278  -0.0466   0.0187   0.00    1.2
2173 370085.000    541527.3204  -5479445.5556   3208361.9425   2   8   0.0499   0.0847   0.0458  -0.0273  -0.0460   0.0185   0.00    1.2
2173 370086.000    541527.3230  -5479445.5527   3208361.9416   2   8   0.0496   0.0838   0.0455  -0.0269  -0.0454   0.0181   0.00    1.2
2173 370087.000    541527.3237  -5479445.5615   3208361.9403   2   9   0.0493   0.0829   0.0451  -0.0264  -0.0448   0.0178   0.00    1.0
2173 370088.000    541527.3279  -5479445.5823   3208361.9494   2   9   0.0489   0.0819   0.0447  -0.0258  -0.0442   0.0176   0.00    1.0
2173 370089.000    541527.3285  -5479445.5952   3208361.9515   2   9   0.0486   0.0810   0.0443  -0.0253  -0.0437   0.0171   0.00    1.0
2173 370090.000    541527.3295  -5479445.6023   3208361.9504   2   9   0.0483   0.0802   0.0440  -0.0248  -0.0431   0.0168   0.00    1.0
2173 370091.000    541527.3330  -5479445.6155   3208361.9554   2   9   0.0480   0.0793   0.0436  -0.0242  -0.0425   0.0166   0.00    1.0
2173 370092.000    541527.3358  -5479445.6276   3208361.9577   2   9   0.0477   0.0785   0.0432  -0.0238  -0.0420   0.0162   0.00    1.0
2173 370093.000    541527.3383  -5479445.6411   3208361.9602   2   9   0.0474   0.0777   0.0429  -0.0233  -0.0414   0.0160   0.00    1.0
2173 370094.000    541527.3410  -5479445.6537   3208361.9650   2   9   0.0472   0.0769   0.0426  -0.0229  -0.0409   0.0156   0.00    1.0
2173 370095.000    541527.3429  -5479445.6531   3208361.9650   2   9   0.0469   0.0761   0.0422  -0.0224  -0.0404   0.0154   0.00    1.0
2173 370096.000    541527.3458  -5479445.6629   3208361.9726   2   9   0.0466   0.0753   0.0418  -0.0219  -0.0399   0.0151   0.00    1.0
2173 370097.000    541527.3486  -5479445.6644   3208361.9806   2   9   0.0463   0.0746   0.0415  -0.0215  -0.0394   0.0149   0.00    1.1
2173 370098.000    541527.3472  -5479445.6654   3208361.9912   2   9   0.0461   0.0738   0.0413  -0.0211  -0.0389   0.0145   0.00    1.1
2173 370099.000    541527.3467  -5479445.6547   3208361.9947   2   9   0.0458   0.0731   0.0410  -0.0206  -0.0384   0.0142   0.00    1.1
2173 370100.000    541527.3432  -5479445.6558   3208362.0002   2   9   0.0456   0.0724   0.0407  -0.0202  -0.0379   0.0140   0.00    1.1
2173 370101.000    541527.3425  -5479445.6441   3208362.0026   2   9   0.0453   0.0716   0.0403  -0.0198  -0.0375   0.0138   0.00    1.1
2173 370102.000    541527.3395  -5479445.6377   3208362.0026   2   9   0.0451   0.0709   0.0400  -0.0194  -0.0370   0.0135   0.00    1.1
2173 370103.000    541527.3334  -5479445.6373   3208362.0043   2   9   0.0448   0.0702   0.0396  -0.0190  -0.0366   0.0134   0.00    1.1
2173 370104.000    541527.3326  -5479445.6365   3208362.0072   2   9   0.0446   0.0696   0.0394  -0.0186  -0.0361   0.0130   0.00    1.1
2173 370105.000    541527.3309  -5479445.6269   3208362.0078   2   9   0.0444   0.0689   0.0392  -0.0182  -0.0357   0.0129   0.00    1.1
2173 370106.000    541527.3284  -5479445.6322   3208362.0115   2   9   0.0442   0.0682   0.0389  -0.0178  -0.0352   0.0125   0.00    1.1
2173 370107.000    541527.3275  -5479445.6382   3208362.0163   2   9   0.0439   0.0676   0.0386  -0.0174  -0.0348   0.0124   0.00    1.1
2173 370108.000    541527.3272  -5479445.6373   3208362.0174   2   9   0.0437   0.0670   0.0383  -0.0171  -0.0344   0.0122   0.00    1.1
2173 370109.000    541527.3252  -5479445.6340   3208362.0174   2   9   0.0435   0.0663   0.0381  -0.0167  -0.0340   0.0119   0.00    1.1
2173 370110.000    541527.3251  -5479445.6468   3208362.0232   2   9   0.0433   0.0657   0.0378  -0.0163  -0.0336   0.0117   0.00    1.1
2173 370111.000    541527.3262  -5479445.6541   3208362.0282   2   9   0.0431   0.0651   0.0376  -0.0159  -0.0332   0.0115   0.00    1.1
2173 370112.000    541527.3240  -5479445.6587   3208362.0321   2   9   0.0428   0.0645   0.0373  -0.0155  -0.0327   0.0113   0.00    1.1
2173 370113.000    541527.3230  -5479445.6702   3208362.0364   2   9   0.0427   0.0639   0.0371  -0.0152  -0.0324   0.0109   0.00    1.1
2173 370114.000    541527.3206  -5479445.6740   3208362.0377   2   9   0.0424   0.0633   0.0367  -0.0148  -0.0320   0.0110   0.00    1.1
2173 370115.000    541527.3233  -5479445.6774   3208362.0409   2   9   0.0422   0.0628   0.0366  -0.0145  -0.0316   0.0107   0.00    1.1
2173 370116.000    541527.3224  -5479445.6818   3208362.0411   2   9   0.0420   0.0622   0.0363  -0.0142  -0.0312   0.0104   0.00    1.1
2173 370117.000    541527.3228  -5479445.6870   3208362.0461   2   9   0.0418   0.0616   0.0361  -0.0138  -0.0309   0.0102   0.00    1.1
2173 370118.000    541527.3241  -5479445.6880   3208362.0498   2   9   0.0417   0.0611   0.0358  -0.0134  -0.0305   0.0101   0.00    1.1
2173 370119.000    541527.3211  -5479445.6858   3208362.0509   2   9   0.0415   0.0606   0.0356  -0.0131  -0.0302   0.0099   0.00    1.1
2173 370120.000    541527.3203  -5479445.6801   3208362.0509   2   9   0.0413   0.0600   0.0354  -0.0128  -0.0298   0.0097   0.00    1.1
2173 370121.000    541527.3161  -5479445.6772   3208362.0509   2   9   0.0411   0.0595   0.0352  -0.0124  -0.0294   0.0094   0.00    1.1
2173 370122.000    541527.3156  -5479445.6770   3208362.0512   2   9   0.0409   0.0590   0.0349  -0.0121  -0.0291   0.0092   0.00    1.1
2173 370123.000    541527.3129  -5479445.6867   3208362.0517   2   9   0.0408   0.0585   0.0348  -0.0117  -0.0287   0.0091   0.00    1.2
2173 370124.000    541527.3148  -5479445.6849   3208362.0527   2   9   0.0406   0.0580   0.0345  -0.0114  -0.0285   0.0089   0.00    1.2
2173 370125.000    541527.3131  -5479445.6992   3208362.0548   2   9   0.0404   0.0575   0.0343  -0.0111  -0.0281   0.0088   0.00    1.2
2173 370126.000    541527.3155  -5479445.7272   3208362.0894   2   9   0.0402   0.0570   0.0341  -0.0108  -0.0278   0.0086   0.00    1.2
2173 370127.000    541527.3200  -5479445.7438   3208362.1041   2   9   0.0400   0.0565   0.0339  -0.0104  -0.0275   0.0085   0.00    1.2
2173 370128.000    541527.3226  -5479445.7653   3208362.1207   2   9   0.0398   0.0560   0.0337  -0.0101  -0.0271   0.0081   0.00    1.2
2173 370129.000    541527.3252  -5479445.7772   3208362.1310   2   9   0.0397   0.0556   0.0335  -0.0097  -0.0268   0.0078   0.00    1.2
2173 370130.000    541527.3269  -5479445.7922   3208362.1410   2   9   0.0395   0.0551   0.0332  -0.0094  -0.0265   0.0080   0.00    1.2
2173 370131.000    541527.3267  -5479445.8101   3208362.1538   2   9   0.0394   0.0547   0.0331  -0.0091  -0.0262   0.0077   0.00    1.2
2173 370132.000    541527.3297  -5479445.8307   3208362.1654   2   9   0.0392   0.0542   0.0329  -0.0086  -0.0259   0.0074   0.00    1.2
2173 370133.000    541527.3300  -5479445.8532   3208362.1762   2   9   0.0391   0.0538   0.0327  -0.0084  -0.0256   0.0073   0.00    1.2
2173 370134.000    541527.3325  -5479445.8729   3208362.1871   2   9   0.0389   0.0534   0.0325  -0.0080  -0.0253   0.0075   0.00    1.2
2173 370135.000    541527.3361  -5479445.8967   3208362.1988   2   9   0.0388   0.0529   0.0322  -0.0077  -0.0251   0.0072   0.00    1.2
2173 370136.000    541527.3398  -5479445.9134   3208362.2097   2   9   0.0386   0.0525   0.0321  -0.0072  -0.0248   0.0069   0.00    1.2
2173 370137.000    541527.3409  -5479445.9314   3208362.2219   2   9   0.0384   0.0521   0.0319  -0.0070  -0.0245   0.0069   0.00    1.2
2173 370138.000    541527.3438  -5479445.9557   3208362.2361   2   9   0.0383   0.0517   0.0318  -0.0064  -0.0242   0.0067   0.00    1.2
2173 370139.000    541527.3477  -5479445.9719   3208362.2493   2   9   0.0381   0.0513   0.0315  -0.0061  -0.0240   0.0065   0.00    1.2
2173 370140.000    541527.3493  -5479445.9864   3208362.2609   2   9   0.0380   0.0509   0.0312  -0.0058  -0.0237   0.0065   0.00    1.2
2173 370141.000    541527.3512  -5479445.9940   3208362.2717   2   9   0.0379   0.0505   0.0313  -0.0053  -0.0235   0.0062   0.00    1.2
2173 370142.000    541527.3548  -5479446.0095   3208362.2859   2   9   0.0378   0.0501   0.0310  -0.0050  -0.0232   0.0060   0.00    1.1
2173 370143.000    541527.3589  -5479446.0146   3208362.2950   2   9   0.0376   0.0497   0.0308  -0.0046  -0.0229   0.0059   0.00    1.1
2173 370144.000    541527.3605  -5479446.0233   3208362.3078   2   9   0.0375   0.0493   0.0306  -0.0040  -0.0227   0.0060   0.00    1.1
2173 370145.000    541527.3593  -5479446.0224   3208362.3155   2   9   0.0373   0.0490   0.0305  -0.0034  -0.0225   0.0054   0.00    1.1
2173 370146.000    541527.3596  -5479446.0299   3208362.3227   2   9   0.0371   0.0486   0.0302  -0.0030  -0.0222   0.0056   0.00    1.1
2173 370147.000    541527.3615  -5479446.0358   3208362.3288   2   9   0.0371   0.0483   0.0301  -0.0014  -0.0219   0.0053   0.00    1.1
2173 370148.000    541527.3583  -5479446.0392   3208362.3349   2   9   0.0369   0.0479   0.0301   0.0004  -0.0217   0.0053   0.00    1.1
2173 370149.000    541527.3586  -5479446.0488   3208362.3449   2   9   0.0368   0.0475   0.0299   0.0015  -0.0215   0.0047   0.00    1.1
2173 370150.000    541527.3589  -5479446.0550   3208362.3540   2   9   0.0367   0.0472   0.0297   0.0026  -0.0212   0.0047   0.00    1.1
2173 370151.000    541527.3606  -5479446.0615   3208362.3645   2   9   0.0365   0.0468   0.0296   0.0031  -0.0210   0.0042   0.00    1.1
2173 370152.000    541527.3608  -5479446.0688   3208362.3739   2   9   0.0364   0.0465   0.0294   0.0036  -0.0208   0.0046   0.00    1.1
2173 370153.000    541527.3604  -5479446.0699   3208362.3836   2   9   0.0363   0.0462   0.0293   0.0040  -0.0205   0.0046   0.00    1.1
2173 370154.000    541527.3618  -5479446.0733   3208362.3907   2   9   0.0362   0.0459   0.0291   0.0045  -0.0204   0.0045   0.00    1.1
2173 370155.000    541527.3610  -5479446.0783   3208362.4013   2   9   0.0361   0.0455   0.0289   0.0047  -0.0201   0.0040   0.00    1.0
2173 370156.000    541527.3614  -5479446.0796   3208362.4064   2   9   0.0360   0.0452   0.0288   0.0050  -0.0199   0.0033   0.00    1.0
2173 370157.000    541527.3592  -5479446.0905   3208362.4164   2   9   0.0358   0.0449   0.0287   0.0055  -0.0197   0.0035   0.00    1.0
2173 370158.000    541527.3588  -5479446.1015   3208362.4247   2   9   0.0357   0.0446   0.0285   0.0055  -0.0195   0.0039   0.00    1.0
2173 370159.000    541527.3612  -5479446.1169   3208362.4358   2   9   0.0356   0.0443   0.0283   0.0059  -0.0193   0.0038   0.00    1.0
2173 370160.000    541527.3593  -5479446.1333   3208362.4459   2   9   0.0355   0.0440   0.0283   0.0062  -0.0191   0.0031   0.00    1.0
2173 370161.000    541527.3617  -5479446.1508   3208362.4542   2   9   0.0353   0.0437   0.0281   0.0063  -0.0188   0.0029   0.00    1.0
2173 370162.000    541527.3644  -5479446.1623   3208362.4646   2   9   0.0352   0.0434   0.0278   0.0066  -0.0187   0.0038   0.00    1.0
2173 370163.000    541527.3687  -5479446.1823   3208362.4794   2   9   0.0351   0.0431   0.0278   0.0067  -0.0185   0.0028   0.00    1.0
2173 370164.000    541527.3718  -5479446.1963   3208362.4922   2   9   0.0350   0.0428   0.0278   0.0068  -0.0183   0.0018   0.00    1.0
2173 370165.000    541527.3734  -5479446.2084   3208362.5026   2   9   0.0349   0.0425   0.0276   0.0070  -0.0181   0.0024   0.00    1.0
2173 370166.000    541527.3741  -5479446.2173   3208362.5127   2   9   0.0348   0.0422   0.0275   0.0072  -0.0179   0.0020   0.00    1.0
2173 370167.000    541527.3728  -5479446.2241   3208362.5225   2   9   0.0347   0.0419   0.0273   0.0073  -0.0178   0.0010   0.00    1.0
2173 370168.000    541527.3718  -5479446.2314   3208362.5283   2   9   0.0346   0.0417   0.0272   0.0075  -0.0176   0.0015   0.00    1.0
2173 370169.000    541527.3709  -5479446.2406   3208362.5328   2   9   0.0344   0.0414   0.0270   0.0076  -0.0174   0.0017   0.00    1.0
2173 370170.000    541527.3685  -5479446.2452   3208362.5384   2   9   0.0343   0.0411   0.0269   0.0077  -0.0172   0.0021   0.00    1.0
2173 370171.000    541527.3712  -5479446.2499   3208362.5440   2   9   0.0342   0.0409   0.0268   0.0078  -0.0170  -0.0013   0.00    1.0
2173 370172.000    541527.3713  -5479446.2600   3208362.5516   2   9   0.0341   0.0406   0.0267   0.0079  -0.0169  -0.0012   0.00    1.0
2173 370173.000    541527.3709  -5479446.2727   3208362.5587   2   9   0.0340   0.0403   0.0265   0.0081  -0.0166  -0.0004   0.00    1.0
2173 370174.000    541527.3712  -5479446.2819   3208362.5642   2   9   0.0339   0.0401   0.0265   0.0081  -0.0165  -0.0010   0.00    1.0
2173 370175.000    541527.3730  -5479446.2925   3208362.5735   2   9   0.0338   0.0398   0.0263   0.0083  -0.0164  -0.0018   0.00    1.0
2173 370176.000    541527.3749  -5479446.3039   3208362.5810   2   9   0.0337   0.0396   0.0263   0.0084  -0.0161  -0.0019   0.00    1.0
2173 370177.000    541527.3782  -5479446.3186   3208362.5924   2   9   0.0336   0.0393   0.0260   0.0085  -0.0161  -0.0017   0.00    1.0
2173 370178.000    541527.3803  -5479446.3257   3208362.6026   2   9   0.0335   0.0391   0.0259   0.0085  -0.0158  -0.0016   0.00    1.0
2173 370179.000    541527.3795  -5479446.3288   3208362.6063   2   9   0.0334   0.0389   0.0257   0.0086  -0.0157   0.0001   0.00    1.0
2173 370180.000    541527.3777  -5479446.3390   3208362.6156   2   9   0.0333   0.0386   0.0258   0.0087  -0.0155  -0.0022   0.00    1.0
2173 370181.000    541527.3775  -5479446.3399   3208362.6179   2   9   0.0333   0.0384   0.0255   0.0089  -0.0154  -0.0027   0.00    1.0
2173 370182.000    541527.3748  -5479446.3460   3208362.6196   2   9   0.0332   0.0381   0.0255   0.0089  -0.0152  -0.0025   0.00    1.0
2173 370183.000    541527.3754  -5479446.3488   3208362.6185   2   9   0.0331   0.0379   0.0254   0.0090  -0.0150  -0.0029   0.00    1.0
2173 370184.000    541527.3729  -5479446.3548   3208362.6232   2   9   0.0330   0.0377   0.0253   0.0090  -0.0149  -0.0029   0.00    1.0
2173 370185.000    541527.3756  -5479446.3582   3208362.6255   2   9   0.0328   0.0375   0.0251   0.0091  -0.0147  -0.0029   0.00    1.0
2173 370186.000    541527.3771  -5479446.3612   3208362.6282   2   9   0.0328   0.0373   0.0250   0.0092  -0.0146  -0.0028   0.00    1.0
2173 370187.000    541527.3761  -5479446.3657   3208362.6314   2   9   0.0327   0.0370   0.0250   0.0093  -0.0145  -0.0034   0.00    1.0
2173 370188.000    541527.3758  -5479446.3680   3208362.6358   2   9   0.0326   0.0368   0.0248   0.0094  -0.0143  -0.0032   0.00    1.0
2173 370189.000    541527.3754  -5479446.3688   3208362.6359   2   9   0.0325   0.0366   0.0248   0.0093  -0.0142  -0.0035   0.00    1.0
2173 370190.000    541527.3706  -5479446.3707   3208362.6348   2   9   0.0324   0.0364   0.0246   0.0095  -0.0141  -0.0035   0.00    1.0
2173 370191.000    541527.3712  -5479446.3713   3208362.6342   2   9   0.0323   0.0362   0.0245   0.0095  -0.0139  -0.0031   0.00    1.0
2173 370192.000    541527.3719  -5479446.3817   3208362.6371   2   9   0.0323   0.0360   0.0245   0.0096  -0.0138  -0.0032   0.00    1.0
2173 370193.000    541527.3726  -5479446.3834   3208362.6393   2   9   0.0321   0.0358   0.0243   0.0095  -0.0136  -0.0034   0.00    1.0
2173 370194.000    541527.3730  -5479446.3862   3208362.6418   2   9   0.0320   0.0356   0.0242   0.0096  -0.0135  -0.0035   0.00    1.0
2173 370195.000    541527.3739  -5479446.3888   3208362.6455   2   9   0.0320   0.0354   0.0242   0.0097  -0.0134  -0.0041   0.00    1.0
2173 370196.000    541527.3724  -5479446.3945   3208362.6477   2   9   0.0319   0.0352   0.0240   0.0097  -0.0133  -0.0034   0.00    1.0
2173 370197.000    541527.3708  -5479446.3942   3208362.6495   2   9   0.0318   0.0350   0.0239   0.0098  -0.0131  -0.0034   0.00    1.0
2173 370198.000    541527.3684  -5479446.3964   3208362.6486   2   9   0.0317   0.0348   0.0239   0.0098  -0.0130  -0.0035   0.00    1.0
2173 370199.000    541527.3704  -5479446.4056   3208362.6518   2   9   0.0317   0.0346   0.0237   0.0098  -0.0129  -0.0037   0.00    1.0
2173 370200.000    541527.3712  -5479446.4202   3208362.6587   2   9   0.0316   0.0344   0.0236   0.0098  -0.0127  -0.0036   0.00    1.0
2173 370201.000    541527.3721  -5479446.4244   3208362.6622   2   9   0.0315   0.0342   0.0236   0.0099  -0.0126  -0.0040   0.00    1.0
2173 370202.000    541527.3734  -5479446.4316   3208362.6646   2   9   0.0314   0.0340   0.0234   0.0099  -0.0125  -0.0035   0.00    1.0
2173 370203.000    541527.3715  -5479446.4282   3208362.6617   2   9   0.0313   0.0339   0.0233   0.0100  -0.0124  -0.0036   0.00    1.0
2173 370204.000    541527.3724  -5479446.4294   3208362.6594   2   9   0.0312   0.0337   0.0231   0.0101  -0.0123  -0.0037   0.00    1.0
2173 370205.000    541527.3724  -5479446.4346   3208362.6588   2   9   0.0312   0.0335   0.0231   0.0101  -0.0122  -0.0037   0.00    1.0
2173 370206.000    541527.3716  -5479446.4407   3208362.6586   2   9   0.0311   0.0333   0.0231   0.0102  -0.0121  -0.0040   0.00    1.0
2173 370207.000    541527.3718  -5479446.4439   3208362.6590   2   9   0.0310   0.0331   0.0229   0.0101  -0.0120  -0.0039   0.00    1.0
2173 370208.000    541527.3709  -5479446.4448   3208362.6574   2   9   0.0310   0.0330   0.0228   0.0101  -0.0118  -0.0039   0.00    1.0
2173 370209.000    541527.3729  -5479446.4539   3208362.6598   2   9   0.0309   0.0328   0.0227   0.0102  -0.0117  -0.0039   0.00    1.0
2173 370210.000    541527.3725  -5479446.4548   3208362.6600   2   9   0.0307   0.0326   0.0226   0.0102  -0.0116  -0.0038   0.00    1.0
2173 370211.000    541527.3767  -5479446.4640   3208362.6643   2   9   0.0307   0.0325   0.0226   0.0102  -0.0116  -0.0040   0.00    1.0
2173 370212.000    541527.3786  -5479446.4702   3208362.6658   2   9   0.0306   0.0323   0.0226   0.0102  -0.0114  -0.0042   0.00    1.0
2173 370213.000    541527.3791  -5479446.4772   3208362.6698   2   9   0.0306   0.0322   0.0223   0.0103  -0.0113  -0.0039   0.00    1.0
2173 370214.000    541527.3790  -5479446.4779   3208362.6703   2   9   0.0305   0.0320   0.0223   0.0103  -0.0112  -0.0041   0.00    1.0
2173 370215.000    541527.3760  -5479446.4845   3208362.6717   2   9   0.0304   0.0318   0.0222   0.0103  -0.0111  -0.0044   0.00    1.0
2173 370216.000    541527.3763  -5479446.4845   3208362.6709   2   9   0.0304   0.0317   0.0222   0.0104  -0.0110  -0.0048   0.00    1.0
2173 370217.000    541527.3701  -5479446.4871   3208362.6723   2   9   0.0302   0.0315   0.0221   0.0104  -0.0109  -0.0042   0.00    1.0
2173 370218.000    541527.3715  -5479446.4947   3208362.6744   2   9   0.0302   0.0313   0.0219   0.0104  -0.0108  -0.0040   0.00    1.1
2173 370219.000    541527.3749  -5479446.5006   3208362.6773   2   9   0.0302   0.0312   0.0220   0.0105  -0.0107  -0.0040   0.00    1.1
2173 370220.000    541527.3775  -5479446.5060   3208362.6811   2   9   0.0301   0.0311   0.0219   0.0104  -0.0106  -0.0042   0.00    1.1
2173 370221.000    541527.3811  -5479446.5124   3208362.6852   2   9   0.0300   0.0309   0.0217   0.0105  -0.0105  -0.0044   0.00    1.1
2173 370222.000    541527.3814  -5479446.5120   3208362.6875   2   9   0.0299   0.0308   0.0217   0.0105  -0.0104  -0.0045   0.00    1.1
2173 370223.000    541527.3783  -5479446.5113   3208362.6868   2   9   0.0298   0.0306   0.0214   0.0105  -0.0103  -0.0038   0.00    1.0
2173 370224.000    541527.3775  -5479446.5101   3208362.6813   2   9   0.0298   0.0305   0.0215   0.0105  -0.0102  -0.0039   0.00    1.0
2173 370225.000    541527.3743  -5479446.5094   3208362.6761   2   9   0.0297   0.0303   0.0214   0.0105  -0.0101  -0.0044   0.00    1.0
2173 370226.000    541527.3706  -5479446.5102   3208362.6693   2   9   0.0296   0.0302   0.0213   0.0105  -0.0101  -0.0043   0.00    1.0
2173 370227.000    541527.3721  -5479446.5201   3208362.6665   2   9   0.0295   0.0300   0.0212   0.0106  -0.0100  -0.0044   0.00    1.0
2173 370228.000    541527.3718  -5479446.5291   3208362.6604   2   9   0.0295   0.0299   0.0212   0.0105  -0.0099  -0.0046   0.00    1.0
2173 370229.000    541527.3703  -5479446.5387   3208362.6567   2   9   0.0294   0.0298   0.0210   0.0106  -0.0098  -0.0038   0.00    1.0
2173 370230.000    541527.3726  -5479446.5523   3208362.6563   2   9   0.0294   0.0296   0.0211   0.0106  -0.0096  -0.0045   0.00    1.0
2173 370231.000    541527.3752  -5479446.5621   3208362.6551   2   9   0.0293   0.0295   0.0210   0.0107  -0.0097  -0.0042   0.00    1.0
2173 370232.000    541527.3773  -5479446.5771   3208362.6573   2   9   0.0292   0.0293   0.0208   0.0106  -0.0095  -0.0042   0.00    1.0
2173 370233.000    541527.3806  -5479446.5863   3208362.6575   2   9   0.0292   0.0292   0.0207   0.0107  -0.0094  -0.0040   0.00    1.0
2173 370234.000    541527.3835  -5479446.5900   3208362.6585   2   9   0.0291   0.0291   0.0208   0.0107  -0.0093  -0.0041   0.00    1.0
2173 370235.000    541527.3853  -5479446.5983   3208362.6600   2   9   0.0291   0.0290   0.0204   0.0106  -0.0093  -0.0041   0.00    1.0
2173 370236.000    541527.3839  -5479446.5996   3208362.6590   2   9   0.0290   0.0288   0.0206   0.0106  -0.0092  -0.0043   0.00    1.0
2173 370237.000    541527.3838  -5479446.5986   3208362.6538   2   9   0.0289   0.0287   0.0204   0.0106  -0.0091  -0.0042   0.00    1.0
2173 370238.000    541527.3831  -5479446.6027   3208362.6494   2   9   0.0289   0.0286   0.0204   0.0106  -0.0091  -0.0046   0.00    1.0
2173 370239.000    541527.3847  -5479446.6067   3208362.6448   2   9   0.0288   0.0285   0.0203   0.0107  -0.0090  -0.0043   0.00    1.0
2173 370240.000    541527.3831  -5479446.6097   3208362.6392   2   9   0.0287   0.0283   0.0203   0.0107  -0.0089  -0.0046   0.00    1.0
2173 370241.000    541527.3854  -5479446.6112   3208362.6337   2   9   0.0287   0.0282   0.0203   0.0107  -0.0088  -0.0045   0.00    1.0
2173 370242.000    541527.3877  -5479446.6206   3208362.6328   2   9   0.0285   0.0281   0.0199   0.0107  -0.0089  -0.0039   0.00    1.0
2173 370243.000    541527.3923  -5479446.6283   3208362.6317   2   9   0.0286   0.0280   0.0200   0.0106  -0.0087  -0.0045   0.00    1.0
2173 370244.000    541527.3925  -5479446.6358   3208362.6312   2   9   0.0285   0.0278   0.0200   0.0107  -0.0086  -0.0042   0.00    1.0
2173 370245.000    541527.3962  -5479446.6393   3208362.6280   2   9   0.0284   0.0277   0.0200   0.0107  -0.0085  -0.0043   0.00    1.0
2173 370246.000    541527.3966  -5479446.6440   3208362.6249   2   9   0.0284   0.0276   0.0198   0.0107  -0.0085  -0.0044   0.00    1.0
2173 370247.000    541527.3951  -5479446.6443   3208362.6188   2   9   0.0283   0.0275   0.0198   0.0107  -0.0085  -0.0042   0.00    1.0
2173 370248.000    541527.3934  -5479446.6482   3208362.6170   2   9   0.0283   0.0274   0.0198   0.0107  -0.0084  -0.0045   0.00    1.0
2173 370249.000    541527.3920  -5479446.6490   3208362.6134   2   9   0.0282   0.0273   0.0198   0.0107  -0.0083  -0.0045   0.00    1.0
2173 370250.000    541527.3919  -5479446.6509   3208362.6114   2   9   0.0281   0.0272   0.0196   0.0107  -0.0082  -0.0041   0.00    1.0
2173 370251.000    541527.3900  -5479446.6606   3208362.6090   2   9   0.0281   0.0270   0.0196   0.0107  -0.0082  -0.0045   0.00    1.0
2173 370252.000    541527.3907  -5479446.6616   3208362.6070   2   9   0.0279   0.0269   0.0194   0.0107  -0.0081  -0.0041   0.00    1.0
2173 370253.000    541527.3903  -5479446.6643   3208362.6028   2   9   0.0280   0.0268   0.0194   0.0107  -0.0081  -0.0043   0.00    1.0
2173 370254.000    541527.3891  -5479446.6637   3208362.5964   2   9   0.0279   0.0267   0.0193   0.0107  -0.0080  -0.0043   0.00    1.0
2173 370255.000    541527.3919  -5479446.6729   3208362.5934   2   9   0.0278   0.0266   0.0193   0.0108  -0.0079  -0.0043   0.00    1.0
2173 370256.000    541527.3928  -5479446.6697   3208362.5889   2   9   0.0278   0.0265   0.0192   0.0107  -0.0078  -0.0042   0.00    1.0
2173 370257.000    541527.3938  -5479446.6734   3208362.5855   2   9   0.0277   0.0264   0.0190   0.0108  -0.0078  -0.0042   0.00    1.0
2173 370258.000    541527.3963  -5479446.6831   3208362.5889   2   9   0.0277   0.0263   0.0191   0.0108  -0.0077  -0.0046   0.00    1.0
2173 370259.000    541527.3967  -5479446.6877   3208362.5896   2   9   0.0276   0.0262   0.0190   0.0107  -0.0076  -0.0045   0.00    1.0
2173 370260.000    541527.3974  -5479446.6874   3208362.5865   2   9   0.0275   0.0261   0.0189   0.0107  -0.0076  -0.0041   0.00    1.0
2173 370261.000    541527.4013  -5479446.6900   3208362.5853   2   9   0.0275   0.0260   0.0189   0.0107  -0.0075  -0.0042   0.00    1.0
2173 370262.000    541527.4006  -5479446.6930   3208362.5838   2   9   0.0274   0.0259   0.0187   0.0108  -0.0075  -0.0043   0.00    1.0
2173 370263.000    541527.3985  -5479446.6921   3208362.5808   2   9   0.0274   0.0258   0.0188   0.0108  -0.0076  -0.0043   0.00    1.0
2173 370264.000    541527.3980  -5479446.6917   3208362.5749   2   9   0.0273   0.0257   0.0186   0.0107  -0.0074  -0.0042   0.00    1.0
2173 370265.000    541527.3982  -5479446.6893   3208362.5710   2   9   0.0273   0.0256   0.0187   0.0107  -0.0073  -0.0045   0.00    1.0
2173 370266.000    541527.3970  -5479446.6904   3208362.5666   2   9   0.0272   0.0255   0.0185   0.0107  -0.0073  -0.0043   0.00    1.1
2173 370267.000    541527.3980  -5479446.6957   3208362.5637   2   9   0.0272   0.0254   0.0185   0.0107  -0.0073  -0.0043   0.00    1.1
2173 370268.000    541527.4019  -5479446.6958   3208362.5611   2   9   0.0271   0.0253   0.0183   0.0108  -0.0072  -0.0040   0.00    1.1
2173 370269.000    541527.4023  -5479446.6935   3208362.5612   2   9   0.0271   0.0252   0.0183   0.0107  -0.0072  -0.0042   0.00    1.1
2173 370270.000    541527.4045  -5479446.6969   3208362.5595   2   9   0.0270   0.0251   0.0184   0.0107  -0.0071  -0.0045   0.00    1.1
2173 370271.000    541527.4047  -5479446.7020   3208362.5577   2   9   0.0270   0.0250   0.0184   0.0107  -0.0070  -0.0042   0.00    1.1
2173 370272.000    541527.4039  -5479446.6979   3208362.5552   2   9   0.0270   0.0250   0.0182   0.0107  -0.0070  -0.0042   0.00    1.1
2173 370273.000    541527.4047  -5479446.6879   3208362.5484   2   9   0.0269   0.0248   0.0182   0.0107  -0.0069  -0.0040   0.00    1.1
2173 370274.000    541527.3997  -5479446.6771   3208362.5327   2   9   0.0268   0.0248   0.0180   0.0106  -0.0069  -0.0040   0.00    1.1
2173 370275.000    541527.4015  -5479446.6789   3208362.5304   2   9   0.0268   0.0247   0.0179   0.0107  -0.0069  -0.0043   0.00    1.1
2173 370276.000    541527.4029  -5479446.6719   3208362.5261   2   9   0.0267   0.0246   0.0180   0.0107  -0.0069  -0.0043   0.00    1.1
2173 370277.000    541527.4055  -5479446.6776   3208362.5278   2   9   0.0267   0.0245   0.0180   0.0107  -0.0068  -0.0045   0.00    1.1
2173 370278.000    541527.4089  -5479446.6812   3208362.5284   2   9   0.0266   0.0244   0.0178   0.0107  -0.0069  -0.0044   0.00    1.1
2173 370279.000    541527.4099  -5479446.6788   3208362.5240   2   9   0.0266   0.0243   0.0178   0.0107  -0.0067  -0.0045   0.00    1.1
2173 370280.000    541527.4100  -5479446.6770   3208362.5214   2   9   0.0265   0.0242   0.0179   0.0107  -0.0067  -0.0044   0.00    1.1
2173 370281.000    541527.4115  -5479446.6724   3208362.5194   2   9   0.0265   0.0242   0.0175   0.0108  -0.0066  -0.0039   0.00    1.1
2173 370282.000    541527.4093  -5479446.6694   3208362.5147   2   9   0.0264   0.0241   0.0175   0.0107  -0.0065  -0.0039   0.00    1.1
2173 370283.000    541527.4122  -5479446.6670   3208362.5137   2   9   0.0264   0.0240   0.0176   0.0107  -0.0066  -0.0043   0.00    1.1
2173 370284.000    541527.4129  -5479446.6627   3208362.5103   2   9   0.0264   0.0239   0.0176   0.0107  -0.0064  -0.0044   0.00    1.1
2173 370285.000    541527.4137  -5479446.6584   3208362.5078   2   9   0.0263   0.0238   0.0176   0.0106  -0.0064  -0.0047   0.00    1.1
2173 370286.000    541527.4143  -5479446.6556   3208362.5072   2   9   0.0262   0.0237   0.0175   0.0106  -0.0066  -0.0044   0.00    1.1
2173 370287.000    541527.4107  -5479446.6522   3208362.5014   2   9   0.0262   0.0236   0.0175   0.0106  -0.0064  -0.0044   0.00    1.1
2173 370288.000    541527.4102  -5479446.6472   3208362.4970   2   9   0.0261   0.0236   0.0174   0.0106  -0.0064  -0.0044   0.00    1.1
2173 370289.000    541527.4086  -5479446.6433   3208362.4907   2   9   0.0261   0.0235   0.0173   0.0107  -0.0063  -0.0043   0.00    1.1
2173 370290.000    541527.4068  -5479446.6396   3208362.4848   2   9   0.0261   0.0234   0.0172   0.0107  -0.0062  -0.0043   0.00    1.1
2173 370291.000    541527.4078  -5479446.6350   3208362.4786   2   9   0.0260   0.0234   0.0170   0.0106  -0.0062  -0.0043   0.00    1.1
2173 370292.000    541527.4082  -5479446.6382   3208362.4764   2   9   0.0259   0.0233   0.0170   0.0107  -0.0062  -0.0043   0.00    1.1
2173 370293.000    541527.4077  -5479446.6374   3208362.4687   2   9   0.0259   0.0232   0.0170   0.0106  -0.0061  -0.0041   0.00    1.1
2173 370294.000    541527.4060  -5479446.6467   3208362.4681   2   9   0.0259   0.0231   0.0169   0.0107  -0.0061  -0.0041   0.00    1.2
2173 370295.000    541527.4058  -5479446.6407   3208362.4561   2   9   0.0258   0.0230   0.0168   0.0106  -0.0062  -0.0039   0.00    1.2
2173 370296.000    541527.4098  -5479446.6449   3208362.4528   2   9   0.0258   0.0230   0.0169   0.0107  -0.0060  -0.0043   0.00    1.2
2173 370297.000    541527.4076  -5479446.6378   3208362.4401   2   9   0.0257   0.0229   0.0167   0.0106  -0.0060  -0.0038   0.00    1.2
2173 370298.000    541527.4104  -5479446.6374   3208362.4342   2   9   0.0256   0.0228   0.0167   0.0106  -0.0061  -0.0041   0.00    1.2
2173 370299.000    541527.4115  -5479446.6416   3208362.4275   2   9   0.0256   0.0227   0.0168   0.0106  -0.0059  -0.0044   0.00    1.2
2173 370300.000    541527.4121  -5479446.6440   3208362.4211   2   9   0.0256   0.0227   0.0166   0.0106  -0.0060  -0.0037   0.00    1.2
2173 370301.000    541527.4099  -5479446.6360   3208362.4116   2   9   0.0255   0.0226   0.0166   0.0106  -0.0059  -0.0038   0.00    1.2
2173 370302.000    541527.4121  -5479446.6412   3208362.4069   2   9   0.0255   0.0225   0.0165   0.0105  -0.0058  -0.0041   0.00    1.2
2173 370303.000    541527.4089  -5479446.6354   3208362.3958   2   9   0.0254   0.0225   0.0166   0.0106  -0.0058  -0.0038   0.00    1.2
2173 370304.000    541527.4103  -5479446.6305   3208362.3899   2   9   0.0254   0.0224   0.0166   0.0106  -0.0058  -0.0046   0.00    1.2
2173 370305.000    541527.4112  -5479446.6250   3208362.3827   2   9   0.0254   0.0223   0.0163   0.0105  -0.0057  -0.0042   0.00    1.2
2173 370306.000    541527.4090  -5479446.6224   3208362.3722   2   9   0.0253   0.0223   0.0164   0.0105  -0.0058  -0.0040   0.00    1.2
2173 370307.000    541527.4103  -5479446.6161   3208362.3612   2   9   0.0253   0.0222   0.0164   0.0105  -0.0057  -0.0047   0.00    1.2
2173 370308.000    541527.4118  -5479446.6137   3208362.3519   2   9   0.0252   0.0221   0.0164   0.0105  -0.0058  -0.0043   0.00    1.2
2173 370309.000    541527.4144  -5479446.6143   3208362.3468   2   9   0.0252   0.0221   0.0162   0.0105  -0.0056  -0.0042   0.00    1.2
2173 370310.000    541527.4159  -5479446.6145   3208362.3401   2   9   0.0252   0.0220   0.0162   0.0105  -0.0057  -0.0040   0.00    1.2
2173 370311.000    541527.4175  -5479446.6118   3208362.3357   2   9   0.0251   0.0219   0.0161   0.0105  -0.0056  -0.0043   0.00    1.3
2173 370312.000    541527.4202  -5479446.6156   3208362.3335   2   9   0.0251   0.0219   0.0160   0.0105  -0.0057  -0.0040   0.00    1.3
2173 370313.000    541527.4218  -5479446.6108   3208362.3287   2   9   0.0251   0.0218   0.0160   0.0106  -0.0056  -0.0042   0.00    1.3
2173 370314.000    541527.4217  -5479446.6070   3208362.3234   2   9   0.0250   0.0217   0.0161   0.0105  -0.0057  -0.0044   0.00    1.3
2173 370315.000    541527.4199  -5479446.6048   3208362.3168   2   9   0.0250   0.0217   0.0161   0.0105  -0.0055  -0.0040   0.00    1.3
2173 370316.000    541527.4180  -5479446.5966   3208362.3067   2   9   0.0250   0.0216   0.0160   0.0105  -0.0057  -0.0043   0.00    1.3
2173 370317.000    541527.4209  -5479446.5980   3208362.3013   2   9   0.0249   0.0216   0.0160   0.0105  -0.0055  -0.0041   0.00    1.3
2173 370318.000    541527.4201  -5479446.5975   3208362.2941   2   9   0.0248   0.0215   0.0157   0.0105  -0.0054  -0.0034   0.00    1.3
2173 370319.000    541527.4186  -5479446.5952   3208362.2873   2   9   0.0248   0.0214   0.0158   0.0105  -0.0056  -0.0041   0.00    1.3
2173 370320.000    541527.4195  -5479446.6007   3208362.2822   2   9   0.0248   0.0214   0.0159   0.0105  -0.0054  -0.0043   0.00    1.3
2173 370321.000    541527.4203  -5479446.6038   3208362.2760   2   9   0.0247   0.0213   0.0157   0.0105  -0.0053  -0.0038   0.00    1.3
2173 370322.000    541527.4241  -5479446.6017   3208362.2717   2   9   0.0247   0.0213   0.0155   0.0105  -0.0053  -0.0038   0.00    1.3
2173 370323.000    541527.4291  -5479446.6079   3208362.2699   2   9   0.0246   0.0212   0.0156   0.0105  -0.0054  -0.0039   0.00    1.3
2173 370324.000    541527.4274  -5479446.6083   3208362.2661   2   9   0.0246   0.0211   0.0154   0.0104  -0.0053  -0.0035   0.00    1.3
2173 370325.000    541527.4321  -5479446.6055   3208362.2639   2   9   0.0246   0.0211   0.0155   0.0104  -0.0052  -0.0043   0.00    1.3
2173 370326.000    541527.4318  -5479446.6068   3208362.2585   2   9   0.0245   0.0210   0.0155   0.0104  -0.0053  -0.0042   0.00    1.3
2173 370327.000    541527.4313  -5479446.6052   3208362.2539   2   9   0.0244   0.0210   0.0154   0.0104  -0.0053  -0.0040   0.00    1.3
2173 370328.000    541527.4284  -5479446.6010   3208362.2460   2   9   0.0244   0.0209   0.0155   0.0103  -0.0052  -0.0042   0.00    1.3
2173 370329.000    541527.4299  -5479446.6019   3208362.2452   2   9   0.0245   0.0208   0.0152   0.0103  -0.0054  -0.0039   0.00    1.3
2173 370330.000    541527.4300  -5479446.5942   3208362.2399   2   9   0.0243   0.0208   0.0151   0.0104  -0.0052  -0.0034   0.00    1.3
2173 370331.000    541527.4294  -5479446.5933   3208362.2350   2   9   0.0243   0.0207   0.0152   0.0104  -0.0052  -0.0037   0.00    1.3
2173 370332.000    541527.4269  -5479446.5886   3208362.2297   2   9   0.0243   0.0207   0.0151   0.0104  -0.0052  -0.0040   0.00    1.3
2173 370333.000    541527.4286  -5479446.5866   3208362.2224   2   9   0.0242   0.0206   0.0153   0.0103  -0.0052  -0.0042   0.00    1.3
2173 370334.000    541527.4231  -5479446.6055   3208362.2197   2   9   0.0242   0.0206   0.0151   0.0104  -0.0052  -0.0035   0.00    1.2
2173 370335.000    541527.4215  -5479446.6076   3208362.2142   2   9   0.0242   0.0205   0.0151   0.0103  -0.0052  -0.0038   0.00    1.2
2173 370336.000    541527.4251  -5479446.6135   3208362.2111   2   9   0.0242   0.0205   0.0151   0.0104  -0.0051  -0.0039   0.00    1.2
2173 370337.000    541527.4242  -5479446.6077   3208362.2028   2   9   0.0241   0.0204   0.0148   0.0104  -0.0051  -0.0039   0.00    1.2
2173 370338.000    541527.4224  -5479446.6040   3208362.1954   2   9   0.0241   0.0204   0.0151   0.0103  -0.0051  -0.0038   0.00    1.2
2173 370339.000    541527.4225  -5479446.6034   3208362.1898   2   9   0.0240   0.0203   0.0148   0.0104  -0.0051  -0.0036   0.00    1.2
2173 370340.000    541527.4253  -5479446.6045   3208362.1858   2   9   0.0240   0.0202   0.0150   0.0103  -0.0052  -0.0045   0.00    1.2
2173 370341.000    541527.4255  -5479446.6066   3208362.1822   2   9   0.0239   0.0202   0.0147   0.0103  -0.0052  -0.0035   0.00    1.2
2173 370342.000    541527.4285  -5479446.6084   3208362.1793   2   9   0.0239   0.0201   0.0148   0.0103  -0.0050  -0.0038   0.00    1.2
2173 370343.000    541527.4318  -5479446.6145   3208362.1813   2   9   0.0239   0.0201   0.0149   0.0103  -0.0049  -0.0035   0.00    1.2
2173 370344.000    541527.4332  -5479446.6081   3208362.1791   2   9   0.0239   0.0201   0.0149   0.0103  -0.0050  -0.0038   0.00    1.2
2173 370345.000    541527.4350  -5479446.6096   3208362.1793   2   9   0.0238   0.0200   0.0148   0.0102  -0.0049  -0.0042   0.00    1.2
2173 370346.000    541527.4352  -5479446.6085   3208362.1788   2   9   0.0238   0.0199   0.0147   0.0102  -0.0049  -0.0038   0.00    1.2
2173 370347.000    541527.4351  -5479446.6081   3208362.1769   2   9   0.0238   0.0199   0.0149   0.0102  -0.0050  -0.0041   0.00    1.2
2173 370348.000    541527.4329  -5479446.6085   3208362.1744   2   9   0.0237   0.0199   0.0146   0.0102  -0.0050  -0.0035   0.00    1.2
2173 370349.000    541527.4335  -5479446.6082   3208362.1716   2   9   0.0236   0.0198   0.0146   0.0102  -0.0049  -0.0037   0.00    1.2
2173 370350.000    541527.4313  -5479446.6041   3208362.1634   2   9   0.0236   0.0198   0.0146   0.0102  -0.0049  -0.0036   0.00    1.2
2173 370351.000    541527.4289  -5479446.5985   3208362.1536   2   9   0.0236   0.0197   0.0147   0.0102  -0.0048  -0.0041   0.00    1.2
2173 370352.000    541527.4267  -5479446.5977   3208362.1463   2   9   0.0235   0.0197   0.0141   0.0102  -0.0049  -0.0033   0.00    1.2
2173 370353.000    541527.4282  -5479446.5932   3208362.1395   2   9   0.0235   0.0196   0.0144   0.0102  -0.0050  -0.0038   0.00    1.2
2173 370354.000    541527.4277  -5479446.5922   3208362.1311   2   9   0.0236   0.0196   0.0144   0.0102  -0.0048  -0.0037   0.00    1.2
2173 370355.000    541527.4300  -5479446.5905   3208362.1265   2   9   0.0235   0.0195   0.0144   0.0101  -0.0050  -0.0036   0.00    1.2
2173 370356.000    541527.4315  -5479446.5973   3208362.1253   2   9   0.0234   0.0195   0.0142   0.0101  -0.0050  -0.0033   0.00    1.2
2173 370357.000    541527.4354  -5479446.6005   3208362.1232   2   9   0.0234   0.0194   0.0143   0.0101  -0.0049  -0.0039   0.00    1.2
2173 370358.000    541527.4370  -5479446.6056   3208362.1234   2   9   0.0234   0.0194   0.0142   0.0102  -0.0048  -0.0034   0.00    1.2
2173 370359.000    541527.4394  -5479446.6001   3208362.1202   2   9   0.0233   0.0193   0.0142   0.0101  -0.0050  -0.0036   0.00    1.2
2173 370360.000    541527.4386  -5479446.5952   3208362.1151   2   9   0.0233   0.0193   0.0140   0.0102  -0.0048  -0.0032   0.00    1.1
2173 370361.000    541527.4376  -5479446.5925   3208362.1087   2   9   0.0232   0.0193   0.0140   0.0101  -0.0047  -0.0035   0.00    1.1
2173 370362.000    541527.4368  -5479446.5865   3208362.0997   2   9   0.0232   0.0192   0.0141   0.0101  -0.0048  -0.0040   0.00    1.1
2173 370363.000    541527.4363  -5479446.5871   3208362.0946   2   9   0.0232   0.0192   0.0141   0.0101  -0.0049  -0.0034   0.00    1.1
2173 370364.000    541527.4337  -5479446.5833   3208362.0863   2   9   0.0232   0.0191   0.0142   0.0101  -0.0048  -0.0038   0.00    1.1
2173 370365.000    541527.4345  -5479446.5776   3208362.0804   2   9   0.0232   0.0191   0.0140   0.0101  -0.0049  -0.0037   0.00    1.1
2173 370366.000    541527.4361  -5479446.5805   3208362.0787   2   9   0.0231   0.0190   0.0141   0.0101  -0.0047  -0.0036   0.00    1.1
2173 370367.000    541527.4370  -5479446.5800   3208362.0732   2   9   0.0231   0.0190   0.0139   0.0101  -0.0048  -0.0033   0.00    1.1
2173 370368.000    541527.4397  -5479446.5841   3208362.0722   2   9   0.0229   0.0189   0.0137   0.0100  -0.0049  -0.0034   0.00    1.1
2173 370369.000    541527.4419  -5479446.5835   3208362.0686   2   9   0.0230   0.0189   0.0138   0.0100  -0.0049  -0.0036   0.00    1.1
2173 370370.000    541527.4429  -5479446.5839   3208362.0662   2   9   0.0229   0.0189   0.0137   0.0100  -0.0048  -0.0036   0.00    1.1
2173 370371.000    541527.4422  -5479446.5866   3208362.0627   2   9   0.0229   0.0188   0.0137   0.0100  -0.0047  -0.0036   0.00    1.1
2173 370372.000    541527.4443  -5479446.5794   3208362.0586   2   9   0.0229   0.0188   0.0136   0.0101  -0.0048  -0.0031   0.00    1.1
2173 370373.000    541527.4440  -5479446.5791   3208362.0557   2   9   0.0228   0.0187   0.0139   0.0100  -0.0048  -0.0040   0.00    1.1
2173 370374.000    541527.4451  -5479446.5764   3208362.0522   2   9   0.0228   0.0187   0.0139   0.0100  -0.0048  -0.0037   0.00    1.1
2173 370375.000    541527.4459  -5479446.5727   3208362.0489   2   9   0.0228   0.0187   0.0136   0.0100  -0.0046  -0.0039   0.00    1.1
2173 370376.000    541527.4442  -5479446.5712   3208362.0461   2   9   0.0227   0.0186   0.0134   0.0100  -0.0048  -0.0031   0.00    1.1
2173 370377.000    541527.4465  -5479446.5770   3208362.0453   2   9   0.0227   0.0186   0.0137   0.0100  -0.0047  -0.0036   0.00    1.1
2173 370378.000    541527.4442  -5479446.5722   3208362.0410   2   9   0.0227   0.0185   0.0133   0.0099  -0.0049  -0.0030   0.00    1.1
2173 370379.000    541527.4454  -5479446.5679   3208362.0373   2   9   0.0227   0.0185   0.0136   0.0099  -0.0046  -0.0029   0.00    1.1
2173 370380.000    541527.4455  -5479446.5689   3208362.0356   2   9   0.0227   0.0185   0.0137   0.0099  -0.0047  -0.0034   0.00    1.1
2173 370381.000    541527.4450  -5479446.5643   3208362.0297   2   9   0.0226   0.0184   0.0136   0.0099  -0.0046  -0.0034   0.00    1.0
2173 370382.000    541527.4442  -5479446.5644   3208362.0263   2   9   0.0226   0.0184   0.0132   0.0099  -0.0048  -0.0034   0.00    1.0
2173 370383.000    541527.4442  -5479446.5588   3208362.0243   2   9   0.0226   0.0184   0.0134   0.0099  -0.0048  -0.0035   0.00    1.0
2173 370384.000    541527.4440  -5479446.5579   3208362.0226   2   9   0.0225   0.0183   0.0132   0.0099  -0.0046  -0.0028   0.00    1.0
2173 370385.000    541527.4448  -5479446.5594   3208362.0200   2   9   0.0225   0.0183   0.0133   0.0099  -0.0048  -0.0033   0.00    1.0
2173 370386.000    541527.4450  -5479446.5618   3208362.0217   2   9   0.0225   0.0182   0.0134   0.0098  -0.0046  -0.0040   0.00    1.0
2173 370387.000    541527.4460  -5479446.5639   3208362.0198   2   9   0.0224   0.0182   0.0133   0.0098  -0.0046  -0.0037   0.00    1.0
2173 370388.000    541527.4446  -5479446.5646   3208362.0174   2   9   0.0224   0.0182   0.0133   0.0098  -0.0046  -0.0035   0.00    1.0
2173 370389.000    541527.4437  -5479446.5709   3208362.0152   2   9   0.0224   0.0182   0.0131   0.0099  -0.0046  -0.0036   0.00    1.0
2173 370390.000    541527.4438  -5479446.5714   3208362.0138   2   9   0.0223   0.0181   0.0132   0.0099  -0.0048  -0.0036   0.00    1.0
2173 370391.000    541527.4440  -5479446.5760   3208362.0120   2   9   0.0223   0.0181   0.0131   0.0098  -0.0048  -0.0033   0.00    1.0
2173 370392.000    541527.4431  -5479446.5802   3208362.0124   2   9   0.0223   0.0180   0.0131   0.0098  -0.0048  -0.0032   0.00    1.0
2173 370393.000    541527.4445  -5479446.5774   3208362.0108   2   9   0.0222   0.0180   0.0132   0.0098  -0.0046  -0.0040   0.00    1.0
2173 370394.000    541527.4441  -5479446.5731   3208362.0072   2   9   0.0222   0.0180   0.0130   0.0098  -0.0046  -0.0033   0.00    1.0
2173 370395.000    541527.4433  -5479446.5762   3208362.0066   2   9   0.0222   0.0179   0.0130   0.0098  -0.0045  -0.0034   0.00    1.0
2173 370396.000    541527.4481  -5479446.6011   3208362.0155   2   9   0.0221   0.0179   0.0130   0.0098  -0.0047  -0.0031   0.00    1.0
2173 370397.000    541527.4476  -5479446.5979   3208362.0130   2   9   0.0222   0.0178   0.0127   0.0098  -0.0049  -0.0030   0.00    1.0
2173 370398.000    541527.4496  -5479446.5979   3208362.0130   2   9   0.0221   0.0178   0.0131   0.0097  -0.0045  -0.0035   0.00    1.0
2173 370399.000    541527.4486  -5479446.6030   3208362.0145   2   9   0.0221   0.0178   0.0128   0.0098  -0.0046  -0.0033   0.00    1.0
2173 370400.000    541527.4507  -5479446.6032   3208362.0144   2   9   0.0220   0.0178   0.0127   0.0098  -0.0046  -0.0033   0.00    1.0
2173 370401.000    541527.4503  -5479446.6042   3208362.0103   2   9   0.0220   0.0177   0.0128   0.0098  -0.0046  -0.0030   0.00    1.0
2173 370402.000    541527.4511  -5479446.6087   3208362.0095   2   9   0.0220   0.0177   0.0127   0.0097  -0.0047  -0.0031   0.00    1.0
2173 370403.000    541527.4483  -5479446.6064   3208362.0064   2   9   0.0219   0.0176   0.0129   0.0097  -0.0046  -0.0037   0.00    1.0
2173 370404.000    541527.4477  -5479446.6028   3208362.0023   2   9   0.0220   0.0176   0.0128   0.0097  -0.0047  -0.0032   0.00    1.0
2173 370405.000    541527.4464  -5479446.6087   3208362.0015   2   9   0.0219   0.0176   0.0128   0.0097  -0.0046  -0.0032   0.00    1.0
2173 370406.000    541527.4615  -5479446.5929   3208362.0223   2   9   0.0219   0.0176   0.0130   0.0097  -0.0047  -0.0038   0.00    1.0
2173 370407.000    541527.4603  -5479446.5926   3208362.0250   2   9   0.0218   0.0175   0.0128   0.0097  -0.0045  -0.0035   0.00    1.0
2173 370408.000    541527.4600  -5479446.5929   3208362.0276   2   9   0.0218   0.0175   0.0125   0.0097  -0.0046  -0.0034   0.00    1.0
2173 370409.000    541527.4579  -5479446.5923   3208362.0331   2   9   0.0218   0.0175   0.0128   0.0096  -0.0045  -0.0038   0.00    1.0
2173 370410.000    541527.4523  -5479446.5831   3208362.0320   2   9   0.0217   0.0174   0.0127   0.0096  -0.0047  -0.0038   0.00    1.0
2173 370411.000    541527.4513  -5479446.5770   3208362.0350   2   9   0.0218   0.0174   0.0127   0.0097  -0.0046  -0.0032   0.00    1.0
2173 370412.000    541527.4482  -5479446.5735   3208362.0368   2   9   0.0217   0.0174   0.0126   0.0096  -0.0047  -0.0030   0.00    1.0
2173 370413.000    541527.4460  -5479446.5694   3208362.0416   2   9   0.0217   0.0173   0.0124   0.0096  -0.0048  -0.0035   0.00    1.0
2173 370414.000    541527.4406  -5479446.5659   3208362.0421   2   9   0.0217   0.0173   0.0127   0.0096  -0.0045  -0.0040   0.00    1.0
2173 370415.000    541527.4387  -5479446.5573   3208362.0427   2   9   0.0216   0.0173   0.0123   0.0096  -0.0046  -0.0033   0.00    1.0
2173 370416.000    541527.4342  -5479446.5521   3208362.0441   2   9   0.0216   0.0172   0.0124   0.0096  -0.0047  -0.0032   0.00    1.0
