     2.11           OBSERVATION DATA    M (MIXED)           RINEX VERSION / TYPE
CONVBIN 2.4.3                           20210901 190844 UTC PGM / RUN BY / DATE 
log: logs/21_09_01_09_42_25_mami_SNMA.rtcm                  COMMENT             
format: RTCM 3, station ID: 3762                            COMMENT             
3762                                                        MARKER NAME         
                                                            MARKER NUMBER       
                                                            OBSERVER / AGENCY   
1704346             LEICA GR10          4.30                REC # / TYPE / VERS 
                    GPPNULLANTENNA                          ANT # / TYPE        
  1535073.5994 -4470512.7948  4268012.3929                  APPROX POSITION XYZ 
        0.0000        0.0000        0.0000                  ANTENNA: DELTA H/E/N
     1     1                                                WAVELENGTH FACT L1/2
     7    C1    L1    C2    L2    P2    C5    L5            # / TYPES OF OBSERV 
  2021     9     1     9    42   32.0000000     GPS         TIME OF FIRST OBS   
  2021     9     1    10    12   29.0000000     GPS         TIME OF LAST OBS    
                                                            END OF HEADER       
 21  9  1  9 42 32.0000000  0 18G 1G 3G 7G 8G14G17G19G21G22G30R13R14
                                R17R24E13E15E21E27
  20163259.935   105958645.576    20163258.381    82565171.733    20163258.345  
  20163256.576    79124949.521  
  23857368.351   125371316.102    23857367.493    97691928.442    23857366.921  
  23857366.814    93621430.935  
  23308634.672   122487701.756    23308630.651    95444943.808    23308630.204  
                                
  24561279.681   129070395.277    24561279.056   100574328.188    24561278.198  
  24561277.162    96383726.048  
  20511496.351   107788640.841    20511492.277    83991129.982    20511491.848  
  20511495.189    80491512.692  
  21430241.065   112616676.890    21430236.402    87753233.224    21430235.937  
                                
  23257264.000   122217747.203                    95234580.202    23257257.192  
                                
  22326990.514   117329127.194                    91425270.462    22326984.921  
                                
  23111982.321   121454287.012                    94639676.283    23111975.585  
                                
  21881560.390   114988375.585    21881558.693    89601322.049    21881558.085  
  21881557.853    85867932.405  
  19948356.201   106523108.914    19948354.342    82851299.122    19948353.449  
                                
  19799549.142   105542738.022    19799547.874    82088791.003    19799546.784  
                                
  23098644.472   123605512.173    23098642.024    96137609.734    23098641.273  
                                
  19611618.555   104872138.085    19611615.892    81567207.400    19611615.196  
                                
  23542242.645   123715320.409                                                  
  23542243.271    92384819.161  
  23887996.017   125532267.062                                                  
  23887997.965    93741634.423  
  24213479.699   127242695.132                                                  
  24213480.646    95018898.990  
  23761221.214   124866060.751                                                  
  23761222.232    93244138.975  
 21  9  1  9 42 33.0000000  0 18G 1G 3G 7G 8G14G17G19G21G22G30R13R14
                                R17R24E13E15E21E27
  20163427.511   105959526.145    20163425.938    82565857.891    20163425.938  
  20163424.134    79125607.083  
  23856807.710   125368369.839    23856806.835    97689632.648    23856806.281  
  23856806.156    93619230.791  
  23309315.035   122491277.044    23309311.014    95447729.749    23309310.567  
                                
  24561844.968   129073365.942    24561844.324   100576642.985    24561843.485  
  24561842.448    96385944.408  
  20511250.348   107787347.972    20511246.238    83990122.555    20511245.845  
  20511249.187    80490547.236  
  21429971.476   112615260.177    21429966.794    87752129.289    21429966.347  
                                
  23256722.319   122214900.629                    95232362.086    23256715.511  
                                
  22327476.122   117331679.040                    91427258.911    22327470.529  
                                
  23111667.773   121452633.996                    94638388.218    23111661.036  
                                
  21882005.454   114990714.376    21882003.756    89603144.481    21882003.149  
  21882002.917    85869678.902  
  19948826.353   106525619.472    19948824.494    82853251.776    19948823.601  
                                
  19799185.740   105540800.883    19799184.453    82087284.339    19799183.381  
                                
  23097976.813   123601939.476    23097974.383    96134830.964    23097973.615  
                                
  19611394.924   104870942.252    19611392.262    81566277.307    19611391.565  
                                
  23541994.963   123714018.752                                                  
  23541995.570    92383847.140  
  23888282.064   125533770.227                                                  
  23888284.012    93742756.913  
  24213203.068   127241241.462                                                  
  24213204.015    95017813.457  
  23761457.818   124867304.041                                                  
  23761458.818    93245067.408  
 21  9  1  9 42 34.0000000  0 18G 1G 3G 7G 8G14G17G19G21G22G30R13R14
                                R17R24E13E15E21E27
  20163595.283   105960407.742    20163593.711    82566544.847    20163593.693  
  20163591.888    79126265.420  
  23856247.159   125365424.096    23856246.283    97687337.266    23856245.712  
  23856245.604    93617031.060  
  23309995.469   122494852.828    23309991.466    95450516.074    23309991.020  
                                
  24562410.308   129076336.948    24562409.665   100578958.052    24562408.825  
  24562407.788    96388163.036  
  20511004.452   107786055.838    20511000.360    83989115.690    20510999.949  
  20511003.291    80489582.335  
  21429702.011   112613844.038    21429697.329    87751025.804    21429696.864  
                                
  23256180.726   122212054.563                    95230144.376    23256173.936  
                                
  22327961.820   117334231.509                    91429247.847    22327956.245  
                                
  23111353.350   121450981.775                    94637100.771    23111346.613  
                                
  21882450.678   114993053.982    21882448.945    89604967.551    21882448.373  
  21882448.123    85871426.015  
  19949296.683   106528131.067    19949294.825    82855205.236    19949293.949  
                                
  19798822.534   105538864.751    19798821.248    82085778.456    19798820.175  
                                
  23097309.298   123598367.348    23097306.850    96132052.649    23097306.082  
                                
  19611171.490   104869747.347    19611168.827    81565347.937    19611168.130  
                                
  23541747.387   123712717.794                                                  
  23541748.013    92382875.652  
  23888568.237   125535274.032                                                  
  23888570.185    93743879.877  
  24212926.581   127239788.385                                                  
  24212927.492    95016728.362  
  23761694.528   124868548.004                                                  
  23761695.547    93245996.339  
 21  9  1  9 42 35.0000000  0 18G 1G 3G 7G 8G14G17G19G21G22G30R13R14
                                R17R24E13E15E21E27
  20163763.216   105961290.303    20163761.662    82567232.557    20163761.644  
  20163759.857    79126924.486  
  23855686.697   125362478.870    23855685.822    97685042.285    23855685.250  
  23855685.143    93614831.696  
  23310675.993   122498429.037    23310671.972    95453302.731    23310671.544  
                                
  24562975.737   129079308.247    24562975.094   100581273.357    24562974.254  
  24562973.218    96390381.861  
  20510758.718   107784764.431    20510754.608    83988109.399    20510754.197  
  20510757.538    80488617.977  
  21429432.635   112612428.446    21429427.936    87749922.745    21429427.471  
                                
  23255639.224   122209208.967                    95227927.024    23255632.433  
                                
  22328447.661   117336784.579                    91431237.252    22328442.086  
                                
  23111039.105   121449330.327                    94635813.930    23111032.368  
                                
  21882896.028   114995394.357    21882894.313    89606791.215    21882893.705  
  21882893.473    85873173.700  
  19949767.228   106530643.647    19949765.352    82857159.465    19949764.476  
                                
  19798459.507   105536929.591    19798458.221    82084273.332    19798457.131  
                                
  23096641.854   123594795.755    23096639.424    96129274.743    23096638.656  
                                
  19610948.199   104868553.373    19610945.536    81564419.288    19610944.839  
                                
  23541499.955   123711417.513                                                  
  23541500.562    92381904.665  
  23888854.499   125536778.433                                                  
  23888856.446    93745003.304  
  24212650.165   127238335.880                                                  
  24212651.094    95015643.710  
  23761931.364   124869792.606                                                  
  23761932.383    93246925.748  
 21  9  1  9 42 36.0000000  0 18G 1G 3G 7G 8G14G17G19G21G22G30R13R14
                                R17R24E13E15E21E27
  20163931.346   105962173.807    20163929.773    82567920.999    20163929.756  
  20163927.987    79127584.244  
  23855126.325   125359534.092    23855125.431    97682747.657    23855124.877  
  23855124.770    93612632.687  
  23311356.588   122502005.648    23311352.604    95456089.698    23311352.157  
                                
  24563541.203   129082279.790    24563540.577   100583588.845    24563539.737  
  24563538.683    96392600.866  
  20510513.072   107783473.682    20510508.980    83987103.620    20510508.587  
  20510511.911    80487654.108  
  21429163.349   112611013.364    21429158.667    87748820.084    21429158.203  
                                
  23255097.810   122206363.770                    95225709.985    23255091.002  
                                
  22328933.591   117339338.218                    91433227.099    22328928.016  
                                
  23110724.968   121447679.576                    94634527.634    23110718.231  
                                
  21883341.503   114997735.463    21883339.805    89608615.458    21883339.216  
  21883338.965    85874921.931  
  19950237.916   106533157.151    19950236.058    82859114.413    19950235.164  
                                
  19798096.659   105534995.375    19798095.372    82082768.944    19798094.282  
                                
  23095974.518   123591224.702    23095972.070    96126497.260    23095971.302  
                                
  19610725.086   104867360.287    19610722.423    81563491.335    19610721.727  
                                
  23541252.612   123710117.858                                                  
  23541253.237    92380934.145  
  23889140.885   125538283.403                                                  
  23889142.851    93746127.139  
  24212373.856   127236883.894                                                  
  24212374.785    95014559.427  
  23762168.308   124871037.793                                                  
  23762169.326    93247855.595  
 21  9  1  9 42 37.0000000  0 18G 1G 3G 7G 8G14G17G19G21G22G30R13R14
                                R17R24E13E15E21E27
  20164099.708   105963058.508    20164098.118    82568610.379    20164098.100  
  20164096.331    79128244.886  
  23854566.095   125356590.042    23854565.219    97680453.597    23854564.665  
  23854564.540    93610434.197  
  23312037.327   122505582.923    23312033.324    95458877.192    23312032.895  
                                
  24564106.775   129085251.843    24564106.150   100585904.731    24564105.292  
  24564104.256    96394820.244  
  20510267.641   107782183.854    20510263.549    83986098.559    20510263.138  
  20510266.480    80486690.910  
  21428894.206   112609599.001    21428889.506    87747717.980    21428889.077  
                                
  23254556.522   122203519.271                    95223493.495    23254549.714  
                                
  22329419.700   117341892.643                    91435217.563    22329414.125  
                                
  23110411.027   121446029.812                    94633242.100    23110404.290  
                                
  21883787.210   115000077.549    21883785.512    89610440.462    21883784.905  
  21883784.673    85876670.880  
  19950708.836   106535671.841    19950706.978    82861070.283    19950706.084  
                                
  19797734.025   105533062.389    19797732.738    82081265.510    19797731.666  
                                
  23095307.324   123587654.450    23095304.876    96123720.404    23095304.126  
                                
  19610502.188   104866168.302    19610499.525    81562564.236    19610498.828  
                                
  23541005.483   123708819.077                                                  
  23541006.109    92379964.268  
  23889427.433   125539789.162                                                  
  23889429.381    93747251.563  
  24212097.708   127235432.669                                                  
  24212098.638    95013475.717  
  23762405.430   124872283.818                                                  
  23762406.448    93248786.062  
 21  9  1  9 42 38.0000000  0 18G 1G 3G 7G 8G14G17G19G21G22G30R13R14
                                R17R24E13E15E21E27
  20164268.123   105963943.661    20164266.569    82569300.109    20164266.551  
  20164264.764    79128905.886  
  23854005.865   125353646.001    23854004.972    97678159.527    23854004.418  
  23854004.311    93608235.732  
  23312718.047   122509160.139    23312714.044    95461664.633    23312713.616  
                                
  24564672.312   129088223.682    24564671.668   100588220.445    24564670.829  
  24564669.792    96397039.470  
  20510022.228   107780894.228    20510018.136    83985093.656    20510017.725  
  20510021.067    80485727.891  
  21428625.063   112608184.679    21428620.381    87746615.907    21428619.916  
                                
  23254015.215   122200674.726                    95221276.966    23254008.425  
                                
  22329905.809   117344447.180                    91437208.104    22329900.234  
                                
  23110097.139   121444380.297                    94631956.762    23110090.403  
                                
  21884232.953   115002419.896    21884231.219    89612265.663    21884230.648  
  21884230.397    85878420.038  
  19951179.864   106538187.054    19951177.987    82863026.560    19951177.094  
                                
  19797371.498   105531129.897    19797370.211    82079762.458    19797369.139  
                                
  23094640.149   123584084.261    23094637.683    96120943.597    23094636.932  
                                
  19610279.343   104864976.706    19610276.681    81561637.438    19610275.984  
                                
  23540758.373   123707520.469                                                  
  23540758.998    92378994.530  
  23889713.999   125541295.033                                                  
  23889715.928    93748376.079  
  24211821.543   127233981.511                                                  
  24211822.490    95012392.064  
  23762642.587   124873529.981                                                  
  23762643.588    93249716.638  
 21  9  1  9 42 39.0000000  0 18G 1G 3G 7G 8G14G17G19G21G22G30R13R14
                                R17R24E13E15E21E27
  20164436.682   105964829.445    20164435.127    82569990.327    20164435.109  
  20164433.323    79129567.356  
  23853445.654   125350702.109    23853444.778    97675865.584    23853444.224  
  23853444.117    93606037.376  
  23313398.785   122512737.449    23313394.783    95464452.147    23313394.336  
                                
  24565237.795   129091195.422    24565237.152   100590536.075    24565236.294  
  24565235.275    96399258.643  
  20509776.868   107779604.967    20509772.794    83984089.037    20509772.383  
  20509775.725    80484765.137  
  21428355.973   112606770.542    21428351.291    87745513.984    21428350.827  
                                
  23253473.927   122197830.253                    95219060.494    23253467.137  
                                
  22330391.954   117347001.955                    91439198.838    22330386.396  
                                
  23109783.324   121442731.207                    94630671.757    23109776.587  
                                
  21884678.749   115004762.654    21884677.052    89614091.189    21884676.444  
  21884676.212    85880169.507  
  19951650.998   106540702.857    19951649.104    82864983.288    19951648.229  
                                
  19797009.079   105529198.032    19797007.810    82078259.892    19797006.720  
                                
  23093972.991   123580514.273    23093970.543    96118166.946    23093969.774  
                                
  19610056.624   104863785.674    19610053.961    81560711.075    19610053.264  
                                
  23540511.298   123706222.184                                                  
  23540511.923    92378025.040  
  23890000.582   125542801.142                                                  
  23890002.530    93749500.784  
  24211545.430   127232530.561                                                  
  24211546.377    95011308.576  
  23762879.745   124874776.409                                                  
  23762880.764    93250647.427  
 21  9  1  9 42 40.0000000  0 18G 1G 3G 7G 8G14G17G19G21G22G30R13R14
                                R17R24E13E15E21E27
  20164605.401   105965715.945    20164603.811    82570681.113    20164603.811  
  20164602.006    79130229.348  
  23852885.495   125347758.467    23852884.620    97673571.837    23852884.066  
  23852883.959    93603839.193  
  23314079.559   122516314.926    23314075.557    95467239.796    23314075.110  
                                
  24565803.332   129094167.226    24565802.688   100592851.768    24565801.848  
  24565800.812    96401477.824  
  20509531.634   107778316.139    20509527.542    83983084.756    20509527.131  
  20509530.455    80483802.694  
  21428086.919   112605356.695    21428082.237    87744412.285    21428081.773  
                                
  23252932.692   122194986.007                    95216844.198    23252925.884  
                                
  22330878.188   117349557.073                    91441189.841    22330872.595  
                                
  23109469.615   121441082.602                    94629387.129    23109462.861  
                                
  21885124.671   115007105.920    21885122.955    89615917.110    21885122.365  
  21885122.115    85881919.339  
  19952122.240   106543219.382    19952120.382    82866940.587    19952119.488  
                                
  19796646.802   105527266.885    19796645.533    82076757.894    19796644.443  
                                
  23093305.887   123576944.520    23093303.456    96115390.479    23093302.688  
                                
  19609834.011   104862595.308    19609831.331    81559785.237    19609830.634  
                                
  23540264.312   123704924.292                                                  
  23540264.937    92377055.833  
  23890287.255   125544307.585                                                  
  23890289.202    93750625.725  
  24211269.390   127231079.902                                                  
  24211270.319    95010225.285  
  23763117.010   124876023.215                                                  
  23763118.028    93251578.477  
 21  9  1  9 42 41.0000000  0 18G 1G 3G 7G 8G14G17G19G21G22G30R13R14
                                R17R24E13E15E21E27
  20164774.156   105966602.890    20164772.602    82571372.242    20164772.584  
  20164770.797    79130891.674  
  23852325.337   125344814.793    23852324.462    97671278.071    23852323.890  
  23852323.801    93601640.977  
  23314760.316   122519892.332    23314756.313    95470027.383    23314755.866  
                                
  24566368.779   129097138.763    24566368.171   100595167.256    24566367.314  
  24566366.259    96403696.824  
  20509286.417   107777027.491    20509282.325    83982080.616    20509281.914  
  20509285.256    80482840.390  
  21427817.883   112603942.860    21427813.201    87743310.596    21427812.737  
                                
  23252391.421   122192141.699                    95214627.856    23252384.631  
                                
  22331364.404   117352112.247                    91443180.886    22331358.847  
                                
  23109155.942   121439434.237                    94628102.689    23109149.188  
                                
  21885570.628   115009449.423    21885568.912    89617743.217    21885568.323  
  21885568.072    85883669.356  
  19952593.607   106545736.348    19952591.713    82868898.228    19952590.838  
                                
  19796284.615   105525336.185    19796283.328    82075256.236    19796282.256  
                                
  23092638.800   123573374.791    23092636.334    96112614.028    23092635.584  
                                
  19609611.471   104861405.345    19609608.808    81558859.711    19609608.111  
                                
  23540017.380   123703626.541                                                  
  23540017.987    92376086.722  
  23890573.927   125545814.113                                                  
  23890575.893    93751750.713  
  24210993.349   127229629.278                                                  
  24210994.296    95009142.020  
  23763354.293   124877270.115                                                  
  23763355.311    93252509.599  
 21  9  1  9 42 42.0000000  0 18G 1G 3G 7G 8G14G17G19G21G22G30R13R14
                                R17R24E13E15E21E27
  20164943.126   105967490.728    20164941.535    82572064.059    20164941.535  
  20164939.749    79131554.661  
  23851765.251   125341871.529    23851764.375    97668984.619    23851763.821  
  23851763.714    93599443.094  
  23315441.143   122523470.082    23315437.158    95472815.236    23315436.712  
                                
  24566934.280   129100110.502    24566933.672   100597482.900    24566932.815  
  24566931.778    96405915.982  
  20509041.308   107775739.468    20509037.216    83981076.960    20509036.823  
  20509040.164    80481878.552  
  21427548.918   112602529.483    21427544.237    87742209.258    21427543.772  
                                
  23251850.240   122189297.755                    95212411.794    23251843.450  
                                
  22331850.763   117354667.935                    91445172.326    22331845.170  
                                
  23108842.377   121437786.526                    94626818.759    23108835.640  
                                
  21886016.692   115011793.608    21886014.995    89619569.849    21886014.405  
  21886014.155    85885419.880  
  19953065.117   106548254.217    19953063.241    82870856.571    19953062.365  
                                
  19795922.588   105523406.386    19795921.320    82073755.279    19795920.212  
                                
  23091971.803   123569805.585    23091969.355    96109837.979    23091968.587  
                                
  19609389.091   104860216.179    19609386.428    81557934.806    19609385.731  
                                
  23539770.519   123702329.371                                                  
  23539771.145    92375118.063  
  23890860.725   125547321.137                                                  
  23890862.673    93752876.094  
  24210717.398   127228179.135                                                  
  24210718.345    95008059.117  
  23763591.683   124878517.561                                                  
  23763592.701    93253441.129  
 21  9  1  9 42 43.0000000  0 18G 1G 3G 7G 8G14G17G19G21G22G30R13R14
                                R17R24E13E15E21E27
  20165112.220   105968379.362    20165110.648    82572756.499    20165110.648  
  20165108.843    79132218.257  
  23851205.236   125338928.586    23851204.360    97666691.410    23851203.806  
  23851203.699    93597245.445  
  23316122.024   122527048.108    23316118.022    95475603.308    23316117.593  
                                
  24567499.817   129103082.376    24567499.209   100599798.641    24567498.351  
  24567497.333    96408135.224  
  20508796.306   107774451.970    20508792.214    83980073.714    20508791.803  
  20508795.144    80480917.109  
  21427280.043   112601116.461    21427275.362    87741108.200    21427274.897  
                                
  23251309.130   122186454.072                    95210195.932    23251302.322  
                                
  22332337.158   117357224.027                    91447164.086    22332331.583  
                                
  23108528.972   121436139.412                    94625535.293    23108522.199  
                                
  21886462.900   115014138.382    21886461.202    89621396.946    21886460.594  
  21886460.362    85887170.848  
  19953536.770   106550772.906    19953534.912    82872815.553    19953534.018  
                                
  19795560.705   105521477.403    19795559.436    82072254.959    19795558.346  
                                
  23091304.878   123566236.756    23091302.430    96107062.227    23091301.661  
                                
  19609166.854   104859027.739    19609164.191    81557010.457    19609163.494  
                                
  23539523.784   123701032.685                                                  
  23539524.409    92374149.761  
  23891147.577   125548828.578                                                  
  23891149.524    93754001.776  
  24210441.518   127226729.362                                                  
  24210442.447    95006976.496  
  23763829.144   124879765.455                                                  
  23763830.163    93254373.003  
 21  9  1  9 42 44.0000000  0 18G 1G 3G 7G 8G14G17G19G21G22G30R13R14
                                R17R24E13E15E21E27
  20165281.494   105969268.857    20165279.921    82573449.612    20165279.903  
  20165278.098    79132882.487  
  23850645.292   125335986.035    23850644.416    97664398.511    23850643.862  
  23850643.755    93595048.086  
  23316802.959   122530626.459    23316798.957    95478391.636    23316798.528  
                                
  24568065.389   129106054.395    24568064.764   100602114.495    24568063.906  
  24568062.887    96410354.586  
  20508551.411   107773165.055    20508547.337    83979070.926    20508546.908  
  20508550.249    80479956.106  
  21427011.222   112599703.865    21427006.558    87740007.482    21427006.093  
                                
  23250768.056   122183610.758                    95207980.368    23250761.266  
                                
  22332823.660   117359780.615                    91449156.233    22332818.085  
                                
  23108215.656   121434492.943                    94624252.328    23108208.902  
                                
  21886909.214   115016483.792    21886907.499    89623224.536    21886906.909  
  21886906.677    85888922.300  
  19954008.602   106553292.416    19954006.725    82874775.165    19954005.850  
                                
  19795199.000   105519549.314    19795197.749    82070755.331    19795196.641  
                                
  23090638.041   123562668.330    23090635.593    96104286.776    23090634.825  
                                
  19608944.777   104857840.090    19608942.097    81556086.730    19608941.382  
                                
  23539277.138   123699736.557                                                  
  23539277.763    92373181.873  
  23891434.517   125550336.509                                                  
  23891436.483    93755127.831  
  24210165.710   127225280.044                                                  
  24210166.657    95005894.211  
  23764066.713   124881013.867                                                  
  23764067.731    93255305.258  
 21  9  1  9 42 45.0000000  0 18G 1G 3G 7G 8G14G17G19G21G22G30R13R14
                                R17R24E13E15E21E27
  20165450.892   105970159.119    20165449.337    82574143.323    20165449.319  
  20165447.533    79133547.292  
  23850085.420   125333043.778    23850084.508    97662105.848    23850083.954  
  23850083.865    93592850.944  
  23317483.930   122534205.034    23317479.927    95481180.129    23317479.516  
                                
  24568630.944   129109026.480    24568630.318   100604430.401    24568629.461  
  24568628.442    96412574.011  
  20508306.623   107771878.658    20508302.531    83978068.539    20508302.120  
  20508305.462    80478995.482  
  21426742.472   112598291.611    21426737.808    87738907.025    21426737.343  
                                
  23250227.036   122180767.674                    95205764.975    23250220.246  
                                
  22333310.233   117362337.609                    91451148.693    22333304.676  
                                
  23107902.430   121432847.043                    94622969.804    23107895.694  
                                
  21887355.654   115018829.790    21887353.938    89625052.589    21887353.349  
  21887353.099    85890674.172  
  19954480.576   106555812.727    19954478.718    82876735.405    19954477.824  
                                
  19794837.456   105517622.003    19794836.170    82069256.314    19794835.097  
                                
  23089971.259   123559100.220    23089968.793    96101511.582    23089968.042  
                                
  19608722.790   104856653.146    19608720.128    81555163.554    19608719.431  
                                
  23539030.563   123698440.892                                                  
  23539031.189    92372214.329  
  23891721.548   125551844.833                                                  
  23891723.513    93756254.170  
  24209889.991   127223831.078                                                  
  24209890.920    95004812.191  
  23764304.353   124882262.715                                                  
  23764305.371    93256237.831  
 21  9  1  9 42 46.0000000  0 18G 1G 3G 7G 8G14G17G19G21G22G30R13R14
                                R17R24E13E15E21E27
  20165620.397   105971049.833    20165618.843    82574837.378    20165618.807  
  20165617.038    79134212.440  
  23849525.512   125330101.495    23849524.618    97659813.164    23849524.082  
  23849523.975    93590653.793  
  23318164.918   122537783.538    23318160.916    95483968.580    23318160.469  
                                
  24569196.462   129111998.322    24569195.837   100606746.118    24569194.979  
  24569193.961    96414793.248  
  20508061.871   107770592.433    20508057.761    83977066.288    20508057.368  
  20508060.710    80478034.992  
  21426473.721   112596879.352    21426469.058    87737806.564    21426468.593  
                                
  23249685.998   122177924.519                    95203549.534    23249679.190  
                                
  22333796.825   117364894.669                    91453141.203    22333791.267  
                                
  23107589.276   121431201.351                    94621687.451    23107582.539  
                                
  21887802.111   115021176.013    21887800.396    89626880.815    21887799.806  
  21887799.574    85892426.229  
  19954952.640   106558333.450    19954950.782    82878695.967    19954949.870  
                                
  19794475.966   105515695.122    19794474.715    82067757.629    19794473.607  
                                
  23089304.458   123555532.159    23089302.010    96098736.425    23089301.242  
                                
  19608500.911   104855466.557    19608498.230    81554240.654    19608497.534  
                                
  23538784.024   123697145.363                                                  
  23538784.668    92371246.897  
  23892008.596   125553353.222                                                  
  23892010.543    93757380.566  
  24209614.272   127222382.138                                                  
  24209615.201    95003730.193  
  23764542.011   124883511.649                                                  
  23764543.029    93257170.485  
 21  9  1  9 42 47.0000000  0 18G 1G 3G 7G 8G14G17G19G21G22G30R13R14
                                R17R24E13E15E21E27
  20165790.064   105971941.395    20165788.491    82575532.104    20165788.473  
  20165786.704    79134878.212  
  23848965.693   125327159.614    23848964.800    97657520.786    23848964.228  
  23848964.138    93588456.923  
  23318845.925   122541362.344    23318841.922    95486757.272    23318841.493  
                                
  24569762.035   129114970.355    24569761.410   100609061.990    24569760.570  
  24569759.515    96417012.602  
  20507817.208   107769306.787    20507813.116    83976064.483    20507812.705  
  20507816.047    80477074.934  
  21426205.079   112595467.530    21426200.397    87736706.447    21426199.932  
                                
  23249145.031   122175081.696                    95201334.345    23249138.241  
                                
  22334283.523   117367452.188                    91455134.075    22334277.966  
                                
  23107276.228   121429556.302                    94620405.597    23107269.474  
                                
  21888248.712   115023522.871    21888246.996    89628709.539    21888246.407  
  21888246.157    85894178.752  
  19955424.847   106560855.071    19955422.988    82880657.225    19955422.095  
                                
  19794114.654   105513769.113    19794113.385    82066259.624    19794112.295  
                                
  23088637.765   123551964.558    23088635.317    96095961.624    23088634.549  
                                
  19608279.156   104854280.748    19608276.494    81553318.357    19608275.797  
                                
  23538537.593   123695850.382                                                  
  23538538.236    92370279.859  
  23892295.715   125554862.086                                                  
  23892297.663    93758507.315  
  24209338.624   127220933.636                                                  
  24209339.571    95002648.515  
  23764779.776   124884761.099                                                  
  23764780.795    93258103.509  
 21  9  1  9 42 48.0000000  0 18G 1G 3G 7G 8G14G17G19G21G22G30R13R14
                                R17R24E13E15E21E27
  20165959.820   105972833.523    20165958.265    82576227.269    20165958.247  
  20165956.460    79135544.414  
  23848405.892   125324217.803    23848404.999    97655228.464    23848404.427  
  23848404.338    93586260.127  
  23319526.967   122544941.209    23319522.964    95489545.996    23319522.517  
                                
  24570327.554   129117942.206    24570326.928   100611377.718    24570326.089  
  24570325.034    96419231.852  
  20507572.617   107768021.449    20507568.525    83975062.921    20507568.114  
  20507571.456    80476115.101  
  21425936.436   112594055.838    21425931.754    87735606.429    21425931.289  
                                
  23248604.064   122172238.937                    95199119.213    23248597.274  
                                
  22334770.222   117370009.900                    91457127.100    22334764.664  
                                
  23106963.252   121427911.606                    94619124.013    23106956.498  
                                
  21888695.366   115025870.092    21888693.668    89630538.543    21888693.061  
  21888692.829    85895931.543  
  19955897.179   106563377.261    19955895.302    82882618.929    19955894.427  
                                
  19793753.450   105511843.705    19793752.181    82064762.084    19793751.091  
                                
  23087971.108   123548397.094    23087968.642    96093186.933    23087967.891  
                                
  19608057.491   104853095.434    19608054.828    81552396.451    19608054.132  
                                
  23538291.232   123694555.659                                                  
  23538291.858    92369313.023  
  23892582.870   125556371.132                                                  
  23892584.836    93759634.200  
  24209063.012   127219485.289                                                  
  24209063.959    95001566.957  
  23765017.577   124886010.766                                                  
  23765018.596    93259036.706  
 21  9  1  9 42 49.0000000  0 18G 1G 3G 7G 8G14G17G19G21G22G30R13R14
                                R17R24E13E15E21E27
  20166129.629   105973725.871    20166128.074    82576922.612    20166128.039  
  20166126.269    79136210.785  
  23847846.038   125321275.760    23847845.127    97652935.974    23847844.573  
  23847844.483    93584063.164  
  23320207.937   122548519.749    23320203.935    95492334.468    23320203.488  
                                
  24570893.001   129120913.626    24570892.376   100613693.114    24570891.518  
  24570890.499    96421450.769  
  20507328.026   107766736.069    20507323.916    83974061.327    20507323.505  
  20507326.847    80475155.242  
  21425667.757   112592643.948    21425663.075    87734506.260    21425662.611  
                                
  23248063.044   122169395.871                    95196903.839    23248056.254  
                                
  22335256.920   117372567.451                    91459119.999    22335251.363  
                                
  23106650.294   121426266.918                    94617842.436    23106643.522  
                                
  21889142.038   115028217.328    21889140.322    89632367.558    21889139.733  
  21889139.483    85897684.351  
  19956369.564   106565899.666    19956367.670    82884580.809    19956366.794  
                                
  19793392.299   105509918.547    19793391.030    82063264.742    19793389.940  
                                
  23087304.414   123544829.424    23087301.948    96090412.080    23087301.198  
                                
  19607835.844   104851910.267    19607833.181    81551474.654    19607832.484  
                                
  23538044.836   123693260.849                                                  
  23538045.444    92368346.125  
  23892870.008   125557880.028                                                  
  23892871.955    93760760.987  
  24208787.365   127218036.751                                                  
  24208788.276    95000485.272  
  23765255.360   124887260.307                                                  
  23765256.361    93259969.816  
 21  9  1  9 42 50.0000000  0 18G 1G 3G 7G 8G14G17G19G21G22G30R13R14
                                R17R24E13E15E21E27
  20166299.599   105974619.035    20166298.027    82577618.582    20166298.009  
  20166296.240    79136877.749  
  23847286.255   125318334.057    23847285.344    97650643.743    23847284.790  
  23847284.683    93581866.430  
  23320888.944   122552098.582    23320884.977    95495123.171    23320884.530  
                                
  24571458.484   129123885.151    24571457.841   100616008.591    24571457.001  
  24571455.965    96423669.748  
  20507083.506   107765451.230    20507079.432    83973060.153    20507079.003  
  20507082.345    80474195.779  
  21425399.150   112591232.432    21425394.468    87733406.380    21425394.004  
                                
  23247522.077   122166553.103                    95194688.695    23247515.287  
                                
  22335743.690   117375125.442                    91461113.238    22335738.133  
                                
  23106337.426   121424622.837                    94616561.334    23106330.671  
                                
  21889588.817   115030565.171    21889587.102    89634197.049    21889586.530  
  21889586.262    85899437.609  
  19956842.075   106568422.888    19956840.198    82886543.317    19956839.305  
                                
  19793031.291   105507994.213    19793030.022    82061768.038    19793028.932  
                                
  23086637.775   123541262.160    23086635.327    96087637.540    23086634.558  
                                
  19607614.375   104850725.867    19607611.712    81550553.457    19607611.016  
                                
  23537798.548   123691966.548                                                  
  23537799.155    92367379.594  
  23893157.234   125559389.356                                                  
  23893159.164    93761888.078  
  24208511.806   127216588.615                                                  
  24208512.736    94999403.857  
  23765493.250   124888510.326                                                  
  23765494.251    93260903.259  
 21  9  1  9 42 51.0000000  0 18G 1G 3G 7G 8G14G17G19G21G22G30R13R14
                                R17R24E13E15E21E27
  20166469.694   105975512.970    20166468.140    82578315.157    20166468.122  
  20166466.335    79137545.300  
  23846726.508   125315392.663    23846725.614    97648351.748    23846725.043  
  23846724.953    93579669.934  
  23321570.022   122555677.637    23321566.019    95497912.046    23321565.608  
                                
  24572023.932   129126856.743    24572023.306   100618324.117    24572022.466  
  24572021.412    96425888.810  
  20506839.112   107764166.892    20506835.020    83972059.375    20506834.627  
  20506837.968    80473236.703  
  21425130.614   112589821.241    21425125.933    87732306.750    21425125.450  
                                
  23246981.164   122163710.600                    95192473.760    23246974.356  
                                
  22336230.532   117377683.826                    91463106.787    22336224.975  
                                
  23106024.682   121422979.314                    94615280.672    23106017.910  
                                
  21890035.703   115032913.575    21890033.970    89636026.971    21890033.398  
  21890033.130    85901191.289  
  19957314.746   106570946.924    19957312.870    82888506.456    19957311.976  
                                
  19792670.426   105506070.627    19792669.175    82060271.915    19792668.085  
                                
  23085971.207   123537695.231    23085968.776    96084863.259    23085968.008  
                                
  19607393.031   104849542.228    19607390.351    81549632.849    19607389.654  
                                
  23537552.312   123690672.706                                                  
  23537552.938    92366413.426  
  23893444.532   125560899.097                                                  
  23893446.462    93763015.480  
  24208236.302   127215140.841                                                  
  24208237.213    94998322.728  
  23765731.194   124889760.765                                                  
  23765732.195    93261837.037  
 21  9  1  9 42 52.0000000  0 18G 1G 3G 7G 8G14G17G19G21G22G30R13R14
                                R17R24E13E15E21E27
  20166639.915   105976407.502    20166638.360    82579012.195    20166638.342  
  20166636.555    79138213.301  
  23846166.814   125312451.389    23846165.903    97646059.851    23846165.349  
  23846165.260    93577473.537  
  23322251.117   122559256.766    23322247.115    95500700.980    23322246.686  
                                
  24572589.397   129129828.283    24572588.771   100620639.599    24572587.914  
  24572586.895    96428107.814  
  20506594.789   107762882.904    20506590.679    83971058.862    20506590.286  
  20506593.627    80472277.878  
  21424862.114   112588410.217    21424857.433    87731207.251    21424856.968  
                                
  23246440.286   122160868.184                    95190258.889    23246433.478  
                                
  22336717.427   117380242.445                    91465100.511    22336711.870  
                                
  23105712.010   121421336.167                    94614000.290    23105705.237  
                                
  21890482.661   115035262.358    21890480.928    89637857.194    21890480.356  
  21890480.088    85902945.255  
  19957787.525   106573471.547    19957785.631    82890470.049    19957784.755  
                                
  19792309.704   105504147.645    19792308.418    82058776.263    19792307.345  
                                
  23085304.692   123534128.494    23085302.244    96082089.125    23085301.476  
                                
  19607171.759   104848359.127    19607169.115    81548712.664    19607168.400  
                                
  23537306.167   123689379.175                                                  
  23537306.792    92365447.469  
  23893731.866   125562409.047                                                  
  23893733.796    93764143.044  
  24207960.833   127213693.236                                                  
  24207961.744    94997241.736  
  23765969.174   124891011.456                                                  
  23765970.193    93262770.999  
 21  9  1  9 42 53.0000000  0 18G 1G 3G 7G 8G14G17G19G21G22G30R13R14
                                R17R24E13E15E21E27
  20166810.385   105977303.260    20166808.830    82579710.188    20166808.813  
  20166807.026    79138882.201  
  23845607.246   125309510.875    23845606.352    97643768.532    23845605.781  
  23845605.709    93575277.694  
  23322932.338   122562836.576    23322928.335    95503490.444    23322927.889  
                                
  24573154.987   129132800.328    24573154.362   100622955.482    24573153.504  
  24573152.485    96430327.181  
  20506350.626   107761599.854    20506346.534    83970059.079    20506346.141  
  20506349.483    80471319.748  
  21424593.739   112587000.006    21424589.076    87730108.388    21424588.593  
                                
  23245899.516   122158026.476                    95188044.568    23245892.726  
                                
  22337204.465   117382801.883                    91467094.876    22337198.908  
                                
  23105399.498   121419694.023                    94612720.698    23105392.762  
                                
  21890929.816   115037612.158    21890928.100    89639688.203    21890927.511  
  21890927.261    85904699.967  
  19958260.536   106575997.393    19958258.659    82892434.594    19958257.766  
                                
  19791949.179   105502225.904    19791947.910    82057281.573    19791946.838  
                                
  23084638.320   123530562.590    23084635.872    96079315.642    23084635.104  
                                
  19606950.755   104847177.146    19606948.075    81547793.343    19606947.396  
                                
  23537060.182   123688086.539                                                  
  23537060.825    92364482.186  
  23894019.361   125563919.842                                                  
  23894021.291    93765271.226  
  24207685.507   127212246.453                                                  
  24207686.436    94996161.333  
  23766207.368   124892263.034                                                  
  23766208.387    93263705.608  
 21  9  1  9 42 54.0000000  0 18G 1G 3G 7G 8G14G17G19G21G22G30R13R14
                                R17R24E13E15E21E27
  20166980.945   105978199.637    20166979.390    82580408.659    20166979.372  
  20166977.585    79139551.584  
  23845047.713   125306570.517    23845046.820    97641477.341    23845046.266  
  23845046.159    93573081.981  
  23323613.559   122566416.507    23323609.574    95506279.996    23323609.127  
                                
  24573720.524   129135772.337    24573719.898   100625271.331    24573719.041  
  24573718.022    96432546.552  
  20506106.535   107760317.163    20506102.443    83969059.582    20506102.015  
  20506105.356    80470361.907  
  21424325.436   112585589.980    21424320.754    87729009.657    21424320.290  
                                
  23245358.782   122155184.865                    95185830.321    23245351.973  
                                
  22337691.557   117385361.593                    91469089.458    22337686.000  
                                
  23105087.094   121418052.302                    94611441.432    23105080.340  
                                
  21891377.060   115039962.396    21891375.326    89641519.555    21891374.737  
  21891374.486    85906455.024  
  19958733.672   106578523.895    19958731.777    82894399.653    19958730.902  
                                
  19791588.796   105500304.812    19791587.528    82055787.390    19791586.438  
                                
  23083972.002   123526996.901    23083969.537    96076542.329    23083968.768  
                                
  19606729.805   104845995.696    19606727.142    81546874.437    19606726.445  
                                
  23536814.268   123686794.228                                                  
  23536814.911    92363517.156  
  23894306.891   125565430.886                                                  
  23894308.839    93766399.608  
  24207410.235   127210799.885                                                  
  24207411.164    94995081.108  
  23766445.562   124893514.890                                                  
  23766446.581    93264640.442  
 21  9  1  9 42 55.0000000  0 18G 1G 3G 7G 8G14G17G19G21G22G30R13R14
                                R17R24E13E15E21E27
  20167151.612   105979096.478    20167150.057    82581107.496    20167150.039  
  20167148.253    79140221.296  
  23844488.180   125303630.141    23844487.287    97639186.135    23844486.715  
  23844486.644    93570886.233  
  23324294.780   122569996.311    23324290.777    95509069.449    23324290.366  
                                
  24574286.043   129138744.103    24574285.417   100627586.991    24574284.560  
  24574283.541    96434765.705  
  20505862.498   107759034.668    20505858.388    83968060.228    20505857.995  
  20505861.337    80469404.187  
  21424057.115   112584179.960    21424052.433    87727910.940    21424051.986  
                                
  23244818.029   122152343.192                    95183616.028    23244811.239  
                                
  22338178.666   117387921.345                    91471084.063    22338173.109  
                                
  23104774.726   121416410.810                    94610162.352    23104767.971  
                                
  21891824.321   115042312.866    21891822.606    89643351.085    21891822.034  
  21891821.766    85908210.234  
  19959206.879   106581050.841    19959205.021    82896365.054    19959204.109  
                                
  19791228.485   105498384.200    19791227.217    82054293.578    19791226.144  
                                
  23083305.667   123523431.212    23083303.219    96073769.013    23083302.468  
                                
  19606508.944   104844814.631    19606506.263    81545955.829    19606505.584  
                                
  23536568.373   123685502.061                                                  
  23536569.016    92362552.221  
  23894594.440   125566942.010                                                  
  23894596.405    93767528.034  
  24207134.980   127209353.340                                                  
  24207135.892    94994000.895  
  23766683.828   124894766.855                                                  
  23766684.828    93265575.342  
 21  9  1  9 42 56.0000000  0 18G 1G 3G 7G 8G14G17G19G21G22G30R13R14
                                R17R24E13E15E21E27
  20167322.404   105979993.897    20167320.832    82581806.779    20167320.814  
  20167319.045    79140891.438  
  23843928.683   125300689.865    23843927.772    97636895.019    23843927.200  
  23843927.111    93568690.578  
  23324976.000   122573576.159    23324972.016    95511858.943    23324971.569  
                                
  24574851.508   129141715.743    24574850.900   100629902.552    24574850.043  
  24574849.024    96436984.796  
  20505618.497   107757752.481    20505614.423    83967061.124    20505613.994  
  20505617.335    80468446.705  
  21423788.829   112582770.096    21423784.148    87726812.345    21423783.683  
                                
  23244277.295   122149501.584                    95181401.790    23244270.487  
                                
  22338665.830   117390481.325                    91473078.848    22338660.254  
                                
  23104462.429   121414769.675                    94608883.548    23104455.674  
                                
  21892271.690   115044663.705    21892269.957    89645182.910    21892269.385  
  21892269.117    85909965.728  
  19959680.212   106583578.360    19959678.335    82898330.901    19959677.442  
                                
  19790868.299   105496464.200    19790867.031    82052800.245    19790865.959  
                                
  23082639.349   123519865.652    23082636.918    96070995.797    23082636.150  
                                
  19606288.172   104843634.110    19606285.509    81545037.644    19606284.812  
                                
  23536322.548   123684210.173                                                  
  23536323.174    92361587.493  
  23894882.042   125568453.327                                                  
  23894884.007    93768656.610  
  24206859.744   127207906.973                                                  
  24206860.655    94992920.812  
  23766922.111   124896019.057                                                  
  23766923.112    93266510.424  
 21  9  1  9 42 57.0000000  0 18G 1G 3G 7G 8G14G17G19G21G22G30R13R14
                                R17R24E13E15E21E27
  20167493.357   105980892.372    20167491.802    82582506.892    20167491.784  
  20167489.998    79141562.395  
  23843369.276   125297750.193    23843368.382    97634604.364    23843367.793  
  23843367.721    93566495.380  
  23325657.328   122577156.541    23325653.326    95514648.858    23325652.897  
                                
  24575417.098   129144687.767    24575416.455   100632218.412    24575415.597  
  24575414.579    96439204.153  
  20505374.656   107756471.093    20505370.564    83966062.639    20505370.153  
  20505373.494    80467489.835  
  21423520.669   112581360.862    21423515.987    87725714.241    21423515.523  
                                
  23243736.650   122146660.536                    95179187.996    23243729.859  
                                
  22339153.118   117393041.972                    91475074.157    22339147.543  
                                
  23104150.293   121413129.401                    94607605.412    23104143.538  
                                
  21892719.202   115047015.408    21892717.486    89647015.408    21892716.879  
  21892716.647    85911721.874  
  19960153.723   106586106.958    19960151.864    82900297.591    19960150.971  
                                
  19790508.310   105494545.287    19790507.041    82051307.753    19790505.969  
                                
  23081973.156   123516300.728    23081970.725    96068223.076    23081969.957  
                                
  19606067.614   104842454.604    19606064.952    81544120.250    19606064.255  
                                
  23536076.849   123682919.045                                                  
  23536077.493    92360623.346  
  23895169.769   125569965.337                                                  
  23895171.716    93769785.719  
  24206584.632   127206461.253                                                  
  24206585.544    94991841.229  
  23767160.520   124897271.970                                                  
  23767161.538    93267446.056  
 21  9  1  9 42 58.0000000  0 18G 1G 3G 7G 8G14G17G19G21G22G30R13R14
                                R17R24E13E15E21E27
  20167664.471   105981791.560    20167662.916    82583207.558    20167662.916  
  20167661.111    79142233.858  
  23842809.904   125294810.750    23842809.010    97632313.891    23842808.439  
  23842808.349    93564300.346  
  23326338.674   122580737.114    23326334.689    95517438.920    23326334.243  
                                
  24575982.653   129147659.814    24575982.010   100634534.293    24575981.152  
  24575980.133    96441423.539  
  20505130.905   107755190.139    20505126.813    83965064.493    20505126.402  
  20505129.743    80466533.276  
  21423252.526   112579951.896    21423247.845    87724616.349    21423247.398  
                                
  23243196.058   122143819.644                    95176974.316    23243189.232  
                                
  22339640.442   117395602.950                    91477069.722    22339634.885  
                                
  23103838.246   121411489.616                    94606327.663    23103831.509  
                                
  21893166.803   115049367.582    21893165.088    89648848.275    21893164.498  
  21893164.248    85913478.370  
  19960627.395   106588636.281    19960625.519    82902264.847    19960624.643  
                                
  19790148.464   105492627.053    19790147.195    82049815.795    19790146.105  
                                
  23081307.034   123512736.115    23081304.586    96065450.599    23081303.836  
                                
  19605847.146   104841275.716    19605844.484    81543203.338    19605843.787  
                                
  23535831.222   123681628.296                                                  
  23535831.865    92359659.477  
  23895457.549   125571477.654                                                  
  23895459.497    93770915.056  
  24206309.574   127205015.826                                                  
  24206310.504    94990761.847  
  23767399.017   124898525.252                                                  
  23767400.036    93268381.935  
