% program   : rnx2rtkp ver.2.4.3 b31
% inp file  : ngs/21_08_31_21_19_46_mego.obs
% inp file  : ngs/21_08_31_21_19_46_mego_P1.obs
% inp file  : ngs/21_08_31_21_19_46_brdc.nav
% obs start : 2021/08/31 21:00:00.0 GPST (week2173 248400.0s)
% obs end   : 2021/08/31 21:59:59.0 GPST (week2173 251999.0s)
% ref pos   :  1550743.4360  -4330007.9050   4404276.9850
%
% (x/y/z-ecef=WGS84,Q=1:fix,2:float,3:sbas,4:dgps,5:single,6:ppp,ns=# of satellites)
%  GPST              x-ecef(m)      y-ecef(m)      z-ecef(m)   Q  ns   sdx(m)   sdy(m)   sdz(m)  sdxy(m)  sdyz(m)  sdzx(m) age(s)  ratio
2173 249561.000   1545934.3581  -4353759.1270   4382599.1898   2   6   0.5468   1.0601   0.7917  -0.5400  -0.6686   0.2857 -30.00    1.2
2173 249562.000   1545934.4358  -4353759.1557   4382599.1115   2   6   0.3888   0.7542   0.5628  -0.3839  -0.4755   0.2031 -29.00    1.1
2173 249563.000   1545934.3876  -4353759.0421   4382599.0370   2   6   0.3183   0.6175   0.4607  -0.3143  -0.3892   0.1663 -28.00    1.0
2173 249564.000   1545934.3654  -4353759.0052   4382598.9600   2   6   0.2762   0.5357   0.3996  -0.2727  -0.3376   0.1443 -27.00    1.0
2173 249565.000   1545934.3880  -4353759.0581   4382599.0080   2   6   0.2474   0.4798   0.3579  -0.2443  -0.3024   0.1293 -26.00    1.0
2173 249566.000   1545934.3969  -4353759.0483   4382599.0385   2   6   0.2261   0.4384   0.3270  -0.2233  -0.2763   0.1182 -25.00    1.0
2173 249567.000   1545934.4245  -4353759.0697   4382599.0387   2   6   0.2095   0.4062   0.3030  -0.2069  -0.2559   0.1095 -24.00    1.0
2173 249568.000   1545934.4228  -4353759.0463   4382599.0386   2   6   0.1961   0.3802   0.2835  -0.1937  -0.2395   0.1025 -23.00    1.0
2173 249569.000   1545934.4527  -4353759.0640   4382599.0504   2   6   0.1850   0.3586   0.2674  -0.1828  -0.2259   0.0967 -22.00    1.0
2173 249570.000   1545934.4842  -4353759.1058   4382599.0750   2   6   0.1756   0.3403   0.2537  -0.1735  -0.2144   0.0918 -21.00    1.1
2173 249571.000   1545934.4876  -4353759.1074   4382599.0506   2   6   0.1674   0.3245   0.2419  -0.1655  -0.2044   0.0876 -20.00    1.0
2173 249572.000   1545934.4754  -4353759.0826   4382599.0370   2   6   0.1603   0.3108   0.2316  -0.1584  -0.1957   0.0839 -19.00    1.0
2173 249573.000   1545934.4659  -4353759.0448   4382599.0078   2   6   0.1540   0.2986   0.2225  -0.1522  -0.1880   0.0806 -18.00    1.1
2173 249574.000   1545934.4626  -4353759.0165   4382598.9980   2   6   0.1484   0.2877   0.2144  -0.1467  -0.1811   0.0776 -17.00    1.1
2173 249575.000   1545934.4556  -4353759.0249   4382599.0151   2   6   0.1434   0.2779   0.2070  -0.1417  -0.1749   0.0750 -16.00    1.2
2173 249576.000   1545934.4636  -4353759.0498   4382599.0254   2   6   0.1388   0.2690   0.2004  -0.1372  -0.1693   0.0726 -15.00    1.2
2173 249577.000   1545934.4645  -4353759.0383   4382599.0208   2   6   0.1346   0.2609   0.1943  -0.1330  -0.1642   0.0704 -14.00    1.2
2173 249578.000   1545934.4527  -4353759.0071   4382599.0150   2   6   0.1308   0.2535   0.1887  -0.1293  -0.1595   0.0684 -13.00    1.2
2173 249579.000   1545934.4512  -4353759.0023   4382599.0133   2   6   0.1272   0.2466   0.1836  -0.1258  -0.1552   0.0666 -12.00    1.2
2173 249580.000   1545934.4353  -4353758.9989   4382599.0145   2   6   0.1239   0.2403   0.1788  -0.1225  -0.1512   0.0649 -11.00    1.2
2173 249581.000   1545934.4306  -4353759.0019   4382599.0217   2   6   0.1209   0.2344   0.1744  -0.1195  -0.1474   0.0633 -10.00    1.2
2173 249582.000   1545934.4298  -4353758.9986   4382599.0253   2   6   0.1181   0.2289   0.1703  -0.1167  -0.1440   0.0619  -9.00    1.2
2173 249583.000   1545934.4281  -4353758.9854   4382599.0276   2   6   0.1154   0.2238   0.1665  -0.1141  -0.1408   0.0605  -8.00    1.2
2173 249584.000   1545934.4354  -4353758.9818   4382599.0272   2   6   0.1129   0.2190   0.1629  -0.1117  -0.1377   0.0592  -7.00    1.2
2173 249585.000   1545934.4292  -4353758.9816   4382599.0244   2   6   0.1106   0.2145   0.1595  -0.1093  -0.1349   0.0580  -6.00    1.2
2173 249586.000   1545934.4243  -4353758.9816   4382599.0196   2   6   0.1084   0.2102   0.1563  -0.1072  -0.1322   0.0569  -5.00    1.2
2173 249587.000   1545934.4210  -4353758.9806   4382599.0215   2   6   0.1064   0.2062   0.1533  -0.1051  -0.1297   0.0558  -4.00    1.1
2173 249588.000   1545934.4100  -4353758.9645   4382599.0125   2   6   0.1044   0.2025   0.1505  -0.1032  -0.1273   0.0548  -3.00    1.1
2173 249589.000   1545934.4083  -4353758.9588   4382599.0090   2   6   0.1026   0.1989   0.1478  -0.1014  -0.1251   0.0539  -2.00    1.0
2173 249590.000   1545934.4139  -4353758.9596   4382599.0118   2   6   0.1008   0.1955   0.1453  -0.0997  -0.1230   0.0530  -1.00    1.1
2173 249591.000   1545934.4062  -4353758.9529   4382599.0050   2   6   0.0992   0.1923   0.1429  -0.0980  -0.1210   0.0522   0.00    1.2
2173 249592.000   1545934.2303  -4353758.6738   4382598.7466   2   6   0.5470   1.0605   0.7890  -0.5415  -0.6660   0.2854   0.00    2.2
2173 249593.000   1545935.3185  -4353759.7607   4382599.7230   1   6   0.0055   0.0107   0.0080  -0.0055  -0.0067   0.0029   0.00    3.2
2173 249594.000   1545934.6161  -4353758.7424   4382598.7458   2   6   0.5471   1.0606   0.7889  -0.5417  -0.6659   0.2854   0.00    2.9
2173 249595.000   1545934.4662  -4353758.7652   4382598.6703   2   6   0.5471   1.0607   0.7889  -0.5418  -0.6658   0.2854   0.00    2.1
2173 249596.000   1545934.3702  -4353759.0239   4382598.7416   2   6   0.5471   1.0608   0.7888  -0.5419  -0.6658   0.2854   0.00    2.2
2173 249597.000   1545934.4242  -4353758.9317   4382599.1251   2   6   0.5472   1.0608   0.7888  -0.5419  -0.6657   0.2854   0.00    2.4
2173 249598.000   1545934.3046  -4353758.8525   4382598.8681   2   6   0.5472   1.0609   0.7887  -0.5420  -0.6657   0.2854   0.00    2.1
2173 249599.000   1545934.2751  -4353759.1977   4382598.9309   2   6   0.5473   1.0610   0.7887  -0.5421  -0.6656   0.2854   0.00    2.4
2173 249600.000   1545934.1485  -4353758.4476   4382598.4572   2   6   0.5473   1.0610   0.7887  -0.5422  -0.6656   0.2854   0.00    2.2
2173 249601.000   1545934.4917  -4353758.9254   4382598.6035   2   6   0.5473   1.0611   0.7886  -0.5423  -0.6655   0.2854   0.00    2.7
2173 249602.000   1545935.3143  -4353759.7564   4382599.7236   1   6   0.0055   0.0107   0.0080  -0.0055  -0.0067   0.0029   0.00    3.8
2173 249603.000   1545935.3136  -4353759.7536   4382599.7236   1   6   0.0055   0.0107   0.0080  -0.0055  -0.0067   0.0029   0.00    4.2
2173 249604.000   1545935.3135  -4353759.7557   4382599.7221   1   6   0.0055   0.0107   0.0080  -0.0055  -0.0067   0.0029   0.00    3.7
2173 249605.000   1545935.3143  -4353759.7541   4382599.7239   1   6   0.0055   0.0107   0.0080  -0.0055  -0.0067   0.0029   0.00    3.9
2173 249606.000   1545935.3131  -4353759.7553   4382599.7214   1   6   0.0055   0.0107   0.0080  -0.0055  -0.0067   0.0029   0.00    4.5
2173 249607.000   1545935.3152  -4353759.7579   4382599.7245   1   6   0.0055   0.0107   0.0079  -0.0055  -0.0067   0.0029   0.00    4.1
2173 249608.000   1545935.3139  -4353759.7553   4382599.7244   1   6   0.0055   0.0107   0.0079  -0.0055  -0.0067   0.0029   0.00    4.1
2173 249609.000   1545935.3121  -4353759.7510   4382599.7225   1   6   0.0055   0.0107   0.0079  -0.0055  -0.0067   0.0029   0.00    4.1
2173 249610.000   1545935.3141  -4353759.7493   4382599.7220   1   6   0.0055   0.0107   0.0079  -0.0055  -0.0067   0.0029   0.00    6.1
2173 249611.000   1545935.3122  -4353759.7520   4382599.7221   1   6   0.0055   0.0107   0.0079  -0.0055  -0.0067   0.0029   0.00    8.3
2173 249612.000   1545935.3129  -4353759.7525   4382599.7219   1   6   0.0055   0.0107   0.0079  -0.0055  -0.0067   0.0029   0.00    4.6
2173 249613.000   1545935.3144  -4353759.7490   4382599.7207   1   6   0.0055   0.0107   0.0079  -0.0055  -0.0067   0.0029   0.00    3.7
2173 249614.000   1545935.3131  -4353759.7484   4382599.7192   1   6   0.0055   0.0107   0.0079  -0.0055  -0.0067   0.0029   0.00    3.9
2173 249615.000   1545935.3141  -4353759.7534   4382599.7210   1   6   0.0055   0.0107   0.0079  -0.0055  -0.0067   0.0029   0.00    5.2
2173 249616.000   1545935.3137  -4353759.7520   4382599.7208   1   6   0.0055   0.0107   0.0079  -0.0055  -0.0067   0.0029   0.00    4.8
2173 249617.000   1545935.3176  -4353759.7552   4382599.7218   1   6   0.0055   0.0107   0.0079  -0.0055  -0.0067   0.0029   0.00    5.5
2173 249618.000   1545935.3162  -4353759.7528   4382599.7180   1   6   0.0055   0.0107   0.0079  -0.0055  -0.0067   0.0029   0.00    5.8
2173 249619.000   1545935.3161  -4353759.7541   4382599.7201   1   6   0.0055   0.0107   0.0079  -0.0055  -0.0067   0.0029   0.00    5.4
2173 249620.000   1545935.3152  -4353759.7564   4382599.7195   1   6   0.0055   0.0107   0.0079  -0.0055  -0.0067   0.0029   0.00    6.3
2173 249621.000   1545935.3172  -4353759.7566   4382599.7206   1   6   0.0055   0.0107   0.0079  -0.0055  -0.0067   0.0029   0.00    7.1
2173 249622.000   1545935.3156  -4353759.7550   4382599.7202   1   6   0.0055   0.0107   0.0079  -0.0055  -0.0067   0.0029   0.00    5.6
2173 249623.000   1545935.3163  -4353759.7565   4382599.7213   1   6   0.0055   0.0107   0.0079  -0.0055  -0.0067   0.0029   0.00    7.4
2173 249624.000   1545935.3183  -4353759.7616   4382599.7239   1   6   0.0055   0.0107   0.0079  -0.0055  -0.0067   0.0029   0.00    6.8
2173 249625.000   1545935.3152  -4353759.7528   4382599.7197   1   6   0.0055   0.0107   0.0079  -0.0055  -0.0067   0.0029   0.00    4.7
2173 249626.000   1545935.3159  -4353759.7590   4382599.7225   1   6   0.0055   0.0107   0.0079  -0.0055  -0.0067   0.0029   0.00    5.3
2173 249627.000   1545935.3145  -4353759.7563   4382599.7234   1   6   0.0055   0.0107   0.0079  -0.0055  -0.0067   0.0029   0.00    4.7
2173 249628.000   1545935.3148  -4353759.7529   4382599.7202   1   6   0.0055   0.0107   0.0079  -0.0055  -0.0067   0.0029   0.00    4.9
2173 249629.000   1545935.3156  -4353759.7590   4382599.7227   1   6   0.0055   0.0107   0.0079  -0.0055  -0.0067   0.0029   0.00    3.7
2173 249630.000   1545935.3160  -4353759.7578   4382599.7237   1   6   0.0055   0.0107   0.0079  -0.0055  -0.0067   0.0029   0.00    5.0
2173 249631.000   1545935.3163  -4353759.7597   4382599.7252   1   6   0.0055   0.0107   0.0079  -0.0055  -0.0067   0.0029   0.00    5.3
2173 249632.000   1545935.3159  -4353759.7599   4382599.7236   1   6   0.0055   0.0107   0.0079  -0.0055  -0.0067   0.0029   0.00    4.6
2173 249633.000   1545935.3165  -4353759.7599   4382599.7259   1   6   0.0055   0.0107   0.0079  -0.0055  -0.0067   0.0029   0.00    5.1
2173 249634.000   1545935.3160  -4353759.7556   4382599.7225   1   6   0.0055   0.0107   0.0079  -0.0055  -0.0067   0.0029   0.00    4.1
2173 249635.000   1545935.3160  -4353759.7595   4382599.7250   1   6   0.0055   0.0107   0.0079  -0.0055  -0.0067   0.0029   0.00    4.2
2173 249636.000   1545935.3175  -4353759.7585   4382599.7233   1   6   0.0055   0.0107   0.0079  -0.0055  -0.0067   0.0029   0.00    5.8
2173 249637.000   1545935.3173  -4353759.7589   4382599.7246   1   6   0.0055   0.0107   0.0079  -0.0055  -0.0067   0.0029   0.00    6.5
2173 249638.000   1545935.3185  -4353759.7599   4382599.7243   1   6   0.0055   0.0107   0.0079  -0.0055  -0.0067   0.0029   0.00   10.3
2173 249639.000   1545935.3158  -4353759.7583   4382599.7238   1   6   0.0055   0.0107   0.0079  -0.0055  -0.0067   0.0029   0.00    9.7
2173 249640.000   1545935.3168  -4353759.7579   4382599.7224   1   6   0.0055   0.0107   0.0079  -0.0055  -0.0067   0.0029   0.00    9.1
2173 249641.000   1545935.3159  -4353759.7572   4382599.7227   1   6   0.0055   0.0107   0.0079  -0.0055  -0.0067   0.0029   0.00    7.3
2173 249642.000   1545935.3156  -4353759.7560   4382599.7212   1   6   0.0055   0.0107   0.0079  -0.0055  -0.0067   0.0029   0.00    7.5
2173 249643.000   1545935.3144  -4353759.7547   4382599.7197   1   6   0.0055   0.0107   0.0079  -0.0055  -0.0067   0.0029   0.00    7.9
2173 249644.000   1545935.3146  -4353759.7554   4382599.7211   1   6   0.0055   0.0107   0.0079  -0.0055  -0.0067   0.0029   0.00    8.7
2173 249645.000   1545935.3151  -4353759.7557   4382599.7220   1   6   0.0055   0.0108   0.0079  -0.0055  -0.0067   0.0029   0.00    8.6
2173 249646.000   1545935.3190  -4353759.7577   4382599.7217   1   6   0.0055   0.0108   0.0079  -0.0055  -0.0067   0.0029   0.00   10.0
2173 249647.000   1545935.3151  -4353759.7537   4382599.7223   1   6   0.0055   0.0108   0.0079  -0.0055  -0.0067   0.0029   0.00    9.0
2173 249648.000   1545935.3164  -4353759.7542   4382599.7205   1   6   0.0055   0.0108   0.0079  -0.0055  -0.0067   0.0029   0.00    8.6
2173 249649.000   1545935.3153  -4353759.7529   4382599.7219   1   6   0.0055   0.0108   0.0079  -0.0055  -0.0067   0.0029   0.00   10.1
2173 249650.000   1545935.3153  -4353759.7507   4382599.7207   1   6   0.0055   0.0108   0.0079  -0.0055  -0.0067   0.0029   0.00   10.4
2173 249651.000   1545935.3135  -4353759.7504   4382599.7199   1   6   0.0055   0.0108   0.0079  -0.0055  -0.0067   0.0029   0.00   12.1
2173 249652.000   1545935.3145  -4353759.7521   4382599.7188   1   6   0.0055   0.0108   0.0079  -0.0055  -0.0067   0.0029   0.00   13.2
2173 249653.000   1545935.3130  -4353759.7470   4382599.7188   1   6   0.0055   0.0108   0.0079  -0.0055  -0.0067   0.0029   0.00   19.0
2173 249654.000   1545935.3131  -4353759.7510   4382599.7195   1   6   0.0055   0.0108   0.0079  -0.0055  -0.0067   0.0029   0.00   12.1
2173 249655.000   1545935.3132  -4353759.7497   4382599.7213   1   6   0.0055   0.0108   0.0079  -0.0055  -0.0067   0.0029   0.00   10.7
2173 249656.000   1545935.3114  -4353759.7448   4382599.7167   1   6   0.0055   0.0108   0.0079  -0.0055  -0.0067   0.0029   0.00   12.2
2173 249657.000   1545935.3132  -4353759.7515   4382599.7201   1   6   0.0055   0.0108   0.0079  -0.0055  -0.0067   0.0029   0.00   11.8
2173 249658.000   1545935.3117  -4353759.7463   4382599.7165   1   6   0.0055   0.0108   0.0079  -0.0055  -0.0067   0.0029   0.00   16.3
2173 249659.000   1545935.3120  -4353759.7525   4382599.7202   1   6   0.0055   0.0108   0.0079  -0.0055  -0.0067   0.0029   0.00   21.5
2173 249660.000   1545935.3098  -4353759.7460   4382599.7162   1   6   0.0055   0.0108   0.0079  -0.0055  -0.0067   0.0029   0.00   23.7
2173 249661.000   1545935.3100  -4353759.7469   4382599.7199   1   6   0.0055   0.0108   0.0079  -0.0055  -0.0067   0.0029   0.00   29.8
2173 249662.000   1545935.3109  -4353759.7465   4382599.7196   1   6   0.0055   0.0108   0.0079  -0.0055  -0.0067   0.0029   0.00   13.4
2173 249663.000   1545935.3096  -4353759.7459   4382599.7170   1   6   0.0055   0.0108   0.0079  -0.0055  -0.0067   0.0029   0.00   19.8
2173 249664.000   1545935.3090  -4353759.7459   4382599.7206   1   6   0.0055   0.0108   0.0079  -0.0055  -0.0067   0.0029   0.00   16.5
2173 249665.000   1545935.3097  -4353759.7459   4382599.7183   1   6   0.0055   0.0108   0.0079  -0.0055  -0.0067   0.0029   0.00   17.5
2173 249666.000   1545935.3109  -4353759.7455   4382599.7221   1   6   0.0055   0.0108   0.0079  -0.0055  -0.0067   0.0029   0.00   26.3
2173 249667.000   1545935.3111  -4353759.7475   4382599.7235   1   6   0.0055   0.0108   0.0079  -0.0055  -0.0067   0.0029   0.00   18.1
2173 249668.000   1545935.3129  -4353759.7513   4382599.7228   1   6   0.0055   0.0108   0.0079  -0.0055  -0.0067   0.0029   0.00   17.5
2173 249669.000   1545935.3098  -4353759.7455   4382599.7194   1   6   0.0055   0.0108   0.0079  -0.0055  -0.0067   0.0029   0.00   10.5
2173 249670.000   1545935.3103  -4353759.7455   4382599.7196   1   6   0.0055   0.0108   0.0079  -0.0055  -0.0067   0.0029   0.00   12.3
2173 249671.000   1545935.3113  -4353759.7470   4382599.7197   1   6   0.0055   0.0108   0.0079  -0.0055  -0.0067   0.0029   0.00   11.4
2173 249672.000   1545935.3109  -4353759.7453   4382599.7187   1   6   0.0055   0.0108   0.0079  -0.0055  -0.0067   0.0029   0.00   12.5
2173 249673.000   1545935.3111  -4353759.7471   4382599.7224   1   6   0.0055   0.0108   0.0079  -0.0055  -0.0067   0.0029   0.00   18.1
2173 249674.000   1545935.3116  -4353759.7461   4382599.7203   1   6   0.0055   0.0108   0.0079  -0.0055  -0.0067   0.0029   0.00    7.4
2173 249675.000   1545935.3116  -4353759.7483   4382599.7214   1   6   0.0055   0.0108   0.0079  -0.0055  -0.0067   0.0029   0.00   12.2
2173 249676.000   1545935.3111  -4353759.7436   4382599.7210   1   6   0.0055   0.0108   0.0079  -0.0055  -0.0067   0.0029   0.00    9.6
2173 249677.000   1545935.3123  -4353759.7469   4382599.7243   1   6   0.0055   0.0108   0.0079  -0.0055  -0.0067   0.0029   0.00   16.1
2173 249678.000   1545935.3109  -4353759.7436   4382599.7216   1   6   0.0055   0.0108   0.0079  -0.0055  -0.0067   0.0029   0.00   13.5
2173 249679.000   1545935.3098  -4353759.7442   4382599.7234   1   6   0.0055   0.0108   0.0079  -0.0055  -0.0067   0.0029   0.00    8.1
2173 249680.000   1545935.3105  -4353759.7435   4382599.7232   1   6   0.0055   0.0108   0.0079  -0.0055  -0.0067   0.0029   0.00    8.5
2173 249681.000   1545935.3130  -4353759.7465   4382599.7224   1   6   0.0055   0.0108   0.0079  -0.0055  -0.0067   0.0029   0.00    9.6
2173 249682.000   1545935.3108  -4353759.7469   4382599.7228   1   6   0.0055   0.0108   0.0079  -0.0055  -0.0067   0.0029   0.00   10.5
2173 249683.000   1545935.3116  -4353759.7439   4382599.7234   1   6   0.0055   0.0108   0.0079  -0.0055  -0.0067   0.0029   0.00    6.9
2173 249684.000   1545935.3126  -4353759.7454   4382599.7249   1   6   0.0055   0.0108   0.0079  -0.0055  -0.0067   0.0029   0.00    6.7
2173 249685.000   1545935.3128  -4353759.7470   4382599.7238   1   6   0.0055   0.0108   0.0079  -0.0055  -0.0067   0.0029   0.00    9.7
2173 249686.000   1545935.3135  -4353759.7481   4382599.7220   1   6   0.0055   0.0108   0.0079  -0.0055  -0.0067   0.0029   0.00    9.3
2173 249687.000   1545935.3132  -4353759.7442   4382599.7229   1   6   0.0055   0.0108   0.0079  -0.0055  -0.0067   0.0029   0.00   10.2
2173 249688.000   1545935.3148  -4353759.7495   4382599.7280   1   6   0.0055   0.0108   0.0079  -0.0055  -0.0067   0.0029   0.00   10.4
2173 249689.000   1545935.3115  -4353759.7438   4382599.7243   1   6   0.0055   0.0108   0.0079  -0.0055  -0.0067   0.0029   0.00    9.5
2173 249690.000   1545935.3142  -4353759.7490   4382599.7266   1   6   0.0056   0.0108   0.0079  -0.0055  -0.0067   0.0029   0.00   19.7
2173 249691.000   1545935.3143  -4353759.7505   4382599.7286   1   6   0.0056   0.0108   0.0079  -0.0055  -0.0067   0.0029   0.00   12.2
2173 249692.000   1545935.3152  -4353759.7501   4382599.7282   1   6   0.0056   0.0108   0.0079  -0.0055  -0.0067   0.0029   0.00   17.0
2173 249693.000   1545935.3148  -4353759.7529   4382599.7263   1   6   0.0056   0.0108   0.0079  -0.0055  -0.0067   0.0029   0.00    9.4
2173 249694.000   1545935.3150  -4353759.7524   4382599.7256   1   6   0.0056   0.0108   0.0079  -0.0055  -0.0067   0.0029   0.00   11.8
2173 249695.000   1545935.3163  -4353759.7542   4382599.7260   1   6   0.0056   0.0108   0.0079  -0.0055  -0.0067   0.0029   0.00   14.3
2173 249696.000   1545935.3139  -4353759.7506   4382599.7253   1   6   0.0056   0.0108   0.0079  -0.0055  -0.0067   0.0029   0.00    7.8
2173 249697.000   1545935.3159  -4353759.7482   4382599.7243   1   6   0.0056   0.0108   0.0079  -0.0055  -0.0067   0.0029   0.00    9.2
2173 249698.000   1545935.3143  -4353759.7519   4382599.7256   1   6   0.0056   0.0108   0.0079  -0.0055  -0.0067   0.0029   0.00   12.2
2173 249699.000   1545935.3131  -4353759.7506   4382599.7260   1   6   0.0056   0.0108   0.0079  -0.0055  -0.0067   0.0029   0.00    9.6
2173 249700.000   1545935.3144  -4353759.7513   4382599.7273   1   6   0.0056   0.0108   0.0079  -0.0055  -0.0067   0.0029   0.00    8.2
2173 249701.000   1545935.3154  -4353759.7512   4382599.7262   1   6   0.0056   0.0108   0.0079  -0.0055  -0.0067   0.0029   0.00   13.3
2173 249702.000   1545935.3157  -4353759.7577   4382599.7299   1   6   0.0056   0.0108   0.0079  -0.0055  -0.0067   0.0029   0.00    7.7
2173 249703.000   1545935.3151  -4353759.7554   4382599.7283   1   6   0.0056   0.0108   0.0079  -0.0055  -0.0067   0.0029   0.00    6.2
2173 249704.000   1545935.3153  -4353759.7547   4382599.7282   1   6   0.0056   0.0108   0.0079  -0.0055  -0.0067   0.0029   0.00    5.7
2173 249705.000   1545935.3143  -4353759.7568   4382599.7306   1   6   0.0056   0.0108   0.0079  -0.0055  -0.0067   0.0029   0.00    6.4
2173 249706.000   1545935.3125  -4353759.7543   4382599.7281   1   6   0.0056   0.0108   0.0079  -0.0056  -0.0067   0.0029   0.00    5.6
2173 249707.000   1545935.3131  -4353759.7560   4382599.7304   1   6   0.0056   0.0108   0.0079  -0.0056  -0.0067   0.0029   0.00    6.9
2173 249708.000   1545935.3133  -4353759.7530   4382599.7319   1   6   0.0056   0.0108   0.0079  -0.0056  -0.0067   0.0029   0.00    8.2
2173 249709.000   1545935.3133  -4353759.7584   4382599.7337   1   6   0.0056   0.0108   0.0079  -0.0056  -0.0067   0.0029   0.00    6.8
2173 249710.000   1545935.3144  -4353759.7572   4382599.7329   1   6   0.0056   0.0108   0.0079  -0.0056  -0.0067   0.0029   0.00    5.1
2173 249711.000   1545935.3121  -4353759.7567   4382599.7322   1   6   0.0056   0.0108   0.0079  -0.0056  -0.0067   0.0029   0.00    5.5
2173 249712.000   1545935.3131  -4353759.7581   4382599.7303   1   6   0.0056   0.0108   0.0079  -0.0056  -0.0067   0.0029   0.00    6.0
2173 249713.000   1545935.3102  -4353759.7536   4382599.7284   1   6   0.0056   0.0108   0.0079  -0.0056  -0.0067   0.0029   0.00    4.9
2173 249714.000   1545935.3130  -4353759.7583   4382599.7322   1   6   0.0056   0.0108   0.0079  -0.0056  -0.0067   0.0029   0.00    4.3
2173 249715.000   1545935.3114  -4353759.7532   4382599.7285   1   6   0.0056   0.0108   0.0079  -0.0056  -0.0067   0.0029   0.00    4.7
2173 249716.000   1545935.3127  -4353759.7575   4382599.7318   1   6   0.0056   0.0108   0.0079  -0.0056  -0.0067   0.0029   0.00    4.6
2173 249717.000   1545935.3114  -4353759.7565   4382599.7298   1   6   0.0056   0.0108   0.0079  -0.0056  -0.0067   0.0029   0.00    7.6
2173 249718.000   1545935.3102  -4353759.7536   4382599.7293   1   6   0.0056   0.0108   0.0079  -0.0056  -0.0067   0.0029   0.00    5.0
2173 249719.000   1545935.3105  -4353759.7551   4382599.7304   1   6   0.0056   0.0108   0.0079  -0.0056  -0.0067   0.0029   0.00    7.0
2173 249720.000   1545935.3100  -4353759.7528   4382599.7294   1   6   0.0056   0.0108   0.0079  -0.0056  -0.0067   0.0029   0.00    9.0
2173 249721.000   1545935.3099  -4353759.7517   4382599.7296   1   6   0.0056   0.0108   0.0079  -0.0056  -0.0067   0.0029   0.00    7.1
2173 249722.000   1545935.3111  -4353759.7527   4382599.7324   1   6   0.0056   0.0108   0.0079  -0.0056  -0.0067   0.0029   0.00    7.2
2173 249723.000   1545935.3108  -4353759.7553   4382599.7319   1   6   0.0056   0.0108   0.0079  -0.0056  -0.0067   0.0029   0.00    9.7
2173 249724.000   1545935.3091  -4353759.7509   4382599.7305   1   6   0.0056   0.0108   0.0079  -0.0056  -0.0067   0.0029   0.00   11.5
2173 249725.000   1545935.3102  -4353759.7521   4382599.7309   1   6   0.0056   0.0108   0.0079  -0.0056  -0.0067   0.0029   0.00   10.9
2173 249726.000   1545935.3093  -4353759.7544   4382599.7327   1   6   0.0056   0.0108   0.0079  -0.0056  -0.0067   0.0029   0.00   10.6
2173 249727.000   1545935.3104  -4353759.7534   4382599.7320   1   6   0.0056   0.0108   0.0079  -0.0056  -0.0067   0.0029   0.00   10.2
2173 249728.000   1545935.3092  -4353759.7516   4382599.7298   1   6   0.0056   0.0108   0.0079  -0.0056  -0.0067   0.0029   0.00   15.6
2173 249729.000   1545935.3088  -4353759.7506   4382599.7332   1   6   0.0056   0.0108   0.0079  -0.0056  -0.0067   0.0029   0.00    7.1
2173 249730.000   1545935.3091  -4353759.7502   4382599.7308   1   6   0.0056   0.0108   0.0079  -0.0056  -0.0067   0.0029   0.00   11.7
2173 249731.000   1545935.3094  -4353759.7530   4382599.7303   1   6   0.0056   0.0108   0.0079  -0.0056  -0.0067   0.0029   0.00   10.4
2173 249732.000   1545935.3104  -4353759.7497   4382599.7308   1   6   0.0056   0.0108   0.0079  -0.0056  -0.0067   0.0029   0.00    6.1
2173 249733.000   1545935.3094  -4353759.7505   4382599.7332   1   6   0.0056   0.0108   0.0079  -0.0056  -0.0067   0.0029   0.00    6.6
2173 249734.000   1545935.3063  -4353759.7452   4382599.7319   1   6   0.0056   0.0108   0.0079  -0.0056  -0.0067   0.0029   0.00    6.5
2173 249735.000   1545935.3072  -4353759.7449   4382599.7328   1   6   0.0056   0.0108   0.0079  -0.0056  -0.0067   0.0029   0.00    8.1
2173 249736.000   1545935.3098  -4353759.7465   4382599.7331   1   6   0.0056   0.0108   0.0079  -0.0056  -0.0067   0.0029   0.00    9.2
2173 249737.000   1545935.3102  -4353759.7499   4382599.7351   1   6   0.0056   0.0108   0.0079  -0.0056  -0.0067   0.0029   0.00    9.3
2173 249738.000   1545935.3092  -4353759.7471   4382599.7332   1   6   0.0056   0.0108   0.0079  -0.0056  -0.0067   0.0029   0.00    9.1
2173 249739.000   1545935.3095  -4353759.7453   4382599.7311   1   6   0.0056   0.0108   0.0079  -0.0056  -0.0067   0.0029   0.00   10.2
2173 249740.000   1545935.3084  -4353759.7467   4382599.7338   1   6   0.0056   0.0108   0.0079  -0.0056  -0.0067   0.0029   0.00    7.2
2173 249741.000   1545935.3083  -4353759.7428   4382599.7313   1   6   0.0056   0.0108   0.0079  -0.0056  -0.0067   0.0029   0.00   10.6
2173 249742.000   1545935.3077  -4353759.7454   4382599.7305   1   6   0.0056   0.0108   0.0079  -0.0056  -0.0067   0.0029   0.00    8.5
2173 249743.000   1545935.3077  -4353759.7442   4382599.7330   1   6   0.0056   0.0108   0.0079  -0.0056  -0.0067   0.0029   0.00    6.1
2173 249744.000   1545935.3065  -4353759.7425   4382599.7310   1   6   0.0056   0.0108   0.0079  -0.0056  -0.0066   0.0029   0.00    6.4
2173 249745.000   1545935.3071  -4353759.7413   4382599.7340   1   6   0.0056   0.0108   0.0079  -0.0056  -0.0066   0.0029   0.00    4.0
2173 249746.000   1545935.3077  -4353759.7429   4382599.7349   1   6   0.0056   0.0108   0.0079  -0.0056  -0.0066   0.0029   0.00    3.3
2173 249747.000   1545935.3067  -4353759.7425   4382599.7340   1   6   0.0056   0.0108   0.0079  -0.0056  -0.0066   0.0029   0.00    4.7
2173 249748.000   1545935.3067  -4353759.7424   4382599.7330   1   6   0.0056   0.0108   0.0079  -0.0056  -0.0066   0.0029   0.00    4.8
2173 249749.000   1545935.3037  -4353759.7374   4382599.7321   1   6   0.0056   0.0108   0.0079  -0.0056  -0.0066   0.0029   0.00    4.7
2173 249750.000   1545935.3048  -4353759.7398   4382599.7329   1   6   0.0056   0.0110   0.0080  -0.0057  -0.0068   0.0029   1.00    6.2
2173 249751.000   1545935.3063  -4353759.7405   4382599.7313   1   6   0.0060   0.0115   0.0085  -0.0061  -0.0071   0.0032   2.00    7.0
2173 249752.000   1545935.3078  -4353759.7424   4382599.7323   1   6   0.0065   0.0123   0.0091  -0.0065  -0.0076   0.0034   3.00    7.8
2173 249753.000   1545935.3059  -4353759.7393   4382599.7311   1   6   0.0072   0.0133   0.0098  -0.0072  -0.0083   0.0037   4.00    8.7
2173 249754.000   1545935.3072  -4353759.7408   4382599.7310   1   6   0.0079   0.0144   0.0108  -0.0080  -0.0090   0.0041   5.00    9.4
2173 249755.000   1545935.3074  -4353759.7371   4382599.7288   1   6   0.0087   0.0157   0.0118  -0.0088  -0.0098   0.0046   6.00    9.6
2173 249756.000   1545935.3083  -4353759.7393   4382599.7305   1   6   0.0095   0.0171   0.0129  -0.0097  -0.0108   0.0050   7.00   10.4
2173 249757.000   1545935.3078  -4353759.7404   4382599.7308   1   6   0.0103   0.0185   0.0141  -0.0106  -0.0117   0.0055   8.00   10.9
2173 249758.000   1545935.3089  -4353759.7384   4382599.7285   1   6   0.0113   0.0200   0.0153  -0.0116  -0.0127   0.0061   9.00   11.2
2173 249759.000   1545935.3087  -4353759.7403   4382599.7296   1   6   0.0123   0.0216   0.0166  -0.0125  -0.0137   0.0066  10.00   11.8
2173 249760.000   1545935.3097  -4353759.7486   4382599.7330   1   6   0.0133   0.0232   0.0179  -0.0135  -0.0148   0.0071  11.00   12.4
2173 249761.000   1545935.3117  -4353759.7549   4382599.7348   1   6   0.0142   0.0248   0.0192  -0.0146  -0.0158   0.0077  12.00   12.5
2173 249762.000   1545935.3123  -4353759.7580   4382599.7351   1   6   0.0152   0.0264   0.0205  -0.0156  -0.0169   0.0082  13.00   12.6
2173 249763.000   1545935.3133  -4353759.7652   4382599.7376   1   6   0.0162   0.0281   0.0219  -0.0166  -0.0180   0.0088  14.00   12.6
2173 249764.000   1545935.3137  -4353759.7668   4382599.7374   1   6   0.0172   0.0298   0.0232  -0.0177  -0.0191   0.0093  15.00   12.8
2173 249765.000   1545935.3147  -4353759.7717   4382599.7393   1   6   0.0183   0.0315   0.0246  -0.0187  -0.0202   0.0099  16.00   12.5
2173 249766.000   1545935.3140  -4353759.7718   4382599.7394   1   6   0.0193   0.0333   0.0260  -0.0198  -0.0214   0.0105  17.00   12.5
2173 249767.000   1545935.3146  -4353759.7744   4382599.7395   1   6   0.0204   0.0350   0.0274  -0.0208  -0.0225   0.0111  18.00   12.3
2173 249768.000   1545935.3159  -4353759.7794   4382599.7419   1   6   0.0214   0.0368   0.0288  -0.0219  -0.0236   0.0116  19.00   12.3
2173 249769.000   1545935.3176  -4353759.7823   4382599.7420   1   6   0.0224   0.0385   0.0302  -0.0230  -0.0248   0.0122  20.00   12.1
2173 249770.000   1545935.3172  -4353759.7774   4382599.7409   1   6   0.0235   0.0403   0.0316  -0.0241  -0.0259   0.0128  21.00   12.0
2173 249771.000   1545935.3189  -4353759.7808   4382599.7407   1   6   0.0245   0.0420   0.0330  -0.0251  -0.0270   0.0134  22.00   12.1
2173 249772.000   1545935.3187  -4353759.7791   4382599.7381   1   6   0.0256   0.0438   0.0344  -0.0262  -0.0282   0.0140  23.00   12.2
2173 249773.000   1545935.3217  -4353759.7826   4382599.7368   1   6   0.0266   0.0456   0.0358  -0.0273  -0.0293   0.0145  24.00   12.4
2173 249774.000   1545935.3212  -4353759.7850   4382599.7405   1   6   0.0277   0.0474   0.0372  -0.0284  -0.0305   0.0151  25.00   12.5
2173 249775.000   1545935.3197  -4353759.7854   4382599.7415   1   6   0.0287   0.0492   0.0386  -0.0295  -0.0316   0.0157  26.00   12.6
2173 249776.000   1545935.3211  -4353759.7838   4382599.7369   1   6   0.0298   0.0510   0.0400  -0.0306  -0.0328   0.0163  27.00   12.7
2173 249777.000   1545935.3212  -4353759.7875   4382599.7405   1   6   0.0309   0.0527   0.0414  -0.0317  -0.0340   0.0169  28.00   12.7
2173 249778.000   1545935.3214  -4353759.7915   4382599.7385   1   6   0.0319   0.0545   0.0428  -0.0328  -0.0351   0.0175  29.00   12.7
2173 249779.000   1545935.3219  -4353759.7914   4382599.7372   1   6   0.0330   0.0563   0.0443  -0.0339  -0.0363   0.0181  30.00   12.8
2173 250016.000   1545934.7918  -4353760.1469   4382598.6327   2   6   0.5633   1.0862   0.7764  -0.5742  -0.6465   0.2897   0.00    1.3
2173 250017.000   1545934.6965  -4353759.9705   4382598.7398   2   6   0.5634   1.0862   0.7764  -0.5743  -0.6465   0.2897   0.00    1.2
2173 250018.000   1545934.9704  -4353760.4513   4382598.4716   2   6   0.5634   1.0863   0.7764  -0.5744  -0.6465   0.2897   0.00    1.0
2173 250019.000   1545934.8826  -4353760.1164   4382598.3799   2   6   0.5634   1.0863   0.7764  -0.5744  -0.6464   0.2897   0.00    1.2
2173 250020.000   1545935.0548  -4353760.6467   4382598.8898   2   6   0.5635   1.0864   0.7764  -0.5745  -0.6464   0.2897   0.00    1.3
2173 250021.000   1545935.1675  -4353760.6177   4382598.8848   2   6   0.5635   1.0865   0.7764  -0.5746  -0.6463   0.2897   0.00    1.2
2173 250022.000   1545935.1847  -4353760.2837   4382598.8555   2   6   0.5636   1.0865   0.7763  -0.5746  -0.6463   0.2898   0.00    1.7
2173 250023.000   1545934.9056  -4353760.1394   4382598.5529   2   6   0.5636   1.0866   0.7763  -0.5747  -0.6463   0.2898   0.00    1.3
2173 250024.000   1545934.8313  -4353759.8974   4382598.6159   2   6   0.5636   1.0866   0.7763  -0.5748  -0.6462   0.2898   0.00    1.1
2173 250025.000   1545935.0385  -4353760.0954   4382598.5066   2   6   0.5637   1.0867   0.7763  -0.5749  -0.6462   0.2898   0.00    1.6
2173 250026.000   1545934.9970  -4353759.8969   4382598.7331   2   6   0.5637   1.0867   0.7763  -0.5749  -0.6461   0.2898   0.00    2.1
2173 250027.000   1545935.1233  -4353759.8715   4382598.6886   2   6   0.5638   1.0868   0.7763  -0.5750  -0.6461   0.2898   0.00    1.8
2173 250028.000   1545935.1824  -4353759.5450   4382598.8169   2   6   0.5638   1.0868   0.7763  -0.5751  -0.6461   0.2898   0.00    2.1
2173 250029.000   1545935.2301  -4353759.5750   4382598.8066   2   6   0.5638   1.0869   0.7762  -0.5751  -0.6460   0.2899   0.00    2.3
2173 250030.000   1545935.3238  -4353759.7327   4382599.7340   1   6   0.0057   0.0110   0.0078  -0.0058  -0.0065   0.0029   0.00    3.1
2173 250031.000   1545935.2592  -4353759.7806   4382599.1851   2   6   0.5639   1.0870   0.7762  -0.5753  -0.6459   0.2899   0.00    3.0
2173 250032.000   1545935.3253  -4353759.7309   4382599.7333   1   6   0.0057   0.0110   0.0078  -0.0058  -0.0065   0.0029   0.00    3.1
2173 250033.000   1545935.0756  -4353759.7374   4382599.1407   2   6   0.5640   1.0871   0.7762  -0.5754  -0.6459   0.2899   0.00    2.0
2173 250034.000   1545935.2890  -4353759.9731   4382599.3553   2   6   0.5640   1.0872   0.7762  -0.5755  -0.6458   0.2899   0.00    2.9
2173 250035.000   1545935.0955  -4353759.6825   4382599.2092   2   6   0.5641   1.0872   0.7762  -0.5755  -0.6458   0.2899   0.00    2.7
2173 250036.000   1545934.8547  -4353759.3240   4382599.3040   2   6   0.5641   1.0873   0.7761  -0.5756  -0.6457   0.2900   0.00    2.8
2173 250037.000   1545935.0018  -4353759.3858   4382599.0771   2   6   0.5641   1.0873   0.7761  -0.5757  -0.6457   0.2900   0.00    2.3
2173 250038.000   1545935.1108  -4353759.2966   4382599.1562   2   6   0.5642   1.0874   0.7761  -0.5758  -0.6457   0.2900   0.00    2.7
2173 250039.000   1545934.9270  -4353758.8165   4382598.6234   2   6   0.5642   1.0874   0.7761  -0.5758  -0.6456   0.2900   0.00    2.5
2173 250040.000   1545934.7635  -4353759.0621   4382598.5908   2   6   0.5642   1.0875   0.7761  -0.5759  -0.6456   0.2900   0.00    1.9
2173 250041.000   1545935.0523  -4353759.4279   4382599.0206   2   6   0.5643   1.0875   0.7761  -0.5760  -0.6455   0.2900   0.00    2.2
2173 250042.000   1545935.0136  -4353759.0636   4382598.6345   2   6   0.5643   1.0876   0.7761  -0.5760  -0.6455   0.2900   0.00    2.4
2173 250043.000   1545935.2136  -4353759.2512   4382598.8246   2   6   0.5644   1.0876   0.7761  -0.5761  -0.6455   0.2901   0.00    1.8
2173 250044.000   1545935.0419  -4353759.2429   4382598.8644   2   6   0.5644   1.0877   0.7760  -0.5762  -0.6454   0.2901   0.00    2.3
2173 250045.000   1545935.0250  -4353759.1350   4382599.0947   2   6   0.5644   1.0878   0.7760  -0.5762  -0.6454   0.2901   0.00    2.3
2173 250046.000   1545934.8128  -4353759.2309   4382599.0264   2   6   0.5645   1.0878   0.7760  -0.5763  -0.6453   0.2901   0.00    2.3
2173 250047.000   1545935.0694  -4353759.6192   4382599.1192   2   6   0.5645   1.0879   0.7760  -0.5764  -0.6453   0.2901   0.00    2.0
2173 250048.000   1545934.9921  -4353759.3666   4382599.1245   2   6   0.5645   1.0879   0.7760  -0.5764  -0.6453   0.2901   0.00    2.8
2173 250049.000   1545935.1288  -4353759.3123   4382599.1425   2   6   0.5646   1.0880   0.7760  -0.5765  -0.6452   0.2901   0.00    2.6
2173 250050.000   1545934.9782  -4353758.9005   4382598.9408   2   6   0.5646   1.0880   0.7760  -0.5766  -0.6452   0.2902   0.00    2.3
2173 250051.000   1545935.3468  -4353759.4871   4382599.3460   2   6   0.5646   1.0881   0.7760  -0.5766  -0.6451   0.2902   0.00    2.2
2173 250052.000   1545935.3516  -4353759.3076   4382599.0705   2   6   0.5647   1.0881   0.7759  -0.5767  -0.6451   0.2902   0.00    2.0
2173 250053.000   1545935.2565  -4353759.0705   4382598.8890   2   6   0.5647   1.0882   0.7759  -0.5768  -0.6451   0.2902   0.00    2.3
2173 250054.000   1545935.2874  -4353759.0780   4382599.0862   2   6   0.5648   1.0882   0.7759  -0.5768  -0.6450   0.2902   0.00    2.2
2173 250055.000   1545935.3742  -4353758.9206   4382598.3962   2   6   0.5648   1.0883   0.7759  -0.5769  -0.6450   0.2902   0.00    2.1
2173 250056.000   1545935.5832  -4353759.1928   4382598.7891   2   6   0.5648   1.0883   0.7759  -0.5770  -0.6449   0.2902   0.00    1.8
2173 250057.000   1545935.4343  -4353758.9937   4382598.7690   2   6   0.5649   1.0884   0.7759  -0.5771  -0.6449   0.2903   0.00    2.2
2173 250058.000   1545935.3648  -4353759.0338   4382598.9124   2   6   0.5649   1.0884   0.7759  -0.5771  -0.6449   0.2903   0.00    2.8
2173 250059.000   1545935.4189  -4353758.9044   4382598.9787   2   6   0.5649   1.0885   0.7759  -0.5772  -0.6448   0.2903   0.00    1.8
2173 250060.000   1545935.1993  -4353758.8272   4382599.0915   2   6   0.5650   1.0885   0.7758  -0.5773  -0.6448   0.2903   0.00    2.3
2173 250061.000   1545935.3727  -4353759.0656   4382598.8875   2   6   0.5650   1.0886   0.7758  -0.5773  -0.6447   0.2903   0.00    2.2
2173 250062.000   1545935.3466  -4353758.8205   4382599.2005   2   6   0.5651   1.0887   0.7758  -0.5774  -0.6447   0.2903   0.00    1.7
2173 250063.000   1545935.1501  -4353758.3930   4382598.7760   2   6   0.5651   1.0887   0.7758  -0.5775  -0.6447   0.2904   0.00    1.9
2173 250064.000   1545935.3258  -4353758.6578   4382598.6524   2   6   0.5651   1.0888   0.7758  -0.5775  -0.6446   0.2904   0.00    1.6
2173 250065.000   1545935.0508  -4353758.3158   4382598.4816   2   6   0.5652   1.0888   0.7758  -0.5776  -0.6446   0.2904   0.00    2.1
2173 250066.000   1545935.0806  -4353758.6095   4382598.3751   2   6   0.5652   1.0889   0.7758  -0.5777  -0.6445   0.2904   0.00    2.3
2173 250067.000   1545935.0060  -4353758.3549   4382598.4881   2   6   0.5652   1.0889   0.7758  -0.5777  -0.6445   0.2904   0.00    1.8
2173 250068.000   1545935.0361  -4353758.6889   4382598.5391   2   6   0.5653   1.0890   0.7758  -0.5778  -0.6445   0.2904   0.00    2.5
2173 250069.000   1545935.0781  -4353758.8249   4382598.5758   2   6   0.5653   1.0890   0.7757  -0.5779  -0.6444   0.2904   0.00    2.1
2173 250070.000   1545934.8268  -4353758.2148   4382598.4688   2   6   0.5654   1.0891   0.7757  -0.5779  -0.6444   0.2905   0.00    1.6
2173 250071.000   1545934.8839  -4353758.0927   4382598.3693   2   6   0.5654   1.0891   0.7757  -0.5780  -0.6443   0.2905   0.00    2.0
2173 250072.000   1545934.6663  -4353757.7779   4382598.4516   2   6   0.5654   1.0892   0.7757  -0.5781  -0.6443   0.2905   0.00    1.2
2173 250073.000   1545934.8577  -4353757.9276   4382598.4848   2   6   0.5655   1.0892   0.7757  -0.5781  -0.6443   0.2905   0.00    1.6
2173 250074.000   1545934.8458  -4353758.3392   4382598.5133   2   6   0.5655   1.0893   0.7757  -0.5782  -0.6442   0.2905   0.00    1.8
2173 250075.000   1545935.3111  -4353758.6776   4382598.5878   2   6   0.5655   1.0893   0.7757  -0.5783  -0.6442   0.2905   0.00    2.2
2173 250076.000   1545935.0176  -4353758.2144   4382598.6555   2   6   0.5656   1.0894   0.7757  -0.5783  -0.6441   0.2905   0.00    2.8
2173 250077.000   1545935.3294  -4353758.5636   4382598.9764   2   6   0.5656   1.0894   0.7757  -0.5784  -0.6441   0.2906   0.00    2.0
2173 250078.000   1545935.2671  -4353758.4281   4382598.7798   2   6   0.5657   1.0895   0.7756  -0.5785  -0.6441   0.2906   0.00    2.3
2173 250079.000   1545935.1559  -4353758.0171   4382598.7757   2   6   0.5657   1.0895   0.7756  -0.5785  -0.6440   0.2906   0.00    1.6
2173 250080.000   1545935.3251  -4353758.3008   4382598.8947   2   6   0.5657   1.0896   0.7756  -0.5786  -0.6440   0.2906   0.00    1.8
2173 250081.000   1545935.1027  -4353758.0264   4382598.5533   2   6   0.5658   1.0896   0.7756  -0.5787  -0.6440   0.2906   0.00    1.9
2173 250082.000   1545934.9871  -4353758.0395   4382598.5544   2   6   0.5658   1.0897   0.7756  -0.5787  -0.6439   0.2906   0.00    1.5
2173 250083.000   1545935.0162  -4353757.8306   4382598.7718   2   6   0.5658   1.0897   0.7756  -0.5788  -0.6439   0.2907   0.00    2.3
2173 250084.000   1545934.9018  -4353757.6518   4382598.6975   2   6   0.5659   1.0898   0.7756  -0.5789  -0.6438   0.2907   0.00    1.3
2173 250085.000   1545934.7869  -4353758.0247   4382598.9186   2   6   0.5659   1.0899   0.7756  -0.5789  -0.6438   0.2907   0.00    1.7
2173 250086.000   1545934.7811  -4353758.0419   4382599.0223   2   6   0.5660   1.0899   0.7756  -0.5790  -0.6438   0.2907   0.00    2.3
2173 250087.000   1545934.6281  -4353757.7877   4382598.5399   2   6   0.5660   1.0900   0.7756  -0.5791  -0.6437   0.2907   0.00    2.1
2173 250088.000   1545934.4957  -4353757.8992   4382598.5340   2   6   0.5660   1.0900   0.7755  -0.5791  -0.6437   0.2907   0.00    1.9
2173 250089.000   1545934.7159  -4353757.8570   4382598.3188   2   6   0.5661   1.0901   0.7755  -0.5792  -0.6436   0.2907   0.00    1.9
2173 250090.000   1545934.5425  -4353758.1833   4382598.3578   2   6   0.5661   1.0901   0.7755  -0.5793  -0.6436   0.2908   0.00    2.2
2173 250091.000   1545934.5886  -4353757.7911   4382598.2757   2   6   0.5661   1.0902   0.7755  -0.5793  -0.6436   0.2908   0.00    2.0
2173 250092.000   1545935.0232  -4353758.3744   4382598.5374   2   6   0.5662   1.0902   0.7755  -0.5794  -0.6435   0.2908   0.00    2.3
2173 250093.000   1545935.0826  -4353758.6240   4382598.7722   2   6   0.5662   1.0903   0.7755  -0.5795  -0.6435   0.2908   0.00    1.9
2173 250094.000   1545934.9930  -4353758.3229   4382598.7531   2   6   0.5662   1.0903   0.7755  -0.5795  -0.6434   0.2908   0.00    1.7
2173 250095.000   1545935.1028  -4353758.3888   4382598.8798   2   6   0.5663   1.0904   0.7755  -0.5796  -0.6434   0.2908   0.00    1.5
2173 250096.000   1545935.0216  -4353758.1023   4382598.7582   2   6   0.5663   1.0904   0.7755  -0.5797  -0.6434   0.2909   0.00    1.8
2173 250097.000   1545935.0578  -4353758.5507   4382598.8939   2   6   0.5664   1.0905   0.7755  -0.5797  -0.6433   0.2909   0.00    2.2
2173 250098.000   1545935.3327  -4353759.7398   4382599.7327   1   6   0.0057   0.0110   0.0078  -0.0058  -0.0065   0.0029   0.00    3.0
2173 250099.000   1545935.0634  -4353757.9343   4382598.3673   2   6   0.5664   1.0906   0.7754  -0.5799  -0.6432   0.2909   0.00    2.1
2173 250100.000   1545934.9944  -4353758.0130   4382598.5724   2   6   0.5665   1.0906   0.7754  -0.5799  -0.6432   0.2909   0.00    1.6
2173 250101.000   1545935.3313  -4353759.7330   4382599.7292   1   6   0.0057   0.0110   0.0078  -0.0058  -0.0065   0.0029   0.00    3.5
2173 250102.000   1545934.4789  -4353757.8570   4382598.8263   2   6   0.5665   1.0907   0.7754  -0.5801  -0.6431   0.2909   0.00    2.1
2173 250103.000   1545935.3281  -4353759.7325   4382599.7284   1   6   0.0057   0.0110   0.0078  -0.0058  -0.0065   0.0029   0.00    3.6
2173 250104.000   1545934.7332  -4353758.1912   4382599.0029   2   6   0.5666   1.0908   0.7754  -0.5802  -0.6431   0.2910   0.00    2.5
2173 250105.000   1545934.7379  -4353758.3304   4382598.7800   2   6   0.5667   1.0909   0.7754  -0.5803  -0.6430   0.2910   0.00    3.0
2173 250106.000   1545935.3309  -4353759.7406   4382599.7308   1   6   0.0057   0.0110   0.0078  -0.0058  -0.0065   0.0029   0.00    4.0
2173 250107.000   1545935.0965  -4353758.6529   4382599.0800   2   6   0.5667   1.0910   0.7754  -0.5804  -0.6429   0.2910   0.00    2.9
2173 250108.000   1545935.3338  -4353759.7388   4382599.7340   1   6   0.0057   0.0110   0.0078  -0.0059  -0.0065   0.0029   0.00    3.2
2173 250109.000   1545935.3292  -4353759.7343   4382599.7308   1   6   0.0057   0.0110   0.0078  -0.0059  -0.0065   0.0029   0.00    5.5
2173 250110.000   1545935.3315  -4353759.7349   4382599.7331   1   6   0.0057   0.0110   0.0078  -0.0059  -0.0065   0.0029   0.00    5.2
2173 250111.000   1545935.3282  -4353759.7326   4382599.7304   1   6   0.0057   0.0110   0.0078  -0.0059  -0.0065   0.0029   0.00    3.5
2173 250112.000   1545934.9485  -4353758.4429   4382598.9017   2   6   0.5669   1.0912   0.7753  -0.5807  -0.6427   0.2911   0.00    2.9
2173 250113.000   1545935.3286  -4353759.7342   4382599.7283   1   6   0.0057   0.0110   0.0078  -0.0059  -0.0065   0.0029   0.00    4.0
2173 250114.000   1545935.3312  -4353759.7332   4382599.7271   1   6   0.0057   0.0110   0.0078  -0.0059  -0.0065   0.0029   0.00    3.8
2173 250115.000   1545935.3300  -4353759.7304   4382599.7252   1   6   0.0057   0.0110   0.0078  -0.0059  -0.0065   0.0029   0.00    3.2
2173 250116.000   1545935.3310  -4353759.7303   4382599.7263   1   6   0.0057   0.0110   0.0078  -0.0059  -0.0065   0.0029   0.00    3.1
2173 250117.000   1545934.9243  -4353758.5070   4382598.9786   2   6   0.5671   1.0915   0.7753  -0.5810  -0.6426   0.2912   0.00    2.6
2173 250118.000   1545934.7745  -4353758.7642   4382599.0507   2   6   0.5671   1.0915   0.7753  -0.5811  -0.6425   0.2912   0.00    2.5
2173 250119.000   1545934.8098  -4353759.1280   4382599.2510   2   6   0.5672   1.0916   0.7753  -0.5812  -0.6425   0.2912   0.00    2.6
2173 250120.000   1545934.6768  -4353758.8429   4382599.2353   2   6   0.5672   1.0916   0.7753  -0.5812  -0.6424   0.2912   0.00    2.4
2173 250121.000   1545934.7495  -4353758.8420   4382599.3543   2   6   0.5672   1.0917   0.7753  -0.5813  -0.6424   0.2912   0.00    2.8
2173 250122.000   1545934.6643  -4353759.0966   4382599.1577   2   6   0.5673   1.0917   0.7753  -0.5814  -0.6424   0.2913   0.00    1.7
2173 250123.000   1545934.8141  -4353759.2055   4382599.1495   2   6   0.5673   1.0918   0.7752  -0.5814  -0.6423   0.2913   0.00    2.9
2173 250124.000   1545935.3355  -4353759.7411   4382599.7304   1   6   0.0057   0.0110   0.0078  -0.0059  -0.0065   0.0029   0.00    3.0
2173 250125.000   1545934.9115  -4353759.0034   4382598.8204   2   6   0.5674   1.0919   0.7752  -0.5816  -0.6422   0.2913   0.00    3.0
2173 250126.000   1545934.7438  -4353758.6617   4382598.8069   2   6   0.5674   1.0919   0.7752  -0.5816  -0.6422   0.2913   0.00    2.4
2173 250127.000   1545934.7294  -4353758.8267   4382598.8888   2   6   0.5675   1.0920   0.7752  -0.5817  -0.6422   0.2913   0.00    2.9
2173 250128.000   1545934.8776  -4353758.8576   4382598.9776   2   6   0.5675   1.0920   0.7752  -0.5818  -0.6421   0.2914   0.00    2.7
2173 250129.000   1545935.3352  -4353759.7398   4382599.7290   1   6   0.0057   0.0110   0.0078  -0.0059  -0.0065   0.0029   0.00    3.1
2173 250130.000   1545935.3354  -4353759.7429   4382599.7316   1   6   0.0057   0.0110   0.0078  -0.0059  -0.0065   0.0029   0.00    3.5
2173 250131.000   1545935.0115  -4353758.8486   4382599.0838   2   6   0.5676   1.0922   0.7752  -0.5819  -0.6420   0.2914   0.00    2.9
2173 250132.000   1545935.3322  -4353759.7415   4382599.7274   1   6   0.0057   0.0110   0.0078  -0.0059  -0.0065   0.0029   0.00    4.8
2173 250133.000   1545935.0583  -4353759.1361   4382599.2152   2   6   0.5677   1.0923   0.7752  -0.5821  -0.6419   0.2914   0.00    2.7
2173 250134.000   1545935.0304  -4353759.1280   4382599.2673   2   6   0.5677   1.0923   0.7752  -0.5821  -0.6419   0.2915   0.00    2.5
2173 250135.000   1545935.3351  -4353759.7411   4382599.7280   1   6   0.0057   0.0110   0.0078  -0.0059  -0.0065   0.0029   0.00    3.1
2173 250136.000   1545934.7370  -4353758.8058   4382598.9339   2   6   0.5678   1.0924   0.7752  -0.5823  -0.6418   0.2915   0.00    2.9
2173 250137.000   1545934.4678  -4353758.7584   4382598.8689   2   6   0.5678   1.0925   0.7751  -0.5823  -0.6418   0.2915   0.00    2.9
2173 250138.000   1545935.3320  -4353759.7407   4382599.7252   1   6   0.0057   0.0111   0.0078  -0.0059  -0.0065   0.0029   0.00    3.2
2173 250139.000   1545934.4249  -4353758.6772   4382598.8142   2   6   0.5679   1.0926   0.7751  -0.5825  -0.6417   0.2915   0.00    2.9
2173 250140.000   1545934.4774  -4353758.5314   4382598.7592   2   6   0.5679   1.0926   0.7751  -0.5825  -0.6417   0.2916   0.00    2.8
2173 250141.000   1545934.0259  -4353758.3973   4382598.8190   2   6   0.5680   1.0927   0.7751  -0.5826  -0.6416   0.2916   0.00    1.7
2173 250142.000   1545934.2173  -4353758.3824   4382598.9096   2   6   0.5680   1.0927   0.7751  -0.5826  -0.6416   0.2916   0.00    2.0
2173 250143.000   1545934.0091  -4353758.5948   4382598.8262   2   6   0.5680   1.0928   0.7751  -0.5827  -0.6416   0.2916   0.00    1.5
2173 250144.000   1545934.3067  -4353759.2605   4382599.0391   2   6   0.5681   1.0928   0.7751  -0.5828  -0.6415   0.2916   0.00    1.8
2173 250145.000   1545934.2854  -4353758.8604   4382599.0178   2   6   0.5681   1.0929   0.7751  -0.5828  -0.6415   0.2916   0.00    2.1
2173 250146.000   1545934.2527  -4353758.6641   4382598.8164   2   6   0.5681   1.0929   0.7751  -0.5829  -0.6415   0.2916   0.00    2.2
2173 250147.000   1545934.5556  -4353759.2003   4382599.1174   2   6   0.5682   1.0929   0.7751  -0.5830  -0.6414   0.2917   0.00    2.1
2173 250148.000   1545934.1896  -4353758.4849   4382598.8800   2   6   0.5682   1.0930   0.7751  -0.5830  -0.6414   0.2917   0.00    2.3
2173 250149.000   1545934.0537  -4353758.0641   4382598.8539   2   6   0.5683   1.0930   0.7751  -0.5831  -0.6413   0.2917   0.00    1.7
2173 250150.000   1545934.1520  -4353758.6397   4382599.0676   2   6   0.5683   1.0931   0.7751  -0.5832  -0.6413   0.2917   0.00    2.3
2173 250151.000   1545934.3356  -4353759.1048   4382599.1203   2   6   0.5683   1.0931   0.7751  -0.5832  -0.6413   0.2917   0.00    1.9
2173 250152.000   1545934.1361  -4353759.2021   4382599.2684   2   6   0.5684   1.0932   0.7751  -0.5833  -0.6412   0.2917   0.00    2.3
2173 250153.000   1545934.5774  -4353759.7965   4382599.5112   2   6   0.5684   1.0932   0.7751  -0.5833  -0.6412   0.2918   0.00    2.7
2173 250154.000   1545934.3201  -4353759.2271   4382599.4093   2   6   0.5684   1.0933   0.7751  -0.5834  -0.6412   0.2918   0.00    2.4
2173 250155.000   1545934.2830  -4353759.1181   4382599.3762   2   6   0.5685   1.0933   0.7750  -0.5835  -0.6411   0.2918   0.00    2.1
2173 250156.000   1545934.3765  -4353758.7155   4382599.4073   2   6   0.5685   1.0934   0.7750  -0.5835  -0.6411   0.2918   0.00    2.2
2173 250157.000   1545934.3937  -4353759.3367   4382599.3603   2   6   0.5685   1.0934   0.7750  -0.5836  -0.6410   0.2918   0.00    2.3
2173 250158.000   1545934.5392  -4353759.6866   4382599.6119   2   6   0.5686   1.0935   0.7750  -0.5837  -0.6410   0.2918   0.00    2.7
2173 250159.000   1545934.1833  -4353758.8261   4382599.0688   2   6   0.5686   1.0935   0.7750  -0.5837  -0.6410   0.2919   0.00    2.6
2173 250160.000   1545934.2539  -4353759.1439   4382599.3656   2   6   0.5687   1.0936   0.7750  -0.5838  -0.6409   0.2919   0.00    2.2
2173 250161.000   1545934.3571  -4353759.0775   4382599.3803   2   6   0.5687   1.0936   0.7750  -0.5838  -0.6409   0.2919   0.00    2.2
2173 250162.000   1545934.6221  -4353759.1859   4382599.6707   2   6   0.5687   1.0937   0.7750  -0.5839  -0.6409   0.2919   0.00    2.4
2173 250163.000   1545934.3660  -4353759.0077   4382599.2103   2   6   0.5688   1.0937   0.7750  -0.5840  -0.6408   0.2919   0.00    2.3
2173 250164.000   1545934.5289  -4353759.3968   4382599.6063   2   6   0.5688   1.0938   0.7750  -0.5840  -0.6408   0.2919   0.00    2.7
2173 250165.000   1545935.3373  -4353759.7499   4382599.7301   1   6   0.0057   0.0111   0.0078  -0.0059  -0.0065   0.0029   0.00    3.2
2173 250166.000   1545935.3345  -4353759.7478   4382599.7299   1   6   0.0057   0.0111   0.0078  -0.0059  -0.0065   0.0029   0.00    3.6
2173 250167.000   1545934.6816  -4353759.0895   4382599.0409   2   6   0.5689   1.0939   0.7750  -0.5842  -0.6407   0.2920   0.00    2.8
2173 250168.000   1545934.6157  -4353758.8748   4382599.2420   2   6   0.5689   1.0939   0.7750  -0.5843  -0.6406   0.2920   0.00    2.9
2173 250169.000   1545934.3728  -4353758.7909   4382599.1461   2   6   0.5690   1.0940   0.7750  -0.5843  -0.6406   0.2920   0.00    2.3
2173 250170.000   1545934.3108  -4353758.8860   4382599.0388   2   6   0.5690   1.0940   0.7750  -0.5844  -0.6406   0.2920   0.00    2.3
2173 250171.000   1545934.5003  -4353759.3071   4382599.1022   2   6   0.5691   1.0941   0.7750  -0.5845  -0.6405   0.2921   0.00    2.5
2173 250172.000   1545934.6081  -4353759.3305   4382598.9577   2   6   0.5691   1.0941   0.7750  -0.5845  -0.6405   0.2921   0.00    2.5
2173 250173.000   1545934.4264  -4353759.3519   4382598.7515   2   6   0.5691   1.0942   0.7750  -0.5846  -0.6404   0.2921   0.00    2.1
2173 250174.000   1545934.7916  -4353759.7029   4382598.9482   2   6   0.5692   1.0942   0.7750  -0.5847  -0.6404   0.2921   0.00    2.6
2173 250175.000   1545935.3330  -4353759.7502   4382599.7289   1   6   0.0057   0.0111   0.0078  -0.0059  -0.0065   0.0029   0.00    3.4
2173 250176.000   1545935.0099  -4353760.0910   4382599.3241   2   6   0.5692   1.0943   0.7750  -0.5848  -0.6403   0.2922   0.00    2.8
2173 250177.000   1545934.8600  -4353759.6355   4382599.2252   2   6   0.5693   1.0944   0.7750  -0.5848  -0.6403   0.2922   0.00    2.2
2173 250178.000   1545934.6575  -4353759.3437   4382599.3209   2   6   0.5693   1.0944   0.7750  -0.5849  -0.6403   0.2922   0.00    2.5
2173 250179.000   1545934.9766  -4353759.7144   4382599.1195   2   6   0.5693   1.0945   0.7750  -0.5850  -0.6402   0.2922   0.00    3.0
2173 250180.000   1545935.3298  -4353759.7463   4382599.7260   1   6   0.0057   0.0111   0.0078  -0.0059  -0.0065   0.0029   0.00    3.2
2173 250181.000   1545934.8280  -4353759.9197   4382599.1770   2   6   0.5694   1.0946   0.7749  -0.5851  -0.6401   0.2922   0.00    2.5
2173 250182.000   1545935.3299  -4353759.7482   4382599.7278   1   6   0.0057   0.0111   0.0078  -0.0059  -0.0065   0.0029   0.00    3.7
2173 250183.000   1545935.3311  -4353759.7450   4382599.7277   1   6   0.0057   0.0111   0.0078  -0.0059  -0.0065   0.0029   0.00    3.4
2173 250184.000   1545935.1224  -4353759.9645   4382599.2832   2   6   0.5695   1.0947   0.7749  -0.5853  -0.6400   0.2923   0.00    2.8
2173 250185.000   1545935.3320  -4353759.7488   4382599.7288   1   6   0.0057   0.0111   0.0078  -0.0059  -0.0065   0.0029   0.00    3.3
2173 250186.000   1545935.5200  -4353760.4383   4382599.5102   2   6   0.5696   1.0948   0.7749  -0.5854  -0.6400   0.2923   0.00    2.6
2173 250187.000   1545936.0233  -4353760.8212   4382599.5661   2   6   0.5696   1.0948   0.7749  -0.5855  -0.6399   0.2923   0.00    2.7
2173 250188.000   1545935.9494  -4353760.6826   4382599.4736   2   6   0.5697   1.0949   0.7749  -0.5855  -0.6399   0.2924   0.00    2.5
2173 250189.000   1545935.7292  -4353760.7664   4382599.4525   2   6   0.5697   1.0949   0.7749  -0.5856  -0.6399   0.2924   0.00    2.6
2173 250190.000   1545935.6767  -4353760.9840   4382599.3976   2   6   0.5697   1.0950   0.7749  -0.5856  -0.6398   0.2924   0.00    2.8
2173 250191.000   1545935.3931  -4353760.2432   4382599.2531   2   6   0.5698   1.0950   0.7749  -0.5857  -0.6398   0.2924   0.00    2.8
2173 250192.000   1545935.5842  -4353760.2286   4382599.3847   2   6   0.5698   1.0951   0.7749  -0.5858  -0.6397   0.2924   0.00    2.8
2173 250193.000   1545935.3320  -4353759.7518   4382599.7338   1   6   0.0057   0.0111   0.0078  -0.0059  -0.0065   0.0029   0.00    3.2
2173 250194.000   1545935.5050  -4353760.0248   4382599.0975   2   6   0.5699   1.0952   0.7749  -0.5859  -0.6397   0.2925   0.00    2.5
2173 250195.000   1545935.8223  -4353760.6489   4382599.2368   2   6   0.5699   1.0952   0.7749  -0.5859  -0.6396   0.2925   0.00    2.4
2173 250196.000   1545935.4888  -4353760.3950   4382599.2648   2   6   0.5699   1.0952   0.7749  -0.5860  -0.6396   0.2925   0.00    2.8
2173 250197.000   1545935.7083  -4353760.5070   4382599.3575   2   6   0.5700   1.0953   0.7749  -0.5861  -0.6396   0.2925   0.00    2.7
2173 250198.000   1545935.5994  -4353760.7110   4382599.5717   2   6   0.5700   1.0953   0.7749  -0.5861  -0.6395   0.2925   0.00    2.8
2173 250199.000   1545935.6230  -4353760.4060   4382599.3057   2   6   0.5701   1.0954   0.7749  -0.5862  -0.6395   0.2925   0.00    2.7
2173 250200.000   1545935.3336  -4353759.7538   4382599.7338   1   6   0.0057   0.0111   0.0078  -0.0059  -0.0065   0.0029   0.00    3.1
2173 250201.000   1545935.6968  -4353760.0315   4382599.2104   2   6   0.5701   1.0955   0.7749  -0.5863  -0.6394   0.2926   0.00    2.2
2173 250202.000   1545935.8114  -4353760.1690   4382599.4340   2   6   0.5702   1.0955   0.7749  -0.5864  -0.6394   0.2926   0.00    2.2
2173 250203.000   1545935.9007  -4353760.4382   4382599.3919   2   6   0.5702   1.0956   0.7749  -0.5864  -0.6393   0.2926   0.00    2.1
2173 250204.000   1545935.5350  -4353760.4052   4382599.3937   2   6   0.5702   1.0956   0.7749  -0.5865  -0.6393   0.2926   0.00    2.6
2173 250205.000   1545935.7192  -4353760.1985   4382599.4848   2   6   0.5703   1.0956   0.7749  -0.5865  -0.6393   0.2927   0.00    2.6
2173 250206.000   1545935.8101  -4353760.4962   4382599.3903   2   6   0.5703   1.0957   0.7749  -0.5866  -0.6392   0.2927   0.00    2.3
2173 250207.000   1545935.8700  -4353760.8130   4382599.7752   2   6   0.5703   1.0957   0.7749  -0.5867  -0.6392   0.2927   0.00    2.4
2173 250208.000   1545935.8971  -4353760.5226   4382599.9351   2   6   0.5704   1.0958   0.7749  -0.5867  -0.6392   0.2927   0.00    2.5
2173 250209.000   1545936.1211  -4353760.9613   4382600.1533   2   6   0.5704   1.0958   0.7749  -0.5868  -0.6391   0.2927   0.00    2.2
2173 250210.000   1545935.9222  -4353760.5470   4382599.7981   2   6   0.5704   1.0959   0.7749  -0.5868  -0.6391   0.2927   0.00    2.3
2173 250211.000   1545935.8980  -4353760.4361   4382600.0483   2   6   0.5705   1.0959   0.7749  -0.5869  -0.6391   0.2928   0.00    3.0
2173 250212.000   1545935.7615  -4353760.3950   4382600.0058   2   6   0.5705   1.0960   0.7749  -0.5870  -0.6390   0.2928   0.00    2.7
2173 250213.000   1545935.3377  -4353759.7638   4382599.7358   1   6   0.0057   0.0111   0.0078  -0.0059  -0.0065   0.0029   0.00    3.3
2173 250214.000   1545935.7637  -4353760.5345   4382599.6895   2   6   0.5706   1.0960   0.7749  -0.5871  -0.6389   0.2928   0.00    2.7
2173 250215.000   1545935.8689  -4353760.6291   4382599.6570   2   6   0.5706   1.0961   0.7749  -0.5871  -0.6389   0.2928   0.00    2.7
2173 250216.000   1545935.3394  -4353759.7672   4382599.7368   1   6   0.0057   0.0111   0.0078  -0.0059  -0.0065   0.0029   0.00    3.6
2173 250217.000   1545935.7755  -4353760.3323   4382599.7348   2   6   0.5707   1.0962   0.7749  -0.5873  -0.6388   0.2929   0.00    2.7
2173 250218.000   1545935.3384  -4353759.7660   4382599.7378   1   6   0.0057   0.0111   0.0078  -0.0059  -0.0065   0.0029   0.00    3.2
2173 250219.000   1545935.3406  -4353759.7694   4382599.7383   1   6   0.0057   0.0111   0.0078  -0.0059  -0.0065   0.0029   0.00    3.3
2173 250220.000   1545935.3398  -4353759.7660   4382599.7376   1   6   0.0058   0.0111   0.0078  -0.0059  -0.0065   0.0029   0.00    3.0
2173 250221.000   1545935.3378  -4353759.7663   4382599.7388   1   6   0.0058   0.0111   0.0078  -0.0059  -0.0065   0.0029   0.00    3.5
2173 250222.000   1545935.3413  -4353759.7675   4382599.7398   1   6   0.0058   0.0111   0.0078  -0.0059  -0.0065   0.0029   0.00    3.6
2173 250223.000   1545935.3396  -4353759.7666   4382599.7420   1   6   0.0058   0.0111   0.0078  -0.0059  -0.0065   0.0029   0.00    4.3
2173 250224.000   1545935.7996  -4353760.2275   4382599.5903   2   6   0.5709   1.0965   0.7749  -0.5877  -0.6386   0.2930   0.00    2.6
2173 250225.000   1545935.3409  -4353759.7675   4382599.7399   1   6   0.0058   0.0111   0.0078  -0.0059  -0.0065   0.0029   0.00    3.3
2173 250226.000   1545936.0284  -4353760.4596   4382600.0645   2   6   0.5710   1.0966   0.7749  -0.5878  -0.6385   0.2930   0.00    2.5
2173 250227.000   1545935.3373  -4353759.7601   4382599.7392   1   6   0.0058   0.0111   0.0078  -0.0059  -0.0065   0.0029   0.00    3.0
2173 250228.000   1545936.1932  -4353760.4137   4382599.7620   2   6   0.5711   1.0967   0.7749  -0.5879  -0.6384   0.2931   0.00    2.0
2173 250229.000   1545935.9768  -4353760.0619   4382599.5098   2   6   0.5711   1.0967   0.7749  -0.5880  -0.6384   0.2931   0.00    2.6
