     2.11           OBSERVATION DATA    M (MIXED)           RINEX VERSION / TYPE
CONVBIN 2.4.3                           20210901 005209 UTC PGM / RUN BY / DATE 
log: logs/21_08_31_22_54_19_ingy_SW.rtcm                    COMMENT             
format: RTCM 3, station ID: 926                             COMMENT             
0926                                                        MARKER NAME         
                                                            MARKER NUMBER       
                                                            OBSERVER / AGENCY   
                    SWFT                                    REC # / TYPE / VERS 
                    NULL                                    ANT # / TYPE        
   232629.8915 -4837044.0313  4136981.0535                  APPROX POSITION XYZ 
        0.0000        0.0000        0.0000                  ANTENNA: DELTA H/E/N
     1     1                                                WAVELENGTH FACT L1/2
     5    C1    L1    P2    L2    C2                        # / TYPES OF OBSERV 
  2021     8    31    22    54   24.0000000     GPS         TIME OF FIRST OBS   
  2021     8    31    23    25   14.0000000     GPS         TIME OF LAST OBS    
                                                            END OF HEADER       
 21  8 31 22 54 24.0000000  0 19G 1G10G21G23G24G25G31G32C21C22C26C34
                                E 3E 5E 8E13E15E24E25
  23908000.906   125637325.568    23908005.481    97899197.055                  
  20535388.986   107914149.914    20535392.041    84088935.786                  
  23636185.120   124208973.324    23636185.424    96786209.172                  
  22563287.561   118570860.107    22563289.544    92392875.687                  
  24175902.215   127045162.473    24175906.379    98996215.055                  
  23130003.499   121548908.158    23130008.127    94713414.964                  
  22490131.816   118186430.731    22490132.889    92093319.472                  
  20573621.244   108115074.015    20573624.103    84245503.368                  
                 114870807.185                   114870807.185    22059729.291  
                 122744563.544                   122744563.544    23571800.064  
                 128328887.394                   128328887.394    24644219.877  
                 135173601.773                   135173601.773    25958677.232  
  23653688.614   124300948.498                                                  
  25279664.045   132845509.587                                                  
  24438096.855   128423038.445                                                  
  26195739.860   137659478.766                                                  
  24892678.402   130811856.850                                                  
  26464276.001   139070732.305                                                  
  25946680.417   136350684.563                                                  
 21  8 31 22 54 25.0000000  0 19G 1G10G21G23G24G25G31G32C21C22C26C34
                                E 3E 5E 8E13E15E24E25
  23907511.796   125634755.352    23907516.388    97897194.292                  
  20535584.008   107915174.708    20535587.046    84089734.327                  
  23635955.592   124207767.142    23635955.896    96785269.288                  
  22563835.282   118573738.434    22563837.283    92395118.539                  
  24176595.069   127048803.378    24176599.215    98999052.121                  
  23129528.808   121546413.577    23129533.419    94711471.142                  
  22489469.287   118182949.117    22489470.341    92090606.528                  
  20573562.723   108114766.500    20573565.582    84245263.746                  
                 114870197.669                   114870197.669    22059612.267  
                 122746392.413                   122746392.413    23572151.280  
                 128325528.805                   128325528.805    24643574.895  
                 135175985.668                   135175985.668    25959135.037  
  23653642.602   124300706.675                                                  
  25279976.717   132847152.711                                                  
  24437737.920   128421152.176                                                  
  26195565.941   137658564.797                                                  
  24893010.445   130813601.764                                                  
  26464294.871   139070831.472                                                  
  25946232.709   136348331.757                                                  
 21  8 31 22 54 26.0000000  0 19G 1G10G21G23G24G25G31G32C21C22C26C34
                                E 3E 5E 8E13E15E24E25
  23907022.792   125632185.629    23907027.384    97895191.915                  
  20535779.102   107916199.999    20535782.158    84090533.255                  
  23635726.154   124206561.453    23635726.458    96784329.793                  
  22564383.075   118576617.063    22564385.058    92397361.625                  
  24177287.922   127052444.418    24177292.104    99001889.293                  
  23129054.154   121543919.363    23129058.782    94709527.599                  
  22488806.828   118179467.825    22488807.883    92087893.833                  
  20573504.255   108114459.275    20573507.114    84245024.347                  
                 114869588.410                   114869588.410    22059495.260  
                 122748221.512                   122748221.512    23572502.549  
                 128322170.331                   128322170.331    24642929.948  
                 135178369.747                   135178369.747    25959592.877  
  23653596.607   124300465.009                                                  
  25280289.407   132848795.905                                                  
  24437378.985   128419265.968                                                  
  26195392.129   137657651.294                                                  
  24893342.576   130815347.086                                                  
  26464313.848   139070931.140                                                  
  25945785.018   136345979.207                                                  
 21  8 31 22 54 27.0000000  0 19G 1G10G21G23G24G25G31G32C21C22C26C34
                                E 3E 5E 8E13E15E24E25
  23906533.895   125629616.387    23906538.488    97893189.906                  
  20535974.304   107917225.806    20535977.359    84091332.582                  
  23635496.823   124205356.255    23635497.127    96783390.675                  
  22564930.921   118579496.015    22564932.905    92399604.962                  
  24177980.812   127056085.614    24177984.975    99004726.586                  
  23128579.606   121541425.528    23128584.216    94707584.350                  
  22488144.406   118175986.850    22488145.460    92085181.389                  
  20573445.841   108114152.340    20573448.718    84244785.180                  
                 114868979.406                   114868979.406    22059378.308  
                 122750050.829                   122750050.829    23572853.836  
                 128318811.983                   128318811.983    24642285.001  
                 135180754.004                   135180754.004    25960050.753  
  23653550.648   124300223.483                                                  
  25280602.097   132850439.185                                                  
  24437020.068   128417379.837                                                  
  26195218.352   137656738.273                                                  
  24893674.779   130817092.810                                                  
  26464332.896   139071031.272                                                  
  25945337.399   136343626.918                                                  
 21  8 31 22 54 28.0000000  0 19G 1G10G21G23G24G25G31G32C21C22C26C34
                                E 3E 5E 8E13E15E24E25
  23906045.088   125627047.630    23906049.663    97891188.277                  
  20536169.612   107918252.117    20536172.668    84092132.308                  
  23635267.581   124204151.538    23635267.867    96782451.936                  
  22565478.821   118582375.270    22565480.823    92401848.534                  
  24178673.737   127059726.953    24178677.918    99007563.991                  
  23128105.112   121538932.066    23128109.722    94705641.395                  
  22487482.055   118172506.207    22487483.127    92082469.200                  
  20573387.499   108113845.699    20573390.358    84244546.239                  
                 114868370.661                   114868370.661    22059261.409  
                 122751880.372                   122751880.372    23573205.177  
                 128315453.754                   128315453.754    24641640.108  
                 135183138.449                   135183138.449    25960508.664  
  23653504.724   124299982.113                                                  
  25280914.823   132852082.543                                                  
  24436661.169   128415493.770                                                  
  26195044.719   137655825.730                                                  
  24894007.036   130818838.930                                                  
  26464352.034   139071131.909                                                  
  25944889.816   136341274.902                                                  
 21  8 31 22 54 29.0000000  0 19G 1G10G21G23G24G25G31G32C21C22C26C34
                                E 3E 5E 8E13E15E24E25
  23905556.335   125624479.368    23905560.927    97889187.039                  
  20536364.992   107919278.922    20536368.065    84092932.413                  
  23635038.411   124202947.319    23635038.697    96781513.587                  
  22566026.775   118585254.821    22566028.776    92404092.344                  
  24179366.697   127063368.419    24179370.861    99010401.497                  
  23127630.707   121536438.985    23127635.300    94703698.734                  
  22486819.775   118169025.878    22486820.847    92079757.257                  
  20573329.192   108113539.340    20573332.051    84244307.520                  
                 114867762.172                   114867762.172    22059144.545  
                 122753710.137                   122753710.137    23573556.553  
                 128312095.647                   128312095.647    24640995.197  
                 135185523.075                   135185523.075    25960966.611  
  23653458.801   124299740.878                                                  
  25281227.566   132853725.975                                                  
  24436302.251   128413607.759                                                  
  26194871.157   137654913.665                                                  
  24894339.400   130820585.446                                                  
  26464371.279   139071233.027                                                  
  25944442.304   136338923.141                                                  
 21  8 31 22 54 30.0000000  0 19G 1G10G21G23G24G25G31G32C21C22C26C34
                                E 3E 5E 8E13E15E24E25
  23905067.724   125621911.585    23905072.299    97887186.169                  
  20536560.497   107920306.225    20536563.535    84093732.909                  
  23634809.366   124201743.582    23634809.634    96780575.610                  
  22566574.818   118588134.694    22566576.801    92406336.400                  
  24180059.676   127067010.031    24180063.839    99013239.117                  
  23127156.338   121533946.288    23127160.966    94701756.376                  
  22486157.567   118165545.874    22486158.604    92077045.566                  
  20573270.957   108113233.277    20573273.816    84244069.027                  
                 114867153.939                   114867153.939    22059027.735  
                 122755540.129                   122755540.129    23573908.001  
                 128308737.659                   128308737.659    24640350.340  
                 135187907.884                   135187907.884    25961424.595  
  23653412.949   124299499.801                                                  
  25281540.328   132855369.490                                                  
  24435943.388   128411721.815                                                  
  26194697.685   137654002.070                                                  
  24894671.817   130822332.367                                                  
  26464390.613   139071334.618                                                  
  25943994.828   136336571.656                                                  
 21  8 31 22 54 31.0000000  0 19G 1G10G21G23G24G25G31G32C21C22C26C34
                                E 3E 5E 8E13E15E24E25
  23904579.185   125619344.292    23904583.760    97885185.683                  
  20536756.073   107921334.019    20536759.129    84094533.790                  
  23634580.375   124200540.347    23634580.678    96779638.024                  
  22567122.896   118591014.870    22567124.880    92408580.688                  
  24180752.672   127070651.773    24180756.836    99016076.835                  
  23126682.059   121531453.953    23126686.687    94699814.296                  
  22485495.395   118162066.185    22485496.431    92074334.120                  
  20573212.776   108112927.513    20573215.635    84243830.769                  
                 114866545.962                   114866545.962    22058910.979  
                 122757370.341                   122757370.341    23574259.485  
                 128305379.794                   128305379.794    24639705.501  
                 135190292.870                   135190292.870    25961882.595  
  23653367.079   124299258.869                                                  
  25281853.071   132857013.083                                                  
  24435584.506   128409835.936                                                  
  26194524.302   137653090.956                                                  
  24895004.342   130824079.685                                                  
  26464410.037   139071436.716                                                  
  25943547.405   136334220.429                                                  
 21  8 31 22 54 32.0000000  0 19G 1G10G21G23G24G25G31G32C21C22C26C34
                                E 3E 5E 8E13E15E24E25
  23904090.718   125616777.483    23904095.292    97883185.574                  
  20536951.757   107922362.332    20536954.813    84095335.070                  
  23634351.526   124199337.613    23634351.794    96778700.829                  
  22567671.047   118593895.357    22567673.012    92410825.223                  
  24181445.705   127074293.675    24181449.886    99018914.684                  
  23126207.868   121528962.010    23126212.479    94697872.527                  
  22484833.276   118158586.824    22484834.348    92071622.930                  
  20573154.648   108112622.028    20573157.507    84243592.727                  
                 114865938.243                   114865938.243    22058794.277  
                 122759200.778                   122759200.778    23574610.986  
                 128302022.047                   128302022.047    24639060.679  
                 135192678.043                   135192678.043    25962340.668  
  23653321.263   124299018.085                                                  
  25282165.869   132858656.750                                                  
  24435225.643   128407950.125                                                  
  26194351.026   137652180.311                                                  
  24895336.920   130825827.401                                                  
  26464429.568   139071539.290                                                  
  25943100.019   136331869.461                                                  
 21  8 31 22 54 33.0000000  0 19G 1G10G21G23G24G25G31G32C21C22C26C34
                                E 3E 5E 8E13E15E24E25
  23903602.357   125614211.155    23903606.932    97881185.841                  
  20537147.548   107923391.140    20537150.586    84096136.739                  
  23634122.749   124198135.376    23634123.017    96777764.020                  
  22568219.232   118596776.161    22568221.216    92413070.003                  
  24182138.755   127077935.707    24182142.936    99021752.629                  
  23125733.732   121526470.429    23125738.342    94695931.035                  
  22484171.247   118155107.780    22484172.301    92068911.991                  
  20573096.555   108112316.840    20573099.414    84243354.918                  
                 114865330.781                   114865330.781    22058677.628  
                 122761031.438                   122761031.438    23574962.542  
                 128298664.423                   128298664.423    24638415.875  
                 135195063.398                   135195063.398    25962798.740  
  23653275.482   124298777.452                                                  
  25282478.666   132860300.501                                                  
  24434866.797   128406064.375                                                  
  26194177.821   137651270.160                                                  
  24895669.552   130827575.520                                                  
  26464449.188   139071642.345                                                  
  25942652.703   136329518.771                                                  
 21  8 31 22 54 34.0000000  0 19G 1G10G21G23G24G25G31G32C21C22C26C34
                                E 3E 5E 8E13E15E24E25
  23903114.104   125611645.321    23903118.678    97879186.489                  
  20537343.392   107924420.457    20537346.466    84096938.802                  
  23633894.043   124196933.622    23633894.347    96776827.587                  
  22568767.472   118599657.255    22568769.473    92415315.011                  
  24182831.840   127081577.880    24182836.022    99024590.679                  
  23125259.684   121523979.220    23125264.277    94693989.831                  
  22483509.253   118151629.059    22483510.325    92066201.302                  
  20573038.535   108112011.939    20573041.394    84243117.337                  
                 114864723.577                   114864723.577    22058561.014  
                 122762862.319                   122762862.319    23575314.132  
                 128295306.915                   128295306.915    24637771.107  
                 135197448.934                   135197448.934    25963256.866  
  23653229.720   124298536.965                                                  
  25282791.463   132861944.324                                                  
  24434507.951   128404178.686                                                  
  26194004.724   137650360.478                                                  
  24896002.309   130829324.031                                                  
  26464468.880   139071745.896                                                  
  25942205.424   136327168.336                                                  
 21  8 31 22 54 35.0000000  0 19G 1G10G21G23G24G25G31G32C21C22C26C34
                                E 3E 5E 8E13E15E24E25
  23902625.940   125609079.958    23902630.515    97877187.503                  
  20537539.380   107925450.266    20537542.417    84097741.251                  
  23633665.463   124195732.353    23633665.749    96775891.535                  
  22569315.801   118602538.669    22569317.784    92417560.265                  
  24183524.962   127085220.191    24183529.125    99027428.843                  
  23124785.673   121521488.399    23124790.301    94692048.934                  
  22482847.366   118148150.664    22482848.403    92063490.864                  
  20572980.585   108111707.331    20572983.445    84242879.981                  
                 114864116.629                   114864116.629    22058444.455  
                 122764693.430                   122764693.430    23575665.795  
                 128291949.532                   128291949.532    24637126.340  
                 135199834.653                   135199834.653    25963714.992  
  23653183.975   124298296.625                                                  
  25283104.296   132863588.231                                                  
  24434149.141   128402293.063                                                  
  26193831.698   137649451.274                                                  
  24896335.101   130831072.942                                                  
  26464488.679   139071849.925                                                  
  25941758.198   136324818.181                                                  
 21  8 31 22 54 36.0000000  0 19G 1G10G21G23G24G25G31G32C21C22C26C34
                                E 3E 5E 8E13E15E24E25
  23902137.866   125606515.074    23902142.422    97875188.899                  
  20537735.439   107926480.586    20537738.476    84098544.098                  
  23633436.954   124194531.574    23633437.240    96774955.863                  
  22569864.183   118605420.397    22569866.167    92419805.769                  
  24184218.101   127088862.651    24184222.265    99030267.126                  
  23124311.769   121518997.944    23124316.379    94690108.324                  
  22482185.498   118144672.591    22482186.534    92060780.680                  
  20572922.654   108111403.008    20572925.549    84242642.844                  
                 114863509.937                   114863509.937    22058327.949  
                 122766524.756                   122766524.756    23576017.475  
                 128288592.269                   128288592.269    24636481.625  
                 135202220.555                   135202220.555    25964173.208  
  23653138.266   124298056.434                                                  
  25283417.147   132865232.218                                                  
  24433790.331   128400407.504                                                  
  26193658.762   137648542.540                                                  
  24896668.001   130832822.261                                                  
  26464508.567   139071954.444                                                  
  25941311.044   136322468.286                                                  
 21  8 31 22 54 37.0000000  0 19G 1G10G21G23G24G25G31G32C21C22C26C34
                                E 3E 5E 8E13E15E24E25
  23901649.863   125603950.686    23901654.437    97873190.677                  
  20537931.605   107927511.394    20537934.643    84099347.329                  
  23633208.534   124193331.273    23633208.838    96774020.566                  
  22570412.601   118608302.425    22570414.603    92422051.505                  
  24184911.259   127092505.250    24184915.440    99033105.512                  
  23123837.918   121516507.871    23123842.546    94688168.012                  
  22481523.701   118141194.838    22481524.755    92058070.747                  
  20572864.812   108111098.979    20572867.671    84242405.942                  
                 114862903.504                   114862903.504    22058211.478  
                 122768356.312                   122768356.312    23576369.227  
                 128285235.130                   128285235.130    24635836.929  
                 135204606.638                   135204606.638    25964631.423  
  23653092.593   124297816.393                                                  
  25283729.980   132866876.286                                                  
  24433431.539   128398522.003                                                  
  26193485.933   137647634.281                                                  
  24897000.937   130834571.972                                                  
  26464528.544   139072059.453                                                  
  25940863.925   136320118.656                                                  
 21  8 31 22 54 38.0000000  0 19G 1G10G21G23G24G25G31G32C21C22C26C34
                                E 3E 5E 8E13E15E24E25
  23901161.967   125601386.776    23901166.541    97871192.825                  
  20538127.842   107928542.714    20538130.898    84100150.953                  
  23632980.221   124192131.468    23632980.525    96773085.653                  
  22570961.109   118611184.775    22570963.092    92424297.488                  
  24185604.452   127096148.001    24185608.615    99035944.015                  
  23123364.138   121514018.176    23123368.767    94686227.988                  
  22480861.957   118137717.414    22480863.011    92055361.064                  
  20572807.024   108110795.246    20572809.883    84242169.262                  
                 114862297.329                   114862297.329    22058095.080  
                 122770188.089                   122770188.089    23576720.979  
                 128281878.111                   128281878.111    24635192.232  
                 135206992.898                   135206992.898    25965089.674  
  23653046.938   124297576.493                                                  
  25284042.867   132868520.434                                                  
  24433072.747   128396636.573                                                  
  26193313.193   137646726.504                                                  
  24897333.980   130836322.083                                                  
  26464548.611   139072164.935                                                  
  25940416.842   136317769.292                                                  
 21  8 31 22 54 39.0000000  0 19G 1G10G21G23G24G25G31G32C21C22C26C34
                                E 3E 5E 8E13E15E24E25
  23900674.160   125598823.360    23900678.735    97869195.355                  
  20538324.205   107929574.534    20538327.243    84100954.968                  
  23632751.998   124190932.150    23632752.302    96772151.117                  
  22571509.652   118614067.418    22571511.636    92426543.703                  
  24186297.662   127099790.875    24186301.844    99038782.618                  
  23122890.449   121511528.863    23122895.059    94684288.266                  
  22480200.303   118134240.316    22480201.339    92052651.636                  
  20572749.289   108110491.801    20572752.148    84241932.811                  
                 114861691.411                   114861691.411    22057978.716  
                 122772020.090                   122772020.090    23577072.802  
                 128278521.210                   128278521.210    24634547.571  
                 135209379.344                   135209379.344    25965547.961  
  23653001.318   124297336.746                                                  
  25284355.735   132870164.656                                                  
  24432713.973   128394751.210                                                  
  26193140.542   137645819.208                                                  
  24897667.094   130838072.593                                                  
  26464568.785   139072270.904                                                  
  25939969.813   136315420.196                                                  
 21  8 31 22 54 40.0000000  0 19G 1G10G21G23G24G25G31G32C21C22C26C34
                                E 3E 5E 8E13E15E24E25
  23900186.461   125596260.427    23900191.018    97867198.265                  
  20538520.639   107930606.858    20538523.695    84101759.374                  
  23632523.882   124189733.319    23632524.168    96771216.965                  
  22572058.267   118616950.379    22572060.268    92428790.164                  
  24186990.927   127103433.899    24186995.073    99041621.335                  
  23122416.812   121509039.914    23122421.422    94682348.827                  
  22479538.684   118130763.535    22479539.739    92049942.458                  
  20572691.572   108110188.649    20572694.449    84241696.589                  
                 114861085.745                   114861085.745    22057862.407  
                 122773852.318                   122773852.318    23577424.661  
                 128275164.432                   128275164.432    24633902.946  
                 135211765.970                   135211765.970    25966006.301  
  23652955.716   124297097.148                                                  
  25284668.640   132871808.956                                                  
  24432355.217   128392865.918                                                  
  26192967.981   137644912.384                                                  
  24898000.280   130839823.508                                                  
  26464589.049   139072377.371                                                  
  25939522.855   136313071.366                                                  
 21  8 31 22 54 41.0000000  0 19G 1G10G21G23G24G25G31G32C21C22C26C34
                                E 3E 5E 8E13E15E24E25
  23899698.833   125593697.985    23899703.426    97865201.559                  
  20538717.181   107931639.678    20538720.236    84102564.172                  
  23632295.838   124188534.972    23632296.124    96770283.187                  
  22572606.935   118619833.642    22572608.919    92431036.862                  
  24187684.174   127107077.063    24187688.355    99044460.165                  
  23121943.265   121506551.343    23121947.858    94680409.679                  
  22478877.137   118127287.079    22478878.174    92047233.532                  
  20572633.944   108109885.781    20572636.821    84241460.591                  
                 114860480.338                   114860480.338    22057746.133  
                 122775684.760                   122775684.760    23577776.555  
                 128271807.776                   128271807.776    24633258.321  
                 135214152.776                   135214152.776    25966464.660  
  23652910.168   124296857.694                                                  
  25284981.562   132873453.333                                                  
  24431996.460   128390980.673                                                  
  26192795.491   137644006.033                                                  
  24898333.537   130841574.805                                                  
  26464609.402   139072484.311                                                  
  25939075.933   136310722.792                                                  
 21  8 31 22 54 42.0000000  0 19G 1G10G21G23G24G25G31G32C21C22C26C34
                                E 3E 5E 8E13E15E24E25
  23899211.295   125591136.020    23899215.887    97863205.227                  
  20538913.811   107932673.003    20538916.867    84103369.355                  
  23632067.901   124187337.110    23632068.186    96769349.790                  
  22573155.657   118622717.219    22573157.641    92433283.805                  
  24188377.474   127110720.372    24188381.655    99047299.107                  
  23121469.754   121504063.163    23121474.382    94678470.839                  
  22478215.644   118123810.946    22478216.698    92044524.854                  
  20572576.388   108109583.207    20572579.247    84241224.817                  
                 114859875.196                   114859875.196    22057629.949  
                 122777517.433                   122777517.433    23578128.521  
                 128268451.243                   128268451.243    24632613.732  
                 135216539.769                   135216539.769    25966923.054  
  23652864.620   124296618.393                                                  
  25285294.502   132875097.792                                                  
  24431637.722   128389095.501                                                  
  26192623.127   137643100.160                                                  
  24898666.884   130843326.512                                                  
  26464629.844   139072591.742                                                  
  25938629.082   136308374.500                                                  
 21  8 31 22 54 43.0000000  0 19G 1G10G21G23G24G25G31G32C21C22C26C34
                                E 3E 5E 8E13E15E24E25
  23898723.882   125588574.546    23898728.456    97861209.274                  
  20539110.531   107933706.833    20539113.605    84104174.937                  
  23631840.035   124186139.744    23631840.339    96768416.775                  
  22573704.433   118625601.109    22573706.434    92435530.988                  
  24189070.828   127114363.815    24189074.973    99050138.149                  
  23120996.332   121501575.352    23121000.960    94676532.290                  
  22477554.222   118120335.124    22477555.276    92041816.429                  
  20572518.832   108109280.918    20572521.727    84240989.269                  
                 114859270.304                   114859270.304    22057513.765  
                 122779350.329                   122779350.329    23578480.505  
                 128265094.831                   128265094.831    24631969.179  
                 135218926.939                   135218926.939    25967381.484  
  23652819.108   124296379.239                                                  
  25285607.442   132876742.339                                                  
  24431279.001   128387210.394                                                  
  26192450.816   137642194.762                                                  
  24899000.302   130845078.618                                                  
  26464650.375   139072699.653                                                  
  25938182.267   136306026.469                                                  
 21  8 31 22 54 44.0000000  0 20G 1G10G12G21G23G24G25G31G32C21C22C26
                                C34E 3E 5E 8E13E15E24E25
  23898236.540   125586013.559    23898241.096    97859213.699                  
  20539307.377   107934741.161    20539310.414    84104980.909                  
  23477006.756   123372490.376    23477007.846    96134404.950                  
  23631612.276   124184942.864    23631612.580    96767484.144                  
  22574253.280   118628485.297    22574255.281    92437778.407                  
  24189764.164   127118007.402    24189768.345    99052977.308                  
  23120523.000   121499087.917    23120527.628    94674594.027                  
  22476892.854   118116859.634    22476893.908    92039108.254                  
  20572461.383   108108978.913    20572464.242    84240753.941                  
                 114858665.668                   114858665.668    22057397.652  
                 122781183.450                   122781183.450    23578832.543  
                 128261738.538                   128261738.538    24631324.643  
                 135221314.289                   135221314.289    25967839.967  
  23652773.613   124296140.234                                                  
  25285920.400   132878386.954                                                  
  24430920.280   128385325.348                                                  
  26192278.612   137641289.837                                                  
  24899333.792   130846831.121                                                  
  26464670.996   139072808.057                                                  
  25937735.506   136303678.699                                                  
 21  8 31 22 54 45.0000000  0 20G 1G10G12G21G23G24G25G31G32C21C22C26
                                C34E 3E 5E 8E13E15E24E25
  23897749.287   125583453.050    23897753.862    97857218.500                  
  20539504.293   107935775.992    20539507.349    84105787.271                  
  23476782.053   123371309.598    23476783.143    96133484.863                  
  23631384.625   124183746.478    23631384.893    96766551.894                  
  22574802.198   118631369.798    22574804.182    92440026.066                  
  24190457.535   127121651.125    24190461.717    99055816.570                  
  23120049.738   121496600.863    23120054.349    94672656.063                  
  22476231.557   118113384.457    22476232.594    92036400.327                  
  20572403.952   108108677.211    20572406.847    84240518.848                  
                 114858061.293                   114858061.293    22057281.592  
                 122783016.788                   122783016.788    23579184.599  
                 128258382.371                   128258382.371    24630680.125  
                 135223701.820                   135223701.820    25968298.468  
  23652728.172   124295901.375                                                  
  25286233.376   132880031.653                                                  
  24430561.578   128383440.367                                                  
  26192106.516   137640385.396                                                  
  24899667.353   130848584.022                                                  
  26464691.724   139072916.946                                                  
  25937288.780   136301331.199                                                  
 21  8 31 22 54 46.0000000  0 20G 1G10G12G21G23G24G25G31G32C21C22C26
                                C34E 3E 5E 8E13E15E24E25
  23897262.142   125580893.044    23897266.698    97855223.692                  
  20539701.317   107936811.324    20539704.355    84106594.023                  
  23476557.475   123370129.404    23476558.565    96132565.232                  
  23631157.045   124182550.579    23631157.349    96765620.023                  
  22575351.153   118634254.604    22575353.136    92442273.973                  
  24191150.943   127125294.976    24191155.124    99058655.934                  
  23119576.549   121494114.188    23119581.141    94670718.399                  
  22475570.296   118109909.610    22475571.368    92033692.651                  
  20572346.593   108108375.805    20572349.487    84240283.984                  
                 114857457.175                   114857457.175    22057165.587  
                 122784850.356                   122784850.356    23579536.726  
                 128255026.326                   128255026.326    24630035.625  
                 135226089.536                   135226089.536    25968757.005  
  23652682.731   124295662.655                                                  
  25286546.352   132881676.429                                                  
  24430202.893   128381555.442                                                  
  26191934.508   137639481.433                                                  
  24900001.003   130850337.320                                                  
  26464712.542   139073026.316                                                  
  25936842.126   136298983.966                                                  
 21  8 31 22 54 47.0000000  0 20G 1G10G12G21G23G24G25G31G32C21C22C26
                                C34E 3E 5E 8E13E15E24E25
  23896775.068   125578333.509    23896779.643    97853229.247                  
  20539898.412   107937847.158    20539901.486    84107401.164                  
  23476333.004   123368949.794    23476334.094    96131646.059                  
  23630929.554   124181355.172    23630929.858    96764688.540                  
  22575900.178   118637139.727    22575902.162    92444522.112                  
  24191844.386   127128938.980    24191848.567    99061495.418                  
  23119103.395   121491627.895    23119108.023    94668781.027                  
  22474909.124   118106435.085    22474910.179    92030985.234                  
  20572289.304   108108074.681    20572292.181    84240049.339                  
                 114856853.312                   114856853.312    22057049.617  
                 122786684.145                   122786684.145    23579888.888  
                 128251670.399                   128251670.399    24629391.143  
                 135228477.430                   135228477.430    25969215.560  
  23652637.362   124295424.093                                                  
  25286859.382   132883321.285                                                  
  24429844.226   128379670.605                                                  
  26191762.573   137638577.949                                                  
  24900334.725   130852091.023                                                  
  26464733.448   139073136.173                                                  
  25936395.508   136296636.997                                                  
 21  8 31 22 54 48.0000000  0 20G 1G10G12G21G23G24G25G31G32C21C22C26
                                C34E 3E 5E 8E13E15E24E25
  23896288.101   125575774.465    23896292.658    97851235.189                  
  20540095.633   107938883.488    20540098.688    84108208.696                  
  23476108.641   123367770.759    23476109.713    96130727.329                  
  23630702.171   124180160.250    23630702.475    96763757.434                  
  22576449.258   118640025.147    22576451.241    92446770.491                  
  24192537.847   127132583.133    24192542.028    99064335.011                  
  23118630.366   121489141.985    23118634.959    94666843.957                  
  22474248.006   118102960.886    22474249.061    92028278.066                  
  20572232.052   108107773.847    20572234.911    84239814.930                  
                 114856249.711                   114856249.711    22056933.700  
                 122788518.155                   122788518.155    23580241.087  
                 128248314.593                   128248314.593    24628746.697  
                 135230865.505                   135230865.505    25969674.168  
  23652591.974   124295185.684                                                  
  25287172.394   132884966.222                                                  
  24429485.559   128377785.808                                                  
  26191590.744   137637674.937                                                  
  24900668.518   130853845.113                                                  
  26464754.445   139073246.517                                                  
  25935948.943   136294290.298                                                  
 21  8 31 22 54 49.0000000  0 20G 1G10G12G21G23G24G25G31G32C21C22C26
                                C34E 3E 5E 8E13E15E24E25
  23895801.224   125573215.901    23895805.799    97849241.503                  
  20540292.943   107939920.328    20540295.998    84109016.621                  
  23475884.384   123366592.302    23475885.474    96129809.051                  
  23630474.877   124178965.815    23630475.181    96762826.707                  
  22576998.408   118642910.878    22577000.374    92449019.117                  
  24193231.326   127136227.422    24193235.507    99067174.714                  
  23118157.355   121486656.449    23118161.983    94664907.175                  
  22473586.960   118099487.012    22473587.996    92025571.151                  
  20572174.853   108107473.301    20572177.748    84239580.734                  
                 114855646.363                   114855646.363    22056817.820  
                 122790352.392                   122790352.392    23580593.339  
                 128244958.914                   128244958.914    24628102.286  
                 135233253.762                   135233253.762    25970132.795  
  23652546.641   124294947.410                                                  
  25287485.423   132886611.227                                                  
  24429126.892   128375901.088                                                  
  26191418.987   137636772.409                                                  
  24901002.383   130855599.611                                                  
  26464775.512   139073357.348                                                  
  25935502.414   136291943.860                                                  
 21  8 31 22 54 50.0000000  0 20G 1G10G12G21G23G24G25G31G32C21C22C26
                                C34E 3E 5E 8E13E15E24E25
  23895314.418   125570657.825    23895318.993    97847248.199                  
  20540490.342   107940957.673    20540493.397    84109824.942                  
  23475660.235   123365414.423    23475661.325    96128891.223                  
  23630247.673   124177771.871    23630247.976    96761896.359                  
  22577547.577   118645796.925    22577549.579    92451267.985                  
  24193924.841   127139871.837    24193929.022    99070014.520                  
  23117684.452   121484171.282    23117689.062    94662970.684                  
  22472925.967   118096013.453    22472927.003    92022864.484                  
  20572117.744   108107173.054    20572120.603    84239346.777                  
                 114855043.274                   114855043.274    22056702.028  
                 122792186.853                   122792186.853    23580945.627  
                 128241603.351                   128241603.351    24627457.876  
                 135235642.194                   135235642.194    25970591.475  
  23652501.325   124294709.288                                                  
  25287798.488   132888256.308                                                  
  24428768.278   128374016.430                                                  
  26191247.337   137635870.351                                                  
  24901336.319   130857354.505                                                  
  26464796.723   139073468.660                                                  
  25935055.956   136289597.698                                                  
 21  8 31 22 54 51.0000000  0 20G 1G10G12G21G23G24G25G31G32C21C22C26
                                C34E 3E 5E 8E13E15E24E25
  23894827.738   125568100.233    23894832.294    97845255.273                  
  20540687.848   107941995.505    20540690.886    84110633.640                  
  23475436.194   123364237.113    23475437.301    96127973.843                  
  23630020.575   124176578.424    23630020.879    96760966.398                  
  22578096.835   118648683.272    22578098.837    92453517.082                  
  24194618.373   127143516.401    24194622.554    99072854.438                  
  23117211.619   121481686.488    23117216.212    94661034.483                  
  22472265.027   118092540.222    22472266.064    92020158.075                  
  20572060.652   108106873.095    20572063.511    84239113.038                  
                 114854440.446                   114854440.446    22056586.237  
                 122794021.552                   122794021.552    23581297.968  
                 128238247.908                   128238247.908    24626813.501  
                 135238030.789                   135238030.789    25971050.173  
  23652456.045   124294471.313                                                  
  25288111.536   132889901.477                                                  
  24428409.647   128372131.825                                                  
  26191075.759   137634968.762                                                  
  24901670.345   130859109.786                                                  
  26464817.987   139073580.457                                                  
  25934609.535   136287251.794                                                  
 21  8 31 22 54 52.0000000  0 20G 1G10G12G21G23G24G25G31G32C21C22C26
                                C34E 3E 5E 8E13E15E24E25
  23894341.146   125565543.129    23894345.703    97843262.726                  
  20540885.426   107943033.839    20540888.481    84111442.734                  
  23475212.277   123363060.400    23475213.385    96127056.921                  
  23629793.567   124175385.457    23629793.853    96760036.815                  
  22578646.165   118651569.933    22578648.148    92455766.426                  
  24195311.941   127147161.109    24195316.123    99075694.468                  
  23116738.841   121479202.078    23116743.469    94659098.577                  
  22471604.141   118089067.317    22471605.196    92017451.915                  
  20572003.615   108106573.423    20572006.491    84238879.532                  
                 114853837.871                   114853837.871    22056470.517  
                 122795856.458                   122795856.458    23581650.345  
                 128234892.589                   128234892.589    24626169.144  
                 135240419.585                   135240419.585    25971508.942  
  23652410.783   124294233.494                                                  
  25288424.619   132891546.722                                                  
  24428051.016   128370247.301                                                  
  26190904.288   137634067.651                                                  
  24902004.442   130860865.469                                                  
  26464839.358   139073692.744                                                  
  25934163.184   136284906.155                                                  
 21  8 31 22 54 53.0000000  0 20G 1G10G12G21G23G24G25G31G32C21C22C26
                                C34E 3E 5E 8E13E15E24E25
  23893854.626   125562986.517    23893859.201    97841270.563                  
  20541083.093   107944072.684    20541086.166    84112252.223                  
  23474988.485   123361884.258    23474989.557    96126140.450                  
  23629566.648   124174192.979    23629566.934    96759107.614                  
  22579195.512   118654456.894    22579197.513    92458016.003                  
  24196005.527   127150805.938    24196009.709    99078534.594                  
  23116266.152   121476718.050    23116270.762    94657162.973                  
  22470943.345   118085594.735    22470944.381    92014746.007                  
  20571946.666   108106274.036    20571949.525    84238646.241                  
                 114853235.556                   114853235.556    22056354.851  
                 122797691.587                   122797691.587    23582002.758  
                 128231537.399                   128231537.399    24625524.805  
                 135242808.563                   135242808.563    25971967.711  
  23652365.556   124293995.812                                                  
  25288737.720   132893192.047                                                  
  24427692.420   128368362.828                                                  
  26190732.906   137633167.016                                                  
  24902338.629   130862621.558                                                  
  26464860.819   139073805.512                                                  
  25933716.888   136282560.794                                                  
 21  8 31 22 54 54.0000000  0 20G 1G10G12G21G23G24G25G31G32C21C22C26
                                C34E 3E 5E 8E13E15E24E25
  23893368.214   125560430.395    23893372.788    97839278.778                  
  20541280.885   107945112.030    20541283.941    84113062.101                  
  23474764.765   123360708.692    23474765.855    96125224.426                  
  23629339.819   124173001.000    23629340.105    96758178.797                  
  22579744.967   118657344.177    22579746.968    92460265.832                  
  24196699.131   127154450.919    24196703.313    99081374.839                  
  23115793.516   121474234.395    23115798.144    94655227.660                  
  22470282.584   118082122.470    22470283.638    92012040.348                  
  20571889.735   108105974.942    20571892.594    84238413.184                  
                 114852633.496                   114852633.496    22056239.239  
                 122799526.938                   122799526.938    23582355.224  
                 128228182.328                   128228182.328    24624880.502  
                 135245197.719                   135245197.719    25972426.516  
  23652320.365   124293758.286                                                  
  25289050.821   132894837.457                                                  
  24427333.842   128366478.431                                                  
  26190561.613   137632266.880                                                  
  24902672.869   130864378.039                                                  
  26464882.369   139073918.772                                                  
  25933270.627   136280215.691                                                  
 21  8 31 22 54 55.0000000  0 20G 1G10G12G21G23G24G25G31G32C21C22C26
                                C34E 3E 5E 8E13E15E24E25
  23892881.873   125557874.755    23892886.465    97837287.372                  
  20541478.767   107946151.881    20541481.822    84113872.379                  
  23474541.188   123359533.718    23474542.260    96124308.860                  
  23629113.079   124171809.500    23629113.383    96757250.355                  
  22580294.439   118660231.750    22580296.440    92462515.892                  
  24197392.807   127158096.038    24197396.952    99084215.187                  
  23115320.987   121471751.124    23115325.580    94653292.645                  
  22469621.895   118078650.539    22469622.931    92009334.945                  
  20571832.876   108105676.145    20571835.735    84238180.355                  
                 114852031.695                   114852031.695    22056123.662  
                 122801362.515                   122801362.515    23582707.727  
                 128224827.381                   128224827.381    24624236.216  
                 135247587.058                   135247587.058    25972885.375  
  23652275.175   124293520.910                                                  
  25289363.958   132896482.937                                                  
  24426975.265   128364594.081                                                  
  26190390.392   137631367.202                                                  
  24903007.180   130866134.917                                                  
  26464904.008   139074032.515                                                  
  25932824.419   136277870.868                                                  
 21  8 31 22 54 56.0000000  0 20G 1G10G12G21G23G24G25G31G32C21C22C26
                                C34E 3E 5E 8E13E15E24E25
  23892395.656   125555319.610    23892400.249    97835296.352                  
  20541676.738   107947192.231    20541679.775    84114683.040                  
  23474317.700   123358359.313    23474318.772    96123393.737                  
  23628886.446   124170618.501    23628886.732    96756322.304                  
  22580844.001   118663119.632    22580845.984    92464766.187                  
  24198086.464   127161741.292    24198090.646    99087055.645                  
  23114848.495   121469268.243    23114853.105    94651357.933                  
  22468961.259   118075178.925    22468962.314    92006629.796                  
  20571776.088   108105377.629    20571778.947    84237947.743                  
                 114851430.149                   114851430.149    22056008.139  
                 122803198.316                   122803198.316    23583060.265  
                 128221472.557                   128221472.557    24623591.966  
                 135249976.575                   135249976.575    25973344.251  
  23652230.037   124293283.671                                                  
  25289677.095   132898128.497                                                  
  24426616.687   128362709.813                                                  
  26190219.297   137630468.008                                                  
  24903341.581   130867892.212                                                  
  26464925.737   139074146.741                                                  
  25932378.265   136275526.296                                                  
 21  8 31 22 54 57.0000000  0 20G 1G10G12G21G23G24G25G31G32C21C22C26
                                C34E 3E 5E 8E13E15E24E25
  23891909.512   125552764.941    23891914.104    97833305.703                  
  20541874.798   107948233.083    20541877.853    84115494.091                  
  23474094.319   123357185.496    23474095.427    96122479.079                  
  23628659.903   124169427.981    23628660.189    96755394.624                  
  22581393.598   118666007.836    22581395.600    92467016.733                  
  24198780.158   127165386.695    24198784.339    99089896.219                  
  23114376.074   121466785.732    23114380.702    94649423.511                  
  22468300.695   118071707.640    22468301.731    92003924.898                  
  20571719.318   108105079.419    20571722.195    84237715.371                  
                 114850828.863                   114850828.863    22055892.687  
                 122805034.339                   122805034.339    23583412.856  
                 128218117.855                   128218117.855    24622947.717  
                 135252366.269                   135252366.269    25973803.181  
  23652184.918   124293046.588                                                  
  25289990.231   132899774.141                                                  
  24426258.145   128360825.606                                                  
  26190048.272   137629569.286                                                  
  24903676.053   130869649.879                                                  
  26464947.573   139074261.457                                                  
  25931932.165   136273182.000                                                  
 21  8 31 22 54 58.0000000  0 20G 1G10G12G21G23G24G25G31G32C21C22C26
                                C34E 3E 5E 8E13E15E24E25
  23891423.474   125550210.765    23891428.049    97831315.439                  
  20542072.965   107949274.437    20542076.021    84116305.535                  
  23473871.064   123356012.256    23473872.154    96121564.866                  
  23628433.449   124168237.950    23628433.717    96754467.328                  
  22581943.267   118668896.340    22581945.269    92469267.516                  
  24199473.887   127169032.231    24199478.068    99092736.892                  
  23113903.760   121464303.593    23113908.352    94647489.380                  
  22467640.202   118068236.674    22467641.239    92001220.255                  
  20571662.638   108104781.484    20571665.497    84237483.219                  
                 114850227.835                   114850227.835    22055777.253  
                 122806870.585                   122806870.585    23583765.483  
