% program   : rnx2rtkp ver.2.4.3 b31
% inp file  : ngs/21_08_31_20_18_56_gast.obs
% inp file  : ngs/21_08_31_20_18_56_gast_SW.obs
% inp file  : ngs/21_08_31_20_18_56_brdc.nav
% obs start : 2021/08/31 20:00:00.0 GPST (week2173 244800.0s)
% obs end   : 2021/08/31 20:59:59.0 GPST (week2173 248399.0s)
% ref pos   :   806881.1263  -5205381.2503   3584328.6176
%
% (x/y/z-ecef=WGS84,Q=1:fix,2:float,3:sbas,4:dgps,5:single,6:ppp,ns=# of satellites)
%  GPST              x-ecef(m)      y-ecef(m)      z-ecef(m)   Q  ns   sdx(m)   sdy(m)   sdz(m)  sdxy(m)  sdyz(m)  sdzx(m) age(s)  ratio
2173 245911.000    798177.1970  -5149234.3115   3666205.2735   2   6   0.4611   1.0325   0.9669  -0.0692  -0.8127   0.1487 -30.00    1.1
2173 245912.000    798177.2573  -5149234.2898   3666205.1576   2   6   0.3281   0.7341   0.6886  -0.0528  -0.5785   0.1089 -29.00    1.0
2173 245913.000    798177.2454  -5149234.1577   3666204.9967   2   6   0.2687   0.6011   0.5640  -0.0440  -0.4737   0.0896 -28.00    1.0
2173 245914.000    798177.2694  -5149234.0732   3666204.9230   2   6   0.2331   0.5215   0.4894  -0.0383  -0.4111   0.0777 -27.00    1.0
2173 245915.000    798177.3040  -5149234.0526   3666204.9200   2   6   0.2088   0.4671   0.4383  -0.0344  -0.3682   0.0695 -26.00    1.0
2173 245916.000    798177.2833  -5149234.0631   3666204.9716   2   6   0.1908   0.4269   0.4006  -0.0315  -0.3365   0.0634 -25.00    1.1
2173 245917.000    798177.2721  -5149234.1541   3666204.9869   2   6   0.1768   0.3955   0.3712  -0.0292  -0.3118   0.0587 -24.00    1.1
2173 245918.000    798177.2646  -5149234.1293   3666204.9099   2   6   0.1655   0.3702   0.3474  -0.0274  -0.2919   0.0549 -23.00    1.0
2173 245919.000    798177.2477  -5149234.1171   3666204.8795   2   6   0.1561   0.3492   0.3277  -0.0259  -0.2753   0.0517 -22.00    1.0
2173 245920.000    798177.2450  -5149234.1133   3666204.8370   2   6   0.1481   0.3314   0.3110  -0.0247  -0.2613   0.0491 -21.00    1.0
2173 245921.000    798177.2446  -5149234.1107   3666204.7829   2   6   0.1412   0.3160   0.2966  -0.0237  -0.2492   0.0468 -20.00    1.0
2173 245922.000    798177.2332  -5149234.1089   3666204.7684   2   6   0.1352   0.3025   0.2840  -0.0228  -0.2386   0.0449 -19.00    1.1
2173 245923.000    798177.2288  -5149234.0882   3666204.7559   2   6   0.1299   0.2906   0.2729  -0.0221  -0.2292   0.0432 -18.00    1.1
2173 245924.000    798177.2169  -5149234.0426   3666204.7113   2   6   0.1252   0.2800   0.2629  -0.0214  -0.2209   0.0417 -17.00    1.1
2173 245925.000    798177.1896  -5149234.0161   3666204.7062   2   6   0.1209   0.2704   0.2540  -0.0209  -0.2133   0.0403 -16.00    1.2
2173 245926.000    798177.1873  -5149233.9469   3666204.6409   2   6   0.1171   0.2617   0.2459  -0.0204  -0.2065   0.0391 -15.00    1.2
2173 245927.000    798177.1852  -5149233.9391   3666204.6203   2   6   0.1135   0.2538   0.2385  -0.0199  -0.2003   0.0381 -14.00    1.2
2173 245928.000    798177.1810  -5149233.9170   3666204.6168   2   6   0.1103   0.2465   0.2317  -0.0195  -0.1946   0.0371 -13.00    1.2
2173 245929.000    798177.1721  -5149233.9051   3666204.5929   2   6   0.1073   0.2398   0.2254  -0.0192  -0.1893   0.0362 -12.00    1.2
2173 245930.000    798177.1683  -5149233.8795   3666204.5851   2   6   0.1045   0.2336   0.2196  -0.0188  -0.1844   0.0354 -11.00    1.2
2173 245931.000    798177.1628  -5149233.8871   3666204.5740   2   6   0.1020   0.2278   0.2143  -0.0185  -0.1799   0.0346 -10.00    1.2
2173 245932.000    798177.1521  -5149233.8814   3666204.5671   2   6   0.0996   0.2225   0.2092  -0.0183  -0.1757   0.0339  -9.00    1.2
2173 245933.000    798177.1417  -5149233.8680   3666204.5381   2   6   0.0974   0.2174   0.2045  -0.0180  -0.1717   0.0332  -8.00    1.1
2173 245934.000    798177.1405  -5149233.8742   3666204.5395   2   6   0.0953   0.2127   0.2001  -0.0178  -0.1680   0.0326  -7.00    1.1
2173 245935.000    798177.1350  -5149233.8929   3666204.5565   2   6   0.0933   0.2083   0.1960  -0.0175  -0.1645   0.0320  -6.00    1.2
2173 245936.000    798177.1302  -5149233.8894   3666204.5410   2   6   0.0915   0.2041   0.1920  -0.0173  -0.1612   0.0314  -5.00    1.3
2173 245937.000    798177.1340  -5149233.8875   3666204.5361   2   6   0.0897   0.2002   0.1883  -0.0171  -0.1581   0.0309  -4.00    1.5
2173 245938.000    798177.1330  -5149233.8970   3666204.5489   2   6   0.0881   0.1965   0.1848  -0.0168  -0.1552   0.0303  -3.00    1.7
2173 245939.000    798177.1332  -5149233.9006   3666204.5560   2   6   0.0866   0.1930   0.1815  -0.0166  -0.1524   0.0298  -2.00    1.8
2173 245940.000    798177.1316  -5149233.9044   3666204.5677   2   6   0.0851   0.1897   0.1783  -0.0164  -0.1497   0.0293  -1.00    2.0
2173 245941.000    798177.1312  -5149233.9146   3666204.5832   2   6   0.0837   0.1865   0.1753  -0.0161  -0.1472   0.0289   0.00    2.1
2173 245942.000    798177.1314  -5149233.9110   3666204.5957   2   6   0.0824   0.1836   0.1725  -0.0159  -0.1448   0.0284   0.00    2.2
2173 245943.000    798177.1276  -5149233.9025   3666204.6036   2   6   0.0812   0.1807   0.1698  -0.0158  -0.1426   0.0279   0.00    2.3
2173 245944.000    798177.1250  -5149233.9234   3666204.6271   2   6   0.0799   0.1780   0.1672  -0.0155  -0.1404   0.0275   0.00    2.3
2173 245945.000    798177.1267  -5149233.9385   3666204.6440   2   6   0.0788   0.1754   0.1647  -0.0153  -0.1383   0.0271   0.00    2.4
2173 245946.000    798177.1244  -5149233.9584   3666204.6706   2   6   0.0777   0.1729   0.1623  -0.0152  -0.1363   0.0267   0.00    2.4
2173 245947.000    798177.1224  -5149233.9717   3666204.6818   2   6   0.0766   0.1705   0.1600  -0.0149  -0.1344   0.0264   0.00    2.4
2173 245948.000    798177.1306  -5149233.9712   3666204.6844   2   6   0.0756   0.1682   0.1577  -0.0148  -0.1325   0.0260   0.00    2.4
2173 245949.000    798177.1252  -5149233.9859   3666204.7027   2   6   0.0747   0.1660   0.1556  -0.0146  -0.1307   0.0256   0.00    2.5
2173 245950.000    798177.1211  -5149233.9899   3666204.7171   2   6   0.0737   0.1638   0.1535  -0.0145  -0.1290   0.0252   0.00    2.5
2173 245951.000    798177.1156  -5149233.9856   3666204.7160   2   6   0.0728   0.1618   0.1515  -0.0142  -0.1273   0.0249   0.00    2.5
2173 245952.000    798177.1163  -5149233.9852   3666204.7141   2   6   0.0719   0.1598   0.1495  -0.0141  -0.1256   0.0246   0.00    2.6
2173 245953.000    798177.1105  -5149233.9807   3666204.7152   2   6   0.0711   0.1578   0.1476  -0.0140  -0.1241   0.0243   0.00    2.6
2173 245954.000    798177.1120  -5149233.9825   3666204.7142   2   6   0.0703   0.1560   0.1458  -0.0138  -0.1225   0.0240   0.00    2.6
2173 245955.000    798177.1057  -5149233.9885   3666204.7058   2   6   0.0695   0.1542   0.1440  -0.0137  -0.1210   0.0236   0.00    2.6
2173 245956.000    798177.1057  -5149233.9984   3666204.7022   2   6   0.0688   0.1524   0.1422  -0.0136  -0.1195   0.0234   0.00    2.6
2173 245957.000    798177.0999  -5149233.9964   3666204.6994   2   6   0.0680   0.1507   0.1405  -0.0135  -0.1181   0.0231   0.00    2.6
2173 245958.000    798177.0976  -5149233.9928   3666204.7001   2   6   0.0673   0.1490   0.1388  -0.0133  -0.1167   0.0228   0.00    2.6
2173 245959.000    798177.0901  -5149234.0102   3666204.7087   2   6   0.0666   0.1474   0.1372  -0.0131  -0.1154   0.0226   0.00    2.6
2173 245960.000    798177.0914  -5149234.0053   3666204.6976   2   6   0.0660   0.1458   0.1356  -0.0130  -0.1141   0.0223   0.00    2.6
2173 245961.000    798177.0842  -5149234.0132   3666204.7070   2   6   0.0653   0.1443   0.1340  -0.0128  -0.1128   0.0220   0.00    2.6
2173 245962.000    798177.0844  -5149234.0210   3666204.7107   2   6   0.0647   0.1428   0.1325  -0.0127  -0.1115   0.0218   0.00    2.5
2173 245963.000    798177.0783  -5149234.0146   3666204.7075   2   6   0.0641   0.1414   0.1310  -0.0126  -0.1103   0.0215   0.00    2.5
2173 245964.000    798177.0739  -5149234.0194   3666204.7047   2   6   0.0635   0.1400   0.1295  -0.0125  -0.1090   0.0212   0.00    2.5
2173 245965.000    798177.0682  -5149234.0171   3666204.6993   2   6   0.0628   0.1386   0.1281  -0.0122  -0.1079   0.0210   0.00    2.5
2173 245966.000    798177.0669  -5149234.0175   3666204.7078   2   6   0.0623   0.1372   0.1267  -0.0122  -0.1067   0.0208   0.00    2.4
2173 245967.000    798177.0595  -5149234.0195   3666204.7124   2   6   0.0618   0.1359   0.1253  -0.0122  -0.1055   0.0205   0.00    2.4
2173 245968.000    798177.0574  -5149234.0309   3666204.7207   2   6   0.0613   0.1346   0.1239  -0.0119  -0.1044   0.0203   0.00    2.3
2173 245969.000    798177.0484  -5149234.0415   3666204.7254   2   6   0.0607   0.1334   0.1226  -0.0119  -0.1033   0.0201   0.00    2.3
2173 245970.000    798177.0493  -5149234.0375   3666204.7255   2   6   0.0603   0.1322   0.1213  -0.0117  -0.1022   0.0199   0.00    2.2
2173 245971.000    798177.0411  -5149234.0378   3666204.7296   2   6   0.0597   0.1310   0.1200  -0.0116  -0.1012   0.0197   0.00    2.2
2173 245972.000    798177.0447  -5149234.0483   3666204.7417   2   6   0.0592   0.1298   0.1187  -0.0113  -0.1001   0.0195   0.00    2.1
2173 245973.000    798177.0395  -5149234.0613   3666204.7532   2   6   0.0588   0.1286   0.1175  -0.0114  -0.0991   0.0192   0.00    2.1
2173 245974.000    798177.0341  -5149234.0654   3666204.7687   2   6   0.0583   0.1275   0.1162  -0.0113  -0.0981   0.0190   0.00    2.0
2173 245975.000    798177.0367  -5149234.0675   3666204.7742   2   6   0.0579   0.1264   0.1150  -0.0111  -0.0971   0.0188   0.00    2.0
2173 245976.000    798177.0310  -5149234.0682   3666204.7813   2   6   0.0575   0.1253   0.1138  -0.0110  -0.0961   0.0186   0.00    1.9
2173 245977.000    798177.0306  -5149234.0779   3666204.7886   2   6   0.0570   0.1242   0.1127  -0.0109  -0.0951   0.0184   0.00    1.9
2173 245978.000    798177.0294  -5149234.0822   3666204.7956   2   6   0.0566   0.1232   0.1115  -0.0108  -0.0942   0.0182   0.00    1.8
2173 245979.000    798177.0295  -5149234.0801   3666204.7951   2   6   0.0562   0.1222   0.1104  -0.0106  -0.0932   0.0180   0.00    1.8
2173 245980.000    798177.0309  -5149234.0833   3666204.8014   2   6   0.0558   0.1212   0.1092  -0.0104  -0.0923   0.0179   0.00    1.8
2173 245981.000    798177.0263  -5149234.0804   3666204.8133   2   6   0.0554   0.1202   0.1081  -0.0104  -0.0914   0.0176   0.00    1.7
2173 245982.000    798177.0252  -5149234.0908   3666204.8325   2   6   0.0550   0.1192   0.1070  -0.0103  -0.0905   0.0175   0.00    1.7
2173 245983.000    798177.0220  -5149234.0993   3666204.8505   2   6   0.0546   0.1183   0.1059  -0.0102  -0.0896   0.0173   0.00    1.6
2173 245984.000    798177.0220  -5149234.1043   3666204.8553   2   6   0.0543   0.1173   0.1049  -0.0102  -0.0887   0.0171   0.00    1.6
2173 245985.000    798177.0224  -5149234.1021   3666204.8601   2   6   0.0539   0.1164   0.1038  -0.0099  -0.0879   0.0169   0.00    1.5
2173 245986.000    798177.0231  -5149234.1115   3666204.8759   2   6   0.0535   0.1155   0.1028  -0.0098  -0.0870   0.0168   0.00    1.5
2173 245987.000    798177.0248  -5149234.1183   3666204.8892   2   6   0.0532   0.1146   0.1017  -0.0097  -0.0862   0.0166   0.00    1.5
2173 245988.000    798177.0278  -5149234.1193   3666204.8973   2   6   0.0528   0.1137   0.1007  -0.0097  -0.0853   0.0164   0.00    1.4
2173 245989.000    798177.0264  -5149234.1306   3666204.9102   2   6   0.0525   0.1129   0.0997  -0.0096  -0.0845   0.0162   0.00    1.4
2173 245990.000    798177.0263  -5149234.1420   3666204.9259   2   6   0.0522   0.1120   0.0987  -0.0094  -0.0837   0.0161   0.00    1.4
2173 245991.000    798177.0278  -5149234.1517   3666204.9454   2   6   0.0519   0.1112   0.0978  -0.0094  -0.0829   0.0159   0.00    1.3
2173 245992.000    798177.0298  -5149234.1819   3666204.9738   2   6   0.0516   0.1104   0.0968  -0.0094  -0.0821   0.0157   0.00    1.3
2173 245993.000    798177.0311  -5149234.1994   3666205.0065   2   6   0.0512   0.1096   0.0959  -0.0091  -0.0814   0.0155   0.00    1.2
2173 245994.000    798177.0332  -5149234.2115   3666205.0321   2   6   0.0510   0.1088   0.0949  -0.0091  -0.0806   0.0153   0.00    1.2
2173 245995.000    798177.0341  -5149234.2170   3666205.0469   2   6   0.0507   0.1080   0.0940  -0.0089  -0.0799   0.0152   0.00    1.2
2173 245996.000    798177.0419  -5149234.2283   3666205.0598   2   6   0.0503   0.1072   0.0931  -0.0089  -0.0791   0.0151   0.00    1.1
2173 245997.000    798177.0479  -5149234.2083   3666205.0477   2   6   0.0501   0.1065   0.0922  -0.0089  -0.0784   0.0149   0.00    1.1
2173 245998.000    798177.0512  -5149234.2164   3666205.0634   2   6   0.0498   0.1057   0.0913  -0.0086  -0.0777   0.0148   0.00    1.1
2173 245999.000    798177.0497  -5149234.2154   3666205.0654   2   6   0.0495   0.1050   0.0904  -0.0087  -0.0769   0.0146   0.00    1.1
2173 246000.000    798177.0544  -5149234.2104   3666205.0651   2   6   0.0492   0.1043   0.0895  -0.0085  -0.0762   0.0145   0.00    1.1
2173 246001.000    798177.0537  -5149234.2227   3666205.0674   2   6   0.0490   0.1036   0.0887  -0.0084  -0.0755   0.0143   0.00    1.0
2173 246002.000    798177.0524  -5149234.2310   3666205.0806   2   6   0.0487   0.1029   0.0878  -0.0081  -0.0748   0.0142   0.00    1.0
2173 246003.000    798177.0549  -5149234.2380   3666205.0957   2   6   0.0484   0.1022   0.0870  -0.0082  -0.0742   0.0140   0.00    1.0
2173 246004.000    798177.0552  -5149234.2372   3666205.0959   2   6   0.0481   0.1015   0.0861  -0.0081  -0.0735   0.0139   0.00    1.0
2173 246005.000    798177.0606  -5149234.2397   3666205.1016   2   6   0.0479   0.1009   0.0853  -0.0080  -0.0728   0.0138   0.00    1.0
2173 246006.000    798177.0553  -5149234.2387   3666205.1154   2   6   0.0477   0.1002   0.0845  -0.0080  -0.0721   0.0136   0.00    1.0
2173 246007.000    798177.0487  -5149234.2454   3666205.1303   2   6   0.0474   0.0996   0.0837  -0.0080  -0.0715   0.0134   0.00    1.0
2173 246008.000    798177.0606  -5149234.2350   3666205.1191   2   6   0.0472   0.0989   0.0829  -0.0078  -0.0709   0.0134   0.00    1.1
2173 246009.000    798177.0571  -5149234.2370   3666205.1227   2   6   0.0470   0.0983   0.0821  -0.0078  -0.0702   0.0131   0.00    1.1
2173 246010.000    798177.0595  -5149234.2377   3666205.1294   2   6   0.0467   0.0977   0.0814  -0.0076  -0.0696   0.0131   0.00    1.1
2173 246011.000    798177.0589  -5149234.2347   3666205.1236   2   6   0.0465   0.0971   0.0806  -0.0076  -0.0690   0.0129   0.00    1.1
2173 246012.000    798177.0626  -5149234.2296   3666205.1233   2   6   0.0462   0.0965   0.0798  -0.0074  -0.0684   0.0128   0.00    1.1
2173 246013.000    798177.0676  -5149234.2256   3666205.1137   2   6   0.0461   0.0959   0.0791  -0.0075  -0.0678   0.0126   0.00    1.1
2173 246014.000    798177.0697  -5149234.2224   3666205.1138   2   6   0.0458   0.0953   0.0784  -0.0073  -0.0672   0.0125   0.00    1.1
2173 246015.000    798177.0501  -5149234.2196   3666205.1096   2   6   0.0456   0.0947   0.0776  -0.0072  -0.0666   0.0125   0.00    1.1
2173 246016.000    798177.0522  -5149234.2211   3666205.1124   2   6   0.0454   0.0941   0.0769  -0.0071  -0.0660   0.0123   0.00    1.1
2173 246017.000    798177.0545  -5149234.2129   3666205.1063   2   6   0.0452   0.0936   0.0762  -0.0071  -0.0655   0.0122   0.00    1.1
2173 246018.000    798177.0524  -5149234.2066   3666205.0992   2   6   0.0449   0.0930   0.0755  -0.0071  -0.0649   0.0120   0.00    1.1
2173 246019.000    798177.0533  -5149234.2146   3666205.1020   2   6   0.0447   0.0925   0.0748  -0.0070  -0.0643   0.0119   0.00    1.1
2173 246020.000    798177.0516  -5149234.2090   3666205.0944   2   6   0.0446   0.0919   0.0741  -0.0068  -0.0638   0.0118   0.00    1.1
2173 246021.000    798177.0525  -5149234.2062   3666205.0905   2   6   0.0444   0.0914   0.0735  -0.0068  -0.0632   0.0117   0.00    1.1
2173 246022.000    798177.0553  -5149234.2004   3666205.0887   2   6   0.0441   0.0909   0.0728  -0.0066  -0.0627   0.0116   0.00    1.1
2173 246023.000    798177.0543  -5149234.2020   3666205.0874   2   6   0.0440   0.0904   0.0721  -0.0066  -0.0622   0.0114   0.00    1.1
2173 246024.000    798177.0566  -5149234.2027   3666205.0881   2   6   0.0438   0.0898   0.0715  -0.0066  -0.0617   0.0113   0.00    1.1
2173 246025.000    798177.0548  -5149234.1951   3666205.0916   2   6   0.0436   0.0893   0.0708  -0.0064  -0.0611   0.0112   0.00    1.1
2173 246026.000    798177.0577  -5149234.1979   3666205.0957   2   6   0.0434   0.0889   0.0702  -0.0064  -0.0606   0.0111   0.00    1.1
2173 246027.000    798177.0598  -5149234.2033   3666205.0910   2   6   0.0432   0.0884   0.0696  -0.0063  -0.0601   0.0110   0.00    1.1
2173 246028.000    798177.0605  -5149234.1986   3666205.0918   2   6   0.0430   0.0879   0.0690  -0.0063  -0.0596   0.0109   0.00    1.1
2173 246029.000    798177.0636  -5149234.1899   3666205.0849   2   6   0.0428   0.0874   0.0684  -0.0064  -0.0591   0.0108   0.00    1.1
2173 246030.000    798177.0632  -5149234.2037   3666205.0978   2   6   0.0427   0.0869   0.0678  -0.0063  -0.0586   0.0107   0.00    1.1
2173 246031.000    798177.0622  -5149234.1983   3666205.0947   2   6   0.0425   0.0864   0.0672  -0.0060  -0.0582   0.0106   0.00    1.1
2173 246032.000    798177.0642  -5149234.1929   3666205.0884   2   6   0.0423   0.0860   0.0666  -0.0060  -0.0577   0.0105   0.00    1.1
2173 246033.000    798177.0633  -5149234.1928   3666205.0849   2   6   0.0422   0.0855   0.0660  -0.0061  -0.0572   0.0104   0.00    1.1
2173 246034.000    798177.0635  -5149234.1868   3666205.0717   2   6   0.0420   0.0851   0.0654  -0.0061  -0.0568   0.0103   0.00    1.1
2173 246035.000    798177.0634  -5149234.1828   3666205.0782   2   6   0.0418   0.0847   0.0649  -0.0061  -0.0563   0.0101   0.00    1.1
2173 246036.000    798177.0616  -5149234.1887   3666205.0788   2   6   0.0416   0.0842   0.0643  -0.0059  -0.0559   0.0101   0.00    1.1
2173 246037.000    798177.0643  -5149234.1863   3666205.0733   2   6   0.0415   0.0838   0.0637  -0.0056  -0.0554   0.0100   0.00    1.1
2173 246038.000    798177.0663  -5149234.1811   3666205.0640   2   6   0.0414   0.0834   0.0632  -0.0060  -0.0550   0.0098   0.00    1.1
2173 246039.000    798177.0673  -5149234.1837   3666205.0672   2   6   0.0412   0.0829   0.0626  -0.0056  -0.0545   0.0098   0.00    1.1
2173 246040.000    798177.0683  -5149234.1838   3666205.0757   2   6   0.0410   0.0825   0.0621  -0.0058  -0.0541   0.0097   0.00    1.1
2173 246041.000    798177.0716  -5149234.1882   3666205.0768   2   6   0.0408   0.0821   0.0616  -0.0057  -0.0537   0.0096   0.00    1.1
2173 246042.000    798177.0734  -5149234.1779   3666205.0685   2   6   0.0407   0.0817   0.0611  -0.0057  -0.0533   0.0095   0.00    1.1
2173 246043.000    798177.0728  -5149234.1781   3666205.0709   2   6   0.0405   0.0813   0.0605  -0.0053  -0.0529   0.0095   0.00    1.1
2173 246044.000    798177.0744  -5149234.1744   3666205.0660   2   6   0.0404   0.0809   0.0600  -0.0056  -0.0525   0.0093   0.00    1.1
2173 246045.000    798177.0710  -5149234.1711   3666205.0692   2   6   0.0402   0.0805   0.0595  -0.0054  -0.0520   0.0092   0.00    1.1
2173 246046.000    798177.0733  -5149234.1666   3666205.0649   2   6   0.0401   0.0802   0.0590  -0.0054  -0.0516   0.0091   0.00    1.1
2173 246047.000    798177.0729  -5149234.1647   3666205.0633   2   6   0.0399   0.0798   0.0585  -0.0053  -0.0513   0.0091   0.00    1.1
2173 246048.000    798177.0734  -5149234.1596   3666205.0555   2   6   0.0398   0.0794   0.0581  -0.0052  -0.0509   0.0090   0.00    1.0
2173 246049.000    798177.0745  -5149234.1573   3666205.0511   2   6   0.0397   0.0790   0.0576  -0.0053  -0.0505   0.0089   0.00    1.0
2173 246050.000    798177.0742  -5149234.1586   3666205.0564   2   6   0.0395   0.0787   0.0571  -0.0055  -0.0501   0.0088   0.00    1.0
2173 246051.000    798177.0750  -5149234.1493   3666205.0471   2   6   0.0393   0.0783   0.0567  -0.0048  -0.0497   0.0088   0.00    1.0
2173 246052.000    798177.0726  -5149234.1421   3666205.0372   2   6   0.0393   0.0780   0.0562  -0.0051  -0.0494   0.0087   0.00    1.0
2173 246053.000    798177.0900  -5149234.1220   3666205.0604   2   6   0.0391   0.0776   0.0557  -0.0049  -0.0490   0.0086   0.00    1.0
2173 246054.000    798177.0885  -5149234.1279   3666205.0722   2   6   0.0390   0.0773   0.0553  -0.0050  -0.0486   0.0085   0.00    1.0
2173 246055.000    798177.0908  -5149234.1349   3666205.0775   2   6   0.0389   0.0769   0.0548  -0.0049  -0.0483   0.0084   0.00    1.0
2173 246056.000    798177.0949  -5149234.1298   3666205.0828   2   6   0.0387   0.0766   0.0544  -0.0051  -0.0479   0.0083   0.00    1.0
2173 246057.000    798177.1011  -5149234.1302   3666205.0837   2   6   0.0385   0.0762   0.0540  -0.0048  -0.0476   0.0083   0.00    1.0
2173 246058.000    798177.0989  -5149234.1329   3666205.0863   2   6   0.0385   0.0759   0.0535  -0.0050  -0.0473   0.0081   0.00    1.0
2173 246059.000    798177.1018  -5149234.1353   3666205.0877   2   6   0.0383   0.0756   0.0531  -0.0048  -0.0469   0.0081   0.00    1.0
2173 246060.000    798177.1007  -5149234.1285   3666205.0849   2   6   0.0382   0.0752   0.0527  -0.0049  -0.0466   0.0080   0.00    1.0
2173 246061.000    798177.1011  -5149234.1330   3666205.0829   2   6   0.0380   0.0749   0.0523  -0.0048  -0.0463   0.0080   0.00    1.0
2173 246062.000    798177.1018  -5149234.1378   3666205.0868   2   6   0.0379   0.0746   0.0519  -0.0047  -0.0460   0.0080   0.00    1.0
2173 246063.000    798177.1030  -5149234.1439   3666205.0871   2   6   0.0378   0.0743   0.0515  -0.0049  -0.0456   0.0078   0.00    1.0
2173 246064.000    798177.1002  -5149234.1399   3666205.0884   2   6   0.0377   0.0740   0.0511  -0.0046  -0.0453   0.0078   0.00    1.0
2173 246065.000    798177.1019  -5149234.1373   3666205.0860   2   6   0.0376   0.0737   0.0507  -0.0045  -0.0450   0.0076   0.00    1.0
2173 246066.000    798177.1000  -5149234.1339   3666205.0831   2   6   0.0375   0.0734   0.0503  -0.0045  -0.0447   0.0077   0.00    1.0
2173 246067.000    798177.0936  -5149234.1408   3666205.0919   2   6   0.0373   0.0731   0.0499  -0.0048  -0.0444   0.0075   0.00    1.0
2173 246068.000    798177.1012  -5149234.1289   3666205.0695   2   6   0.0372   0.0728   0.0495  -0.0045  -0.0441   0.0075   0.00    1.0
2173 246069.000    798177.1033  -5149234.1301   3666205.0708   2   6   0.0371   0.0725   0.0492  -0.0045  -0.0438   0.0075   0.00    1.0
2173 246070.000    798177.1115  -5149234.1289   3666205.0651   2   6   0.0370   0.0722   0.0488  -0.0046  -0.0435   0.0073   0.00    1.0
2173 246071.000    798177.1066  -5149234.1298   3666205.0688   2   6   0.0369   0.0719   0.0484  -0.0044  -0.0432   0.0073   0.00    1.0
2173 246072.000    798177.1100  -5149234.1298   3666205.0630   2   6   0.0367   0.0716   0.0481  -0.0044  -0.0429   0.0073   0.00    1.0
2173 246073.000    798177.1076  -5149234.1242   3666205.0604   2   6   0.0366   0.0713   0.0477  -0.0042  -0.0426   0.0072   0.00    1.0
2173 246074.000    798177.1104  -5149234.1227   3666205.0604   2   6   0.0365   0.0710   0.0474  -0.0044  -0.0423   0.0071   0.00    1.0
2173 246075.000    798177.1068  -5149234.1171   3666205.0518   2   6   0.0364   0.0708   0.0470  -0.0045  -0.0421   0.0071   0.00    1.0
2173 246076.000    798177.1105  -5149234.1123   3666205.0482   2   6   0.0364   0.0705   0.0467  -0.0043  -0.0418   0.0069   0.00    1.1
2173 246077.000    798177.1091  -5149234.1288   3666205.0584   2   6   0.0362   0.0702   0.0463  -0.0043  -0.0415   0.0069   0.00    1.1
2173 246078.000    798177.1129  -5149234.1387   3666205.0719   2   6   0.0361   0.0700   0.0460  -0.0042  -0.0413   0.0069   0.00    1.1
2173 246079.000    798177.1096  -5149234.1378   3666205.0751   2   6   0.0360   0.0697   0.0457  -0.0042  -0.0410   0.0068   0.00    1.1
2173 246080.000    798177.1065  -5149234.1488   3666205.0841   2   6   0.0359   0.0694   0.0453  -0.0044  -0.0407   0.0067   0.00    1.0
2173 246081.000    798177.1037  -5149234.1568   3666205.0955   2   6   0.0358   0.0692   0.0450  -0.0041  -0.0405   0.0067   0.00    1.0
2173 246082.000    798177.1007  -5149234.1704   3666205.1087   2   6   0.0357   0.0689   0.0447  -0.0043  -0.0402   0.0066   0.00    1.0
2173 246083.000    798177.0969  -5149234.1840   3666205.1242   2   6   0.0356   0.0687   0.0443  -0.0041  -0.0400   0.0067   0.00    1.0
2173 246084.000    798177.0925  -5149234.1956   3666205.1383   2   6   0.0355   0.0684   0.0440  -0.0040  -0.0397   0.0066   0.00    1.0
2173 246085.000    798177.0901  -5149234.2001   3666205.1556   2   6   0.0354   0.0682   0.0437  -0.0043  -0.0395   0.0064   0.00    1.0
2173 246086.000    798177.0878  -5149234.2085   3666205.1633   2   6   0.0353   0.0679   0.0434  -0.0041  -0.0392   0.0064   0.00    1.0
2173 246087.000    798177.0895  -5149234.2135   3666205.1769   2   6   0.0352   0.0677   0.0431  -0.0041  -0.0390   0.0064   0.00    1.0
2173 246088.000    798177.0873  -5149234.2148   3666205.1855   2   6   0.0351   0.0675   0.0428  -0.0042  -0.0387   0.0063   0.00    1.0
2173 246089.000    798177.0875  -5149234.2219   3666205.1971   2   6   0.0350   0.0672   0.0425  -0.0043  -0.0385   0.0062   0.00    1.0
2173 246090.000    798177.0873  -5149234.2274   3666205.2048   2   6   0.0349   0.0670   0.0422  -0.0042  -0.0383   0.0062   0.00    1.0
2173 246091.000    798177.0887  -5149234.2336   3666205.2176   2   6   0.0348   0.0667   0.0419  -0.0041  -0.0380   0.0062   0.00    1.0
2173 246092.000    798177.0867  -5149234.2399   3666205.2283   2   6   0.0346   0.0665   0.0416  -0.0040  -0.0378   0.0061   0.00    1.0
2173 246093.000    798177.0881  -5149234.2394   3666205.2274   2   6   0.0346   0.0663   0.0414  -0.0039  -0.0376   0.0061   0.00    1.0
2173 246094.000    798177.0897  -5149234.2493   3666205.2417   2   6   0.0345   0.0661   0.0411  -0.0042  -0.0374   0.0060   0.00    1.0
2173 246095.000    798177.0894  -5149234.2540   3666205.2469   2   6   0.0344   0.0658   0.0408  -0.0039  -0.0372   0.0060   0.00    1.0
2173 246096.000    798177.0927  -5149234.2549   3666205.2532   2   6   0.0343   0.0656   0.0406  -0.0041  -0.0369   0.0059   0.00    1.0
2173 246097.000    798177.0872  -5149234.2669   3666205.2653   2   6   0.0343   0.0654   0.0403  -0.0040  -0.0367   0.0059   0.00    1.0
2173 246098.000    798177.0859  -5149234.2723   3666205.2729   2   6   0.0342   0.0652   0.0400  -0.0042  -0.0365   0.0058   0.00    1.1
2173 246099.000    798177.0848  -5149234.2793   3666205.2791   2   6   0.0340   0.0650   0.0397  -0.0038  -0.0363   0.0058   0.00    1.1
2173 246100.000    798177.0837  -5149234.2760   3666205.2795   2   6   0.0340   0.0648   0.0395  -0.0041  -0.0361   0.0056   0.00    1.1
2173 246101.000    798177.0848  -5149234.2757   3666205.2789   2   6   0.0339   0.0646   0.0393  -0.0039  -0.0359   0.0056   0.00    1.1
2173 246102.000    798177.0833  -5149234.2702   3666205.2768   2   6   0.0337   0.0643   0.0390  -0.0037  -0.0357   0.0056   0.00    1.1
2173 246103.000    798177.0838  -5149234.2769   3666205.2839   2   6   0.0337   0.0641   0.0387  -0.0037  -0.0355   0.0057   0.00    1.1
2173 246104.000    798177.0828  -5149234.2644   3666205.2787   2   6   0.0336   0.0639   0.0385  -0.0038  -0.0353   0.0056   0.00    1.1
2173 246105.000    798177.0842  -5149234.2737   3666205.2804   2   6   0.0336   0.0637   0.0382  -0.0041  -0.0351   0.0054   0.00    1.1
2173 246106.000    798177.0820  -5149234.2689   3666205.2799   2   6   0.0334   0.0635   0.0380  -0.0039  -0.0349   0.0055   0.00    1.1
2173 246107.000    798177.0820  -5149234.2632   3666205.2754   2   6   0.0334   0.0633   0.0378  -0.0039  -0.0347   0.0054   0.00    1.1
2173 246108.000    798177.0821  -5149234.2714   3666205.2846   2   6   0.0332   0.0631   0.0375  -0.0037  -0.0346   0.0054   0.00    1.1
2173 246109.000    798177.0804  -5149234.2550   3666205.2678   2   6   0.0332   0.0629   0.0373  -0.0036  -0.0343   0.0053   0.00    1.1
2173 246110.000    798177.0786  -5149234.2529   3666205.2586   2   6   0.0331   0.0627   0.0370  -0.0039  -0.0342   0.0053   0.00    1.1
2173 246111.000    798177.0799  -5149234.2492   3666205.2468   2   6   0.0330   0.0625   0.0368  -0.0037  -0.0340   0.0052   0.00    1.1
2173 246112.000    798177.0812  -5149234.2509   3666205.2504   2   6   0.0329   0.0623   0.0366  -0.0037  -0.0338   0.0052   0.00    1.1
2173 246113.000    798177.0852  -5149234.2456   3666205.2446   2   6   0.0329   0.0622   0.0364  -0.0037  -0.0337   0.0052   0.00    1.1
2173 246114.000    798177.0833  -5149234.2495   3666205.2418   2   6   0.0327   0.0620   0.0361  -0.0038  -0.0335   0.0052   0.00    1.1
2173 246115.000    798177.0831  -5149234.2434   3666205.2329   2   6   0.0326   0.0618   0.0359  -0.0036  -0.0333   0.0052   0.00    1.1
2173 246116.000    798177.0823  -5149234.2509   3666205.2396   2   6   0.0326   0.0616   0.0357  -0.0039  -0.0331   0.0050   0.00    1.1
2173 246117.000    798177.0817  -5149234.2474   3666205.2372   2   6   0.0325   0.0614   0.0355  -0.0036  -0.0329   0.0050   0.00    1.1
2173 246118.000    798177.0810  -5149234.2421   3666205.2306   2   6   0.0325   0.0613   0.0353  -0.0040  -0.0328   0.0049   0.00    1.1
2173 246119.000    798177.0801  -5149234.2384   3666205.2262   2   6   0.0323   0.0611   0.0351  -0.0035  -0.0326   0.0050   0.00    1.1
2173 246120.000    798177.0777  -5149234.2315   3666205.2183   2   6   0.0323   0.0609   0.0349  -0.0039  -0.0324   0.0049   0.00    1.1
2173 246121.000    798177.0839  -5149234.2254   3666205.2166   2   6   0.0322   0.0607   0.0346  -0.0036  -0.0323   0.0049   0.00    1.1
2173 246122.000    798177.0839  -5149234.2258   3666205.2158   2   6   0.0322   0.0606   0.0344  -0.0039  -0.0321   0.0049   0.00    1.1
2173 246123.000    798177.0840  -5149234.2242   3666205.2107   2   6   0.0321   0.0604   0.0342  -0.0036  -0.0320   0.0049   0.00    1.1
2173 246124.000    798177.0849  -5149234.2206   3666205.2028   2   6   0.0321   0.0602   0.0341  -0.0040  -0.0318   0.0046   0.00    1.1
2173 246125.000    798177.0843  -5149234.2193   3666205.2032   2   6   0.0320   0.0600   0.0339  -0.0037  -0.0316   0.0048   0.00    1.1
2173 246126.000    798177.0815  -5149234.2220   3666205.2049   2   6   0.0319   0.0599   0.0337  -0.0038  -0.0315   0.0047   0.00    1.1
2173 246127.000    798177.0778  -5149234.2189   3666205.2025   2   6   0.0318   0.0597   0.0335  -0.0037  -0.0313   0.0045   0.00    1.1
2173 246128.000    798177.0866  -5149234.2133   3666205.1873   2   6   0.0318   0.0595   0.0333  -0.0034  -0.0312   0.0048   0.00    1.1
2173 246129.000    798177.0836  -5149234.2243   3666205.1988   2   6   0.0317   0.0594   0.0331  -0.0039  -0.0310   0.0045   0.00    1.1
2173 246130.000    798177.0834  -5149234.2179   3666205.1946   2   6   0.0316   0.0592   0.0329  -0.0039  -0.0309   0.0044   0.00    1.1
2173 246131.000    798177.0873  -5149234.2214   3666205.1919   2   6   0.0315   0.0590   0.0327  -0.0038  -0.0307   0.0046   0.00    1.1
2173 246132.000    798177.0851  -5149234.2202   3666205.1919   2   6   0.0315   0.0589   0.0325  -0.0040  -0.0306   0.0043   0.00    1.1
2173 246133.000    798177.0836  -5149234.2211   3666205.1920   2   6   0.0314   0.0587   0.0323  -0.0037  -0.0304   0.0044   0.00    1.1
2173 246134.000    798177.0763  -5149234.1942   3666205.1818   2   6   0.0313   0.0586   0.0322  -0.0036  -0.0303   0.0044   0.00    1.1
2173 246135.000    798177.0758  -5149234.1899   3666205.1784   2   6   0.0313   0.0584   0.0320  -0.0041  -0.0302   0.0041   0.00    1.1
2173 246136.000    798177.0784  -5149234.1815   3666205.1615   2   6   0.0311   0.0583   0.0318  -0.0037  -0.0300   0.0043   0.00    1.1
2173 246137.000    798177.0787  -5149234.1712   3666205.1558   2   6   0.0312   0.0581   0.0316  -0.0038  -0.0299   0.0041   0.00    1.1
2173 246138.000    798177.0765  -5149234.1731   3666205.1444   2   6   0.0310   0.0579   0.0315  -0.0036  -0.0298   0.0043   0.00    1.1
2173 246139.000    798177.0762  -5149234.1641   3666205.1302   2   6   0.0309   0.0578   0.0313  -0.0039  -0.0296   0.0042   0.00    1.1
2173 246140.000    798177.0783  -5149234.1626   3666205.1229   2   6   0.0309   0.0577   0.0311  -0.0036  -0.0295   0.0043   0.00    1.1
2173 246141.000    798177.0774  -5149234.1576   3666205.1114   2   6   0.0308   0.0575   0.0309  -0.0039  -0.0294   0.0042   0.00    1.1
2173 246142.000    798177.0776  -5149234.1542   3666205.1059   2   6   0.0308   0.0574   0.0308  -0.0039  -0.0292   0.0041   0.00    1.1
2173 246143.000    798177.0776  -5149234.1452   3666205.0905   2   6   0.0307   0.0572   0.0307  -0.0040  -0.0291   0.0039   0.00    1.1
2173 246144.000    798177.0755  -5149234.1399   3666205.0795   2   6   0.0306   0.0571   0.0305  -0.0038  -0.0290   0.0042   0.00    1.1
2173 246145.000    798177.0788  -5149234.1351   3666205.0738   2   6   0.0306   0.0569   0.0303  -0.0038  -0.0289   0.0041   0.00    1.1
2173 246146.000    798177.0774  -5149234.1407   3666205.0724   2   6   0.0305   0.0568   0.0301  -0.0035  -0.0287   0.0042   0.00    1.1
2173 246147.000    798177.0792  -5149234.1352   3666205.0607   2   6   0.0305   0.0567   0.0300  -0.0038  -0.0286   0.0040   0.00    1.0
2173 246148.000    798177.0814  -5149234.1257   3666205.0538   2   6   0.0304   0.0565   0.0299  -0.0040  -0.0285   0.0038   0.00    1.0
2173 246149.000    798177.0812  -5149234.1251   3666205.0464   2   6   0.0304   0.0564   0.0297  -0.0039  -0.0284   0.0039   0.00    1.0
2173 246150.000    798177.0802  -5149234.1158   3666205.0395   2   6   0.0302   0.0562   0.0296  -0.0037  -0.0282   0.0039   0.00    1.0
2173 246151.000    798177.0841  -5149234.1115   3666205.0276   2   6   0.0302   0.0561   0.0294  -0.0037  -0.0281   0.0041   0.00    1.0
2173 246152.000    798177.0863  -5149234.0990   3666205.0177   2   6   0.0301   0.0559   0.0292  -0.0036  -0.0280   0.0038   0.00    1.0
2173 246153.000    798177.0860  -5149234.1033   3666205.0167   2   6   0.0301   0.0558   0.0291  -0.0039  -0.0279   0.0036   0.00    1.0
2173 246154.000    798177.0882  -5149234.0999   3666205.0094   2   6   0.0301   0.0557   0.0290  -0.0043  -0.0278   0.0036   0.00    1.0
2173 246155.000    798177.0876  -5149234.1003   3666205.0033   2   6   0.0299   0.0555   0.0288  -0.0037  -0.0277   0.0038   0.00    1.0
2173 246156.000    798177.0874  -5149234.0938   3666204.9979   2   6   0.0299   0.0554   0.0287  -0.0039  -0.0275   0.0036   0.00    1.0
2173 246157.000    798177.0892  -5149234.0950   3666204.9875   2   6   0.0298   0.0553   0.0285  -0.0038  -0.0274   0.0035   0.00    1.0
2173 246158.000    798177.0906  -5149234.0922   3666204.9823   2   6   0.0297   0.0552   0.0284  -0.0037  -0.0273   0.0037   0.00    1.0
2173 246159.000    798177.0877  -5149234.0892   3666204.9787   2   6   0.0296   0.0550   0.0282  -0.0034  -0.0272   0.0038   0.00    1.0
2173 246160.000    798177.0903  -5149234.0811   3666204.9705   2   6   0.0296   0.0549   0.0281  -0.0034  -0.0271   0.0038   0.00    1.0
2173 246161.000    798177.0957  -5149234.0799   3666204.9714   2   6   0.0296   0.0548   0.0280  -0.0036  -0.0270   0.0037   0.00    1.0
2173 246162.000    798177.0935  -5149234.0813   3666204.9680   2   6   0.0295   0.0546   0.0278  -0.0036  -0.0269   0.0036   0.00    1.0
2173 246163.000    798177.0980  -5149234.0730   3666204.9581   2   6   0.0295   0.0545   0.0277  -0.0041  -0.0268   0.0033   0.00    1.0
2173 246164.000    798177.0969  -5149234.0644   3666204.9533   2   6   0.0294   0.0544   0.0276  -0.0039  -0.0267   0.0035   0.00    1.0
2173 246165.000    798177.0977  -5149234.0475   3666204.9344   2   6   0.0293   0.0543   0.0275  -0.0038  -0.0266   0.0034   0.00    1.0
2173 246166.000    798177.1007  -5149234.0479   3666204.9177   2   6   0.0293   0.0542   0.0273  -0.0040  -0.0265   0.0033   0.00    1.0
2173 246167.000    798177.1024  -5149234.0443   3666204.9126   2   6   0.0292   0.0540   0.0272  -0.0037  -0.0264   0.0036   0.00    1.0
2173 246168.000    798177.0990  -5149234.0449   3666204.9058   2   6   0.0292   0.0539   0.0271  -0.0035  -0.0263   0.0035   0.00    1.0
2173 246169.000    798177.0980  -5149234.0344   3666204.8916   2   6   0.0291   0.0538   0.0269  -0.0037  -0.0262   0.0034   0.00    1.0
2173 246170.000    798177.0998  -5149234.0323   3666204.8851   2   6   0.0291   0.0536   0.0268  -0.0038  -0.0261   0.0034   0.00    1.0
2173 246171.000    798177.0974  -5149234.0364   3666204.8868   2   6   0.0290   0.0535   0.0267  -0.0038  -0.0260   0.0032   0.00    1.0
2173 246172.000    798177.0989  -5149234.0369   3666204.8795   2   6   0.0289   0.0534   0.0265  -0.0038  -0.0259   0.0033   0.00    1.0
2173 246173.000    798177.1010  -5149234.0345   3666204.8762   2   6   0.0290   0.0533   0.0265  -0.0041  -0.0258   0.0033   0.00    1.1
2173 246174.000    798177.1024  -5149234.0322   3666204.8679   2   6   0.0288   0.0532   0.0263  -0.0036  -0.0257   0.0036   0.00    1.1
2173 246175.000    798177.0993  -5149234.0270   3666204.8621   2   6   0.0288   0.0531   0.0262  -0.0041  -0.0256   0.0029   0.00    1.1
2173 246176.000    798177.0983  -5149234.0169   3666204.8460   2   6   0.0287   0.0530   0.0261  -0.0040  -0.0255   0.0032   0.00    1.1
2173 246177.000    798177.0995  -5149234.0165   3666204.8436   2   6   0.0287   0.0528   0.0260  -0.0037  -0.0254   0.0032   0.00    1.1
2173 246178.000    798177.0958  -5149234.0161   3666204.8405   2   6   0.0286   0.0527   0.0259  -0.0039  -0.0253   0.0032   0.00    1.1
2173 246179.000    798177.0999  -5149234.0056   3666204.8284   2   6   0.0285   0.0526   0.0258  -0.0039  -0.0252   0.0032   0.00    1.1
2173 246180.000    798177.0993  -5149234.0001   3666204.8198   2   6   0.0285   0.0525   0.0257  -0.0039  -0.0251   0.0031   0.00    1.1
2173 246181.000    798177.0993  -5149234.0038   3666204.8144   2   6   0.0284   0.0524   0.0255  -0.0034  -0.0251   0.0033   0.00    1.1
2173 246182.000    798177.1003  -5149233.9911   3666204.8056   2   6   0.0284   0.0523   0.0254  -0.0037  -0.0250   0.0030   0.00    1.1
2173 246183.000    798177.1012  -5149233.9930   3666204.8031   2   6   0.0283   0.0522   0.0253  -0.0040  -0.0249   0.0031   0.00    1.1
2173 246184.000    798177.0967  -5149233.9880   3666204.7974   2   6   0.0282   0.0521   0.0252  -0.0037  -0.0248   0.0033   0.00    1.1
2173 246185.000    798177.0983  -5149233.9893   3666204.8028   2   6   0.0283   0.0520   0.0251  -0.0040  -0.0247   0.0030   0.00    1.1
2173 246186.000    798177.0931  -5149233.9985   3666204.8110   2   6   0.0282   0.0519   0.0250  -0.0038  -0.0246   0.0032   0.00    1.1
2173 246187.000    798177.0875  -5149234.0023   3666204.8129   2   6   0.0281   0.0517   0.0249  -0.0038  -0.0245   0.0031   0.00    1.1
2173 246188.000    798177.0915  -5149234.0034   3666204.8058   2   6   0.0281   0.0516   0.0247  -0.0036  -0.0245   0.0032   0.00    1.1
2173 246189.000    798177.0909  -5149234.0119   3666204.8127   2   6   0.0281   0.0515   0.0247  -0.0040  -0.0244   0.0029   0.00    1.1
2173 246190.000    798177.0889  -5149234.0116   3666204.8146   2   6   0.0280   0.0514   0.0245  -0.0038  -0.0244   0.0031   0.00    1.1
2173 246191.000    798177.0898  -5149234.0148   3666204.8192   2   6   0.0280   0.0513   0.0245  -0.0040  -0.0242   0.0027   0.00    1.1
2173 246192.000    798177.0913  -5149234.0058   3666204.8167   2   6   0.0279   0.0512   0.0243  -0.0037  -0.0242   0.0031   0.00    1.1
2173 246193.000    798177.0896  -5149234.0110   3666204.8215   2   6   0.0278   0.0511   0.0243  -0.0036  -0.0241   0.0031   0.00    1.1
2173 246194.000    798177.0917  -5149234.0111   3666204.8192   2   6   0.0278   0.0510   0.0242  -0.0038  -0.0239   0.0027   0.00    1.1
2173 246195.000    798177.0889  -5149234.0141   3666204.8348   2   6   0.0277   0.0509   0.0241  -0.0040  -0.0239   0.0029   0.00    1.1
2173 246196.000    798177.0890  -5149234.0221   3666204.8528   2   6   0.0278   0.0508   0.0240  -0.0039  -0.0238   0.0029   0.00    1.1
2173 246197.000    798177.0918  -5149234.0224   3666204.8606   2   6   0.0276   0.0507   0.0239  -0.0039  -0.0238   0.0030   0.00    1.1
2173 246198.000    798177.0878  -5149234.0301   3666204.8726   2   6   0.0276   0.0506   0.0238  -0.0038  -0.0237   0.0028   0.00    1.1
2173 246199.000    798177.0871  -5149234.0334   3666204.8821   2   6   0.0277   0.0505   0.0237  -0.0038  -0.0236   0.0027   0.00    1.1
2173 246200.000    798177.0880  -5149234.0387   3666204.8957   2   6   0.0275   0.0504   0.0236  -0.0036  -0.0235   0.0030   0.00    1.1
2173 246201.000    798177.0860  -5149234.0369   3666204.8971   2   6   0.0275   0.0503   0.0235  -0.0039  -0.0234   0.0023   0.00    1.1
2173 246202.000    798177.0848  -5149234.0531   3666204.9081   2   6   0.0274   0.0502   0.0234  -0.0039  -0.0234   0.0028   0.00    1.1
2173 246203.000    798177.0860  -5149234.0623   3666204.9283   2   6   0.0274   0.0501   0.0233  -0.0039  -0.0233   0.0026   0.00    1.1
2173 246204.000    798177.0836  -5149234.0697   3666204.9348   2   6   0.0273   0.0500   0.0232  -0.0038  -0.0232   0.0026   0.00    1.0
2173 246205.000    798177.0788  -5149234.0744   3666204.9460   2   6   0.0273   0.0499   0.0231  -0.0039  -0.0232   0.0027   0.00    1.0
2173 246206.000    798177.0815  -5149234.0820   3666204.9547   2   6   0.0272   0.0498   0.0231  -0.0040  -0.0231   0.0025   0.00    1.0
2173 246207.000    798177.0825  -5149234.0788   3666204.9615   2   6   0.0272   0.0497   0.0229  -0.0039  -0.0230   0.0026   0.00    1.0
2173 246208.000    798177.0823  -5149234.0858   3666204.9604   2   6   0.0272   0.0496   0.0229  -0.0039  -0.0230   0.0027   0.00    1.0
2173 246209.000    798177.0802  -5149234.0816   3666204.9755   2   6   0.0270   0.0495   0.0228  -0.0036  -0.0229   0.0029   0.00    1.0
2173 246210.000    798177.0809  -5149234.0860   3666204.9814   2   6   0.0271   0.0495   0.0227  -0.0038  -0.0228   0.0027   0.00    1.0
2173 246211.000    798177.0801  -5149234.0949   3666204.9952   2   6   0.0270   0.0494   0.0226  -0.0040  -0.0228   0.0025   0.00    1.0
2173 246212.000    798177.0819  -5149234.0970   3666204.9994   2   6   0.0270   0.0493   0.0225  -0.0038  -0.0227   0.0026   0.00    1.0
2173 246213.000    798177.0784  -5149234.0926   3666205.0060   2   6   0.0270   0.0492   0.0225  -0.0039  -0.0226   0.0026   0.00    1.0
2173 246214.000    798177.0802  -5149234.0952   3666205.0100   2   6   0.0268   0.0491   0.0223  -0.0036  -0.0226   0.0030   0.00    1.0
2173 246215.000    798177.0799  -5149234.1021   3666205.0172   2   6   0.0268   0.0490   0.0223  -0.0038  -0.0225   0.0027   0.00    1.0
2173 246216.000    798177.0795  -5149234.1014   3666205.0191   2   6   0.0268   0.0489   0.0222  -0.0041  -0.0224   0.0023   0.00    1.0
2173 246217.000    798177.0784  -5149234.1053   3666205.0302   2   6   0.0268   0.0488   0.0221  -0.0039  -0.0223   0.0025   0.00    1.0
2173 246218.000    798177.0795  -5149234.1116   3666205.0366   2   6   0.0267   0.0487   0.0220  -0.0035  -0.0223   0.0028   0.00    1.0
2173 246219.000    798177.0787  -5149234.1183   3666205.0434   2   6   0.0267   0.0487   0.0220  -0.0041  -0.0222   0.0024   0.00    1.0
2173 246220.000    798177.0756  -5149234.1240   3666205.0499   2   6   0.0266   0.0486   0.0219  -0.0041  -0.0222   0.0024   0.00    1.0
2173 246221.000    798177.1064  -5149234.1002   3666205.0205   2   6   0.0266   0.0485   0.0218  -0.0042  -0.0221   0.0020   0.00    1.1
2173 246222.000    798177.1035  -5149234.1050   3666205.0270   2   6   0.0265   0.0484   0.0218  -0.0039  -0.0220   0.0022   0.00    1.1
2173 246223.000    798177.1035  -5149234.1077   3666205.0356   2   6   0.0265   0.0483   0.0217  -0.0040  -0.0220   0.0024   0.00    1.1
2173 246224.000    798177.1002  -5149234.1162   3666205.0497   2   6   0.0265   0.0482   0.0216  -0.0041  -0.0220   0.0022   0.00    1.1
2173 246225.000    798177.1007  -5149234.1183   3666205.0569   2   6   0.0263   0.0481   0.0215  -0.0039  -0.0218   0.0025   0.00    1.1
2173 246226.000    798177.1034  -5149234.1238   3666205.0662   2   6   0.0264   0.0480   0.0214  -0.0041  -0.0218   0.0022   0.00    1.1
2173 246227.000    798177.1048  -5149234.1227   3666205.0733   2   6   0.0263   0.0479   0.0214  -0.0039  -0.0217   0.0024   0.00    1.1
2173 246228.000    798177.1028  -5149234.1322   3666205.0821   2   6   0.0263   0.0479   0.0213  -0.0040  -0.0217   0.0021   0.00    1.1
2173 246229.000    798177.1010  -5149234.1464   3666205.0977   2   6   0.0263   0.0478   0.0212  -0.0042  -0.0216   0.0021   0.00    1.1
2173 246230.000    798177.1014  -5149234.1447   3666205.0976   2   6   0.0261   0.0477   0.0212  -0.0038  -0.0216   0.0024   0.00    1.1
2173 246231.000    798177.1010  -5149234.1557   3666205.1104   2   6   0.0262   0.0476   0.0211  -0.0042  -0.0215   0.0019   0.00    1.1
2173 246232.000    798177.1013  -5149234.1611   3666205.1202   2   6   0.0261   0.0475   0.0210  -0.0039  -0.0215   0.0023   0.00    1.1
2173 246233.000    798177.0990  -5149234.1724   3666205.1309   2   6   0.0261   0.0475   0.0209  -0.0044  -0.0214   0.0019   0.00    1.2
2173 246234.000    798177.0996  -5149234.1782   3666205.1399   2   6   0.0260   0.0474   0.0209  -0.0040  -0.0213   0.0022   0.00    1.2
2173 246235.000    798177.1006  -5149234.1817   3666205.1483   2   6   0.0260   0.0473   0.0208  -0.0039  -0.0213   0.0023   0.00    1.2
2173 246236.000    798177.1009  -5149234.1865   3666205.1557   2   6   0.0258   0.0472   0.0207  -0.0040  -0.0212   0.0022   0.00    1.2
2173 246237.000    798177.1018  -5149234.1975   3666205.1627   2   6   0.0259   0.0472   0.0207  -0.0041  -0.0211   0.0019   0.00    1.2
2173 246238.000    798177.1030  -5149234.1971   3666205.1721   2   6   0.0259   0.0471   0.0206  -0.0040  -0.0211   0.0021   0.00    1.2
2173 246239.000    798177.1003  -5149234.2064   3666205.1825   2   6   0.0259   0.0470   0.0205  -0.0038  -0.0211   0.0024   0.00    1.2
2173 246240.000    798177.1022  -5149234.2105   3666205.1870   2   6   0.0258   0.0469   0.0205  -0.0040  -0.0210   0.0021   0.00    1.2
2173 246241.000    798177.1046  -5149234.2218   3666205.1986   2   6   0.0257   0.0468   0.0204  -0.0043  -0.0209   0.0018   0.00    1.2
2173 246242.000    798177.1040  -5149234.2216   3666205.2066   2   6   0.0257   0.0467   0.0203  -0.0037  -0.0209   0.0023   0.00    1.2
2173 246243.000    798177.1044  -5149234.2218   3666205.2085   2   6   0.0257   0.0467   0.0203  -0.0037  -0.0208   0.0022   0.00    1.2
2173 246244.000    798177.1033  -5149234.2325   3666205.2190   2   6   0.0256   0.0466   0.0202  -0.0040  -0.0208   0.0019   0.00    1.3
2173 246245.000    798177.1051  -5149234.2394   3666205.2267   2   6   0.0256   0.0465   0.0201  -0.0039  -0.0208   0.0022   0.00    1.3
2173 246246.000    798177.1067  -5149234.2426   3666205.2323   2   6   0.0256   0.0464   0.0201  -0.0039  -0.0207   0.0024   0.00    1.3
2173 246247.000    798177.1077  -5149234.2510   3666205.2402   2   6   0.0255   0.0464   0.0200  -0.0039  -0.0207   0.0022   0.00    1.3
2173 246248.000    798177.1092  -5149234.2584   3666205.2473   2   6   0.0254   0.0463   0.0200  -0.0041  -0.0206   0.0021   0.00    1.3
2173 246249.000    798177.1127  -5149234.2594   3666205.2450   2   6   0.0254   0.0462   0.0200  -0.0041  -0.0206   0.0019   0.00    1.3
2173 246250.000    798177.1088  -5149234.2680   3666205.2550   2   6   0.0256   0.0461   0.0199  -0.0043  -0.0205   0.0013   0.00    1.3
2173 246251.000    798177.1120  -5149234.2738   3666205.2705   2   6   0.0254   0.0461   0.0198  -0.0043  -0.0204   0.0017   0.00    1.3
2173 246252.000    798177.1095  -5149234.2813   3666205.2793   2   6   0.0253   0.0460   0.0197  -0.0041  -0.0204   0.0018   0.00    1.3
2173 246253.000    798177.1078  -5149234.2840   3666205.2818   2   6   0.0253   0.0459   0.0197  -0.0044  -0.0203   0.0014   0.00    1.3
2173 246254.000    798177.1147  -5149234.2853   3666205.2802   2   6   0.0252   0.0458   0.0196  -0.0041  -0.0203   0.0019   0.00    1.3
2173 246255.000    798177.1161  -5149234.2899   3666205.2846   2   6   0.0253   0.0458   0.0196  -0.0038  -0.0202   0.0021   0.00    1.4
2173 246256.000    798177.1137  -5149234.2955   3666205.2940   2   6   0.0252   0.0457   0.0195  -0.0043  -0.0202   0.0012   0.00    1.4
2173 246257.000    798177.1178  -5149234.2986   3666205.2949   2   6   0.0251   0.0456   0.0194  -0.0041  -0.0202   0.0020   0.00    1.4
2173 246258.000    798177.1156  -5149234.3016   3666205.2983   2   6   0.0251   0.0456   0.0194  -0.0038  -0.0201   0.0021   0.00    1.4
2173 246259.000    798177.1161  -5149234.3077   3666205.3049   2   6   0.0251   0.0455   0.0194  -0.0038  -0.0201   0.0019   0.00    1.4
2173 246260.000    798177.1164  -5149234.3119   3666205.3141   2   6   0.0251   0.0454   0.0193  -0.0044  -0.0200   0.0020   0.00    1.4
2173 246261.000    798177.1162  -5149234.3120   3666205.3145   2   6   0.0250   0.0454   0.0193  -0.0042  -0.0199   0.0013   0.00    1.4
2173 246262.000    798177.1161  -5149234.3117   3666205.3101   2   6   0.0249   0.0453   0.0191  -0.0039  -0.0199   0.0021   0.00    1.4
2173 246263.000    798177.1192  -5149234.3181   3666205.3168   2   6   0.0249   0.0452   0.0191  -0.0039  -0.0199   0.0018   0.00    1.4
2173 246264.000    798177.1199  -5149234.3210   3666205.3223   2   6   0.0248   0.0451   0.0191  -0.0042  -0.0198   0.0017   0.00    1.4
2173 246265.000    798177.1199  -5149234.3229   3666205.3239   2   6   0.0248   0.0451   0.0190  -0.0038  -0.0198   0.0021   0.00    1.4
2173 246266.000    798177.1208  -5149234.3260   3666205.3302   2   6   0.0248   0.0450   0.0189  -0.0039  -0.0197   0.0024   0.00    1.4
2173 246267.000    798177.1185  -5149234.3301   3666205.3302   2   6   0.0248   0.0449   0.0189  -0.0039  -0.0197   0.0020   0.00    1.4
2173 246268.000    798177.1190  -5149234.3335   3666205.3335   2   6   0.0247   0.0448   0.0188  -0.0040  -0.0197   0.0019   0.00    1.5
2173 246269.000    798177.1193  -5149234.3383   3666205.3394   2   6   0.0247   0.0448   0.0188  -0.0041  -0.0196   0.0019   0.00    1.5
2173 246270.000    798177.1216  -5149234.3420   3666205.3407   2   6   0.0247   0.0447   0.0187  -0.0041  -0.0196   0.0019   0.00    1.5
2173 246271.000    798177.1165  -5149234.3442   3666205.3434   2   6   0.0246   0.0446   0.0187  -0.0040  -0.0196   0.0018   0.00    1.5
2173 246272.000    798177.1223  -5149234.3472   3666205.3450   2   6   0.0246   0.0446   0.0186  -0.0039  -0.0195   0.0021   0.00    1.5
2173 246273.000    798177.1214  -5149234.3460   3666205.3516   2   6   0.0245   0.0445   0.0186  -0.0039  -0.0195   0.0020   0.00    1.5
2173 246274.000    798177.1232  -5149234.3467   3666205.3521   2   6   0.0245   0.0445   0.0186  -0.0041  -0.0194   0.0013   0.00    1.5
2173 246275.000    798177.1246  -5149234.3454   3666205.3568   2   6   0.0245   0.0444   0.0185  -0.0041  -0.0194   0.0016   0.00    1.5
2173 246276.000    798177.1227  -5149234.3422   3666205.3508   2   6   0.0245   0.0443   0.0185  -0.0042  -0.0193   0.0016   0.00    1.5
2173 246277.000    798177.1230  -5149234.3460   3666205.3531   2   6   0.0245   0.0443   0.0184  -0.0044  -0.0193   0.0013   0.00    1.5
2173 246278.000    798177.1227  -5149234.3319   3666205.3444   2   6   0.0244   0.0442   0.0184  -0.0042  -0.0192   0.0017   0.00    1.5
2173 246279.000    798177.1245  -5149234.3319   3666205.3399   2   6   0.0244   0.0441   0.0183  -0.0043  -0.0192   0.0012   0.00    1.5
2173 246280.000    798177.1215  -5149234.3283   3666205.3350   2   6   0.0243   0.0441   0.0182  -0.0041  -0.0192   0.0016   0.00    1.5
2173 246281.000    798177.1231  -5149234.3328   3666205.3459   2   6   0.0243   0.0440   0.0182  -0.0040  -0.0191   0.0017   0.00    1.6
2173 246282.000    798177.1253  -5149234.3396   3666205.3488   2   6   0.0243   0.0439   0.0182  -0.0041  -0.0191   0.0020   0.00    1.6
2173 246283.000    798177.1223  -5149234.3312   3666205.3470   2   6   0.0243   0.0439   0.0181  -0.0039  -0.0191   0.0020   0.00    1.6
2173 246284.000    798177.1235  -5149234.3334   3666205.3449   2   6   0.0242   0.0438   0.0181  -0.0039  -0.0191   0.0019   0.00    1.6
2173 246285.000    798177.1277  -5149234.3342   3666205.3407   2   6   0.0242   0.0437   0.0180  -0.0040  -0.0190   0.0016   0.00    1.6
2173 246286.000    798177.1281  -5149234.3375   3666205.3431   2   6   0.0241   0.0437   0.0179  -0.0035  -0.0190   0.0021   0.00    1.6
2173 246287.000    798177.1274  -5149234.3349   3666205.3435   2   6   0.0241   0.0436   0.0179  -0.0043  -0.0189   0.0015   0.00    1.6
2173 246288.000    798177.1281  -5149234.3303   3666205.3405   2   6   0.0240   0.0435   0.0179  -0.0040  -0.0189   0.0018   0.00    1.6
2173 246289.000    798177.1282  -5149234.3385   3666205.3419   2   6   0.0241   0.0435   0.0179  -0.0042  -0.0188   0.0014   0.00    1.6
2173 246290.000    798177.1299  -5149234.3405   3666205.3493   2   6   0.0240   0.0434   0.0178  -0.0042  -0.0188   0.0015   0.00    1.6
2173 246291.000    798177.1305  -5149234.3412   3666205.3506   2   6   0.0240   0.0434   0.0177  -0.0038  -0.0187   0.0020   0.00    1.6
2173 246292.000    798177.1285  -5149234.3452   3666205.3516   2   6   0.0240   0.0433   0.0177  -0.0044  -0.0187   0.0013   0.00    1.6
2173 246293.000    798177.1298  -5149234.3430   3666205.3469   2   6   0.0239   0.0433   0.0177  -0.0042  -0.0187   0.0014   0.00    1.6
2173 246294.000    798177.1322  -5149234.3514   3666205.3529   2   6   0.0239   0.0432   0.0176  -0.0042  -0.0186   0.0012   0.00    1.6
2173 246295.000    798177.1332  -5149234.3489   3666205.3455   2   6   0.0238   0.0431   0.0176  -0.0041  -0.0186   0.0014   0.00    1.6
2173 246296.000    798177.1325  -5149234.3524   3666205.3446   2   6   0.0238   0.0431   0.0176  -0.0041  -0.0186   0.0019   0.00    1.6
2173 246297.000    798177.1341  -5149234.3529   3666205.3417   2   6   0.0239   0.0430   0.0175  -0.0042  -0.0185   0.0011   0.00    1.6
2173 246298.000    798177.1360  -5149234.3460   3666205.3397   2   6   0.0238   0.0430   0.0175  -0.0042  -0.0185   0.0013   0.00    1.6
2173 246299.000    798177.1369  -5149234.3510   3666205.3433   2   6   0.0237   0.0429   0.0174  -0.0043  -0.0184   0.0015   0.00    1.6
2173 246300.000    798177.1409  -5149234.3526   3666205.3374   2   6   0.0236   0.0428   0.0174  -0.0038  -0.0185   0.0018   0.00    1.6
2173 246301.000    798177.1384  -5149234.3526   3666205.3373   2   6   0.0236   0.0428   0.0174  -0.0042  -0.0184   0.0014   0.00    1.6
2173 246302.000    798177.1397  -5149234.3451   3666205.3365   2   6   0.0237   0.0428   0.0173  -0.0040  -0.0183   0.0012   0.00    1.6
2173 246303.000    798177.1430  -5149234.3468   3666205.3386   2   6   0.0236   0.0427   0.0172  -0.0044  -0.0183   0.0013   0.00    1.6
2173 246304.000    798177.1402  -5149234.3501   3666205.3348   2   6   0.0236   0.0426   0.0173  -0.0042  -0.0182   0.0013   0.00    1.7
2173 246305.000    798177.1405  -5149234.3584   3666205.3426   2   6   0.0236   0.0426   0.0172  -0.0043  -0.0183   0.0009   0.00    1.7
2173 246306.000    798177.1407  -5149234.3605   3666205.3441   2   6   0.0235   0.0425   0.0171  -0.0040  -0.0183   0.0017   0.00    1.7
2173 246307.000    798177.1398  -5149234.3693   3666205.3499   2   6   0.0235   0.0424   0.0171  -0.0039  -0.0182   0.0016   0.00    1.7
2173 246308.000    798177.1405  -5149234.3738   3666205.3512   2   6   0.0234   0.0424   0.0171  -0.0040  -0.0181   0.0015   0.00    1.7
2173 246309.000    798177.1397  -5149234.3675   3666205.3502   2   6   0.0234   0.0423   0.0171  -0.0044  -0.0181   0.0013   0.00    1.7
2173 246310.000    798177.1387  -5149234.3754   3666205.3519   2   6   0.0234   0.0423   0.0170  -0.0043  -0.0181   0.0013   0.00    1.7
2173 246311.000    798177.1436  -5149234.3776   3666205.3526   2   6   0.0234   0.0422   0.0170  -0.0042  -0.0181   0.0015   0.00    1.7
2173 246312.000    798177.1447  -5149234.3792   3666205.3550   2   6   0.0234   0.0421   0.0169  -0.0042  -0.0180   0.0012   0.00    1.7
2173 246313.000    798177.1469  -5149234.3782   3666205.3506   2   6   0.0233   0.0421   0.0169  -0.0041  -0.0180   0.0017   0.00    1.7
2173 246314.000    798177.1464  -5149234.3799   3666205.3504   2   6   0.0233   0.0421   0.0168  -0.0042  -0.0180   0.0011   0.00    1.7
2173 246315.000    798177.1470  -5149234.3569   3666205.3621   2   6   0.0232   0.0420   0.0168  -0.0040  -0.0180   0.0012   0.00    1.7
2173 246316.000    798177.1462  -5149234.3522   3666205.3557   2   6   0.0233   0.0420   0.0168  -0.0043  -0.0179   0.0008   0.00    1.7
2173 246317.000    798177.1500  -5149234.3506   3666205.3512   2   6   0.0232   0.0419   0.0167  -0.0044  -0.0179   0.0015   0.00    1.7
2173 246318.000    798177.1492  -5149234.3479   3666205.3462   2   6   0.0232   0.0418   0.0167  -0.0043  -0.0178   0.0010   0.00    1.7
2173 246319.000    798177.1504  -5149234.3471   3666205.3417   2   6   0.0231   0.0418   0.0166  -0.0042  -0.0178   0.0014   0.00    1.7
2173 246320.000    798177.1520  -5149234.3522   3666205.3405   2   6   0.0232   0.0417   0.0167  -0.0044  -0.0177  -0.0009   0.00    1.7
2173 246321.000    798177.1540  -5149234.3565   3666205.3384   2   6   0.0231   0.0416   0.0166  -0.0042  -0.0178   0.0015   0.00    1.7
2173 246322.000    798177.1516  -5149234.3512   3666205.3373   2   6   0.0230   0.0416   0.0166  -0.0041  -0.0177   0.0016   0.00    1.7
2173 246323.000    798177.1515  -5149234.3493   3666205.3309   2   6   0.0230   0.0416   0.0166  -0.0041  -0.0177   0.0015   0.00    1.7
2173 246324.000    798177.1560  -5149234.3552   3666205.3264   2   6   0.0230   0.0415   0.0165  -0.0043  -0.0177   0.0012   0.00    1.6
2173 246325.000    798177.1542  -5149234.3551   3666205.3255   2   6   0.0229   0.0414   0.0165  -0.0040  -0.0176   0.0016   0.00    1.6
2173 246326.000    798177.1561  -5149234.3484   3666205.3184   2   6   0.0230   0.0414   0.0165  -0.0043  -0.0176   0.0012   0.00    1.6
2173 246327.000    798177.1586  -5149234.3410   3666205.3077   2   6   0.0229   0.0413   0.0164  -0.0041  -0.0176   0.0006   0.00    1.6
2173 246328.000    798177.1616  -5149234.3411   3666205.3071   2   6   0.0229   0.0413   0.0164  -0.0042  -0.0175   0.0011   0.00    1.6
2173 246329.000    798177.1636  -5149234.3452   3666205.2996   2   6   0.0229   0.0412   0.0163  -0.0042  -0.0175   0.0010   0.00    1.6
2173 246330.000    798177.1649  -5149234.3325   3666205.2895   2   6   0.0227   0.0412   0.0163  -0.0042  -0.0175   0.0014   0.00    1.6
2173 246331.000    798177.1667  -5149234.3304   3666205.2846   2   6   0.0228   0.0411   0.0163  -0.0041  -0.0175   0.0014   0.00    1.6
2173 246332.000    798177.1686  -5149234.3274   3666205.2755   2   6   0.0228   0.0411   0.0162  -0.0043  -0.0174  -0.0001   0.00    1.6
2173 246333.000    798177.1685  -5149234.3297   3666205.2837   2   6   0.0227   0.0410   0.0162  -0.0041  -0.0174   0.0014   0.00    1.6
2173 246334.000    798177.1693  -5149234.3207   3666205.2611   2   6   0.0228   0.0410   0.0162  -0.0043  -0.0173  -0.0007   0.00    1.6
2173 246335.000    798177.1723  -5149234.3101   3666205.2502   2   6   0.0226   0.0409   0.0162  -0.0043  -0.0174   0.0009   0.00    1.6
2173 246336.000    798177.1732  -5149234.3135   3666205.2515   2   6   0.0227   0.0409   0.0162  -0.0044  -0.0173   0.0008   0.00    1.6
2173 246337.000    798177.1744  -5149234.3069   3666205.2385   2   6   0.0226   0.0408   0.0161  -0.0042  -0.0173   0.0013   0.00    1.6
2173 246338.000    798177.1754  -5149234.3124   3666205.2405   2   6   0.0226   0.0408   0.0161  -0.0042  -0.0172   0.0010   0.00    1.6
2173 246339.000    798177.1774  -5149234.3009   3666205.2279   2   6   0.0226   0.0407   0.0160  -0.0043  -0.0172   0.0012   0.00    1.6
2173 246340.000    798177.1778  -5149234.3021   3666205.2329   2   6   0.0226   0.0407   0.0160  -0.0042  -0.0172   0.0010   0.00    1.5
2173 246341.000    798177.1808  -5149234.2954   3666205.2174   2   6   0.0225   0.0406   0.0160  -0.0043  -0.0172   0.0012   0.00    1.5
2173 246342.000    798177.1839  -5149234.2944   3666205.2139   2   6   0.0225   0.0406   0.0160  -0.0042  -0.0171   0.0012   0.00    1.5
2173 246343.000    798177.1852  -5149234.2966   3666205.2191   2   6   0.0225   0.0405   0.0159  -0.0042  -0.0171   0.0012   0.00    1.5
