% program   : rnx2rtkp ver.2.4.3 b31
% inp file  : ngs/21_09_01_09_42_25_mami.obs
% inp file  : ngs/21_09_01_09_42_25_mami_SNMA.obs
% inp file  : ngs/21_09_01_09_42_25_brdc.nav
% obs start : 2021/09/01 09:00:00.0 GPST (week2173 291600.0s)
% obs end   : 2021/09/01 09:59:59.0 GPST (week2173 295199.0s)
% ref pos   :  1535073.5994  -4470512.7948   4268012.3929
%
% (x/y/z-ecef=WGS84,Q=1:fix,2:float,3:sbas,4:dgps,5:single,6:ppp,ns=# of satellites)
%  GPST              x-ecef(m)      y-ecef(m)      z-ecef(m)   Q  ns   sdx(m)   sdy(m)   sdz(m)  sdxy(m)  sdyz(m)  sdzx(m) age(s)  ratio
2173 294122.000   1535069.4135  -4470500.6457   4268000.7104   1   9   0.0329   0.0663   0.0336  -0.0420  -0.0384   0.0253 -30.00   16.3
2173 294123.000   1535069.4146  -4470500.6445   4268000.7131   1   9   0.0318   0.0642   0.0325  -0.0406  -0.0372   0.0245 -29.00   18.0
2173 294124.000   1535069.4133  -4470500.6408   4268000.7135   1   9   0.0308   0.0621   0.0315  -0.0393  -0.0359   0.0237 -28.00   19.4
2173 294125.000   1535069.4166  -4470500.6431   4268000.7094   1   9   0.0297   0.0600   0.0304  -0.0380  -0.0347   0.0229 -27.00   19.8
2173 294126.000   1535069.4165  -4470500.6421   4268000.7152   1   9   0.0287   0.0579   0.0293  -0.0366  -0.0335   0.0221 -26.00   21.2
2173 294127.000   1535069.4171  -4470500.6419   4268000.7139   1   9   0.0277   0.0558   0.0283  -0.0353  -0.0323   0.0213 -25.00   22.7
2173 294128.000   1535069.4146  -4470500.6373   4268000.7152   1   9   0.0266   0.0537   0.0272  -0.0340  -0.0311   0.0205 -24.00   23.5
2173 294129.000   1535069.4131  -4470500.6348   4268000.7119   1   9   0.0256   0.0516   0.0262  -0.0327  -0.0299   0.0197 -23.00   23.5
2173 294130.000   1535069.4130  -4470500.6336   4268000.7148   1   9   0.0246   0.0495   0.0251  -0.0314  -0.0287   0.0189 -22.00   23.8
2173 294131.000   1535069.4153  -4470500.6359   4268000.7139   1   9   0.0236   0.0474   0.0241  -0.0300  -0.0274   0.0181 -21.00   24.7
2173 294132.000   1535069.4166  -4470500.6393   4268000.7160   1   9   0.0226   0.0453   0.0230  -0.0287  -0.0262   0.0173 -20.00   25.1
2173 294133.000   1535069.4175  -4470500.6395   4268000.7117   1   9   0.0215   0.0433   0.0220  -0.0274  -0.0250   0.0165 -19.00   26.2
2173 294134.000   1535069.4168  -4470500.6376   4268000.7120   1   9   0.0205   0.0412   0.0210  -0.0261  -0.0238   0.0157 -18.00   27.1
2173 294135.000   1535069.4162  -4470500.6356   4268000.7112   1   9   0.0195   0.0391   0.0199  -0.0248  -0.0227   0.0149 -17.00   27.4
2173 294136.000   1535069.4159  -4470500.6337   4268000.7142   1   9   0.0185   0.0371   0.0189  -0.0235  -0.0215   0.0141 -16.00   28.3
2173 294137.000   1535069.4188  -4470500.6393   4268000.7159   1   9   0.0175   0.0351   0.0179  -0.0223  -0.0203   0.0133 -15.00   29.1
2173 294138.000   1535069.4191  -4470500.6359   4268000.7136   1   9   0.0165   0.0331   0.0169  -0.0210  -0.0191   0.0126 -14.00   30.4
2173 294139.000   1535069.4194  -4470500.6339   4268000.7115   1   9   0.0156   0.0311   0.0159  -0.0198  -0.0180   0.0118 -13.00   31.3
2173 294140.000   1535069.4202  -4470500.6376   4268000.7141   1   9   0.0146   0.0291   0.0149  -0.0185  -0.0168   0.0111 -12.00   31.3
2173 294141.000   1535069.4218  -4470500.6389   4268000.7145   1   9   0.0137   0.0272   0.0140  -0.0173  -0.0157   0.0103 -11.00   31.8
2173 294142.000   1535069.4233  -4470500.6389   4268000.7156   1   9   0.0127   0.0252   0.0130  -0.0161  -0.0146   0.0096 -10.00   31.9
2173 294143.000   1535069.4240  -4470500.6415   4268000.7181   1   9   0.0118   0.0234   0.0121  -0.0149  -0.0135   0.0089  -9.00   31.5
2173 294144.000   1535069.4237  -4470500.6411   4268000.7153   1   9   0.0110   0.0216   0.0112  -0.0138  -0.0125   0.0082  -8.00   32.2
2173 294145.000   1535069.4226  -4470500.6391   4268000.7152   1   9   0.0101   0.0198   0.0103  -0.0127  -0.0115   0.0075  -7.00   31.1
2173 294146.000   1535069.4241  -4470500.6383   4268000.7188   1   9   0.0094   0.0181   0.0096  -0.0117  -0.0106   0.0069  -6.00   30.8
2173 294147.000   1535069.4266  -4470500.6412   4268000.7165   1   9   0.0086   0.0166   0.0087  -0.0107  -0.0097   0.0063  -5.00   30.7
2173 294148.000   1535069.4289  -4470500.6453   4268000.7183   1   9   0.0079   0.0152   0.0082  -0.0098  -0.0088   0.0057  -4.00   30.3
2173 294149.000   1535069.4311  -4470500.6471   4268000.7200   1   9   0.0073   0.0139   0.0076  -0.0090  -0.0082   0.0053  -3.00   29.4
2173 294150.000   1535069.4327  -4470500.6479   4268000.7198   1   9   0.0069   0.0130   0.0070  -0.0084  -0.0074   0.0049  -2.00   28.5
2173 294151.000   1535069.4349  -4470500.6497   4268000.7201   1   9   0.0065   0.0123   0.0067  -0.0081  -0.0072   0.0046  -1.00   27.4
2173 294152.000   1535069.4340  -4470500.6495   4268000.7186   1   9   0.0061   0.0122   0.0066  -0.0079  -0.0070   0.0046   0.00   26.3
2173 294153.000   1535069.4358  -4470500.6503   4268000.7225   1   9   0.0063   0.0121   0.0065  -0.0079  -0.0070   0.0046   0.00   25.3
2173 294154.000   1535069.4345  -4470500.6465   4268000.7189   1   9   0.0064   0.0122   0.0066  -0.0079  -0.0070   0.0047   0.00   23.9
2173 294155.000   1535069.4344  -4470500.6451   4268000.7184   1   9   0.0063   0.0121   0.0068  -0.0079  -0.0072   0.0044   0.00   23.8
2173 294156.000   1535069.4313  -4470500.6458   4268000.7216   1   9   0.0065   0.0122   0.0066  -0.0079  -0.0071   0.0044   0.00   23.0
2173 294157.000   1535069.4327  -4470500.6490   4268000.7190   1   9   0.0061   0.0121   0.0065  -0.0079  -0.0070   0.0045   0.00   22.8
2173 294158.000   1535069.4312  -4470500.6480   4268000.7203   1   9   0.0065   0.0122   0.0067  -0.0078  -0.0071   0.0045   0.00   21.9
2173 294159.000   1535069.4352  -4470500.6551   4268000.7225   1   9   0.0063   0.0122   0.0065  -0.0079  -0.0071   0.0045   0.00   21.3
2173 294160.000   1535069.4354  -4470500.6527   4268000.7220   1   9   0.0063   0.0121   0.0065  -0.0079  -0.0070   0.0045   0.00   21.0
2173 294161.000   1535069.4350  -4470500.6495   4268000.7209   1   9   0.0063   0.0122   0.0065  -0.0078  -0.0071   0.0045   0.00   21.0
2173 294162.000   1535069.4351  -4470500.6510   4268000.7237   1   9   0.0064   0.0122   0.0068  -0.0079  -0.0072   0.0046   0.00   20.7
2173 294163.000   1535069.4338  -4470500.6507   4268000.7218   1   9   0.0065   0.0121   0.0066  -0.0079  -0.0071   0.0045   0.00   20.3
2173 294164.000   1535069.4312  -4470500.6462   4268000.7202   1   9   0.0067   0.0122   0.0064  -0.0077  -0.0072   0.0045   0.00   19.8
2173 294165.000   1535069.4338  -4470500.6489   4268000.7220   1   9   0.0065   0.0122   0.0063  -0.0078  -0.0071   0.0045   0.00   19.2
2173 294166.000   1535069.4327  -4470500.6465   4268000.7217   1   9   0.0065   0.0122   0.0063  -0.0078  -0.0070   0.0049   0.00   18.9
2173 294167.000   1535069.4334  -4470500.6483   4268000.7232   1   9   0.0059   0.0122   0.0066  -0.0078  -0.0070   0.0046   0.00   18.4
2173 294168.000   1535069.4316  -4470500.6463   4268000.7211   1   9   0.0065   0.0121   0.0065  -0.0079  -0.0070   0.0046   0.00   17.9
2173 294169.000   1535069.4324  -4470500.6482   4268000.7220   1   9   0.0068   0.0121   0.0067  -0.0079  -0.0071   0.0046   0.00   17.4
2173 294170.000   1535069.4333  -4470500.6489   4268000.7199   1   9   0.0064   0.0121   0.0065  -0.0079  -0.0071   0.0048   0.00   17.3
2173 294171.000   1535069.4327  -4470500.6458   4268000.7217   1   9   0.0067   0.0122   0.0067  -0.0078  -0.0071   0.0044   0.00   17.0
2173 294172.000   1535069.4317  -4470500.6440   4268000.7225   1   9   0.0062   0.0121   0.0066  -0.0080  -0.0071   0.0046   0.00   16.9
2173 294173.000   1535069.4306  -4470500.6418   4268000.7202   1   9   0.0066   0.0122   0.0070  -0.0078  -0.0071   0.0040   0.00   16.7
2173 294174.000   1535069.4301  -4470500.6423   4268000.7208   1   9   0.0065   0.0121   0.0066  -0.0079  -0.0071   0.0046   0.00   16.6
2173 294175.000   1535069.4325  -4470500.6412   4268000.7195   1   9   0.0063   0.0122   0.0068  -0.0079  -0.0070   0.0043   0.00   16.4
2173 294176.000   1535069.4322  -4470500.6467   4268000.7220   1   9   0.0061   0.0121   0.0068  -0.0079  -0.0072   0.0045   0.00   16.3
2173 294177.000   1535069.4291  -4470500.6449   4268000.7215   1   9   0.0064   0.0121   0.0065  -0.0079  -0.0071   0.0048   0.00   16.1
2173 294178.000   1535069.4304  -4470500.6440   4268000.7207   1   9   0.0064   0.0122   0.0066  -0.0079  -0.0071   0.0047   0.00   16.0
2173 294179.000   1535069.4324  -4470500.6457   4268000.7225   1   9   0.0065   0.0121   0.0064  -0.0078  -0.0071   0.0045   0.00   16.0
2173 294180.000   1535069.4300  -4470500.6406   4268000.7214   1   9   0.0059   0.0121   0.0064  -0.0079  -0.0070   0.0051   0.00   15.7
2173 294181.000   1535069.4307  -4470500.6392   4268000.7191   1   9   0.0065   0.0121   0.0066  -0.0080  -0.0070   0.0047   0.00   15.5
2173 294182.000   1535069.4304  -4470500.6438   4268000.7211   1   9   0.0064   0.0122   0.0070  -0.0079  -0.0070   0.0043   0.00   15.4
2173 294183.000   1535069.4325  -4470500.6427   4268000.7206   1   9   0.0067   0.0122   0.0065  -0.0078  -0.0070   0.0046   0.00   15.2
2173 294184.000   1535069.4321  -4470500.6439   4268000.7228   1   9   0.0061   0.0121   0.0066  -0.0080  -0.0070   0.0046   0.00   15.0
2173 294185.000   1535069.4305  -4470500.6401   4268000.7210   1   9   0.0066   0.0121   0.0068  -0.0079  -0.0071   0.0047   0.00   14.9
2173 294186.000   1535069.4320  -4470500.6437   4268000.7220   1   9   0.0064   0.0121   0.0068  -0.0080  -0.0071   0.0045   0.00   14.8
2173 294187.000   1535069.4312  -4470500.6422   4268000.7232   1   9   0.0063   0.0122   0.0064  -0.0079  -0.0070   0.0046   0.00   14.6
2173 294188.000   1535069.4322  -4470500.6457   4268000.7225   1   9   0.0061   0.0122   0.0066  -0.0078  -0.0071   0.0047   0.00   14.5
2173 294189.000   1535069.4333  -4470500.6485   4268000.7253   1   9   0.0068   0.0121   0.0064  -0.0079  -0.0070   0.0045   0.00   14.3
2173 294190.000   1535069.4319  -4470500.6437   4268000.7227   1   9   0.0066   0.0122   0.0069  -0.0078  -0.0071   0.0042   0.00   14.3
2173 294191.000   1535069.4310  -4470500.6446   4268000.7233   1   9   0.0062   0.0122   0.0064  -0.0079  -0.0070   0.0045   0.00   14.2
2173 294192.000   1535069.4324  -4470500.6453   4268000.7235   1   9   0.0067   0.0122   0.0065  -0.0078  -0.0070   0.0045   0.00   14.1
2173 294193.000   1535069.4333  -4470500.6461   4268000.7244   1   9   0.0065   0.0122   0.0064  -0.0079  -0.0070   0.0044   0.00   14.1
2173 294194.000   1535069.4330  -4470500.6448   4268000.7225   1   9   0.0062   0.0122   0.0063  -0.0079  -0.0069   0.0048   0.00   14.0
2173 294195.000   1535069.4309  -4470500.6426   4268000.7224   1   9   0.0063   0.0122   0.0066  -0.0079  -0.0071   0.0045   0.00   13.9
2173 294196.000   1535069.4342  -4470500.6455   4268000.7209   1   9   0.0063   0.0121   0.0066  -0.0080  -0.0072   0.0047   0.00   13.9
2173 294197.000   1535069.4331  -4470500.6457   4268000.7227   1   9   0.0063   0.0121   0.0065  -0.0079  -0.0071   0.0047   0.00   13.9
2173 294198.000   1535069.4331  -4470500.6501   4268000.7238   1   9   0.0064   0.0122   0.0068  -0.0078  -0.0071   0.0041   0.00   13.9
2173 294199.000   1535069.4304  -4470500.6463   4268000.7231   1   9   0.0062   0.0121   0.0067  -0.0079  -0.0071   0.0042   0.00   13.8
2173 294200.000   1535069.4330  -4470500.6447   4268000.7207   1   9   0.0065   0.0122   0.0066  -0.0078  -0.0070   0.0045   0.00   13.9
2173 294201.000   1535069.4319  -4470500.6453   4268000.7237   1   9   0.0061   0.0121   0.0067  -0.0081  -0.0071   0.0043   0.00   13.8
2173 294202.000   1535069.4321  -4470500.6453   4268000.7207   1   9   0.0068   0.0121   0.0065  -0.0079  -0.0071   0.0045   0.00   13.8
2173 294203.000   1535069.4295  -4470500.6407   4268000.7217   1   9   0.0067   0.0121   0.0066  -0.0079  -0.0071   0.0043   0.00   13.7
2173 294204.000   1535069.4318  -4470500.6483   4268000.7232   1   9   0.0065   0.0121   0.0065  -0.0079  -0.0072   0.0047   0.00   13.7
2173 294205.000   1535069.4324  -4470500.6463   4268000.7210   1   9   0.0068   0.0122   0.0064  -0.0079  -0.0071   0.0046   0.00   13.7
2173 294206.000   1535069.4325  -4470500.6455   4268000.7232   1   9   0.0063   0.0121   0.0068  -0.0079  -0.0072   0.0047   0.00   13.7
2173 294207.000   1535069.4312  -4470500.6404   4268000.7202   1   9   0.0065   0.0121   0.0068  -0.0079  -0.0071   0.0044   0.00   13.6
2173 294208.000   1535069.4308  -4470500.6444   4268000.7241   1   9   0.0067   0.0122   0.0068  -0.0078  -0.0071   0.0044   0.00   13.5
2173 294209.000   1535069.4297  -4470500.6422   4268000.7215   1   9   0.0064   0.0122   0.0067  -0.0078  -0.0071   0.0046   0.00   13.5
2173 294210.000   1535069.4298  -4470500.6414   4268000.7188   1   9   0.0066   0.0121   0.0066  -0.0079  -0.0071   0.0045   0.00   13.6
2173 294211.000   1535069.4314  -4470500.6438   4268000.7198   1   9   0.0065   0.0121   0.0064  -0.0080  -0.0072   0.0046   0.00   13.6
2173 294212.000   1535069.4308  -4470500.6470   4268000.7219   1   9   0.0062   0.0122   0.0065  -0.0079  -0.0070   0.0046   0.00   13.6
2173 294213.000   1535069.4300  -4470500.6410   4268000.7211   1   9   0.0067   0.0122   0.0064  -0.0078  -0.0070   0.0047   0.00   13.5
2173 294214.000   1535069.4310  -4470500.6425   4268000.7204   1   9   0.0066   0.0121   0.0067  -0.0079  -0.0072   0.0046   0.00   13.6
2173 294215.000   1535069.4329  -4470500.6443   4268000.7218   1   9   0.0060   0.0121   0.0066  -0.0079  -0.0070   0.0050   0.00   13.6
2173 294216.000   1535069.4317  -4470500.6430   4268000.7205   1   9   0.0064   0.0121   0.0069  -0.0079  -0.0071   0.0044   0.00   13.5
2173 294217.000   1535069.4313  -4470500.6427   4268000.7197   1   9   0.0064   0.0122   0.0065  -0.0079  -0.0069   0.0048   0.00   13.5
2173 294218.000   1535069.4297  -4470500.6412   4268000.7189   1   9   0.0064   0.0122   0.0064  -0.0079  -0.0070   0.0045   0.00   13.6
2173 294219.000   1535069.4307  -4470500.6419   4268000.7175   1   9   0.0066   0.0121   0.0063  -0.0079  -0.0072   0.0047   0.00   13.6
2173 294220.000   1535069.4297  -4470500.6426   4268000.7185   1   9   0.0064   0.0121   0.0066  -0.0079  -0.0071   0.0046   0.00   13.6
2173 294221.000   1535069.4316  -4470500.6436   4268000.7216   1   9   0.0062   0.0122   0.0067  -0.0079  -0.0070   0.0045   0.00   13.7
2173 294222.000   1535069.4293  -4470500.6366   4268000.7175   1   9   0.0065   0.0122   0.0067  -0.0078  -0.0071   0.0044   0.00   13.7
2173 294223.000   1535069.4321  -4470500.6444   4268000.7202   1   9   0.0064   0.0122   0.0064  -0.0079  -0.0070   0.0047   0.00   13.7
2173 294224.000   1535069.4318  -4470500.6462   4268000.7220   1   9   0.0062   0.0121   0.0066  -0.0080  -0.0071   0.0047   0.00   13.8
2173 294225.000   1535069.4325  -4470500.6430   4268000.7196   1   9   0.0065   0.0122   0.0066  -0.0078  -0.0072   0.0044   0.00   13.8
2173 294226.000   1535069.4335  -4470500.6467   4268000.7201   1   9   0.0065   0.0122   0.0064  -0.0079  -0.0069   0.0046   0.00   13.9
2173 294227.000   1535069.4312  -4470500.6411   4268000.7187   1   9   0.0064   0.0122   0.0067  -0.0079  -0.0070   0.0041   0.00   14.0
2173 294228.000   1535069.4342  -4470500.6460   4268000.7201   1   9   0.0066   0.0122   0.0069  -0.0078  -0.0070   0.0044   0.00   14.0
2173 294229.000   1535069.4319  -4470500.6410   4268000.7172   1   9   0.0066   0.0121   0.0065  -0.0079  -0.0072   0.0044   0.00   14.0
2173 294230.000   1535069.4310  -4470500.6383   4268000.7145   1   9   0.0066   0.0121   0.0067  -0.0079  -0.0071   0.0043   0.00   14.1
2173 294231.000   1535069.4340  -4470500.6448   4268000.7209   1   9   0.0060   0.0121   0.0066  -0.0080  -0.0071   0.0045   0.00   14.1
2173 294232.000   1535069.4349  -4470500.6442   4268000.7219   1   9   0.0061   0.0121   0.0068  -0.0080  -0.0071   0.0046   0.00   14.1
2173 294233.000   1535069.4348  -4470500.6445   4268000.7216   1   9   0.0064   0.0121   0.0066  -0.0080  -0.0071   0.0046   0.00   14.1
2173 294234.000   1535069.4328  -4470500.6412   4268000.7190   1   9   0.0064   0.0121   0.0061  -0.0079  -0.0071   0.0048   0.00   14.1
2173 294235.000   1535069.4331  -4470500.6426   4268000.7208   1   9   0.0063   0.0121   0.0064  -0.0080  -0.0071   0.0048   0.00   14.2
2173 294236.000   1535069.4336  -4470500.6411   4268000.7169   1   9   0.0067   0.0122   0.0066  -0.0079  -0.0070   0.0044   0.00   14.2
2173 294237.000   1535069.4341  -4470500.6434   4268000.7186   1   9   0.0065   0.0121   0.0068  -0.0079  -0.0072   0.0045   0.00   14.2
2173 294238.000   1535069.4332  -4470500.6468   4268000.7184   1   9   0.0065   0.0121   0.0068  -0.0079  -0.0071   0.0043   0.00   14.3
2173 294239.000   1535069.4337  -4470500.6443   4268000.7195   1   9   0.0067   0.0121   0.0068  -0.0079  -0.0071   0.0043   0.00   14.4
2173 294240.000   1535069.4351  -4470500.6484   4268000.7185   1   9   0.0063   0.0122   0.0067  -0.0079  -0.0070   0.0044   0.00   14.5
2173 294241.000   1535069.4370  -4470500.6454   4268000.7213   1   9   0.0067   0.0122   0.0069  -0.0079  -0.0071   0.0042   0.00   14.6
2173 294242.000   1535069.4353  -4470500.6427   4268000.7157   1   9   0.0061   0.0121   0.0062  -0.0081  -0.0069   0.0049   0.00   14.7
2173 294243.000   1535069.4345  -4470500.6439   4268000.7207   1   9   0.0066   0.0121   0.0066  -0.0080  -0.0069   0.0045   0.00   14.7
2173 294244.000   1535069.4319  -4470500.6442   4268000.7191   1   9   0.0065   0.0122   0.0068  -0.0078  -0.0072   0.0044   0.00   14.7
2173 294245.000   1535069.4338  -4470500.6437   4268000.7197   1   9   0.0063   0.0121   0.0065  -0.0080  -0.0070   0.0048   0.00   14.7
2173 294246.000   1535069.4373  -4470500.6463   4268000.7198   1   9   0.0066   0.0121   0.0067  -0.0079  -0.0071   0.0045   0.00   14.7
2173 294247.000   1535069.4348  -4470500.6458   4268000.7189   1   9   0.0062   0.0122   0.0068  -0.0079  -0.0070   0.0045   0.00   14.8
2173 294248.000   1535069.4359  -4470500.6462   4268000.7187   1   9   0.0066   0.0122   0.0065  -0.0078  -0.0070   0.0044   0.00   14.8
2173 294249.000   1535069.4346  -4470500.6417   4268000.7210   1   9   0.0067   0.0122   0.0068  -0.0079  -0.0071   0.0043   0.00   14.8
2173 294250.000   1535069.4327  -4470500.6442   4268000.7234   1   9   0.0062   0.0121   0.0066  -0.0079  -0.0071   0.0045   0.00   14.7
2173 294251.000   1535069.4363  -4470500.6463   4268000.7211   1   9   0.0065   0.0121   0.0065  -0.0080  -0.0070   0.0046   0.00   14.7
2173 294252.000   1535069.4329  -4470500.6452   4268000.7229   1   9   0.0065   0.0121   0.0069  -0.0079  -0.0071   0.0043   0.00   14.6
2173 294253.000   1535069.4360  -4470500.6495   4268000.7201   1   9   0.0061   0.0121   0.0065  -0.0080  -0.0070   0.0047   0.00   14.7
2173 294254.000   1535069.4353  -4470500.6470   4268000.7208   1   9   0.0065   0.0121   0.0067  -0.0080  -0.0070   0.0043   0.00   14.8
2173 294255.000   1535069.4331  -4470500.6434   4268000.7190   1   9   0.0067   0.0122   0.0067  -0.0079  -0.0071   0.0043   0.00   14.8
2173 294256.000   1535069.4352  -4470500.6481   4268000.7241   1   9   0.0064   0.0121   0.0067  -0.0080  -0.0070   0.0045   0.00   14.8
2173 294257.000   1535069.4368  -4470500.6508   4268000.7214   1   9   0.0062   0.0121   0.0063  -0.0080  -0.0070   0.0045   0.00   14.9
2173 294258.000   1535069.4346  -4470500.6497   4268000.7212   1   9   0.0066   0.0121   0.0067  -0.0079  -0.0071   0.0045   0.00   15.0
2173 294259.000   1535069.4336  -4470500.6440   4268000.7204   1   9   0.0065   0.0121   0.0066  -0.0079  -0.0070   0.0046   0.00   15.1
2173 294260.000   1535069.4333  -4470500.6460   4268000.7222   1   9   0.0065   0.0121   0.0065  -0.0079  -0.0070   0.0045   0.00   15.1
2173 294261.000   1535069.4328  -4470500.6460   4268000.7196   1   9   0.0064   0.0122   0.0063  -0.0078  -0.0070   0.0045   0.00   15.2
2173 294262.000   1535069.4342  -4470500.6415   4268000.7192   1   9   0.0068   0.0121   0.0066  -0.0079  -0.0070   0.0047   0.00   15.3
2173 294263.000   1535069.4344  -4470500.6441   4268000.7209   1   9   0.0061   0.0121   0.0068  -0.0081  -0.0069   0.0047   0.00   15.4
2173 294264.000   1535069.4321  -4470500.6429   4268000.7195   1   9   0.0065   0.0121   0.0063  -0.0080  -0.0070   0.0046   0.00   15.4
2173 294265.000   1535069.4322  -4470500.6398   4268000.7197   1   9   0.0066   0.0121   0.0065  -0.0079  -0.0071   0.0046   0.00   15.4
2173 294266.000   1535069.4350  -4470500.6456   4268000.7198   1   9   0.0064   0.0121   0.0065  -0.0079  -0.0071   0.0046   0.00   15.5
2173 294267.000   1535069.4345  -4470500.6427   4268000.7228   1   9   0.0065   0.0121   0.0069  -0.0079  -0.0070   0.0044   0.00   15.5
2173 294268.000   1535069.4342  -4470500.6433   4268000.7206   1   9   0.0064   0.0121   0.0069  -0.0079  -0.0071   0.0043   0.00   15.5
2173 294269.000   1535069.4339  -4470500.6425   4268000.7213   1   9   0.0060   0.0121   0.0066  -0.0080  -0.0069   0.0046   0.00   15.6
2173 294270.000   1535069.4348  -4470500.6461   4268000.7193   1   9   0.0065   0.0122   0.0066  -0.0080  -0.0068   0.0046   0.00   15.6
2173 294271.000   1535069.4337  -4470500.6417   4268000.7217   1   9   0.0065   0.0122   0.0066  -0.0079  -0.0070   0.0046   0.00   15.7
2173 294272.000   1535069.4356  -4470500.6459   4268000.7191   1   9   0.0068   0.0121   0.0066  -0.0079  -0.0070   0.0045   0.00   15.9
2173 294273.000   1535069.4342  -4470500.6458   4268000.7205   1   9   0.0066   0.0121   0.0068  -0.0079  -0.0070   0.0045   0.00   16.0
2173 294274.000   1535069.4357  -4470500.6444   4268000.7231   1   9   0.0067   0.0122   0.0065  -0.0078  -0.0071   0.0044   0.00   16.0
2173 294275.000   1535069.4344  -4470500.6441   4268000.7214   1   9   0.0065   0.0122   0.0065  -0.0078  -0.0070   0.0047   0.00   16.1
2173 294276.000   1535069.4353  -4470500.6437   4268000.7194   1   9   0.0067   0.0121   0.0066  -0.0079  -0.0070   0.0046   0.00   16.2
2173 294277.000   1535069.4341  -4470500.6434   4268000.7210   1   9   0.0059   0.0122   0.0064  -0.0080  -0.0068   0.0048   0.00   16.2
2173 294278.000   1535069.4366  -4470500.6452   4268000.7205   1   9   0.0067   0.0121   0.0068  -0.0079  -0.0071   0.0046   0.00   16.3
2173 294279.000   1535069.4346  -4470500.6462   4268000.7186   1   9   0.0060   0.0121   0.0066  -0.0080  -0.0071   0.0048   0.00   16.4
2173 294280.000   1535069.4333  -4470500.6439   4268000.7193   1   9   0.0069   0.0121   0.0067  -0.0079  -0.0070   0.0046   0.00   16.4
2173 294281.000   1535069.4335  -4470500.6402   4268000.7186   1   9   0.0068   0.0122   0.0065  -0.0078  -0.0070   0.0046   0.00   16.4
2173 294282.000   1535069.4342  -4470500.6487   4268000.7221   1   9   0.0064   0.0121   0.0067  -0.0079  -0.0070   0.0046   0.00   16.5
2173 294283.000   1535069.4343  -4470500.6442   4268000.7195   1   9   0.0066   0.0122   0.0066  -0.0078  -0.0071   0.0046   0.00   16.6
2173 294284.000   1535069.4314  -4470500.6421   4268000.7228   1   9   0.0064   0.0121   0.0067  -0.0079  -0.0070   0.0046   0.00   16.6
2173 294285.000   1535069.4329  -4470500.6406   4268000.7209   1   9   0.0063   0.0122   0.0068  -0.0079  -0.0071   0.0043   0.00   16.6
2173 294286.000   1535069.4352  -4470500.6458   4268000.7215   1   9   0.0064   0.0122   0.0063  -0.0079  -0.0070   0.0046   0.00   16.7
2173 294287.000   1535069.4321  -4470500.6408   4268000.7202   1   9   0.0064   0.0121   0.0064  -0.0079  -0.0071   0.0048   0.00   16.7
2173 294288.000   1535069.4339  -4470500.6479   4268000.7234   1   9   0.0066   0.0121   0.0066  -0.0078  -0.0071   0.0044   0.00   16.8
2173 294289.000   1535069.4351  -4470500.6447   4268000.7204   1   9   0.0062   0.0122   0.0063  -0.0079  -0.0069   0.0046   0.00   16.8
2173 294290.000   1535069.4332  -4470500.6445   4268000.7231   1   9   0.0065   0.0122   0.0064  -0.0079  -0.0071   0.0045   0.00   16.9
2173 294291.000   1535069.4352  -4470500.6456   4268000.7179   1   9   0.0066   0.0122   0.0067  -0.0079  -0.0070   0.0046   0.00   17.0
2173 294292.000   1535069.4351  -4470500.6459   4268000.7205   1   9   0.0063   0.0121   0.0063  -0.0079  -0.0070   0.0045   0.00   17.1
2173 294293.000   1535069.4352  -4470500.6482   4268000.7210   1   9   0.0066   0.0122   0.0068  -0.0079  -0.0070   0.0045   0.00   17.2
2173 294294.000   1535069.4327  -4470500.6426   4268000.7208   1   9   0.0067   0.0121   0.0069  -0.0080  -0.0070   0.0044   0.00   17.2
2173 294295.000   1535069.4368  -4470500.6519   4268000.7233   1   9   0.0060   0.0121   0.0067  -0.0079  -0.0070   0.0047   0.00   17.4
2173 294296.000   1535069.4330  -4470500.6429   4268000.7198   1   9   0.0061   0.0121   0.0069  -0.0080  -0.0070   0.0044   0.00   17.5
2173 294297.000   1535069.4325  -4470500.6409   4268000.7204   1   9   0.0066   0.0122   0.0067  -0.0079  -0.0069   0.0044   0.00   17.6
2173 294298.000   1535069.4337  -4470500.6438   4268000.7219   1   9   0.0066   0.0121   0.0068  -0.0079  -0.0070   0.0045   0.00   17.7
2173 294299.000   1535069.4323  -4470500.6414   4268000.7211   1   9   0.0064   0.0122   0.0065  -0.0079  -0.0071   0.0046   0.00   17.8
2173 294300.000   1535069.4369  -4470500.6474   4268000.7231   1   9   0.0065   0.0122   0.0065  -0.0078  -0.0070   0.0046   0.00   17.9
2173 294301.000   1535069.4353  -4470500.6461   4268000.7222   1   9   0.0065   0.0122   0.0069  -0.0078  -0.0070   0.0045   0.00   18.0
2173 294302.000   1535069.4340  -4470500.6401   4268000.7180   1   9   0.0067   0.0122   0.0067  -0.0078  -0.0071   0.0043   0.00   18.0
2173 294303.000   1535069.4332  -4470500.6434   4268000.7204   1   9   0.0068   0.0121   0.0067  -0.0079  -0.0071   0.0045   0.00   18.1
2173 294304.000   1535069.4321  -4470500.6400   4268000.7203   1   9   0.0063   0.0121   0.0065  -0.0079  -0.0070   0.0047   0.00   18.2
2173 294305.000   1535069.4323  -4470500.6445   4268000.7230   1   9   0.0061   0.0121   0.0066  -0.0079  -0.0070   0.0048   0.00   18.3
2173 294306.000   1535069.4348  -4470500.6432   4268000.7196   1   9   0.0066   0.0122   0.0067  -0.0079  -0.0069   0.0042   0.00   18.3
2173 294307.000   1535069.4331  -4470500.6440   4268000.7215   1   9   0.0063   0.0121   0.0066  -0.0080  -0.0070   0.0046   0.00   18.5
2173 294308.000   1535069.4342  -4470500.6469   4268000.7203   1   9   0.0065   0.0121   0.0064  -0.0079  -0.0071   0.0047   0.00   18.6
2173 294309.000   1535069.4318  -4470500.6417   4268000.7224   1   9   0.0063   0.0121   0.0064  -0.0079  -0.0071   0.0046   0.00   18.7
2173 294310.000   1535069.4362  -4470500.6498   4268000.7226   1   9   0.0064   0.0121   0.0067  -0.0080  -0.0070   0.0047   0.00   18.8
2173 294311.000   1535069.4339  -4470500.6470   4268000.7242   1   9   0.0066   0.0122   0.0067  -0.0079  -0.0071   0.0045   0.00   18.9
2173 294312.000   1535069.4334  -4470500.6475   4268000.7234   1   9   0.0067   0.0121   0.0065  -0.0079  -0.0072   0.0043   0.00   19.0
2173 294313.000   1535069.4361  -4470500.6480   4268000.7239   1   9   0.0063   0.0121   0.0066  -0.0080  -0.0070   0.0047   0.00   19.1
2173 294314.000   1535069.4332  -4470500.6431   4268000.7240   1   9   0.0065   0.0121   0.0067  -0.0080  -0.0072   0.0045   0.00   19.2
2173 294315.000   1535069.4351  -4470500.6461   4268000.7234   1   9   0.0064   0.0121   0.0067  -0.0080  -0.0070   0.0044   0.00   19.3
2173 294316.000   1535069.4318  -4470500.6397   4268000.7219   1   9   0.0061   0.0121   0.0063  -0.0080  -0.0069   0.0046   0.00   19.4
2173 294317.000   1535069.4338  -4470500.6452   4268000.7218   1   9   0.0068   0.0121   0.0068  -0.0079  -0.0070   0.0044   0.00   19.5
2173 294318.000   1535069.4335  -4470500.6468   4268000.7223   1   9   0.0064   0.0121   0.0068  -0.0080  -0.0071   0.0045   0.00   19.6
2173 294319.000   1535069.4325  -4470500.6381   4268000.7201   1   9   0.0064   0.0121   0.0064  -0.0080  -0.0070   0.0048   0.00   19.7
2173 294320.000   1535069.4361  -4470500.6457   4268000.7206   1   9   0.0063   0.0121   0.0067  -0.0080  -0.0070   0.0045   0.00   19.8
2173 294321.000   1535069.4350  -4470500.6470   4268000.7231   1   9   0.0060   0.0121   0.0068  -0.0079  -0.0070   0.0047   0.00   19.9
2173 294322.000   1535069.4361  -4470500.6457   4268000.7231   1   9   0.0065   0.0121   0.0068  -0.0080  -0.0071   0.0046   0.00   20.0
2173 294323.000   1535069.4352  -4470500.6457   4268000.7220   1   9   0.0065   0.0122   0.0065  -0.0078  -0.0071   0.0046   0.00   20.1
2173 294324.000   1535069.4344  -4470500.6417   4268000.7236   1   9   0.0066   0.0121   0.0065  -0.0079  -0.0070   0.0047   0.00   20.2
2173 294325.000   1535069.4351  -4470500.6439   4268000.7233   1   9   0.0067   0.0120   0.0063  -0.0080  -0.0071   0.0046   0.00   20.3
2173 294326.000   1535069.4352  -4470500.6409   4268000.7194   1   9   0.0067   0.0121   0.0069  -0.0079  -0.0072   0.0043   0.00   20.3
2173 294327.000   1535069.4344  -4470500.6383   4268000.7201   1   9   0.0067   0.0122   0.0065  -0.0078  -0.0070   0.0045   0.00   20.4
2173 294328.000   1535069.4369  -4470500.6447   4268000.7236   1   9   0.0064   0.0121   0.0064  -0.0080  -0.0070   0.0047   0.00   20.4
2173 294329.000   1535069.4333  -4470500.6423   4268000.7230   1   9   0.0062   0.0122   0.0066  -0.0079  -0.0070   0.0045   0.00   20.4
2173 294330.000   1535069.4352  -4470500.6418   4268000.7248   1   9   0.0061   0.0122   0.0069  -0.0079  -0.0070   0.0044   0.00   20.5
2173 294331.000   1535069.4318  -4470500.6425   4268000.7198   1   9   0.0065   0.0121   0.0066  -0.0080  -0.0069   0.0048   0.00   20.6
2173 294332.000   1535069.4352  -4470500.6436   4268000.7230   1   9   0.0064   0.0122   0.0068  -0.0079  -0.0070   0.0046   0.00   20.8
2173 294333.000   1535069.4385  -4470500.6485   4268000.7224   1   9   0.0065   0.0122   0.0065  -0.0079  -0.0069   0.0045   0.00   20.9
2173 294334.000   1535069.4352  -4470500.6416   4268000.7208   1   9   0.0065   0.0121   0.0068  -0.0078  -0.0071   0.0044   0.00   21.0
2173 294335.000   1535069.4353  -4470500.6437   4268000.7231   1   9   0.0062   0.0120   0.0067  -0.0081  -0.0071   0.0045   0.00   21.1
2173 294336.000   1535069.4382  -4470500.6482   4268000.7242   1   9   0.0065   0.0121   0.0065  -0.0079  -0.0070   0.0046   0.00   21.1
2173 294337.000   1535069.4337  -4470500.6451   4268000.7225   1   9   0.0065   0.0121   0.0067  -0.0079  -0.0070   0.0046   0.00   21.1
2173 294338.000   1535069.4373  -4470500.6487   4268000.7241   1   9   0.0061   0.0121   0.0067  -0.0079  -0.0070   0.0046   0.00   21.1
2173 294339.000   1535069.4372  -4470500.6456   4268000.7231   1   9   0.0067   0.0121   0.0065  -0.0079  -0.0070   0.0045   0.00   21.2
2173 294340.000   1535069.4404  -4470500.6541   4268000.7266   1   9   0.0067   0.0122   0.0066  -0.0078  -0.0071   0.0046   0.00   21.2
2173 294341.000   1535069.4389  -4470500.6499   4268000.7235   1   9   0.0064   0.0121   0.0065  -0.0080  -0.0070   0.0048   0.00   21.2
2173 294342.000   1535069.4369  -4470500.6461   4268000.7203   1   9   0.0061   0.0121   0.0065  -0.0080  -0.0069   0.0046   0.00   21.2
2173 294343.000   1535069.4385  -4470500.6491   4268000.7244   1   9   0.0070   0.0121   0.0064  -0.0079  -0.0070   0.0044   0.00   21.3
2173 294344.000   1535069.4365  -4470500.6455   4268000.7226   1   9   0.0064   0.0121   0.0065  -0.0079  -0.0072   0.0046   0.00   21.3
2173 294345.000   1535069.4357  -4470500.6451   4268000.7219   1   9   0.0062   0.0121   0.0067  -0.0079  -0.0072   0.0047   0.00   21.4
2173 294346.000   1535069.4361  -4470500.6458   4268000.7209   1   9   0.0071   0.0121   0.0064  -0.0079  -0.0071   0.0044   0.00   21.4
2173 294347.000   1535069.4336  -4470500.6411   4268000.7228   1   9   0.0064   0.0122   0.0063  -0.0080  -0.0069   0.0046   0.00   21.4
2173 294348.000   1535069.4340  -4470500.6374   4268000.7183   1   9   0.0066   0.0121   0.0066  -0.0079  -0.0070   0.0046   0.00   21.4
2173 294349.000   1535069.4323  -4470500.6384   4268000.7193   1   9   0.0063   0.0121   0.0066  -0.0079  -0.0071   0.0045   0.00   21.5
2173 294350.000   1535069.4359  -4470500.6420   4268000.7217   1   9   0.0065   0.0121   0.0064  -0.0079  -0.0071   0.0046   0.00   21.5
2173 294351.000   1535069.4364  -4470500.6451   4268000.7241   1   9   0.0062   0.0122   0.0065  -0.0079  -0.0070   0.0048   0.00   21.6
2173 294352.000   1535069.4365  -4470500.6447   4268000.7216   1   9   0.0065   0.0121   0.0066  -0.0080  -0.0070   0.0045   0.00   21.6
2173 294353.000   1535069.4358  -4470500.6454   4268000.7241   1   9   0.0063   0.0121   0.0067  -0.0079  -0.0070   0.0046   0.00   21.6
2173 294354.000   1535069.4333  -4470500.6428   4268000.7225   1   9   0.0066   0.0122   0.0065  -0.0079  -0.0069   0.0044   0.00   21.6
2173 294355.000   1535069.4378  -4470500.6467   4268000.7240   1   9   0.0067   0.0122   0.0067  -0.0079  -0.0069   0.0045   0.00   21.6
2173 294356.000   1535069.4363  -4470500.6441   4268000.7245   1   9   0.0062   0.0121   0.0067  -0.0081  -0.0070   0.0046   0.00   21.6
2173 294357.000   1535069.4359  -4470500.6446   4268000.7220   1   9   0.0064   0.0121   0.0065  -0.0080  -0.0071   0.0046   0.00   21.7
2173 294358.000   1535069.4344  -4470500.6418   4268000.7244   1   9   0.0066   0.0121   0.0066  -0.0079  -0.0070   0.0045   0.00   21.7
2173 294359.000   1535069.4357  -4470500.6454   4268000.7238   1   9   0.0064   0.0121   0.0064  -0.0080  -0.0070   0.0047   0.00   21.7
2173 294360.000   1535069.4368  -4470500.6458   4268000.7236   1   9   0.0062   0.0121   0.0065  -0.0080  -0.0069   0.0045   0.00   21.8
2173 294361.000   1535069.4354  -4470500.6447   4268000.7232   1   9   0.0067   0.0121   0.0067  -0.0079  -0.0071   0.0042   0.00   21.8
2173 294362.000   1535069.4365  -4470500.6465   4268000.7201   1   9   0.0065   0.0121   0.0066  -0.0079  -0.0071   0.0047   0.00   21.8
2173 294363.000   1535069.4350  -4470500.6423   4268000.7208   1   9   0.0066   0.0121   0.0066  -0.0079  -0.0071   0.0043   0.00   21.9
2173 294364.000   1535069.4359  -4470500.6447   4268000.7233   1   9   0.0067   0.0122   0.0067  -0.0078  -0.0070   0.0042   0.00   21.9
2173 294365.000   1535069.4322  -4470500.6426   4268000.7226   1   9   0.0061   0.0121   0.0064  -0.0080  -0.0070   0.0046   0.00   21.9
2173 294366.000   1535069.4345  -4470500.6450   4268000.7236   1   9   0.0069   0.0121   0.0065  -0.0079  -0.0070   0.0042   0.00   21.9
2173 294367.000   1535069.4344  -4470500.6423   4268000.7237   1   9   0.0063   0.0121   0.0067  -0.0080  -0.0070   0.0045   0.00   21.9
2173 294368.000   1535069.4350  -4470500.6464   4268000.7213   1   9   0.0064   0.0121   0.0067  -0.0079  -0.0070   0.0045   0.00   21.9
2173 294369.000   1535069.4359  -4470500.6447   4268000.7238   1   9   0.0063   0.0122   0.0063  -0.0079  -0.0069   0.0049   0.00   21.9
2173 294370.000   1535069.4359  -4470500.6454   4268000.7223   1   9   0.0063   0.0121   0.0066  -0.0080  -0.0070   0.0046   0.00   21.9
2173 294371.000   1535069.4385  -4470500.6496   4268000.7247   1   9   0.0062   0.0121   0.0065  -0.0080  -0.0070   0.0047   0.00   21.9
2173 294372.000   1535069.4381  -4470500.6475   4268000.7247   1   9   0.0061   0.0121   0.0066  -0.0080  -0.0070   0.0048   0.00   22.0
2173 294373.000   1535069.4378  -4470500.6450   4268000.7241   1   9   0.0068   0.0121   0.0068  -0.0079  -0.0070   0.0045   0.00   22.0
2173 294374.000   1535069.4339  -4470500.6363   4268000.7186   1   9   0.0066   0.0121   0.0066  -0.0080  -0.0070   0.0047   0.00   22.0
2173 294375.000   1535069.4358  -4470500.6448   4268000.7214   1   9   0.0063   0.0121   0.0067  -0.0080  -0.0069   0.0045   0.00   22.0
2173 294376.000   1535069.4364  -4470500.6457   4268000.7223   1   9   0.0059   0.0120   0.0062  -0.0081  -0.0070   0.0049   0.00   22.0
2173 294377.000   1535069.4351  -4470500.6458   4268000.7221   1   9   0.0065   0.0121   0.0068  -0.0080  -0.0070   0.0044   0.00   22.0
2173 294378.000   1535069.4365  -4470500.6413   4268000.7210   1   9   0.0062   0.0120   0.0064  -0.0081  -0.0072   0.0047   0.00   22.0
2173 294379.000   1535069.4355  -4470500.6461   4268000.7239   1   9   0.0065   0.0121   0.0066  -0.0079  -0.0070   0.0044   0.00   22.0
2173 294380.000   1535069.4370  -4470500.6468   4268000.7252   1   9   0.0062   0.0121   0.0066  -0.0080  -0.0069   0.0045   0.00   22.0
2173 294381.000   1535069.4359  -4470500.6444   4268000.7226   1   9   0.0064   0.0121   0.0067  -0.0080  -0.0070   0.0046   0.00   22.0
2173 294382.000   1535069.4362  -4470500.6499   4268000.7246   1   9   0.0065   0.0121   0.0067  -0.0081  -0.0070   0.0046   0.00   22.0
2173 294383.000   1535069.4340  -4470500.6380   4268000.7222   1   9   0.0064   0.0121   0.0067  -0.0079  -0.0070   0.0043   0.00   22.0
2173 294384.000   1535069.4377  -4470500.6480   4268000.7223   1   9   0.0067   0.0121   0.0064  -0.0079  -0.0070   0.0046   0.00   21.9
2173 294385.000   1535069.4357  -4470500.6449   4268000.7228   1   9   0.0063   0.0121   0.0064  -0.0079  -0.0071   0.0045   0.00   21.9
2173 294386.000   1535069.4350  -4470500.6439   4268000.7218   1   9   0.0066   0.0121   0.0069  -0.0079  -0.0071   0.0044   0.00   21.9
2173 294387.000   1535069.4383  -4470500.6484   4268000.7241   1   9   0.0064   0.0122   0.0063  -0.0079  -0.0068   0.0046   0.00   21.9
2173 294388.000   1535069.4352  -4470500.6453   4268000.7236   1   9   0.0066   0.0121   0.0065  -0.0079  -0.0071   0.0045   0.00   21.9
2173 294389.000   1535069.4372  -4470500.6462   4268000.7225   1   9   0.0062   0.0121   0.0064  -0.0080  -0.0069   0.0046   0.00   21.8
2173 294390.000   1535069.4371  -4470500.6475   4268000.7224   1   9   0.0067   0.0121   0.0064  -0.0079  -0.0070   0.0046   0.00   21.8
2173 294391.000   1535069.4378  -4470500.6474   4268000.7232   1   9   0.0067   0.0122   0.0067  -0.0079  -0.0070   0.0046   0.00   21.8
2173 294392.000   1535069.4353  -4470500.6438   4268000.7212   1   9   0.0064   0.0121   0.0065  -0.0079  -0.0070   0.0047   0.00   21.8
2173 294393.000   1535069.4342  -4470500.6408   4268000.7215   1   9   0.0062   0.0121   0.0066  -0.0080  -0.0070   0.0045   0.00   21.8
2173 294394.000   1535069.4360  -4470500.6438   4268000.7208   1   9   0.0065   0.0121   0.0064  -0.0079  -0.0070   0.0047   0.00   21.8
2173 294395.000   1535069.4339  -4470500.6411   4268000.7205   1   9   0.0065   0.0120   0.0063  -0.0081  -0.0071   0.0044   0.00   21.8
2173 294396.000   1535069.4374  -4470500.6479   4268000.7217   1   9   0.0064   0.0121   0.0065  -0.0080  -0.0070   0.0047   0.00   21.8
2173 294397.000   1535069.4384  -4470500.6474   4268000.7215   1   9   0.0066   0.0121   0.0065  -0.0080  -0.0070   0.0047   0.00   21.8
2173 294398.000   1535069.4380  -4470500.6485   4268000.7214   1   9   0.0063   0.0121   0.0065  -0.0080  -0.0070   0.0047   0.00   21.9
2173 294399.000   1535069.4367  -4470500.6457   4268000.7241   1   9   0.0065   0.0121   0.0066  -0.0079  -0.0071   0.0046   0.00   21.9
2173 294400.000   1535069.4379  -4470500.6450   4268000.7196   1   9   0.0063   0.0121   0.0063  -0.0080  -0.0070   0.0046   0.00   21.9
2173 294401.000   1535069.4380  -4470500.6466   4268000.7223   1   9   0.0064   0.0121   0.0066  -0.0079  -0.0071   0.0045   0.00   21.9
2173 294402.000   1535069.4350  -4470500.6441   4268000.7207   1   9   0.0064   0.0121   0.0062  -0.0080  -0.0069   0.0047   0.00   22.0
2173 294403.000   1535069.4344  -4470500.6437   4268000.7191   1   9   0.0065   0.0121   0.0065  -0.0079  -0.0070   0.0048   0.00   22.0
2173 294404.000   1535069.4379  -4470500.6468   4268000.7197   1   9   0.0063   0.0121   0.0067  -0.0079  -0.0071   0.0045   0.00   22.1
2173 294405.000   1535069.4358  -4470500.6444   4268000.7223   1   9   0.0067   0.0121   0.0063  -0.0080  -0.0071   0.0043   0.00   22.1
2173 294406.000   1535069.4359  -4470500.6439   4268000.7211   1   9   0.0063   0.0121   0.0066  -0.0079  -0.0070   0.0044   0.00   22.1
2173 294407.000   1535069.4372  -4470500.6489   4268000.7230   1   9   0.0067   0.0122   0.0064  -0.0079  -0.0069   0.0047   0.00   22.2
2173 294408.000   1535069.4388  -4470500.6481   4268000.7250   1   9   0.0064   0.0121   0.0067  -0.0080  -0.0070   0.0048   0.00   22.2
2173 294409.000   1535069.4329  -4470500.6421   4268000.7225   1   9   0.0068   0.0121   0.0066  -0.0080  -0.0070   0.0046   0.00   22.2
2173 294410.000   1535069.4360  -4470500.6456   4268000.7207   1   9   0.0064   0.0121   0.0063  -0.0080  -0.0069   0.0047   0.00   22.3
2173 294411.000   1535069.4362  -4470500.6464   4268000.7210   1   9   0.0062   0.0120   0.0066  -0.0082  -0.0070   0.0047   0.00   22.3
2173 294412.000   1535069.4384  -4470500.6517   4268000.7235   1   9   0.0064   0.0121   0.0068  -0.0079  -0.0070   0.0046   0.00   22.4
2173 294413.000   1535069.4368  -4470500.6488   4268000.7242   1   9   0.0065   0.0122   0.0063  -0.0079  -0.0069   0.0047   0.00   22.4
2173 294414.000   1535069.4390  -4470500.6513   4268000.7230   1   9   0.0065   0.0121   0.0066  -0.0079  -0.0070   0.0045   0.00   22.5
2173 294415.000   1535069.4380  -4470500.6483   4268000.7231   1   9   0.0067   0.0120   0.0067  -0.0080  -0.0070   0.0046   0.00   22.5
2173 294416.000   1535069.4371  -4470500.6483   4268000.7224   1   9   0.0067   0.0121   0.0066  -0.0079  -0.0070   0.0044   0.00   22.6
2173 294417.000   1535069.4364  -4470500.6462   4268000.7201   1   9   0.0065   0.0121   0.0065  -0.0079  -0.0070   0.0045   0.00   22.6
2173 294418.000   1535069.4367  -4470500.6446   4268000.7192   1   9   0.0064   0.0121   0.0067  -0.0079  -0.0070   0.0044   0.00   22.7
2173 294419.000   1535069.4357  -4470500.6445   4268000.7202   1   9   0.0067   0.0121   0.0066  -0.0079  -0.0070   0.0047   0.00   22.8
2173 294420.000   1535069.4349  -4470500.6460   4268000.7214   1   9   0.0065   0.0121   0.0066  -0.0080  -0.0069   0.0046   0.00   22.8
2173 294421.000   1535069.4354  -4470500.6443   4268000.7233   1   9   0.0064   0.0122   0.0066  -0.0079  -0.0070   0.0043   0.00   22.9
2173 294422.000   1535069.4372  -4470500.6495   4268000.7219   1   9   0.0064   0.0120   0.0065  -0.0081  -0.0069   0.0048   0.00   23.0
2173 294423.000   1535069.4352  -4470500.6465   4268000.7212   1   9   0.0066   0.0121   0.0066  -0.0080  -0.0070   0.0044   0.00   23.0
2173 294424.000   1535069.4360  -4470500.6451   4268000.7217   1   9   0.0064   0.0121   0.0066  -0.0081  -0.0069   0.0046   0.00   23.1
2173 294425.000   1535069.4371  -4470500.6507   4268000.7262   1   9   0.0064   0.0121   0.0065  -0.0080  -0.0070   0.0045   0.00   23.2
2173 294426.000   1535069.4355  -4470500.6465   4268000.7205   1   9   0.0065   0.0121   0.0067  -0.0080  -0.0069   0.0046   0.00   23.2
2173 294427.000   1535069.4348  -4470500.6440   4268000.7221   1   9   0.0061   0.0121   0.0068  -0.0079  -0.0070   0.0043   0.00   23.3
2173 294428.000   1535069.4392  -4470500.6491   4268000.7223   1   9   0.0064   0.0121   0.0067  -0.0080  -0.0069   0.0045   0.00   23.4
2173 294429.000   1535069.4389  -4470500.6496   4268000.7232   1   9   0.0064   0.0121   0.0068  -0.0080  -0.0069   0.0046   0.00   23.5
2173 294430.000   1535069.4344  -4470500.6438   4268000.7221   1   9   0.0066   0.0121   0.0065  -0.0081  -0.0070   0.0047   0.00   23.5
2173 294431.000   1535069.4340  -4470500.6422   4268000.7192   1   9   0.0064   0.0121   0.0066  -0.0080  -0.0069   0.0048   0.00   23.6
2173 294432.000   1535069.4336  -4470500.6440   4268000.7213   1   9   0.0066   0.0121   0.0064  -0.0079  -0.0070   0.0045   0.00   23.7
2173 294433.000   1535069.4333  -4470500.6427   4268000.7214   1   9   0.0066   0.0121   0.0065  -0.0080  -0.0069   0.0044   0.00   23.8
2173 294434.000   1535069.4359  -4470500.6445   4268000.7190   1   9   0.0064   0.0121   0.0067  -0.0079  -0.0070   0.0046   0.00   23.8
2173 294435.000   1535069.4364  -4470500.6428   4268000.7193   1   9   0.0067   0.0120   0.0065  -0.0081  -0.0071   0.0046   0.00   23.8
2173 294436.000   1535069.4324  -4470500.6390   4268000.7203   1   9   0.0067   0.0121   0.0065  -0.0080  -0.0070   0.0043   0.00   23.8
2173 294437.000   1535069.4351  -4470500.6430   4268000.7212   1   9   0.0066   0.0121   0.0065  -0.0080  -0.0069   0.0044   0.00   23.8
2173 294438.000   1535069.4349  -4470500.6395   4268000.7185   1   9   0.0064   0.0120   0.0066  -0.0081  -0.0070   0.0047   0.00   23.9
2173 294439.000   1535069.4366  -4470500.6454   4268000.7227   1   9   0.0066   0.0120   0.0066  -0.0080  -0.0070   0.0044   0.00   24.0
2173 294440.000   1535069.4343  -4470500.6420   4268000.7225   1   9   0.0064   0.0120   0.0066  -0.0080  -0.0070   0.0044   0.00   24.0
2173 294441.000   1535069.4359  -4470500.6411   4268000.7200   1   9   0.0063   0.0121   0.0069  -0.0079  -0.0071   0.0045   0.00   24.1
2173 294442.000   1535069.4347  -4470500.6389   4268000.7215   1   9   0.0066   0.0121   0.0067  -0.0079  -0.0069   0.0042   0.00   24.1
2173 294443.000   1535069.4352  -4470500.6445   4268000.7205   1   9   0.0066   0.0121   0.0067  -0.0079  -0.0070   0.0044   0.00   24.2
2173 294444.000   1535069.4370  -4470500.6436   4268000.7210   1   9   0.0063   0.0121   0.0063  -0.0080  -0.0070   0.0047   0.00   24.2
2173 294445.000   1535069.4362  -4470500.6449   4268000.7223   1   9   0.0064   0.0120   0.0066  -0.0080  -0.0070   0.0043   0.00   24.2
2173 294446.000   1535069.4348  -4470500.6432   4268000.7202   1   9   0.0065   0.0121   0.0068  -0.0080  -0.0070   0.0046   0.00   24.2
2173 294447.000   1535069.4363  -4470500.6421   4268000.7189   1   9   0.0064   0.0121   0.0067  -0.0080  -0.0070   0.0047   0.00   24.3
2173 294448.000   1535069.4364  -4470500.6442   4268000.7191   1   9   0.0064   0.0121   0.0065  -0.0080  -0.0069   0.0048   0.00   24.4
2173 294449.000   1535069.4362  -4470500.6444   4268000.7194   1   9   0.0065   0.0121   0.0068  -0.0079  -0.0070   0.0041   0.00   24.4
2173 294450.000   1535069.4349  -4470500.6436   4268000.7189   1   9   0.0064   0.0120   0.0064  -0.0081  -0.0070   0.0045   0.00   24.4
2173 294451.000   1535069.4347  -4470500.6427   4268000.7173   1   9   0.0066   0.0121   0.0065  -0.0080  -0.0069   0.0045   0.00   24.4
2173 294452.000   1535069.4358  -4470500.6438   4268000.7204   1   9   0.0067   0.0121   0.0067  -0.0079  -0.0069   0.0045   0.00   24.5
2173 294453.000   1535069.4369  -4470500.6452   4268000.7182   1   9   0.0063   0.0121   0.0065  -0.0080  -0.0070   0.0047   0.00   24.5
2173 294454.000   1535069.4345  -4470500.6415   4268000.7159   1   9   0.0068   0.0121   0.0065  -0.0079  -0.0069   0.0043   0.00   24.5
2173 294455.000   1535069.4359  -4470500.6420   4268000.7192   1   9   0.0064   0.0121   0.0066  -0.0080  -0.0069   0.0045   0.00   24.6
2173 294456.000   1535069.4353  -4470500.6433   4268000.7185   1   9   0.0063   0.0121   0.0065  -0.0080  -0.0069   0.0044   0.00   24.6
2173 294457.000   1535069.4336  -4470500.6383   4268000.7166   1   9   0.0068   0.0122   0.0065  -0.0078  -0.0069   0.0045   0.00   24.6
2173 294458.000   1535069.4342  -4470500.6407   4268000.7159   1   9   0.0065   0.0121   0.0066  -0.0080  -0.0070   0.0045   0.00   24.7
2173 294459.000   1535069.4379  -4470500.6468   4268000.7195   1   9   0.0061   0.0120   0.0064  -0.0081  -0.0070   0.0047   0.00   24.7
2173 294460.000   1535069.4344  -4470500.6447   4268000.7175   1   9   0.0065   0.0121   0.0067  -0.0080  -0.0070   0.0046   0.00   24.7
2173 294461.000   1535069.4351  -4470500.6451   4268000.7187   1   9   0.0065   0.0121   0.0064  -0.0080  -0.0069   0.0047   0.00   24.7
2173 294462.000   1535069.4335  -4470500.6443   4268000.7204   1   9   0.0063   0.0121   0.0067  -0.0079  -0.0070   0.0046   0.00   24.7
2173 294463.000   1535069.4347  -4470500.6446   4268000.7200   1   9   0.0069   0.0121   0.0068  -0.0078  -0.0071   0.0044   0.00   24.7
2173 294464.000   1535069.4351  -4470500.6489   4268000.7208   1   9   0.0065   0.0120   0.0067  -0.0081  -0.0070   0.0047   0.00   24.7
2173 294465.000   1535069.4341  -4470500.6429   4268000.7196   1   9   0.0064   0.0121   0.0067  -0.0080  -0.0069   0.0046   0.00   24.7
2173 294466.000   1535069.4345  -4470500.6454   4268000.7184   1   9   0.0068   0.0121   0.0065  -0.0079  -0.0070   0.0045   0.00   24.7
2173 294467.000   1535069.4360  -4470500.6480   4268000.7213   1   9   0.0069   0.0121   0.0065  -0.0078  -0.0069   0.0047   0.00   24.7
2173 294468.000   1535069.4341  -4470500.6390   4268000.7151   1   9   0.0065   0.0120   0.0066  -0.0080  -0.0070   0.0047   0.00   24.8
2173 294469.000   1535069.4337  -4470500.6423   4268000.7195   1   9   0.0063   0.0121   0.0065  -0.0080  -0.0070   0.0046   0.00   24.7
2173 294470.000   1535069.4330  -4470500.6418   4268000.7170   1   9   0.0066   0.0121   0.0066  -0.0080  -0.0070   0.0043   0.00   24.8
2173 294471.000   1535069.4344  -4470500.6438   4268000.7193   1   9   0.0065   0.0121   0.0065  -0.0080  -0.0069   0.0048   0.00   24.8
2173 294472.000   1535069.4332  -4470500.6411   4268000.7164   1   9   0.0063   0.0121   0.0065  -0.0079  -0.0070   0.0046   0.00   24.8
2173 294473.000   1535069.4338  -4470500.6420   4268000.7183   1   9   0.0065   0.0121   0.0066  -0.0079  -0.0071   0.0047   0.00   24.7
2173 294474.000   1535069.4316  -4470500.6395   4268000.7168   1   9   0.0065   0.0120   0.0069  -0.0080  -0.0070   0.0044   0.00   24.7
2173 294475.000   1535069.4312  -4470500.6383   4268000.7162   1   9   0.0064   0.0121   0.0065  -0.0080  -0.0069   0.0047   0.00   24.7
2173 294476.000   1535069.4341  -4470500.6440   4268000.7206   1   9   0.0065   0.0121   0.0066  -0.0079  -0.0070   0.0044   0.00   24.7
2173 294477.000   1535069.4328  -4470500.6410   4268000.7195   1   9   0.0063   0.0121   0.0066  -0.0079  -0.0070   0.0044   0.00   24.7
2173 294478.000   1535069.4348  -4470500.6424   4268000.7181   1   9   0.0067   0.0121   0.0065  -0.0078  -0.0069   0.0046   0.00   24.7
2173 294479.000   1535069.4324  -4470500.6374   4268000.7151   1   9   0.0066   0.0120   0.0064  -0.0080  -0.0070   0.0048   0.00   24.7
2173 294480.000   1535069.4305  -4470500.6369   4268000.7181   1   9   0.0068   0.0121   0.0064  -0.0080  -0.0070   0.0049   0.00   24.7
2173 294481.000   1535069.4328  -4470500.6449   4268000.7199   1   9   0.0067   0.0121   0.0066  -0.0079  -0.0070   0.0046   0.00   24.6
2173 294482.000   1535069.4332  -4470500.6401   4268000.7164   1   9   0.0060   0.0121   0.0065  -0.0080  -0.0069   0.0049   0.00   24.6
2173 294483.000   1535069.4313  -4470500.6399   4268000.7163   1   9   0.0065   0.0121   0.0064  -0.0079  -0.0070   0.0046   0.00   24.5
2173 294484.000   1535069.4344  -4470500.6439   4268000.7166   1   9   0.0063   0.0120   0.0064  -0.0080  -0.0069   0.0043   0.00   24.5
2173 294485.000   1535069.4340  -4470500.6385   4268000.7151   1   9   0.0065   0.0121   0.0066  -0.0079  -0.0070   0.0048   0.00   24.4
2173 294486.000   1535069.4315  -4470500.6383   4268000.7152   1   9   0.0063   0.0120   0.0065  -0.0080  -0.0070   0.0048   0.00   24.4
2173 294487.000   1535069.4326  -4470500.6383   4268000.7136   1   9   0.0062   0.0120   0.0064  -0.0082  -0.0069   0.0045   0.00   24.4
2173 294488.000   1535069.4308  -4470500.6338   4268000.7114   1   9   0.0067   0.0121   0.0066  -0.0079  -0.0069   0.0043   0.00   24.4
2173 294489.000   1535069.4336  -4470500.6409   4268000.7145   1   9   0.0063   0.0121   0.0065  -0.0079  -0.0070   0.0048   0.00   24.4
2173 294490.000   1535069.4352  -4470500.6439   4268000.7165   1   9   0.0065   0.0121   0.0067  -0.0079  -0.0070   0.0046   0.00   24.3
2173 294491.000   1535069.4343  -4470500.6408   4268000.7175   1   9   0.0068   0.0121   0.0064  -0.0079  -0.0069   0.0042   0.00   24.3
2173 294492.000   1535069.4338  -4470500.6400   4268000.7149   1   9   0.0067   0.0121   0.0063  -0.0078  -0.0069   0.0044   0.00   24.3
2173 294493.000   1535069.4341  -4470500.6412   4268000.7173   1   9   0.0070   0.0122   0.0067  -0.0078  -0.0069   0.0042   0.00   24.2
2173 294494.000   1535069.4339  -4470500.6408   4268000.7173   1   9   0.0065   0.0121   0.0065  -0.0079  -0.0070   0.0044   0.00   24.2
2173 294495.000   1535069.4319  -4470500.6397   4268000.7150   1   9   0.0065   0.0121   0.0066  -0.0080  -0.0070   0.0044   0.00   24.1
2173 294496.000   1535069.4314  -4470500.6344   4268000.7171   1   9   0.0067   0.0121   0.0066  -0.0079  -0.0069   0.0044   0.00   24.1
2173 294497.000   1535069.4313  -4470500.6351   4268000.7156   1   9   0.0064   0.0120   0.0066  -0.0080  -0.0070   0.0046   0.00   24.0
2173 294498.000   1535069.4339  -4470500.6393   4268000.7165   1   9   0.0063   0.0120   0.0070  -0.0081  -0.0069   0.0047   0.00   24.0
2173 294499.000   1535069.4338  -4470500.6392   4268000.7159   1   9   0.0063   0.0121   0.0068  -0.0080  -0.0070   0.0045   0.00   24.0
2173 294500.000   1535069.4314  -4470500.6340   4268000.7140   1   9   0.0065   0.0121   0.0062  -0.0079  -0.0068   0.0046   0.00   23.9
2173 294501.000   1535069.4333  -4470500.6370   4268000.7159   1   9   0.0067   0.0121   0.0065  -0.0079  -0.0069   0.0044   0.00   23.9
2173 294502.000   1535069.4292  -4470500.6309   4268000.7135   1   9   0.0066   0.0121   0.0063  -0.0079  -0.0070   0.0047   0.00   23.8
2173 294503.000   1535069.4310  -4470500.6360   4268000.7150   1   9   0.0062   0.0121   0.0064  -0.0079  -0.0070   0.0048   0.00   23.8
2173 294504.000   1535069.4317  -4470500.6353   4268000.7139   1   9   0.0065   0.0121   0.0066  -0.0080  -0.0071   0.0045   0.00   23.7
2173 294505.000   1535069.4302  -4470500.6328   4268000.7168   1   9   0.0064   0.0120   0.0065  -0.0081  -0.0069   0.0048   0.00   23.7
2173 294506.000   1535069.4331  -4470500.6393   4268000.7166   1   9   0.0068   0.0121   0.0066  -0.0078  -0.0069   0.0041   0.00   23.6
2173 294507.000   1535069.4350  -4470500.6420   4268000.7155   1   9   0.0064   0.0121   0.0066  -0.0079  -0.0071   0.0049   0.00   23.6
2173 294508.000   1535069.4340  -4470500.6410   4268000.7153   1   9   0.0064   0.0121   0.0065  -0.0079  -0.0069   0.0047   0.00   23.6
2173 294509.000   1535069.4302  -4470500.6350   4268000.7138   1   9   0.0066   0.0121   0.0066  -0.0079  -0.0069   0.0044   0.00   23.5
2173 294510.000   1535069.4333  -4470500.6376   4268000.7169   1   9   0.0063   0.0121   0.0063  -0.0079  -0.0069   0.0048   0.00   23.5
2173 294511.000   1535069.4339  -4470500.6383   4268000.7170   1   9   0.0067   0.0121   0.0068  -0.0079  -0.0069   0.0042   0.00   23.4
2173 294512.000   1535069.4309  -4470500.6349   4268000.7135   1   9   0.0066   0.0121   0.0068  -0.0079  -0.0070   0.0044   0.00   23.4
2173 294513.000   1535069.4303  -4470500.6317   4268000.7116   1   9   0.0064   0.0121   0.0064  -0.0080  -0.0069   0.0046   0.00   23.4
2173 294514.000   1535069.4333  -4470500.6401   4268000.7177   1   9   0.0067   0.0121   0.0067  -0.0078  -0.0071   0.0046   0.00   23.3
2173 294515.000   1535069.4338  -4470500.6383   4268000.7155   1   9   0.0065   0.0121   0.0063  -0.0080  -0.0068   0.0047   0.00   23.3
2173 294516.000   1535069.4333  -4470500.6400   4268000.7188   1   9   0.0066   0.0120   0.0067  -0.0080  -0.0070   0.0045   0.00   23.3
2173 294517.000   1535069.4323  -4470500.6400   4268000.7198   1   9   0.0065   0.0120   0.0062  -0.0080  -0.0069   0.0046   0.00   23.2
2173 294518.000   1535069.4317  -4470500.6343   4268000.7154   1   9   0.0063   0.0120   0.0061  -0.0081  -0.0069   0.0048   0.00   23.1
2173 294519.000   1535069.4350  -4470500.6372   4268000.7174   1   9   0.0065   0.0121   0.0065  -0.0080  -0.0069   0.0048   0.00   23.1
2173 294520.000   1535069.4340  -4470500.6371   4268000.7143   1   9   0.0063   0.0120   0.0068  -0.0080  -0.0070   0.0048   0.00   23.1
2173 294521.000   1535069.4343  -4470500.6403   4268000.7171   1   9   0.0064   0.0121   0.0062  -0.0079  -0.0070   0.0047   0.00   23.0
2173 294522.000   1535069.4320  -4470500.6338   4268000.7153   1   9   0.0066   0.0121   0.0065  -0.0079  -0.0069   0.0043   0.00   23.0
2173 294523.000   1535069.4350  -4470500.6379   4268000.7137   1   9   0.0062   0.0120   0.0066  -0.0081  -0.0069   0.0049   0.00   23.0
2173 294524.000   1535069.4322  -4470500.6372   4268000.7178   1   9   0.0067   0.0120   0.0070  -0.0080  -0.0070   0.0042   0.00   22.9
2173 294525.000   1535069.4340  -4470500.6389   4268000.7190   1   9   0.0069   0.0121   0.0066  -0.0079  -0.0071   0.0045   0.00   22.8
2173 294526.000   1535069.4329  -4470500.6371   4268000.7156   1   9   0.0064   0.0120   0.0065  -0.0080  -0.0069   0.0045   0.00   22.8
2173 294527.000   1535069.4354  -4470500.6377   4268000.7189   1   9   0.0066   0.0120   0.0068  -0.0081  -0.0069   0.0045   0.00   22.7
2173 294528.000   1535069.4338  -4470500.6379   4268000.7183   1   9   0.0068   0.0120   0.0066  -0.0080  -0.0070   0.0044   0.00   22.6
2173 294529.000   1535069.4314  -4470500.6356   4268000.7153   1   9   0.0065   0.0121   0.0064  -0.0080  -0.0069   0.0045   0.00   22.6
2173 294530.000   1535069.4341  -4470500.6375   4268000.7154   1   9   0.0070   0.0121   0.0064  -0.0080  -0.0068   0.0047   0.00   22.6
2173 294531.000   1535069.4340  -4470500.6378   4268000.7146   1   9   0.0065   0.0121   0.0066  -0.0079  -0.0069   0.0045   0.00   22.5
2173 294532.000   1535069.4348  -4470500.6402   4268000.7143   1   9   0.0066   0.0120   0.0069  -0.0082  -0.0068   0.0043   0.00   22.5
2173 294533.000   1535069.4333  -4470500.6355   4268000.7130   1   9   0.0065   0.0121   0.0066  -0.0080  -0.0069   0.0044   0.00   22.4
2173 294534.000   1535069.4316  -4470500.6340   4268000.7146   1   9   0.0064   0.0121   0.0066  -0.0079  -0.0069   0.0049   0.00   22.4
2173 294535.000   1535069.4334  -4470500.6377   4268000.7162   1   9   0.0067   0.0121   0.0064  -0.0079  -0.0070   0.0045   0.00   22.4
2173 294536.000   1535069.4356  -4470500.6403   4268000.7155   1   9   0.0063   0.0120   0.0066  -0.0080  -0.0069   0.0048   0.00   22.3
2173 294537.000   1535069.4319  -4470500.6373   4268000.7159   1   9   0.0069   0.0121   0.0066  -0.0079  -0.0069   0.0045   0.00   22.3
2173 294538.000   1535069.4340  -4470500.6391   4268000.7175   1   9   0.0065   0.0120   0.0066  -0.0080  -0.0070   0.0045   0.00   22.2
2173 294539.000   1535069.4329  -4470500.6363   4268000.7111   1   9   0.0066   0.0121   0.0064  -0.0079  -0.0070   0.0047   0.00   22.2
2173 294540.000   1535069.4323  -4470500.6368   4268000.7150   1   9   0.0066   0.0120   0.0066  -0.0080  -0.0069   0.0046   0.00   22.1
2173 294541.000   1535069.4351  -4470500.6390   4268000.7139   1   9   0.0065   0.0120   0.0067  -0.0080  -0.0070   0.0045   0.00   22.1
2173 294542.000   1535069.4357  -4470500.6408   4268000.7154   1   9   0.0069   0.0121   0.0064  -0.0079  -0.0068   0.0046   0.00   22.0
2173 294543.000   1535069.4367  -4470500.6428   4268000.7160   1   9   0.0067   0.0121   0.0066  -0.0080  -0.0069   0.0046   0.00   22.0
2173 294544.000   1535069.4337  -4470500.6381   4268000.7133   1   9   0.0065   0.0120   0.0065  -0.0080  -0.0070   0.0047   0.00   22.0
2173 294545.000   1535069.4333  -4470500.6366   4268000.7148   1   9   0.0064   0.0120   0.0064  -0.0080  -0.0069   0.0045   0.00   22.0
2173 294546.000   1535069.4353  -4470500.6399   4268000.7180   1   9   0.0064   0.0120   0.0064  -0.0079  -0.0069   0.0045   0.00   21.9
2173 294547.000   1535069.4323  -4470500.6368   4268000.7148   1   9   0.0062   0.0120   0.0067  -0.0081  -0.0070   0.0045   0.00   21.8
2173 294548.000   1535069.4332  -4470500.6409   4268000.7155   1   9   0.0063   0.0120   0.0066  -0.0080  -0.0070   0.0048   0.00   21.8
2173 294549.000   1535069.4355  -4470500.6423   4268000.7151   1   9   0.0066   0.0119   0.0068  -0.0081  -0.0069   0.0043   0.00   21.7
2173 294550.000   1535069.4350  -4470500.6392   4268000.7140   1   9   0.0066   0.0120   0.0068  -0.0080  -0.0068   0.0044   0.00   21.7
2173 294551.000   1535069.4322  -4470500.6375   4268000.7136   1   9   0.0067   0.0120   0.0065  -0.0079  -0.0068   0.0045   0.00   21.6
2173 294552.000   1535069.4353  -4470500.6408   4268000.7159   1   9   0.0066   0.0121   0.0068  -0.0079  -0.0070   0.0044   0.00   21.6
2173 294553.000   1535069.4370  -4470500.6432   4268000.7185   1   9   0.0062   0.0120   0.0065  -0.0081  -0.0069   0.0047   0.00   21.5
2173 294554.000   1535069.4362  -4470500.6418   4268000.7144   1   9   0.0065   0.0120   0.0065  -0.0080  -0.0069   0.0048   0.00   21.5
