% program   : rnx2rtkp ver.2.4.3 b31
% inp file  : ngs/21_08_31_02_34_40_ncrd.obs
% inp file  : ngs/21_08_31_02_34_40_ncrd_VZ.obs
% inp file  : ngs/21_08_31_02_34_40_brdc.nav
% obs start : 2021/08/31 02:00:00.0 GPST (week2173 180000.0s)
% obs end   : 2021/08/31 02:59:59.0 GPST (week2173 183599.0s)
% ref pos   :  1027044.1724  -5080539.2390   3704298.3756
%
% (x/y/z-ecef=WGS84,Q=1:fix,2:float,3:sbas,4:dgps,5:single,6:ppp,ns=# of satellites)
%  GPST              x-ecef(m)      y-ecef(m)      z-ecef(m)   Q  ns   sdx(m)   sdy(m)   sdz(m)  sdxy(m)  sdyz(m)  sdzx(m) age(s)  ratio
2173 182068.000   1026003.1691  -5078804.5592   3706983.8265   2   7   0.5255   1.0030   0.7961  -0.5233  -0.6574   0.1915 -30.00    1.0
2173 182069.000   1026003.2006  -5078804.5974   3706983.6390   2   7   0.3736   0.7142   0.5665  -0.3717  -0.4681   0.1348 -29.00    1.0
2173 182070.000   1026003.2030  -5078804.5849   3706983.5921   2   7   0.3059   0.5849   0.4639  -0.3043  -0.3834   0.1101 -28.00    1.1
2173 182071.000   1026003.2083  -5078804.6215   3706983.6328   2   7   0.2655   0.5074   0.4025  -0.2640  -0.3326   0.0955 -27.00    1.1
2173 182072.000   1026003.2432  -5078804.6511   3706983.6688   2   7   0.2378   0.4545   0.3604  -0.2365  -0.2979   0.0856 -26.00    1.0
2173 182073.000   1026003.2713  -5078804.6700   3706983.7034   2   7   0.2173   0.4153   0.3294  -0.2162  -0.2722   0.0782 -25.00    1.0
2173 182074.000   1026003.2759  -5078804.6556   3706983.7108   2   7   0.2014   0.3847   0.3052  -0.2003  -0.2522   0.0725 -24.00    1.1
2173 182075.000   1026003.2743  -5078804.5990   3706983.6753   2   7   0.1885   0.3601   0.2856  -0.1875  -0.2360   0.0678 -23.00    1.1
2173 182076.000   1026003.2723  -5078804.6139   3706983.7157   2   7   0.1778   0.3396   0.2694  -0.1769  -0.2226   0.0639 -22.00    1.1
2173 182077.000   1026003.2568  -5078804.5845   3706983.7046   2   7   0.1688   0.3223   0.2556  -0.1679  -0.2112   0.0606 -21.00    1.1
2173 182078.000   1026003.2576  -5078804.5979   3706983.6951   2   7   0.1610   0.3073   0.2437  -0.1601  -0.2013   0.0577 -20.00    1.1
2173 182079.000   1026003.2565  -5078804.6054   3706983.7048   2   7   0.1541   0.2943   0.2334  -0.1533  -0.1928   0.0552 -19.00    1.1
2173 182080.000   1026003.2600  -5078804.5953   3706983.6976   2   7   0.1481   0.2827   0.2242  -0.1472  -0.1852   0.0529 -18.00    1.1
2173 182081.000   1026003.2582  -5078804.5913   3706983.6849   2   7   0.1427   0.2724   0.2160  -0.1419  -0.1784   0.0509 -17.00    1.1
2173 182082.000   1026003.2648  -5078804.6090   3706983.7004   2   7   0.1378   0.2631   0.2086  -0.1370  -0.1722   0.0490 -16.00    1.1
2173 182083.000   1026003.2552  -5078804.5895   3706983.6864   2   7   0.1334   0.2547   0.2019  -0.1326  -0.1667   0.0474 -15.00    1.1
2173 182084.000   1026003.2598  -5078804.5996   3706983.6861   2   7   0.1294   0.2470   0.1958  -0.1286  -0.1616   0.0458 -14.00    1.0
2173 182085.000   1026003.2601  -5078804.5921   3706983.6871   2   7   0.1257   0.2399   0.1901  -0.1249  -0.1570   0.0444 -13.00    1.1
2173 182086.000   1026003.2575  -5078804.5904   3706983.6927   2   7   0.1223   0.2334   0.1850  -0.1215  -0.1527   0.0430 -12.00    1.1
2173 182087.000   1026003.2640  -5078804.5864   3706983.6896   2   7   0.1191   0.2274   0.1802  -0.1183  -0.1487   0.0418 -11.00    1.1
2173 182088.000   1026003.2667  -5078804.6063   3706983.6970   2   7   0.1162   0.2218   0.1757  -0.1154  -0.1450   0.0407 -10.00    1.1
2173 182089.000   1026003.2653  -5078804.6128   3706983.6888   2   7   0.1135   0.2166   0.1715  -0.1127  -0.1416   0.0396  -9.00    1.1
2173 182090.000   1026003.2593  -5078804.6149   3706983.6944   2   7   0.1109   0.2118   0.1676  -0.1102  -0.1384   0.0386  -8.00    1.1
2173 182091.000   1026003.2613  -5078804.6209   3706983.7014   2   7   0.1085   0.2072   0.1640  -0.1078  -0.1353   0.0376  -7.00    1.1
2173 182092.000   1026003.2613  -5078804.6114   3706983.6954   2   7   0.1063   0.2029   0.1606  -0.1055  -0.1325   0.0367  -6.00    1.1
2173 182093.000   1026003.2682  -5078804.6157   3706983.6860   2   7   0.1042   0.1989   0.1573  -0.1034  -0.1298   0.0359  -5.00    1.2
2173 182094.000   1026003.2725  -5078804.6260   3706983.6768   2   7   0.1022   0.1951   0.1543  -0.1014  -0.1273   0.0352  -4.00    1.2
2173 182095.000   1026003.2741  -5078804.6233   3706983.6721   2   7   0.1004   0.1915   0.1514  -0.0996  -0.1249   0.0345  -3.00    1.2
2173 182096.000   1026003.2754  -5078804.6263   3706983.6815   2   7   0.0986   0.1881   0.1486  -0.0978  -0.1226   0.0338  -2.00    1.3
2173 182097.000   1026003.2779  -5078804.6343   3706983.6857   2   7   0.0969   0.1848   0.1460  -0.0961  -0.1204   0.0331  -1.00    1.3
2173 182098.000   1026003.2837  -5078804.6444   3706983.6890   2   7   0.0953   0.1818   0.1435  -0.0946  -0.1184   0.0325   0.00    1.4
2173 182099.000   1026003.2881  -5078804.6521   3706983.6873   2   7   0.0938   0.1789   0.1412  -0.0931  -0.1164   0.0320   0.00    1.5
2173 182100.000   1026003.2960  -5078804.6646   3706983.7031   2   7   0.0924   0.1761   0.1390  -0.0917  -0.1146   0.0315   0.00    1.5
2173 182101.000   1026003.2895  -5078804.6634   3706983.6993   2   7   0.0911   0.1735   0.1368  -0.0903  -0.1128   0.0310   0.00    1.6
2173 182102.000   1026003.2968  -5078804.6883   3706983.7107   2   7   0.0897   0.1710   0.1348  -0.0890  -0.1111   0.0305   0.00    1.6
2173 182103.000   1026003.2985  -5078804.6950   3706983.7142   2   7   0.0885   0.1685   0.1328  -0.0878  -0.1095   0.0301   0.00    1.7
2173 182104.000   1026003.2991  -5078804.7042   3706983.7344   2   7   0.0873   0.1662   0.1309  -0.0866  -0.1079   0.0296   0.00    1.7
2173 182105.000   1026003.3060  -5078804.7147   3706983.7450   2   7   0.0862   0.1640   0.1291  -0.0854  -0.1064   0.0292   0.00    1.8
2173 182106.000   1026003.3006  -5078804.7200   3706983.7512   2   7   0.0851   0.1618   0.1273  -0.0843  -0.1049   0.0288   0.00    1.8
2173 182107.000   1026003.2941  -5078804.7243   3706983.7659   2   7   0.0840   0.1597   0.1256  -0.0832  -0.1035   0.0284   0.00    1.9
2173 182108.000   1026003.2966  -5078804.7372   3706983.7749   2   7   0.0829   0.1577   0.1239  -0.0822  -0.1022   0.0280   0.00    1.9
2173 182109.000   1026003.2958  -5078804.7533   3706983.7785   2   7   0.0820   0.1558   0.1224  -0.0812  -0.1009   0.0277   0.00    1.9
2173 182110.000   1026003.3034  -5078804.7598   3706983.7823   2   7   0.0810   0.1539   0.1208  -0.0803  -0.0996   0.0273   0.00    2.0
2173 182111.000   1026003.3078  -5078804.7671   3706983.7768   2   7   0.0801   0.1521   0.1193  -0.0794  -0.0983   0.0270   0.00    2.0
2173 182112.000   1026003.3128  -5078804.7772   3706983.7784   2   7   0.0792   0.1503   0.1178  -0.0785  -0.0971   0.0266   0.00    2.1
2173 182113.000   1026003.3135  -5078804.7730   3706983.7774   2   7   0.0783   0.1487   0.1164  -0.0776  -0.0959   0.0263   0.00    2.1
2173 182114.000   1026003.3176  -5078804.7893   3706983.7841   2   7   0.0775   0.1470   0.1150  -0.0768  -0.0948   0.0261   0.00    2.2
2173 182115.000   1026003.3202  -5078804.7966   3706983.7819   2   7   0.0767   0.1454   0.1137  -0.0760  -0.0937   0.0258   0.00    2.2
2173 182116.000   1026003.3194  -5078804.8067   3706983.7861   2   7   0.0759   0.1439   0.1124  -0.0752  -0.0926   0.0255   0.00    2.3
2173 182117.000   1026003.3265  -5078804.8193   3706983.7886   2   7   0.0751   0.1423   0.1111  -0.0744  -0.0916   0.0252   0.00    2.4
2173 182118.000   1026003.3273  -5078804.8269   3706983.7823   2   7   0.0744   0.1409   0.1099  -0.0737  -0.0905   0.0249   0.00    2.4
2173 182119.000   1026003.3263  -5078804.8248   3706983.7780   2   7   0.0736   0.1395   0.1086  -0.0729  -0.0895   0.0247   0.00    2.5
2173 182120.000   1026003.3181  -5078804.8211   3706983.7888   2   7   0.0729   0.1381   0.1075  -0.0722  -0.0885   0.0244   0.00    2.5
2173 182121.000   1026003.3115  -5078804.8139   3706983.7837   2   7   0.0723   0.1367   0.1063  -0.0716  -0.0876   0.0242   0.00    2.6
2173 182122.000   1026003.3161  -5078804.8051   3706983.7752   2   7   0.0716   0.1354   0.1052  -0.0709  -0.0866   0.0239   0.00    2.7
2173 182123.000   1026003.3180  -5078804.8068   3706983.7722   2   7   0.0710   0.1341   0.1040  -0.0703  -0.0857   0.0237   0.00    2.7
2173 182124.000   1026003.3214  -5078804.8068   3706983.7704   2   7   0.0703   0.1328   0.1029  -0.0696  -0.0848   0.0235   0.00    2.8
2173 182125.000   1026003.3151  -5078804.7869   3706983.7605   2   7   0.0697   0.1316   0.1019  -0.0690  -0.0839   0.0233   0.00    2.9
2173 182126.000   1026003.3223  -5078804.7873   3706983.7558   2   7   0.0691   0.1304   0.1008  -0.0684  -0.0831   0.0230   0.00    2.9
2173 182127.000   1026003.3157  -5078804.7781   3706983.7553   2   7   0.0685   0.1293   0.0998  -0.0678  -0.0822   0.0228   0.00    3.0
2173 182128.000   1026003.6300  -5078804.6069   3706983.1397   1   7   0.0053   0.0101   0.0081  -0.0053  -0.0066   0.0021   0.00    3.0
2173 182129.000   1026003.6311  -5078804.6044   3706983.1375   1   7   0.0050   0.0101   0.0081  -0.0052  -0.0066   0.0016   0.00    3.1
2173 182130.000   1026003.6291  -5078804.6094   3706983.1447   1   7   0.0054   0.0101   0.0081  -0.0052  -0.0065   0.0018   0.00    3.1
2173 182131.000   1026003.6300  -5078804.6078   3706983.1429   1   7   0.0054   0.0101   0.0082  -0.0053  -0.0066   0.0015   0.00    3.1
2173 182132.000   1026003.6306  -5078804.6110   3706983.1444   1   7   0.0056   0.0101   0.0080  -0.0054  -0.0066   0.0019   0.00    3.1
2173 182133.000   1026003.6292  -5078804.6071   3706983.1407   1   7   0.0050   0.0101   0.0081  -0.0053  -0.0066   0.0014   0.00    3.2
2173 182134.000   1026003.6302  -5078804.6071   3706983.1434   1   7   0.0052   0.0101   0.0080  -0.0052  -0.0067   0.0016   0.00    3.2
2173 182135.000   1026003.6276  -5078804.6065   3706983.1429   1   7   0.0051   0.0101   0.0081  -0.0053  -0.0066   0.0014   0.00    3.2
2173 182136.000   1026003.6296  -5078804.6055   3706983.1406   1   7   0.0057   0.0101   0.0081  -0.0054  -0.0066   0.0015   0.00    3.2
2173 182137.000   1026003.6305  -5078804.6091   3706983.1395   1   7   0.0053   0.0101   0.0081  -0.0053  -0.0066   0.0014   0.00    3.2
2173 182138.000   1026003.6291  -5078804.6084   3706983.1409   1   7   0.0050   0.0101   0.0080  -0.0052  -0.0066   0.0019   0.00    3.2
2173 182139.000   1026003.6278  -5078804.6034   3706983.1411   1   7   0.0053   0.0101   0.0079  -0.0053  -0.0066   0.0015   0.00    3.3
2173 182140.000   1026003.6282  -5078804.6085   3706983.1463   1   7   0.0055   0.0101   0.0080  -0.0054  -0.0066   0.0020   0.00    3.3
2173 182141.000   1026003.6286  -5078804.6086   3706983.1416   1   7   0.0056   0.0101   0.0081  -0.0053  -0.0066   0.0016   0.00    3.4
2173 182142.000   1026003.6323  -5078804.6061   3706983.1392   1   7   0.0053   0.0101   0.0079  -0.0053  -0.0067   0.0013   0.00    3.4
2173 182143.000   1026003.6306  -5078804.6067   3706983.1401   1   7   0.0052   0.0101   0.0082  -0.0052  -0.0066   0.0017   0.00    3.4
2173 182144.000   1026003.6326  -5078804.6060   3706983.1365   1   7   0.0054   0.0101   0.0081  -0.0052  -0.0065   0.0018   0.00    3.5
2173 182145.000   1026003.6316  -5078804.6042   3706983.1378   1   7   0.0051   0.0101   0.0079  -0.0052  -0.0066   0.0012   0.00    3.5
2173 182146.000   1026003.6318  -5078804.6031   3706983.1338   1   7   0.0053   0.0100   0.0081  -0.0054  -0.0067   0.0016   0.00    3.5
2173 182147.000   1026003.6330  -5078804.6035   3706983.1365   1   7   0.0056   0.0101   0.0081  -0.0052  -0.0066   0.0015   0.00    3.6
2173 182148.000   1026003.6323  -5078804.6068   3706983.1400   1   7   0.0053   0.0101   0.0081  -0.0052  -0.0065   0.0015   0.00    3.6
2173 182149.000   1026003.6356  -5078804.6084   3706983.1361   1   7   0.0053   0.0101   0.0081  -0.0054  -0.0066   0.0014   0.00    3.7
2173 182150.000   1026003.6353  -5078804.6048   3706983.1342   1   7   0.0055   0.0101   0.0081  -0.0053  -0.0066   0.0014   0.00    3.7
2173 182151.000   1026003.6357  -5078804.6087   3706983.1374   1   7   0.0055   0.0101   0.0081  -0.0053  -0.0066   0.0016   0.00    3.8
2173 182152.000   1026003.6343  -5078804.6073   3706983.1351   1   7   0.0051   0.0101   0.0081  -0.0052  -0.0066   0.0016   0.00    3.8
2173 182153.000   1026003.6341  -5078804.6048   3706983.1340   1   7   0.0051   0.0100   0.0081  -0.0053  -0.0066   0.0019   0.00    3.9
2173 182154.000   1026003.6356  -5078804.6018   3706983.1312   1   7   0.0049   0.0101   0.0080  -0.0053  -0.0067   0.0012   0.00    3.9
2173 182155.000   1026003.6354  -5078804.5996   3706983.1276   1   7   0.0053   0.0101   0.0081  -0.0051  -0.0065   0.0017   0.00    4.0
2173 182156.000   1026003.6363  -5078804.6043   3706983.1312   1   7   0.0054   0.0101   0.0081  -0.0052  -0.0065   0.0014   0.00    4.0
2173 182157.000   1026003.6374  -5078804.6038   3706983.1265   1   7   0.0052   0.0101   0.0081  -0.0053  -0.0065   0.0014   0.00    4.0
2173 182158.000   1026003.6373  -5078804.6060   3706983.1283   1   7   0.0051   0.0101   0.0079  -0.0053  -0.0067   0.0014   0.00    4.1
2173 182159.000   1026003.6374  -5078804.6070   3706983.1288   1   7   0.0051   0.0101   0.0081  -0.0052  -0.0065   0.0016   0.00    4.1
2173 182160.000   1026003.6336  -5078804.6003   3706983.1268   1   7   0.0052   0.0101   0.0081  -0.0053  -0.0066   0.0012   0.00    4.2
2173 182161.000   1026003.6390  -5078804.6079   3706983.1275   1   7   0.0054   0.0101   0.0081  -0.0053  -0.0066   0.0010   0.00    4.2
2173 182162.000   1026003.6370  -5078804.6025   3706983.1295   1   7   0.0054   0.0101   0.0081  -0.0053  -0.0066   0.0017   0.00    4.3
2173 182163.000   1026003.6370  -5078804.6037   3706983.1272   1   7   0.0050   0.0101   0.0082  -0.0052  -0.0065   0.0018   0.00    4.3
2173 182164.000   1026003.6374  -5078804.6034   3706983.1284   1   7   0.0054   0.0101   0.0081  -0.0053  -0.0066   0.0010   0.00    4.4
2173 182165.000   1026003.6372  -5078804.6075   3706983.1292   1   7   0.0056   0.0101   0.0081  -0.0053  -0.0065   0.0019   0.00    4.4
2173 182166.000   1026003.6376  -5078804.6054   3706983.1328   1   7   0.0053   0.0101   0.0081  -0.0053  -0.0065   0.0014   0.00    4.5
2173 182167.000   1026003.6381  -5078804.6042   3706983.1285   1   7   0.0053   0.0101   0.0080  -0.0052  -0.0066   0.0012   0.00    4.6
2173 182168.000   1026003.6375  -5078804.6038   3706983.1283   1   7   0.0053   0.0101   0.0081  -0.0053  -0.0066   0.0014   0.00    4.6
2173 182169.000   1026003.6385  -5078804.6033   3706983.1295   1   7   0.0050   0.0101   0.0080  -0.0051  -0.0066   0.0015   0.00    4.7
2173 182170.000   1026003.6390  -5078804.6088   3706983.1308   1   7   0.0055   0.0101   0.0081  -0.0053  -0.0066   0.0016   0.00    4.7
2173 182171.000   1026003.6392  -5078804.6078   3706983.1315   1   7   0.0051   0.0101   0.0082  -0.0053  -0.0065   0.0017   0.00    4.7
2173 182172.000   1026003.6370  -5078804.6048   3706983.1307   1   7   0.0053   0.0100   0.0081  -0.0054  -0.0066   0.0014   0.00    4.7
2173 182173.000   1026003.6378  -5078804.6040   3706983.1293   1   7   0.0058   0.0101   0.0081  -0.0053  -0.0066   0.0018   0.00    4.7
2173 182174.000   1026003.6361  -5078804.6006   3706983.1266   1   7   0.0056   0.0102   0.0080  -0.0053  -0.0065   0.0009   0.00    4.8
2173 182175.000   1026003.6363  -5078804.6030   3706983.1293   1   7   0.0051   0.0101   0.0081  -0.0052  -0.0064   0.0019   0.00    4.8
2173 182176.000   1026003.6375  -5078804.6054   3706983.1306   1   7   0.0054   0.0101   0.0080  -0.0053  -0.0065   0.0009   0.00    4.8
2173 182177.000   1026003.6400  -5078804.6056   3706983.1289   1   7   0.0054   0.0101   0.0080  -0.0052  -0.0066   0.0012   0.00    4.8
2173 182178.000   1026003.6386  -5078804.6074   3706983.1319   1   7   0.0060   0.0103   0.0081  -0.0055  -0.0067   0.0015   1.00    4.9
2173 182179.000   1026003.6395  -5078804.6059   3706983.1287   1   7   0.0058   0.0101   0.0081  -0.0053  -0.0066   0.0019   0.00    4.9
2173 182180.000   1026003.6380  -5078804.6039   3706983.1283   1   7   0.0056   0.0100   0.0081  -0.0053  -0.0065   0.0011   0.00    4.9
2173 182181.000   1026003.6380  -5078804.6027   3706983.1254   1   7   0.0052   0.0101   0.0081  -0.0053  -0.0065   0.0013   0.00    5.0
2173 182182.000   1026003.6384  -5078804.6066   3706983.1281   1   7   0.0055   0.0101   0.0081  -0.0053  -0.0066   0.0015   0.00    5.0
2173 182183.000   1026003.6377  -5078804.6013   3706983.1255   1   7   0.0057   0.0101   0.0081  -0.0053  -0.0066   0.0013   0.00    5.0
2173 182184.000   1026003.6385  -5078804.6025   3706983.1236   1   7   0.0052   0.0101   0.0081  -0.0052  -0.0065   0.0015   0.00    5.0
2173 182185.000   1026003.6386  -5078804.6050   3706983.1247   1   7   0.0053   0.0101   0.0080  -0.0054  -0.0066   0.0009   0.00    5.1
2173 182186.000   1026003.6399  -5078804.6077   3706983.1276   1   7   0.0054   0.0101   0.0080  -0.0053  -0.0066   0.0014   0.00    5.1
2173 182187.000   1026003.6389  -5078804.6022   3706983.1245   1   7   0.0051   0.0101   0.0080  -0.0053  -0.0066   0.0012   0.00    5.1
2173 182188.000   1026003.6389  -5078804.5999   3706983.1227   1   7   0.0049   0.0100   0.0080  -0.0053  -0.0066   0.0010   0.00    5.1
2173 182189.000   1026003.6419  -5078804.6075   3706983.1238   1   7   0.0055   0.0101   0.0080  -0.0052  -0.0066   0.0014   0.00    5.1
2173 182190.000   1026003.6427  -5078804.6057   3706983.1211   1   7   0.0055   0.0101   0.0081  -0.0053  -0.0066   0.0015   0.00    5.1
2173 182191.000   1026003.6435  -5078804.6067   3706983.1247   1   7   0.0057   0.0102   0.0081  -0.0052  -0.0065   0.0019   0.00    5.1
2173 182192.000   1026003.6423  -5078804.6049   3706983.1240   1   7   0.0054   0.0103   0.0082  -0.0054  -0.0067   0.0015   1.00    5.1
2173 182193.000   1026003.6425  -5078804.6041   3706983.1225   1   7   0.0051   0.0101   0.0080  -0.0053  -0.0066   0.0016   0.00    5.1
2173 182194.000   1026003.6432  -5078804.6067   3706983.1246   1   7   0.0047   0.0101   0.0080  -0.0053  -0.0066   0.0003   0.00    5.1
2173 182195.000   1026003.6431  -5078804.6084   3706983.1254   1   7   0.0053   0.0101   0.0082  -0.0052  -0.0065   0.0015   0.00    5.2
2173 182196.000   1026003.6418  -5078804.6037   3706983.1253   1   7   0.0055   0.0101   0.0080  -0.0053  -0.0066   0.0016   0.00    5.1
2173 182197.000   1026003.6432  -5078804.6072   3706983.1248   1   7   0.0052   0.0101   0.0080  -0.0051  -0.0065   0.0017   0.00    5.1
2173 182198.000   1026003.6407  -5078804.6061   3706983.1210   1   7   0.0050   0.0101   0.0081  -0.0052  -0.0065   0.0015   0.00    5.1
2173 182199.000   1026003.6431  -5078804.6053   3706983.1208   1   7   0.0053   0.0100   0.0081  -0.0053  -0.0065   0.0015   0.00    5.1
2173 182200.000   1026003.6403  -5078804.6077   3706983.1246   1   7   0.0050   0.0101   0.0081  -0.0053  -0.0065   0.0016   0.00    5.1
2173 182201.000   1026003.6423  -5078804.6026   3706983.1202   1   7   0.0053   0.0101   0.0079  -0.0054  -0.0066   0.0006   0.00    5.2
2173 182202.000   1026003.6425  -5078804.6072   3706983.1224   1   7   0.0055   0.0103   0.0081  -0.0055  -0.0066   0.0012   1.00    5.2
2173 182203.000   1026003.6442  -5078804.6038   3706983.1217   1   7   0.0052   0.0100   0.0079  -0.0054  -0.0067   0.0007   0.00    5.2
2173 182204.000   1026003.6432  -5078804.6081   3706983.1257   1   7   0.0052   0.0101   0.0080  -0.0053  -0.0065   0.0011   0.00    5.2
2173 182205.000   1026003.6421  -5078804.6045   3706983.1248   1   7   0.0056   0.0101   0.0080  -0.0053  -0.0065   0.0012   0.00    5.2
2173 182206.000   1026003.6417  -5078804.6060   3706983.1243   1   7   0.0057   0.0101   0.0081  -0.0053  -0.0065   0.0017   0.00    5.2
2173 182207.000   1026003.6412  -5078804.6055   3706983.1248   1   7   0.0053   0.0100   0.0081  -0.0053  -0.0065   0.0014   0.00    5.2
2173 182208.000   1026003.6392  -5078804.5999   3706983.1233   1   7   0.0053   0.0101   0.0082  -0.0053  -0.0066   0.0021   0.00    5.2
2173 182209.000   1026003.6388  -5078804.6017   3706983.1255   1   7   0.0051   0.0101   0.0080  -0.0053  -0.0065  -0.0007   0.00    5.2
2173 182210.000   1026003.6406  -5078804.6020   3706983.1242   1   7   0.0053   0.0101   0.0081  -0.0053  -0.0066   0.0007   0.00    5.2
2173 182211.000   1026003.6383  -5078804.5987   3706983.1217   1   7   0.0055   0.0101   0.0081  -0.0053  -0.0066   0.0018   0.00    5.2
2173 182212.000   1026003.6394  -5078804.5968   3706983.1221   1   7   0.0056   0.0101   0.0080  -0.0053  -0.0066   0.0013   0.00    5.2
2173 182213.000   1026003.6375  -5078804.5983   3706983.1236   1   7   0.0055   0.0101   0.0080  -0.0054  -0.0065   0.0013   0.00    5.2
2173 182214.000   1026003.6410  -5078804.6011   3706983.1240   1   7   0.0057   0.0101   0.0081  -0.0053  -0.0066   0.0005   0.00    5.2
2173 182215.000   1026003.6402  -5078804.6004   3706983.1235   1   7   0.0053   0.0100   0.0081  -0.0054  -0.0065   0.0016   0.00    5.2
2173 182216.000   1026003.6410  -5078804.6003   3706983.1242   1   7   0.0056   0.0101   0.0080  -0.0052  -0.0065   0.0015   0.00    5.2
2173 182217.000   1026003.6408  -5078804.6039   3706983.1259   1   7   0.0060   0.0101   0.0081  -0.0052  -0.0066   0.0019   0.00    5.2
2173 182218.000   1026003.6395  -5078804.6009   3706983.1251   1   7   0.0054   0.0101   0.0081  -0.0053  -0.0066   0.0013   0.00    5.3
2173 182219.000   1026003.6403  -5078804.6021   3706983.1268   1   7   0.0056   0.0101   0.0081  -0.0053  -0.0066   0.0013   0.00    5.3
2173 182220.000   1026003.6414  -5078804.6000   3706983.1231   1   7   0.0051   0.0101   0.0081  -0.0053  -0.0064   0.0015   0.00    5.3
2173 182221.000   1026003.6394  -5078804.6024   3706983.1287   1   7   0.0056   0.0101   0.0082  -0.0052  -0.0065   0.0011   0.00    5.3
2173 182222.000   1026003.6414  -5078804.6033   3706983.1270   1   7   0.0056   0.0100   0.0082  -0.0054  -0.0065   0.0015   0.00    5.3
2173 182223.000   1026003.6409  -5078804.6030   3706983.1251   1   7   0.0052   0.0101   0.0081  -0.0053  -0.0065   0.0013   0.00    5.3
2173 182224.000   1026003.6411  -5078804.6011   3706983.1243   1   7   0.0054   0.0101   0.0081  -0.0052  -0.0065   0.0013   0.00    5.3
2173 182225.000   1026003.6400  -5078804.6033   3706983.1275   1   7   0.0056   0.0100   0.0080  -0.0053  -0.0066   0.0009   0.00    5.3
2173 182226.000   1026003.6410  -5078804.6051   3706983.1287   1   7   0.0055   0.0101   0.0079  -0.0053  -0.0066   0.0009   0.00    5.3
2173 182227.000   1026003.6405  -5078804.6038   3706983.1282   1   7   0.0053   0.0101   0.0081  -0.0053  -0.0066  -0.0002   0.00    5.3
2173 182228.000   1026003.6408  -5078804.6039   3706983.1268   1   7   0.0052   0.0101   0.0080  -0.0052  -0.0065   0.0013   0.00    5.4
2173 182229.000   1026003.6402  -5078804.6030   3706983.1286   1   7   0.0056   0.0101   0.0080  -0.0053  -0.0066   0.0007   0.00    5.4
2173 182230.000   1026003.6408  -5078804.6040   3706983.1289   1   7   0.0055   0.0101   0.0081  -0.0053  -0.0065   0.0011   0.00    5.4
2173 182231.000   1026003.6414  -5078804.6008   3706983.1261   1   7   0.0050   0.0100   0.0082  -0.0052  -0.0065   0.0011   0.00    5.4
2173 182232.000   1026003.6405  -5078804.5982   3706983.1273   1   7   0.0056   0.0100   0.0082  -0.0052  -0.0065   0.0016   0.00    5.4
2173 182233.000   1026003.6439  -5078804.6026   3706983.1248   1   7   0.0056   0.0101   0.0080  -0.0051  -0.0066   0.0013   0.00    5.4
2173 182234.000   1026003.6405  -5078804.6003   3706983.1259   1   7   0.0054   0.0101   0.0080  -0.0052  -0.0065  -0.0006   0.00    5.4
2173 182235.000   1026003.6435  -5078804.5986   3706983.1224   1   7   0.0053   0.0100   0.0081  -0.0053  -0.0065  -0.0006   0.00    5.4
2173 182236.000   1026003.6436  -5078804.6002   3706983.1222   1   7   0.0058   0.0100   0.0082  -0.0053  -0.0065   0.0015   0.00    5.4
2173 182237.000   1026003.6416  -5078804.5967   3706983.1235   1   7   0.0055   0.0101   0.0080  -0.0054  -0.0065   0.0006   0.00    5.4
2173 182238.000   1026003.6411  -5078804.5992   3706983.1268   1   7   0.0054   0.0101   0.0079  -0.0053  -0.0066  -0.0007   0.00    5.5
2173 182239.000   1026003.6426  -5078804.6047   3706983.1264   1   7   0.0054   0.0101   0.0080  -0.0052  -0.0065   0.0015   0.00    5.5
2173 182240.000   1026003.6424  -5078804.5975   3706983.1224   1   7   0.0055   0.0101   0.0081  -0.0053  -0.0065   0.0013   0.00    5.5
2173 182241.000   1026003.6422  -5078804.5962   3706983.1220   1   7   0.0053   0.0101   0.0081  -0.0052  -0.0065   0.0013   0.00    5.5
2173 182242.000   1026003.6436  -5078804.5977   3706983.1229   1   7   0.0053   0.0101   0.0080  -0.0052  -0.0065   0.0006   0.00    5.5
2173 182243.000   1026003.6410  -5078804.5945   3706983.1209   1   7   0.0052   0.0101   0.0081  -0.0053  -0.0066   0.0018   0.00    5.6
2173 182244.000   1026003.6444  -5078804.5992   3706983.1219   1   7   0.0053   0.0101   0.0081  -0.0053  -0.0065   0.0013   0.00    5.6
2173 182245.000   1026003.6457  -5078804.5996   3706983.1215   1   7   0.0052   0.0101   0.0080  -0.0053  -0.0065   0.0007   0.00    5.6
2173 182246.000   1026003.6441  -5078804.5964   3706983.1203   1   7   0.0053   0.0101   0.0082  -0.0053  -0.0064   0.0013   0.00    5.6
2173 182247.000   1026003.6468  -5078804.6025   3706983.1222   1   7   0.0058   0.0101   0.0082  -0.0053  -0.0064   0.0017   0.00    5.6
2173 182248.000   1026003.6454  -5078804.5980   3706983.1189   1   7   0.0053   0.0101   0.0081  -0.0052  -0.0065   0.0018   0.00    5.7
2173 182249.000   1026003.6452  -5078804.5977   3706983.1184   1   7   0.0054   0.0101   0.0082  -0.0052  -0.0065   0.0015   0.00    5.7
2173 182250.000   1026003.6452  -5078804.5989   3706983.1194   1   7   0.0053   0.0100   0.0080  -0.0054  -0.0065  -0.0002   0.00    5.7
2173 182251.000   1026003.6424  -5078804.5975   3706983.1206   1   7   0.0053   0.0100   0.0080  -0.0054  -0.0066   0.0012   0.00    5.7
2173 182252.000   1026003.6431  -5078804.5996   3706983.1216   1   7   0.0056   0.0101   0.0082  -0.0052  -0.0065   0.0015   0.00    5.8
2173 182253.000   1026003.6445  -5078804.5981   3706983.1201   1   7   0.0054   0.0101   0.0082  -0.0053  -0.0064   0.0015   0.00    5.8
2173 182254.000   1026003.6433  -5078804.5962   3706983.1183   1   7   0.0054   0.0100   0.0081  -0.0054  -0.0066   0.0014   0.00    5.8
2173 182255.000   1026003.6445  -5078804.5989   3706983.1211   1   7   0.0048   0.0100   0.0082  -0.0052  -0.0064   0.0017   0.00    5.8
2173 182256.000   1026003.6433  -5078804.5952   3706983.1185   1   7   0.0055   0.0101   0.0081  -0.0053  -0.0065   0.0006   0.00    5.9
2173 182257.000   1026003.6451  -5078804.5983   3706983.1207   1   7   0.0053   0.0101   0.0080  -0.0052  -0.0065  -0.0007   0.00    5.9
2173 182258.000   1026003.6437  -5078804.5951   3706983.1197   1   7   0.0053   0.0101   0.0081  -0.0053  -0.0064   0.0010   0.00    5.9
2173 182259.000   1026003.6464  -5078804.5969   3706983.1209   1   7   0.0051   0.0100   0.0081  -0.0053  -0.0065   0.0018   0.00    5.9
2173 182260.000   1026003.6451  -5078804.5981   3706983.1235   1   7   0.0049   0.0101   0.0079  -0.0053  -0.0065   0.0005   0.00    5.9
2173 182261.000   1026003.6445  -5078804.5956   3706983.1222   1   7   0.0054   0.0100   0.0080  -0.0053  -0.0065   0.0012   0.00    6.0
2173 182262.000   1026003.6462  -5078804.5964   3706983.1182   1   7   0.0056   0.0101   0.0081  -0.0053  -0.0065   0.0010   0.00    6.0
2173 182263.000   1026003.6407  -5078804.5908   3706983.1209   1   7   0.0055   0.0101   0.0081  -0.0053  -0.0064   0.0017   0.00    6.0
2173 182264.000   1026003.6445  -5078804.5954   3706983.1195   1   7   0.0053   0.0101   0.0081  -0.0052  -0.0065   0.0011   0.00    6.1
2173 182265.000   1026003.6427  -5078804.5937   3706983.1201   1   7   0.0048   0.0101   0.0082  -0.0052  -0.0064  -0.0001   0.00    6.1
2173 182266.000   1026003.6439  -5078804.5948   3706983.1229   1   7   0.0052   0.0101   0.0082  -0.0051  -0.0064   0.0012   0.00    6.1
2173 182267.000   1026003.6420  -5078804.5921   3706983.1190   1   7   0.0053   0.0100   0.0081  -0.0053  -0.0065   0.0012   0.00    6.1
2173 182268.000   1026003.6428  -5078804.5912   3706983.1195   1   7   0.0055   0.0101   0.0081  -0.0052  -0.0065   0.0012   0.00    6.2
2173 182269.000   1026003.6450  -5078804.5929   3706983.1190   1   7   0.0055   0.0100   0.0081  -0.0053  -0.0065   0.0015   0.00    6.2
2173 182270.000   1026003.6434  -5078804.5938   3706983.1210   1   7   0.0054   0.0100   0.0082  -0.0053  -0.0065   0.0013   0.00    6.2
2173 182271.000   1026003.6431  -5078804.5937   3706983.1193   1   7   0.0056   0.0101   0.0080  -0.0053  -0.0065  -0.0013   0.00    6.3
2173 182272.000   1026003.6437  -5078804.5932   3706983.1220   1   7   0.0051   0.0101   0.0082  -0.0051  -0.0064   0.0016   0.00    6.3
2173 182273.000   1026003.6448  -5078804.5946   3706983.1202   1   7   0.0054   0.0101   0.0081  -0.0052  -0.0064   0.0016   0.00    6.3
2173 182274.000   1026003.6428  -5078804.5935   3706983.1225   1   7   0.0056   0.0100   0.0080  -0.0054  -0.0065   0.0010   0.00    6.4
2173 182275.000   1026003.6427  -5078804.5924   3706983.1244   1   7   0.0061   0.0101   0.0080  -0.0053  -0.0065   0.0012   0.00    6.4
2173 182276.000   1026003.6448  -5078804.5937   3706983.1221   1   7   0.0051   0.0100   0.0081  -0.0054  -0.0066   0.0008   0.00    6.4
2173 182277.000   1026003.6439  -5078804.5923   3706983.1187   1   7   0.0055   0.0101   0.0081  -0.0053  -0.0065   0.0012   0.00    6.4
2173 182278.000   1026003.6443  -5078804.5912   3706983.1207   1   7   0.0055   0.0100   0.0081  -0.0053  -0.0066  -0.0005   0.00    6.5
2173 182279.000   1026003.6436  -5078804.5950   3706983.1238   1   7   0.0053   0.0101   0.0082  -0.0053  -0.0065   0.0013   0.00    6.5
2173 182280.000   1026003.6427  -5078804.5870   3706983.1196   1   7   0.0054   0.0101   0.0082  -0.0052  -0.0065   0.0016   0.00    6.5
2173 182281.000   1026003.6422  -5078804.5920   3706983.1219   1   7   0.0054   0.0101   0.0080  -0.0053  -0.0065  -0.0004   0.00    6.6
2173 182282.000   1026003.6409  -5078804.5905   3706983.1213   1   7   0.0058   0.0101   0.0081  -0.0053  -0.0065   0.0018   0.00    6.6
2173 182283.000   1026003.6410  -5078804.5891   3706983.1211   1   7   0.0051   0.0101   0.0082  -0.0053  -0.0064   0.0012   0.00    6.7
2173 182284.000   1026003.6412  -5078804.5880   3706983.1173   1   7   0.0056   0.0101   0.0083  -0.0051  -0.0063   0.0018   0.00    6.7
2173 182285.000   1026003.6418  -5078804.5862   3706983.1182   1   7   0.0058   0.0101   0.0082  -0.0053  -0.0064   0.0009   0.00    6.7
2173 182286.000   1026003.6415  -5078804.5907   3706983.1205   1   7   0.0054   0.0101   0.0081  -0.0052  -0.0064  -0.0007   0.00    6.8
2173 182287.000   1026003.6432  -5078804.5866   3706983.1181   1   7   0.0053   0.0101   0.0082  -0.0053  -0.0064   0.0007   0.00    6.8
2173 182288.000   1026003.6429  -5078804.5871   3706983.1174   1   7   0.0056   0.0101   0.0082  -0.0053  -0.0064   0.0016   0.00    6.9
2173 182289.000   1026003.6419  -5078804.5861   3706983.1177   1   7   0.0057   0.0100   0.0081  -0.0054  -0.0065   0.0013   0.00    6.9
2173 182290.000   1026003.6444  -5078804.5900   3706983.1181   1   7   0.0052   0.0100   0.0081  -0.0053  -0.0065  -0.0008   0.00    7.0
2173 182291.000   1026003.6452  -5078804.5921   3706983.1223   1   7   0.0055   0.0100   0.0081  -0.0053  -0.0064   0.0010   0.00    7.0
2173 182292.000   1026003.6448  -5078804.5908   3706983.1184   1   7   0.0055   0.0101   0.0081  -0.0053  -0.0065   0.0014   0.00    7.0
2173 182293.000   1026003.6414  -5078804.5876   3706983.1204   1   7   0.0057   0.0101   0.0081  -0.0052  -0.0065   0.0009   0.00    7.1
2173 182294.000   1026003.6420  -5078804.5870   3706983.1210   1   7   0.0055   0.0100   0.0080  -0.0054  -0.0066  -0.0011   0.00    7.1
2173 182295.000   1026003.6424  -5078804.5899   3706983.1203   1   7   0.0052   0.0101   0.0081  -0.0053  -0.0065   0.0007   0.00    7.2
2173 182296.000   1026003.6444  -5078804.5915   3706983.1213   1   7   0.0056   0.0101   0.0081  -0.0052  -0.0064   0.0012   0.00    7.2
2173 182297.000   1026003.6429  -5078804.5889   3706983.1186   1   7   0.0054   0.0100   0.0082  -0.0054  -0.0065   0.0015   0.00    7.3
2173 182298.000   1026003.6440  -5078804.5919   3706983.1194   1   7   0.0053   0.0101   0.0082  -0.0053  -0.0064   0.0015   0.00    7.3
2173 182299.000   1026003.6428  -5078804.5885   3706983.1167   1   7   0.0056   0.0100   0.0080  -0.0053  -0.0065   0.0009   0.00    7.4
2173 182300.000   1026003.6451  -5078804.5913   3706983.1171   1   7   0.0053   0.0101   0.0081  -0.0053  -0.0066   0.0010   0.00    7.4
2173 182301.000   1026003.6427  -5078804.5903   3706983.1192   1   7   0.0055   0.0101   0.0082  -0.0053  -0.0064   0.0013   0.00    7.4
2173 182302.000   1026003.6421  -5078804.5913   3706983.1199   1   7   0.0055   0.0101   0.0081  -0.0053  -0.0065   0.0007   0.00    7.4
2173 182303.000   1026003.6441  -5078804.5918   3706983.1226   1   7   0.0052   0.0101   0.0081  -0.0052  -0.0064   0.0011   0.00    7.5
2173 182304.000   1026003.6429  -5078804.5896   3706983.1189   1   7   0.0054   0.0100   0.0081  -0.0053  -0.0065   0.0013   0.00    7.5
2173 182305.000   1026003.6427  -5078804.5925   3706983.1206   1   7   0.0052   0.0101   0.0081  -0.0052  -0.0065  -0.0002   0.00    7.5
2173 182306.000   1026003.6440  -5078804.5954   3706983.1193   1   7   0.0053   0.0101   0.0081  -0.0052  -0.0064   0.0017   0.00    7.6
2173 182307.000   1026003.6416  -5078804.5927   3706983.1217   1   7   0.0054   0.0101   0.0082  -0.0052  -0.0065   0.0010   0.00    7.6
2173 182308.000   1026003.6436  -5078804.5947   3706983.1215   1   7   0.0056   0.0101   0.0082  -0.0053  -0.0064   0.0009   0.00    7.6
2173 182309.000   1026003.6427  -5078804.5950   3706983.1225   1   7   0.0053   0.0100   0.0080  -0.0053  -0.0065  -0.0010   0.00    7.6
2173 182310.000   1026003.6472  -5078804.5964   3706983.1214   1   7   0.0055   0.0101   0.0080  -0.0051  -0.0064   0.0010   0.00    7.6
2173 182311.000   1026003.6420  -5078804.5920   3706983.1220   1   7   0.0056   0.0101   0.0082  -0.0053  -0.0064   0.0002   0.00    7.7
2173 182312.000   1026003.6440  -5078804.5965   3706983.1226   1   7   0.0057   0.0100   0.0081  -0.0052  -0.0064   0.0012   0.00    7.7
2173 182313.000   1026003.6435  -5078804.5947   3706983.1238   1   7   0.0055   0.0100   0.0081  -0.0053  -0.0064   0.0009   0.00    7.7
2173 182314.000   1026003.6437  -5078804.5982   3706983.1272   1   7   0.0055   0.0100   0.0081  -0.0054  -0.0064   0.0007   0.00    7.7
2173 182315.000   1026003.6438  -5078804.5959   3706983.1251   1   7   0.0056   0.0101   0.0081  -0.0054  -0.0065   0.0005   0.00    7.8
2173 182316.000   1026003.6430  -5078804.5965   3706983.1242   1   7   0.0057   0.0101   0.0082  -0.0052  -0.0064   0.0011   0.00    7.8
2173 182317.000   1026003.6410  -5078804.5947   3706983.1248   1   7   0.0052   0.0103   0.0083  -0.0054  -0.0066   0.0006   1.00    7.8
2173 182318.000   1026003.6412  -5078804.5941   3706983.1252   1   7   0.0054   0.0101   0.0081  -0.0052  -0.0063   0.0014   0.00    7.8
2173 182319.000   1026003.6434  -5078804.5958   3706983.1234   1   7   0.0056   0.0100   0.0081  -0.0053  -0.0065   0.0008   0.00    7.8
2173 182320.000   1026003.6444  -5078804.5989   3706983.1273   1   7   0.0055   0.0101   0.0081  -0.0053  -0.0065  -0.0002   0.00    7.9
2173 182321.000   1026003.6436  -5078804.5983   3706983.1276   1   7   0.0054   0.0100   0.0082  -0.0053  -0.0064   0.0016   0.00    7.9
2173 182322.000   1026003.6440  -5078804.5960   3706983.1239   1   7   0.0055   0.0100   0.0082  -0.0053  -0.0064   0.0012   0.00    7.9
2173 182323.000   1026003.6415  -5078804.5955   3706983.1270   1   7   0.0052   0.0101   0.0082  -0.0052  -0.0064   0.0012   0.00    7.9
2173 182324.000   1026003.6415  -5078804.5967   3706983.1272   1   7   0.0055   0.0100   0.0081  -0.0054  -0.0065  -0.0009   0.00    8.0
2173 182325.000   1026003.6400  -5078804.5964   3706983.1277   1   7   0.0057   0.0100   0.0082  -0.0053  -0.0064   0.0002   0.00    8.0
2173 182326.000   1026003.6433  -5078804.5993   3706983.1282   1   7   0.0056   0.0101   0.0082  -0.0053  -0.0064   0.0005   0.00    8.0
2173 182327.000   1026003.6414  -5078804.5964   3706983.1248   1   7   0.0053   0.0100   0.0081  -0.0053  -0.0065   0.0007   0.00    8.0
2173 182328.000   1026003.6404  -5078804.5983   3706983.1274   1   7   0.0053   0.0100   0.0082  -0.0053  -0.0064  -0.0004   0.00    8.1
2173 182329.000   1026003.6411  -5078804.5959   3706983.1251   1   7   0.0050   0.0100   0.0080  -0.0053  -0.0064  -0.0009   0.00    8.1
2173 182330.000   1026003.6419  -5078804.5968   3706983.1248   1   7   0.0051   0.0100   0.0082  -0.0053  -0.0065   0.0002   0.00    8.1
2173 182331.000   1026003.6433  -5078804.5991   3706983.1281   1   7   0.0054   0.0100   0.0082  -0.0053  -0.0064   0.0008   0.00    8.1
2173 182332.000   1026003.6424  -5078804.5979   3706983.1302   1   7   0.0052   0.0100   0.0082  -0.0053  -0.0064  -0.0007   0.00    8.2
2173 182333.000   1026003.6412  -5078804.5985   3706983.1272   1   7   0.0057   0.0101   0.0082  -0.0052  -0.0064   0.0012   0.00    8.2
2173 182334.000   1026003.6398  -5078804.5996   3706983.1295   1   7   0.0052   0.0100   0.0082  -0.0053  -0.0063   0.0012   0.00    8.2
2173 182335.000   1026003.6408  -5078804.5987   3706983.1274   1   7   0.0052   0.0100   0.0081  -0.0053  -0.0063  -0.0004   0.00    8.3
2173 182336.000   1026003.6409  -5078804.6008   3706983.1286   1   7   0.0054   0.0101   0.0080  -0.0053  -0.0064  -0.0007   0.00    8.3
2173 182337.000   1026003.6406  -5078804.6020   3706983.1302   1   7   0.0056   0.0101   0.0081  -0.0052  -0.0064  -0.0002   0.00    8.3
2173 182338.000   1026003.6416  -5078804.6022   3706983.1299   1   7   0.0054   0.0100   0.0081  -0.0054  -0.0065  -0.0008   0.00    8.4
2173 182339.000   1026003.6413  -5078804.6026   3706983.1330   1   7   0.0053   0.0100   0.0080  -0.0054  -0.0065  -0.0010   0.00    8.4
2173 182340.000   1026003.6399  -5078804.5997   3706983.1292   1   7   0.0052   0.0100   0.0082  -0.0053  -0.0064   0.0005   0.00    8.5
2173 182341.000   1026003.6399  -5078804.5997   3706983.1321   1   7   0.0056   0.0100   0.0081  -0.0053  -0.0065   0.0010   0.00    8.5
2173 182342.000   1026003.6407  -5078804.5996   3706983.1303   1   7   0.0051   0.0100   0.0082  -0.0053  -0.0064  -0.0003   0.00    8.6
2173 182343.000   1026003.6411  -5078804.6005   3706983.1303   1   7   0.0053   0.0101   0.0081  -0.0052  -0.0064   0.0010   0.00    8.6
2173 182344.000   1026003.6415  -5078804.5985   3706983.1310   1   7   0.0054   0.0100   0.0082  -0.0053  -0.0065   0.0011   0.00    8.6
2173 182345.000   1026003.6394  -5078804.5980   3706983.1319   1   7   0.0055   0.0100   0.0081  -0.0053  -0.0064  -0.0006   0.00    8.7
2173 182346.000   1026003.6427  -5078804.5966   3706983.1256   1   7   0.0053   0.0100   0.0081  -0.0053  -0.0064  -0.0010   0.00    8.7
2173 182347.000   1026003.6402  -5078804.5976   3706983.1299   1   7   0.0056   0.0101   0.0082  -0.0052  -0.0064   0.0008   0.00    8.8
2173 182348.000   1026003.6415  -5078804.5969   3706983.1279   1   7   0.0054   0.0100   0.0081  -0.0053  -0.0065   0.0006   0.00    8.8
2173 182349.000   1026003.6400  -5078804.5962   3706983.1275   1   7   0.0051   0.0101   0.0082  -0.0053  -0.0064   0.0007   0.00    8.8
2173 182350.000   1026003.6412  -5078804.5949   3706983.1251   1   7   0.0055   0.0101   0.0082  -0.0053  -0.0065  -0.0001   0.00    8.9
2173 182351.000   1026003.6410  -5078804.5944   3706983.1255   1   7   0.0054   0.0100   0.0083  -0.0054  -0.0063   0.0012   0.00    8.9
2173 182352.000   1026003.6418  -5078804.5963   3706983.1262   1   7   0.0052   0.0100   0.0082  -0.0054  -0.0064   0.0008   0.00    8.9
2173 182353.000   1026003.6427  -5078804.5966   3706983.1297   1   7   0.0056   0.0100   0.0081  -0.0054  -0.0065  -0.0011   0.00    9.0
2173 182354.000   1026003.6420  -5078804.5966   3706983.1256   1   7   0.0054   0.0100   0.0082  -0.0053  -0.0064  -0.0005   0.00    9.0
2173 182355.000   1026003.6425  -5078804.5964   3706983.1264   1   7   0.0054   0.0101   0.0081  -0.0052  -0.0064  -0.0007   0.00    9.0
2173 182356.000   1026003.6405  -5078804.5966   3706983.1299   1   7   0.0052   0.0101   0.0082  -0.0052  -0.0064   0.0006   0.00    9.1
2173 182357.000   1026003.6403  -5078804.5987   3706983.1274   1   7   0.0053   0.0100   0.0081  -0.0052  -0.0063  -0.0010   0.00    9.1
2173 182358.000   1026003.6396  -5078804.5961   3706983.1233   1   7   0.0054   0.0100   0.0082  -0.0053  -0.0063  -0.0009   0.00    9.2
2173 182359.000   1026003.6401  -5078804.5969   3706983.1257   1   7   0.0053   0.0101   0.0082  -0.0053  -0.0064  -0.0007   0.00    9.2
2173 182360.000   1026003.6420  -5078804.5968   3706983.1242   1   7   0.0057   0.0100   0.0081  -0.0054  -0.0065  -0.0010   0.00    9.3
2173 182361.000   1026003.6417  -5078804.6001   3706983.1264   1   7   0.0051   0.0100   0.0081  -0.0052  -0.0064  -0.0009   0.00    9.3
2173 182362.000   1026003.6414  -5078804.5950   3706983.1205   1   7   0.0054   0.0101   0.0082  -0.0052  -0.0064   0.0006   0.00    9.3
2173 182363.000   1026003.6387  -5078804.5938   3706983.1257   1   7   0.0051   0.0100   0.0080  -0.0053  -0.0064  -0.0007   0.00    9.4
2173 182364.000   1026003.6402  -5078804.5947   3706983.1223   1   7   0.0054   0.0100   0.0081  -0.0053  -0.0064  -0.0011   0.00    9.4
2173 182365.000   1026003.6403  -5078804.5951   3706983.1242   1   7   0.0056   0.0100   0.0082  -0.0054  -0.0064   0.0009   0.00    9.5
2173 182366.000   1026003.6402  -5078804.5943   3706983.1206   1   7   0.0053   0.0100   0.0081  -0.0053  -0.0064  -0.0007   0.00    9.5
2173 182367.000   1026003.6412  -5078804.5975   3706983.1238   1   7   0.0055   0.0100   0.0081  -0.0053  -0.0064  -0.0012   0.00    9.6
2173 182368.000   1026003.6375  -5078804.5911   3706983.1263   1   7   0.0055   0.0100   0.0080  -0.0054  -0.0064  -0.0011   0.00    9.7
2173 182369.000   1026003.6390  -5078804.5957   3706983.1257   1   7   0.0055   0.0100   0.0081  -0.0053  -0.0064   0.0007   0.00    9.7
2173 182370.000   1026003.6381  -5078804.5973   3706983.1243   1   7   0.0053   0.0100   0.0081  -0.0052  -0.0063  -0.0008   0.00    9.8
2173 182371.000   1026003.6384  -5078804.5972   3706983.1263   1   7   0.0054   0.0100   0.0080  -0.0054  -0.0065  -0.0002   0.00    9.8
2173 182372.000   1026003.6368  -5078804.5976   3706983.1313   1   7   0.0052   0.0100   0.0082  -0.0052  -0.0063   0.0006   0.00    9.9
2173 182373.000   1026003.6399  -5078804.5987   3706983.1261   1   7   0.0054   0.0100   0.0081  -0.0053  -0.0064  -0.0014   0.00   10.0
2173 182374.000   1026003.6369  -5078804.5969   3706983.1276   1   7   0.0054   0.0100   0.0081  -0.0052  -0.0064  -0.0003   0.00   10.0
2173 182375.000   1026003.6371  -5078804.5975   3706983.1276   1   7   0.0054   0.0101   0.0080  -0.0052  -0.0064   0.0004   0.00   10.1
2173 182376.000   1026003.6374  -5078804.5961   3706983.1247   1   7   0.0056   0.0100   0.0082  -0.0053  -0.0064   0.0012   0.00   10.2
2173 182377.000   1026003.6397  -5078804.5998   3706983.1277   1   7   0.0054   0.0101   0.0081  -0.0052  -0.0063   0.0007   0.00   10.2
2173 182378.000   1026003.6369  -5078804.5990   3706983.1271   1   7   0.0052   0.0100   0.0081  -0.0053  -0.0064  -0.0010   0.00   10.3
2173 182379.000   1026003.6368  -5078804.5998   3706983.1306   1   7   0.0057   0.0100   0.0082  -0.0052  -0.0063   0.0014   0.00   10.4
2173 182380.000   1026003.6361  -5078804.6003   3706983.1300   1   7   0.0054   0.0101   0.0081  -0.0053  -0.0064  -0.0010   0.00   10.4
2173 182381.000   1026003.6365  -5078804.6020   3706983.1303   1   7   0.0056   0.0100   0.0081  -0.0054  -0.0064   0.0005   0.00   10.5
2173 182382.000   1026003.6346  -5078804.6050   3706983.1356   1   7   0.0054   0.0100   0.0081  -0.0053  -0.0064   0.0006   0.00   10.6
2173 182383.000   1026003.6347  -5078804.6011   3706983.1313   1   7   0.0053   0.0100   0.0081  -0.0053  -0.0063  -0.0009   0.00   10.7
2173 182384.000   1026003.6346  -5078804.6035   3706983.1324   1   7   0.0054   0.0100   0.0082  -0.0053  -0.0064  -0.0012   0.00   10.8
2173 182385.000   1026003.6338  -5078804.5987   3706983.1307   1   7   0.0056   0.0101   0.0081  -0.0053  -0.0064  -0.0008   0.00   10.9
2173 182386.000   1026003.6336  -5078804.6033   3706983.1339   1   7   0.0054   0.0100   0.0082  -0.0053  -0.0063  -0.0006   0.00   11.0
2173 182387.000   1026003.6358  -5078804.6049   3706983.1309   1   7   0.0058   0.0100   0.0081  -0.0053  -0.0065  -0.0010   0.00   11.1
2173 182388.000   1026003.6361  -5078804.6021   3706983.1292   1   7   0.0052   0.0101   0.0082  -0.0052  -0.0063  -0.0011   0.00   11.2
2173 182389.000   1026003.6386  -5078804.6071   3706983.1310   1   7   0.0054   0.0100   0.0082  -0.0053  -0.0064   0.0007   0.00   11.3
2173 182390.000   1026003.6370  -5078804.6063   3706983.1299   1   7   0.0053   0.0100   0.0082  -0.0053  -0.0064  -0.0002   0.00   11.4
2173 182391.000   1026003.6359  -5078804.6062   3706983.1303   1   7   0.0055   0.0101   0.0081  -0.0053  -0.0064   0.0003   0.00   11.5
2173 182392.000   1026003.6373  -5078804.6070   3706983.1308   1   7   0.0056   0.0100   0.0081  -0.0054  -0.0064   0.0010   0.00   11.6
2173 182393.000   1026003.6385  -5078804.6044   3706983.1285   1   7   0.0058   0.0100   0.0083  -0.0053  -0.0063   0.0012   0.00   11.7
2173 182394.000   1026003.6382  -5078804.6079   3706983.1296   1   7   0.0057   0.0101   0.0081  -0.0053  -0.0063  -0.0008   0.00   11.8
2173 182395.000   1026003.6373  -5078804.6054   3706983.1287   1   7   0.0054   0.0101   0.0081  -0.0053  -0.0064   0.0005   0.00   11.9
2173 182396.000   1026003.6383  -5078804.6065   3706983.1291   1   7   0.0055   0.0100   0.0081  -0.0053  -0.0064  -0.0009   0.00   12.0
2173 182397.000   1026003.6399  -5078804.6084   3706983.1276   1   7   0.0056   0.0100   0.0083  -0.0053  -0.0063   0.0006   0.00   12.1
2173 182398.000   1026003.6392  -5078804.6084   3706983.1298   1   7   0.0053   0.0100   0.0081  -0.0054  -0.0065  -0.0012   0.00   12.2
2173 182399.000   1026003.6372  -5078804.6048   3706983.1292   1   7   0.0054   0.0100   0.0081  -0.0053  -0.0064   0.0005   0.00   12.3
2173 182400.000   1026003.6396  -5078804.6085   3706983.1284   1   7   0.0052   0.0100   0.0081  -0.0053  -0.0064  -0.0014   0.00   12.5
2173 182401.000   1026003.6380  -5078804.6060   3706983.1283   1   7   0.0054   0.0100   0.0082  -0.0053  -0.0064  -0.0014   0.00   12.6
2173 182402.000   1026003.6396  -5078804.6069   3706983.1260   1   7   0.0056   0.0100   0.0082  -0.0054  -0.0064   0.0005   0.00   12.7
2173 182403.000   1026003.6378  -5078804.6040   3706983.1282   1   7   0.0056   0.0100   0.0081  -0.0053  -0.0064  -0.0011   0.00   12.8
2173 182404.000   1026003.6381  -5078804.6064   3706983.1247   1   7   0.0053   0.0101   0.0083  -0.0052  -0.0063   0.0012   0.00   12.9
2173 182405.000   1026003.6366  -5078804.6034   3706983.1251   1   7   0.0055   0.0101   0.0083  -0.0052  -0.0063   0.0003   0.00   13.0
2173 182406.000   1026003.6388  -5078804.6064   3706983.1252   1   7   0.0053   0.0101   0.0081  -0.0052  -0.0063  -0.0009   0.00   13.1
2173 182407.000   1026003.6374  -5078804.6046   3706983.1261   1   7   0.0055   0.0100   0.0081  -0.0053  -0.0063  -0.0011   0.00   13.2
2173 182408.000   1026003.6370  -5078804.6038   3706983.1238   1   7   0.0049   0.0100   0.0080  -0.0053  -0.0064  -0.0019   0.00   13.3
2173 182409.000   1026003.6395  -5078804.6047   3706983.1232   1   7   0.0053   0.0100   0.0082  -0.0053  -0.0063   0.0010   0.00   13.5
2173 182410.000   1026003.6414  -5078804.6088   3706983.1241   1   7   0.0057   0.0100   0.0082  -0.0054  -0.0064   0.0001   0.00   13.6
2173 182411.000   1026003.6409  -5078804.6047   3706983.1221   1   7   0.0055   0.0100   0.0082  -0.0053  -0.0064   0.0010   0.00   13.7
2173 182412.000   1026003.6410  -5078804.6052   3706983.1226   1   7   0.0058   0.0100   0.0081  -0.0054  -0.0064  -0.0014   0.00   13.8
2173 182413.000   1026003.6435  -5078804.6091   3706983.1260   1   7   0.0057   0.0101   0.0081  -0.0053  -0.0063  -0.0010   0.00   13.9
2173 182414.000   1026003.6407  -5078804.6053   3706983.1237   1   7   0.0054   0.0100   0.0082  -0.0052  -0.0064  -0.0009   0.00   14.0
2173 182415.000   1026003.6397  -5078804.6036   3706983.1237   1   7   0.0056   0.0100   0.0082  -0.0053  -0.0064  -0.0009   0.00   14.1
2173 182416.000   1026003.6416  -5078804.6085   3706983.1259   1   7   0.0056   0.0100   0.0081  -0.0052  -0.0064  -0.0011   0.00   14.2
2173 182417.000   1026003.6403  -5078804.6046   3706983.1265   1   7   0.0054   0.0101   0.0081  -0.0052  -0.0064  -0.0016   0.00   14.2
2173 182418.000   1026003.6411  -5078804.6053   3706983.1250   1   7   0.0059   0.0100   0.0082  -0.0054  -0.0064  -0.0011   0.00   14.3
2173 182419.000   1026003.6396  -5078804.6043   3706983.1256   1   7   0.0056   0.0100   0.0082  -0.0053  -0.0063  -0.0006   0.00   14.4
2173 182420.000   1026003.6410  -5078804.6024   3706983.1242   1   7   0.0053   0.0100   0.0082  -0.0052  -0.0063  -0.0005   0.00   14.4
2173 182421.000   1026003.6404  -5078804.6048   3706983.1234   1   7   0.0057   0.0100   0.0082  -0.0053  -0.0063   0.0005   0.00   14.5
2173 182422.000   1026003.6410  -5078804.6016   3706983.1216   1   7   0.0051   0.0101   0.0082  -0.0052  -0.0063  -0.0014   0.00   14.5
2173 182423.000   1026003.6398  -5078804.6015   3706983.1202   1   7   0.0056   0.0100   0.0082  -0.0053  -0.0063  -0.0007   0.00   14.6
2173 182424.000   1026003.6372  -5078804.6001   3706983.1206   1   7   0.0055   0.0100   0.0082  -0.0053  -0.0064  -0.0009   0.00   14.7
2173 182425.000   1026003.6380  -5078804.6015   3706983.1235   1   7   0.0057   0.0100   0.0082  -0.0053  -0.0063  -0.0009   0.00   14.7
2173 182426.000   1026003.6386  -5078804.5985   3706983.1212   1   7   0.0058   0.0100   0.0082  -0.0053  -0.0064  -0.0010   0.00   14.8
2173 182427.000   1026003.6395  -5078804.6001   3706983.1201   1   7   0.0053   0.0100   0.0082  -0.0054  -0.0063  -0.0011   0.00   14.9
2173 182428.000   1026003.6375  -5078804.5959   3706983.1202   1   7   0.0055   0.0100   0.0081  -0.0052  -0.0063  -0.0012   0.00   15.0
2173 182429.000   1026003.6366  -5078804.5974   3706983.1190   1   7   0.0053   0.0100   0.0081  -0.0053  -0.0064  -0.0013   0.00   15.1
2173 182430.000   1026003.6379  -5078804.5976   3706983.1201   1   7   0.0058   0.0100   0.0081  -0.0054  -0.0064  -0.0012   0.00   15.2
2173 182431.000   1026003.6387  -5078804.5990   3706983.1185   1   7   0.0058   0.0100   0.0082  -0.0052  -0.0064  -0.0002   0.00   15.3
2173 182432.000   1026003.6369  -5078804.5944   3706983.1171   1   7   0.0054   0.0100   0.0082  -0.0053  -0.0063  -0.0006   0.00   15.3
2173 182433.000   1026003.6374  -5078804.5982   3706983.1192   1   7   0.0056   0.0100   0.0082  -0.0054  -0.0063  -0.0011   0.00   15.4
2173 182434.000   1026003.6388  -5078804.5995   3706983.1215   1   7   0.0052   0.0100   0.0081  -0.0053  -0.0063  -0.0016   0.00   15.5
2173 182435.000   1026003.6359  -5078804.5957   3706983.1185   1   7   0.0059   0.0101   0.0083  -0.0053  -0.0064   0.0008   0.00   15.6
2173 182436.000   1026003.6385  -5078804.6013   3706983.1212   1   7   0.0052   0.0100   0.0080  -0.0052  -0.0063  -0.0015   0.00   15.6
2173 182437.000   1026003.6373  -5078804.5978   3706983.1192   1   7   0.0055   0.0101   0.0081  -0.0053  -0.0064  -0.0011   0.00   15.7
2173 182438.000   1026003.6367  -5078804.6022   3706983.1218   1   7   0.0055   0.0101   0.0081  -0.0052  -0.0063  -0.0012   0.00   15.8
2173 182439.000   1026003.6381  -5078804.5972   3706983.1203   1   7   0.0056   0.0100   0.0083  -0.0053  -0.0063  -0.0010   0.00   15.9
2173 182440.000   1026003.6377  -5078804.6013   3706983.1221   1   7   0.0056   0.0100   0.0081  -0.0053  -0.0064  -0.0014   0.00   15.9
2173 182441.000   1026003.6377  -5078804.6038   3706983.1232   1   7   0.0054   0.0100   0.0081  -0.0054  -0.0064  -0.0015   0.00   16.0
2173 182442.000   1026003.6370  -5078804.6036   3706983.1248   1   7   0.0054   0.0099   0.0081  -0.0054  -0.0064  -0.0016   0.00   16.1
2173 182443.000   1026003.4679  -5078804.4713   3706983.1792   2   8   0.0219   0.0354   0.0164  -0.0174  -0.0136   0.0080   0.00    1.1
2173 182444.000   1026003.4673  -5078804.4662   3706983.1756   2   8   0.0216   0.0351   0.0164  -0.0171  -0.0136   0.0081   0.00    1.2
2173 182445.000   1026003.4673  -5078804.4692   3706983.1778   2   8   0.0215   0.0350   0.0163  -0.0169  -0.0135   0.0082   0.00    1.3
2173 182446.000   1026003.4639  -5078804.4667   3706983.1779   2   8   0.0215   0.0349   0.0162  -0.0168  -0.0135   0.0082   0.00    1.4
2173 182447.000   1026003.4637  -5078804.4688   3706983.1802   2   8   0.0214   0.0347   0.0162  -0.0167  -0.0135   0.0081   0.00    1.5
2173 182448.000   1026003.4637  -5078804.4727   3706983.1814   2   8   0.0214   0.0346   0.0162  -0.0166  -0.0134   0.0082   0.00    1.6
2173 182449.000   1026003.4623  -5078804.4661   3706983.1778   2   8   0.0213   0.0345   0.0162  -0.0165  -0.0135   0.0081   0.00    1.7
2173 182450.000   1026003.4629  -5078804.4695   3706983.1794   2   8   0.0212   0.0344   0.0161  -0.0164  -0.0134   0.0080   0.00    1.8
2173 182451.000   1026003.4621  -5078804.4677   3706983.1792   2   8   0.0211   0.0343   0.0160  -0.0163  -0.0133   0.0081   0.00    1.9
2173 182452.000   1026003.4607  -5078804.4682   3706983.1782   2   8   0.0212   0.0342   0.0160  -0.0164  -0.0133   0.0080   0.00    1.9
2173 182453.000   1026003.4591  -5078804.4648   3706983.1776   2   8   0.0212   0.0341   0.0160  -0.0162  -0.0132   0.0081   0.00    2.0
2173 182454.000   1026003.4586  -5078804.4636   3706983.1766   2   8   0.0210   0.0340   0.0159  -0.0162  -0.0132   0.0081   0.00    2.0
2173 182455.000   1026003.4577  -5078804.4560   3706983.1752   2   8   0.0209   0.0339   0.0159  -0.0160  -0.0132   0.0080   0.00    2.1
2173 182456.000   1026003.4554  -5078804.4571   3706983.1768   2   8   0.0209   0.0338   0.0159  -0.0160  -0.0131   0.0079   0.00    2.1
2173 182457.000   1026003.4537  -5078804.4535   3706983.1762   2   8   0.0209   0.0338   0.0158  -0.0159  -0.0131   0.0080   0.00    2.1
2173 182458.000   1026003.4554  -5078804.4542   3706983.1746   2   8   0.0207   0.0337   0.0157  -0.0159  -0.0130   0.0079   0.00    2.2
2173 182459.000   1026003.4572  -5078804.4574   3706983.1781   2   8   0.0208   0.0336   0.0157  -0.0157  -0.0130   0.0079   0.00    2.2
2173 182460.000   1026003.4532  -5078804.4492   3706983.1771   2   8   0.0208   0.0335   0.0157  -0.0158  -0.0130   0.0079   0.00    2.2
2173 182461.000   1026003.4516  -5078804.4446   3706983.1721   2   8   0.0206   0.0334   0.0156  -0.0157  -0.0129   0.0079   0.00    2.2
2173 182462.000   1026003.4505  -5078804.4393   3706983.1697   2   8   0.0206   0.0333   0.0156  -0.0156  -0.0130   0.0079   0.00    2.2
2173 182463.000   1026003.4528  -5078804.4423   3706983.1709   2   8   0.0205   0.0332   0.0155  -0.0155  -0.0129   0.0078   0.00    2.3
2173 182464.000   1026003.4517  -5078804.4436   3706983.1730   2   8   0.0206   0.0331   0.0155  -0.0155  -0.0129   0.0079   0.00    2.3
2173 182465.000   1026003.4513  -5078804.4402   3706983.1684   2   8   0.0203   0.0330   0.0155  -0.0154  -0.0128   0.0077   0.00    2.3
2173 182466.000   1026003.4482  -5078804.4332   3706983.1649   2   8   0.0205   0.0329   0.0155  -0.0153  -0.0128   0.0080   0.00    2.3
2173 182467.000   1026003.4504  -5078804.4348   3706983.1668   2   8   0.0204   0.0329   0.0154  -0.0152  -0.0127   0.0078   0.00    2.3
2173 182468.000   1026003.4490  -5078804.4362   3706983.1644   2   8   0.0202   0.0328   0.0153  -0.0152  -0.0127   0.0077   0.00    2.4
2173 182469.000   1026003.4478  -5078804.4355   3706983.1652   2   8   0.0202   0.0327   0.0153  -0.0151  -0.0127   0.0077   0.00    2.4
2173 182470.000   1026003.4454  -5078804.4348   3706983.1645   2   8   0.0202   0.0326   0.0153  -0.0150  -0.0126   0.0077   0.00    2.4
2173 182471.000   1026003.4446  -5078804.4316   3706983.1622   2   8   0.0201   0.0325   0.0153  -0.0150  -0.0126   0.0078   0.00    2.4
2173 182472.000   1026003.4440  -5078804.4325   3706983.1633   2   8   0.0202   0.0325   0.0152  -0.0150  -0.0126   0.0077   0.00    2.4
2173 182473.000   1026003.4449  -5078804.4320   3706983.1581   2   8   0.0200   0.0324   0.0152  -0.0149  -0.0126   0.0077   0.00    2.5
2173 182474.000   1026003.4439  -5078804.4335   3706983.1595   2   8   0.0201   0.0323   0.0151  -0.0148  -0.0126   0.0077   0.00    2.5
2173 182475.000   1026003.4423  -5078804.4341   3706983.1618   2   8   0.0200   0.0322   0.0151  -0.0147  -0.0125   0.0077   0.00    2.5
2173 182476.000   1026003.4426  -5078804.4373   3706983.1630   2   8   0.0200   0.0321   0.0151  -0.0147  -0.0124   0.0077   0.00    2.6
2173 182477.000   1026003.4422  -5078804.4390   3706983.1626   2   8   0.0199   0.0321   0.0151  -0.0146  -0.0124   0.0078   0.00    2.6
2173 182478.000   1026003.4406  -5078804.4382   3706983.1634   2   8   0.0199   0.0320   0.0150  -0.0145  -0.0124   0.0077   0.00    2.6
2173 182479.000   1026003.4400  -5078804.4394   3706983.1613   2   8   0.0200   0.0319   0.0150  -0.0145  -0.0124   0.0077   0.00    2.7
2173 182480.000   1026003.4398  -5078804.4355   3706983.1622   2   8   0.0198   0.0318   0.0150  -0.0145  -0.0123   0.0077   0.00    2.7
2173 182481.000   1026003.4385  -5078804.4348   3706983.1565   2   8   0.0198   0.0317   0.0149  -0.0144  -0.0123   0.0076   0.00    2.7
2173 182482.000   1026003.4417  -5078804.4445   3706983.1592   2   8   0.0196   0.0317   0.0149  -0.0143  -0.0123   0.0075   0.00    2.8
2173 182483.000   1026003.4383  -5078804.4364   3706983.1577   2   8   0.0196   0.0316   0.0148  -0.0143  -0.0123   0.0076   0.00    2.8
2173 182484.000   1026003.4376  -5078804.4353   3706983.1552   2   8   0.0196   0.0315   0.0148  -0.0141  -0.0122   0.0078   0.00    2.9
2173 182485.000   1026003.4380  -5078804.4367   3706983.1535   2   8   0.0197   0.0314   0.0147  -0.0142  -0.0122   0.0075   0.00    2.9
2173 182486.000   1026003.4358  -5078804.4366   3706983.1544   2   8   0.0196   0.0313   0.0147  -0.0141  -0.0121   0.0076   0.00    3.0
2173 182487.000   1026003.6210  -5078804.5758   3706983.1223   1   8   0.0038   0.0086   0.0080  -0.0033  -0.0067  -0.0013   0.00    3.0
2173 182488.000   1026003.6206  -5078804.5739   3706983.1245   1   8   0.0041   0.0086   0.0082  -0.0032  -0.0066  -0.0005   0.00    3.1
2173 182489.000   1026003.6189  -5078804.5706   3706983.1226   1   8   0.0049   0.0085   0.0081  -0.0033  -0.0066   0.0015   0.00    3.1
2173 182490.000   1026003.6183  -5078804.5720   3706983.1253   1   8   0.0048   0.0086   0.0082  -0.0031  -0.0066   0.0013   0.00    3.2
2173 182491.000   1026003.6190  -5078804.5725   3706983.1246   1   8   0.0046   0.0086   0.0082  -0.0034  -0.0066   0.0015   0.00    3.2
2173 182492.000   1026003.6192  -5078804.5747   3706983.1243   1   8   0.0044   0.0085   0.0082  -0.0028  -0.0066   0.0020   0.00    3.3
2173 182493.000   1026003.6186  -5078804.5741   3706983.1222   1   8   0.0047   0.0086   0.0082  -0.0032  -0.0065   0.0014   0.00    3.3
2173 182494.000   1026003.6197  -5078804.5771   3706983.1256   1   8   0.0038   0.0086   0.0082  -0.0033  -0.0067   0.0003   0.00    3.4
2173 182495.000   1026003.6184  -5078804.5764   3706983.1271   1   8   0.0045   0.0086   0.0082  -0.0031  -0.0065   0.0016   0.00    3.4
2173 182496.000   1026003.6179  -5078804.5741   3706983.1269   1   8   0.0044   0.0086   0.0081  -0.0034  -0.0068   0.0015   0.00    3.5
2173 182497.000   1026003.6187  -5078804.5727   3706983.1270   1   8   0.0046   0.0085   0.0081  -0.0033  -0.0067   0.0003   0.00    3.5
2173 182498.000   1026003.6342  -5078804.5987   3706983.1232   1   7   0.0055   0.0100   0.0083  -0.0053  -0.0062  -0.0012   0.00   19.5
2173 182499.000   1026003.4190  -5078804.4194   3706983.1488   2   8   0.0193   0.0308   0.0143  -0.0141  -0.0116   0.0071   0.00    1.2
2173 182500.000   1026003.6336  -5078804.5979   3706983.1245   1   7   0.0055   0.0100   0.0083  -0.0053  -0.0063  -0.0015   0.00   19.7
