% program   : rnx2rtkp ver.2.4.3 b31
% inp file  : ngs/21_09_01_06_11_29_idpo.obs
% inp file  : ngs/21_09_01_06_11_29_idpo_SNID.obs
% inp file  : ngs/21_09_01_06_11_29_brdc.nav
% obs start : 2021/09/01 06:00:00.0 GPST (week2173 280800.0s)
% obs end   : 2021/09/01 06:59:59.0 GPST (week2173 284399.0s)
% ref pos   : -1788116.0679  -4327706.0439   4318090.5810
%
% (x/y/z-ecef=WGS84,Q=1:fix,2:float,3:sbas,4:dgps,5:single,6:ppp,ns=# of satellites)
%  GPST              x-ecef(m)      y-ecef(m)      z-ecef(m)   Q  ns   sdx(m)   sdy(m)   sdz(m)  sdxy(m)  sdyz(m)  sdzx(m) age(s)  ratio
2173 281465.000  -1787003.7069  -4328787.0254   4317505.2458   2   8   0.5318   0.8281   0.7367   0.5132  -0.6073  -0.3869 -30.00    1.1
2173 281466.000  -1787003.8533  -4328787.3136   4317505.4457   2   8   0.3781   0.5895   0.5243   0.3647  -0.4323  -0.2749 -29.00    1.3
2173 281467.000  -1787003.8910  -4328787.3028   4317505.4771   2   8   0.3095   0.4827   0.4293   0.2985  -0.3540  -0.2250 -28.00    1.3
2173 281468.000  -1787003.9131  -4328787.2695   4317505.4766   2   8   0.2685   0.4188   0.3724   0.2590  -0.3071  -0.1952 -27.00    1.3
2173 281469.000  -1787003.9091  -4328787.2608   4317505.4404   2   8   0.2405   0.3750   0.3335   0.2320  -0.2751  -0.1748 -26.00    1.3
2173 281470.000  -1787003.8880  -4328787.2045   4317505.4132   2   8   0.2198   0.3427   0.3047   0.2120  -0.2513  -0.1598 -25.00    1.3
2173 281471.000  -1787003.8783  -4328787.1957   4317505.3862   2   8   0.2036   0.3175   0.2823   0.1964  -0.2329  -0.1481 -24.00    1.3
2173 281472.000  -1787003.8611  -4328787.2187   4317505.4129   2   8   0.1906   0.2972   0.2642   0.1838  -0.2180  -0.1386 -23.00    1.4
2173 281473.000  -1787003.8629  -4328787.2319   4317505.4197   2   8   0.1797   0.2803   0.2492   0.1734  -0.2056  -0.1307 -22.00    1.4
2173 281474.000  -1787003.8598  -4328787.2312   4317505.4327   2   8   0.1706   0.2660   0.2364   0.1645  -0.1951  -0.1241 -21.00    1.5
2173 281475.000  -1787003.8596  -4328787.2442   4317505.4868   2   8   0.1626   0.2537   0.2255   0.1569  -0.1860  -0.1183 -20.00    1.6
2173 281476.000  -1787003.8446  -4328787.2524   4317505.4891   2   8   0.1557   0.2429   0.2158   0.1502  -0.1781  -0.1133 -19.00    1.6
2173 281477.000  -1787003.8354  -4328787.2525   4317505.5164   2   8   0.1496   0.2334   0.2074   0.1443  -0.1711  -0.1088 -18.00    1.6
2173 281478.000  -1787003.8320  -4328787.2542   4317505.5164   2   8   0.1441   0.2249   0.1998   0.1390  -0.1649  -0.1048 -17.00    1.7
2173 281479.000  -1787003.8164  -4328787.2559   4317505.5336   2   8   0.1392   0.2172   0.1929   0.1342  -0.1593  -0.1013 -16.00    1.7
2173 281480.000  -1787003.8288  -4328787.2632   4317505.5279   2   8   0.1347   0.2103   0.1868   0.1299  -0.1542  -0.0980 -15.00    1.8
2173 281481.000  -1787003.8363  -4328787.2911   4317505.5491   2   8   0.1307   0.2040   0.1811   0.1260  -0.1495  -0.0950 -14.00    2.1
2173 281482.000  -1787003.8394  -4328787.2930   4317505.5552   2   8   0.1269   0.1982   0.1759   0.1224  -0.1452  -0.0923 -13.00    2.4
2173 281483.000  -1787003.8461  -4328787.3208   4317505.5805   2   8   0.1235   0.1928   0.1711   0.1190  -0.1413  -0.0898 -12.00    2.7
2173 281484.000  -1787004.0159  -4328787.3822   4317505.3753   1   8   0.0122   0.0178   0.0157   0.0122  -0.0130  -0.0096 -11.00    3.0
2173 281485.000  -1787004.0142  -4328787.3788   4317505.3734   1   8   0.0113   0.0166   0.0146   0.0113  -0.0120  -0.0089 -10.00    3.3
2173 281486.000  -1787004.0163  -4328787.3783   4317505.3712   1   8   0.0105   0.0155   0.0136   0.0104  -0.0112  -0.0082  -9.00    3.7
2173 281487.000  -1787004.0159  -4328787.3782   4317505.3706   1   8   0.0096   0.0143   0.0126   0.0096  -0.0104  -0.0076  -8.00    4.1
2173 281488.000  -1787004.0163  -4328787.3823   4317505.3730   1   8   0.0087   0.0132   0.0116   0.0088  -0.0096  -0.0068  -7.00    4.6
2173 281489.000  -1787004.0101  -4328787.3744   4317505.3681   1   8   0.0081   0.0122   0.0107   0.0079  -0.0088  -0.0062  -6.00    5.3
2173 281490.000  -1787004.0113  -4328787.3768   4317505.3680   1   8   0.0074   0.0112   0.0098   0.0072  -0.0081  -0.0057  -5.00    5.9
2173 281491.000  -1787004.0104  -4328787.3758   4317505.3685   1   8   0.0068   0.0104   0.0091   0.0065  -0.0075  -0.0051  -4.00    6.8
2173 281492.000  -1787004.0114  -4328787.3761   4317505.3681   1   8   0.0062   0.0095   0.0084   0.0060  -0.0069  -0.0045  -3.00    7.7
2173 281493.000  -1787004.0111  -4328787.3758   4317505.3684   1   8   0.0057   0.0089   0.0078   0.0056  -0.0065  -0.0042  -2.00    8.9
2173 281494.000  -1787004.0117  -4328787.3733   4317505.3686   1   8   0.0055   0.0085   0.0076   0.0052  -0.0062  -0.0040  -1.00    9.9
2173 281495.000  -1787004.0145  -4328787.3739   4317505.3646   1   8   0.0056   0.0083   0.0075   0.0052  -0.0062  -0.0041   0.00   10.6
2173 281496.000  -1787004.0100  -4328787.3733   4317505.3637   1   8   0.0051   0.0083   0.0077   0.0052  -0.0061  -0.0040   0.00   11.7
2173 281497.000  -1787004.0090  -4328787.3734   4317505.3641   1   8   0.0055   0.0084   0.0074   0.0051  -0.0060  -0.0039   0.00   12.1
2173 281498.000  -1787004.0121  -4328787.3770   4317505.3651   1   8   0.0049   0.0084   0.0075   0.0050  -0.0062  -0.0045   0.00   12.6
2173 281499.000  -1787004.0117  -4328787.3749   4317505.3653   1   8   0.0050   0.0084   0.0074   0.0052  -0.0061  -0.0040   0.00   12.9
2173 281500.000  -1787004.0100  -4328787.3750   4317505.3615   1   8   0.0055   0.0084   0.0076   0.0050  -0.0061  -0.0038   0.00   12.9
2173 281501.000  -1787004.0130  -4328787.3758   4317505.3609   1   8   0.0053   0.0083   0.0072   0.0053  -0.0063  -0.0036   0.00   13.4
2173 281502.000  -1787004.0123  -4328787.3771   4317505.3652   1   8   0.0054   0.0084   0.0074   0.0051  -0.0062  -0.0040   0.00   13.7
2173 281503.000  -1787004.0115  -4328787.3749   4317505.3599   1   8   0.0051   0.0083   0.0075   0.0052  -0.0062  -0.0040   0.00   14.1
2173 281504.000  -1787004.0104  -4328787.3763   4317505.3694   1   8   0.0050   0.0083   0.0073   0.0054  -0.0062  -0.0039   0.00   14.4
2173 281505.000  -1787004.0128  -4328787.3720   4317505.3653   1   8   0.0054   0.0084   0.0072   0.0051  -0.0062  -0.0039   0.00   14.6
2173 281506.000  -1787004.0111  -4328787.3742   4317505.3651   1   8   0.0053   0.0084   0.0077   0.0052  -0.0061  -0.0041   0.00   14.4
2173 281507.000  -1787004.0118  -4328787.3717   4317505.3618   1   8   0.0051   0.0084   0.0074   0.0051  -0.0062  -0.0038   0.00   14.6
2173 281508.000  -1787004.0119  -4328787.3739   4317505.3644   1   8   0.0056   0.0083   0.0075   0.0052  -0.0061  -0.0039   0.00   15.0
2173 281509.000  -1787004.0121  -4328787.3712   4317505.3583   1   8   0.0054   0.0084   0.0077   0.0052  -0.0060  -0.0041   0.00   15.0
2173 281510.000  -1787004.0128  -4328787.3709   4317505.3627   1   8   0.0050   0.0083   0.0073   0.0053  -0.0063  -0.0038   0.00   14.9
2173 281511.000  -1787004.0143  -4328787.3735   4317505.3634   1   8   0.0053   0.0083   0.0076   0.0052  -0.0062  -0.0043   0.00   14.8
2173 281512.000  -1787004.0156  -4328787.3711   4317505.3653   1   8   0.0055   0.0083   0.0074   0.0051  -0.0061  -0.0043   0.00   14.8
2173 281513.000  -1787004.0120  -4328787.3710   4317505.3633   1   8   0.0054   0.0083   0.0072   0.0052  -0.0063  -0.0038   0.00   14.9
2173 281514.000  -1787004.0146  -4328787.3723   4317505.3662   1   8   0.0055   0.0083   0.0072   0.0052  -0.0062  -0.0037   0.00   14.9
2173 281515.000  -1787004.0151  -4328787.3700   4317505.3634   1   8   0.0052   0.0084   0.0076   0.0052  -0.0062  -0.0036   0.00   14.7
2173 281516.000  -1787004.0170  -4328787.3724   4317505.3637   1   8   0.0054   0.0084   0.0076   0.0051  -0.0062  -0.0040   0.00   14.7
2173 281517.000  -1787004.0163  -4328787.3716   4317505.3648   1   8   0.0051   0.0084   0.0074   0.0052  -0.0063  -0.0040   0.00   14.8
2173 281518.000  -1787004.0131  -4328787.3708   4317505.3640   1   8   0.0053   0.0083   0.0074   0.0052  -0.0063  -0.0038   0.00   14.7
2173 281519.000  -1787004.0120  -4328787.3685   4317505.3606   1   8   0.0050   0.0085   0.0075   0.0052  -0.0060  -0.0040   0.00   14.8
2173 281520.000  -1787004.0148  -4328787.3718   4317505.3661   1   8   0.0051   0.0083   0.0073   0.0052  -0.0062  -0.0036   0.00   14.9
2173 281521.000  -1787004.0126  -4328787.3689   4317505.3616   1   8   0.0055   0.0085   0.0071   0.0050  -0.0061  -0.0040   0.00   15.0
2173 281522.000  -1787004.0134  -4328787.3742   4317505.3651   1   8   0.0055   0.0083   0.0074   0.0051  -0.0063  -0.0040   0.00   15.0
2173 281523.000  -1787004.0133  -4328787.3733   4317505.3617   1   8   0.0051   0.0084   0.0075   0.0052  -0.0061  -0.0041   0.00   15.2
2173 281524.000  -1787004.0098  -4328787.3681   4317505.3607   1   8   0.0052   0.0083   0.0077   0.0052  -0.0062  -0.0040   0.00   15.4
2173 281525.000  -1787004.0126  -4328787.3719   4317505.3613   1   8   0.0051   0.0083   0.0074   0.0051  -0.0063  -0.0041   0.00   15.4
2173 281526.000  -1787004.0115  -4328787.3678   4317505.3590   1   8   0.0053   0.0083   0.0076   0.0053  -0.0061  -0.0040   0.00   15.5
2173 281527.000  -1787004.0158  -4328787.3720   4317505.3607   1   8   0.0053   0.0084   0.0074   0.0052  -0.0061  -0.0037   0.00   15.5
2173 281528.000  -1787004.0123  -4328787.3695   4317505.3616   1   8   0.0052   0.0084   0.0073   0.0052  -0.0062  -0.0037   0.00   15.7
2173 281529.000  -1787004.0126  -4328787.3689   4317505.3620   1   8   0.0054   0.0085   0.0075   0.0052  -0.0059  -0.0038   0.00   15.7
2173 281530.000  -1787004.0146  -4328787.3708   4317505.3613   1   8   0.0054   0.0084   0.0073   0.0051  -0.0061  -0.0037   0.00   15.9
2173 281531.000  -1787004.0157  -4328787.3723   4317505.3612   1   8   0.0053   0.0084   0.0075   0.0051  -0.0062  -0.0041   0.00   16.1
2173 281532.000  -1787004.0149  -4328787.3734   4317505.3584   1   8   0.0052   0.0083   0.0073   0.0053  -0.0062  -0.0038   0.00   16.2
2173 281533.000  -1787004.0132  -4328787.3697   4317505.3641   1   8   0.0057   0.0084   0.0075   0.0051  -0.0061  -0.0040   0.00   16.4
2173 281534.000  -1787004.0135  -4328787.3671   4317505.3584   1   8   0.0051   0.0084   0.0075   0.0051  -0.0062  -0.0039   0.00   16.7
2173 281535.000  -1787004.0125  -4328787.3688   4317505.3608   1   8   0.0056   0.0083   0.0072   0.0052  -0.0062  -0.0039   0.00   16.8
2173 281536.000  -1787004.0162  -4328787.3705   4317505.3609   1   8   0.0049   0.0083   0.0074   0.0052  -0.0063  -0.0041   0.00   17.1
2173 281537.000  -1787004.0153  -4328787.3762   4317505.3634   1   8   0.0056   0.0084   0.0072   0.0051  -0.0062  -0.0037   0.00   17.5
2173 281538.000  -1787004.0147  -4328787.3715   4317505.3584   1   8   0.0053   0.0085   0.0076   0.0051  -0.0060  -0.0041   0.00   17.7
2173 281539.000  -1787004.0127  -4328787.3701   4317505.3583   1   8   0.0054   0.0085   0.0073   0.0051  -0.0061  -0.0037   0.00   18.0
2173 281540.000  -1787004.0181  -4328787.3782   4317505.3635   1   8   0.0053   0.0085   0.0075   0.0051  -0.0062  -0.0040   0.00   18.1
2173 281541.000  -1787004.0194  -4328787.3766   4317505.3636   1   8   0.0055   0.0084   0.0076   0.0051  -0.0062  -0.0042   0.00   18.5
2173 281542.000  -1787004.0127  -4328787.3694   4317505.3594   1   8   0.0051   0.0084   0.0076   0.0052  -0.0061  -0.0042   0.00   18.7
2173 281543.000  -1787004.0144  -4328787.3721   4317505.3595   1   8   0.0056   0.0084   0.0072   0.0052  -0.0064  -0.0029   0.00   19.0
2173 281544.000  -1787004.0137  -4328787.3733   4317505.3614   1   8   0.0056   0.0084   0.0074   0.0051  -0.0062  -0.0035   0.00   19.3
2173 281545.000  -1787004.0163  -4328787.3750   4317505.3611   1   8   0.0051   0.0084   0.0073   0.0052  -0.0062  -0.0039   0.00   19.7
2173 281546.000  -1787004.0162  -4328787.3711   4317505.3597   1   8   0.0052   0.0084   0.0074   0.0053  -0.0060  -0.0039   0.00   20.1
2173 281547.000  -1787004.0135  -4328787.3688   4317505.3566   1   8   0.0052   0.0084   0.0072   0.0052  -0.0063  -0.0037   0.00   20.6
2173 281548.000  -1787004.0166  -4328787.3735   4317505.3598   1   8   0.0053   0.0084   0.0074   0.0051  -0.0063  -0.0040   0.00   21.0
2173 281549.000  -1787004.0135  -4328787.3686   4317505.3584   1   8   0.0053   0.0085   0.0077   0.0051  -0.0061  -0.0041   0.00   21.4
2173 281550.000  -1787004.0143  -4328787.3696   4317505.3588   1   8   0.0055   0.0084   0.0077   0.0052  -0.0061  -0.0042   0.00   21.9
2173 281551.000  -1787004.0109  -4328787.3690   4317505.3564   1   8   0.0052   0.0084   0.0074   0.0052  -0.0061  -0.0042   0.00   22.4
2173 281552.000  -1787004.0126  -4328787.3698   4317505.3588   1   8   0.0053   0.0083   0.0074   0.0053  -0.0061  -0.0038   0.00   22.9
2173 281553.000  -1787004.0128  -4328787.3721   4317505.3617   1   8   0.0051   0.0085   0.0076   0.0052  -0.0061  -0.0041   0.00   23.3
2173 281554.000  -1787004.0131  -4328787.3743   4317505.3615   1   8   0.0054   0.0084   0.0073   0.0051  -0.0062  -0.0038   0.00   23.9
2173 281555.000  -1787004.0175  -4328787.3763   4317505.3609   1   8   0.0052   0.0084   0.0078   0.0051  -0.0059  -0.0041   0.00   24.4
2173 281556.000  -1787004.0152  -4328787.3756   4317505.3638   1   8   0.0053   0.0083   0.0072   0.0054  -0.0062  -0.0036   0.00   24.9
2173 281557.000  -1787004.0114  -4328787.3699   4317505.3623   1   8   0.0056   0.0085   0.0073   0.0052  -0.0059  -0.0038   0.00   25.4
2173 281558.000  -1787004.0172  -4328787.3759   4317505.3648   1   8   0.0052   0.0084   0.0076   0.0051  -0.0061  -0.0042   0.00   26.0
2173 281559.000  -1787004.0149  -4328787.3727   4317505.3633   1   8   0.0054   0.0084   0.0076   0.0051  -0.0061  -0.0042   0.00   26.2
2173 281560.000  -1787004.0145  -4328787.3717   4317505.3612   1   8   0.0053   0.0083   0.0074   0.0052  -0.0064  -0.0038   0.00   26.5
2173 281561.000  -1787004.0105  -4328787.3651   4317505.3566   1   8   0.0053   0.0084   0.0075   0.0051  -0.0061  -0.0042   0.00   26.6
2173 281562.000  -1787004.0131  -4328787.3705   4317505.3574   1   8   0.0052   0.0084   0.0074   0.0052  -0.0063  -0.0037   0.00   26.9
2173 281563.000  -1787004.0140  -4328787.3713   4317505.3599   1   8   0.0055   0.0084   0.0072   0.0052  -0.0061  -0.0040   0.00   27.3
2173 281564.000  -1787004.0174  -4328787.3718   4317505.3577   1   8   0.0052   0.0085   0.0073   0.0052  -0.0061  -0.0040   0.00   27.6
2173 281565.000  -1787004.0137  -4328787.3693   4317505.3588   1   8   0.0054   0.0085   0.0077   0.0053  -0.0060  -0.0041   0.00   27.9
2173 281566.000  -1787004.0143  -4328787.3712   4317505.3573   1   8   0.0051   0.0084   0.0075   0.0053  -0.0061  -0.0041   0.00   28.2
2173 281567.000  -1787004.0141  -4328787.3671   4317505.3553   1   8   0.0053   0.0084   0.0074   0.0052  -0.0062  -0.0040   0.00   28.5
2173 281568.000  -1787004.0154  -4328787.3725   4317505.3569   1   8   0.0054   0.0084   0.0074   0.0052  -0.0061  -0.0040   0.00   28.7
2173 281569.000  -1787004.0124  -4328787.3652   4317505.3543   1   8   0.0050   0.0083   0.0073   0.0055  -0.0063  -0.0037   0.00   29.0
2173 281570.000  -1787004.0176  -4328787.3678   4317505.3577   1   8   0.0054   0.0084   0.0075   0.0052  -0.0062  -0.0040   0.00   29.1
2173 281571.000  -1787004.0127  -4328787.3684   4317505.3517   1   8   0.0053   0.0083   0.0074   0.0053  -0.0063  -0.0040   0.00   29.2
2173 281572.000  -1787004.0143  -4328787.3684   4317505.3539   1   8   0.0053   0.0084   0.0071   0.0052  -0.0062  -0.0038   0.00   29.3
2173 281573.000  -1787004.0134  -4328787.3723   4317505.3515   1   8   0.0051   0.0085   0.0077   0.0052  -0.0060  -0.0041   0.00   29.8
2173 281574.000  -1787004.0105  -4328787.3672   4317505.3524   1   8   0.0049   0.0085   0.0074   0.0054  -0.0062  -0.0039   0.00   30.1
2173 281575.000  -1787004.0115  -4328787.3669   4317505.3494   1   8   0.0056   0.0085   0.0076   0.0051  -0.0060  -0.0041   0.00   30.3
2173 281576.000  -1787004.0123  -4328787.3721   4317505.3547   1   8   0.0048   0.0083   0.0071   0.0054  -0.0065  -0.0037   0.00   30.5
2173 281577.000  -1787004.0136  -4328787.3677   4317505.3518   1   8   0.0056   0.0084   0.0075   0.0051  -0.0061  -0.0038   0.00   30.9
2173 281578.000  -1787004.0152  -4328787.3761   4317505.3560   1   8   0.0055   0.0085   0.0073   0.0051  -0.0063  -0.0041   0.00   31.3
2173 281579.000  -1787004.0141  -4328787.3716   4317505.3511   1   8   0.0056   0.0084   0.0075   0.0052  -0.0062  -0.0039   0.00   31.5
2173 281580.000  -1787004.0119  -4328787.3721   4317505.3509   1   8   0.0055   0.0084   0.0075   0.0052  -0.0061  -0.0040   0.00   32.0
2173 281581.000  -1787004.0123  -4328787.3671   4317505.3499   1   8   0.0051   0.0085   0.0074   0.0052  -0.0062  -0.0039   0.00   32.4
2173 281582.000  -1787004.0127  -4328787.3696   4317505.3510   1   8   0.0051   0.0084   0.0075   0.0053  -0.0061  -0.0039   0.00   32.7
2173 281583.000  -1787004.0119  -4328787.3685   4317505.3502   1   8   0.0051   0.0085   0.0072   0.0053  -0.0062  -0.0039   0.00   33.0
2173 281584.000  -1787004.0115  -4328787.3702   4317505.3544   1   8   0.0052   0.0085   0.0076   0.0051  -0.0060  -0.0042   0.00   33.5
2173 281585.000  -1787004.0109  -4328787.3656   4317505.3506   1   8   0.0056   0.0084   0.0071   0.0049  -0.0064  -0.0040   0.00   33.6
2173 281586.000  -1787004.0103  -4328787.3691   4317505.3540   1   8   0.0050   0.0084   0.0075   0.0052  -0.0063  -0.0042   0.00   34.1
2173 281587.000  -1787004.0127  -4328787.3696   4317505.3543   1   8   0.0053   0.0084   0.0076   0.0052  -0.0061  -0.0041   0.00   34.3
2173 281588.000  -1787004.0113  -4328787.3690   4317505.3521   1   8   0.0053   0.0085   0.0074   0.0052  -0.0061  -0.0037   0.00   34.6
2173 281589.000  -1787004.0095  -4328787.3666   4317505.3506   1   8   0.0055   0.0083   0.0074   0.0052  -0.0063  -0.0040   0.00   35.0
2173 281590.000  -1787004.0116  -4328787.3690   4317505.3571   1   8   0.0054   0.0085   0.0073   0.0051  -0.0061  -0.0037   0.00   35.4
2173 281591.000  -1787004.0112  -4328787.3701   4317505.3560   1   8   0.0054   0.0085   0.0075   0.0052  -0.0061  -0.0042   0.00   35.6
2173 281592.000  -1787004.0108  -4328787.3698   4317505.3546   1   8   0.0054   0.0084   0.0075   0.0052  -0.0061  -0.0039   0.00   36.0
2173 281593.000  -1787004.0095  -4328787.3673   4317505.3513   1   8   0.0052   0.0084   0.0075   0.0053  -0.0061  -0.0040   0.00   36.2
2173 281594.000  -1787004.0079  -4328787.3673   4317505.3519   1   8   0.0053   0.0085   0.0073   0.0052  -0.0061  -0.0043   0.00   36.3
2173 281595.000  -1787004.0093  -4328787.3700   4317505.3565   1   8   0.0053   0.0084   0.0071   0.0052  -0.0063  -0.0039   0.00   36.6
2173 281596.000  -1787004.0091  -4328787.3688   4317505.3562   1   8   0.0051   0.0084   0.0073   0.0053  -0.0061  -0.0039   0.00   36.9
2173 281597.000  -1787004.0094  -4328787.3698   4317505.3556   1   8   0.0052   0.0084   0.0074   0.0052  -0.0062  -0.0039   0.00   37.1
2173 281598.000  -1787004.0105  -4328787.3688   4317505.3537   1   8   0.0056   0.0083   0.0069   0.0053  -0.0064  -0.0038   0.00   37.5
2173 281599.000  -1787004.0082  -4328787.3597   4317505.3495   1   8   0.0051   0.0084   0.0075   0.0053  -0.0061  -0.0042   0.00   37.6
2173 281600.000  -1787004.0106  -4328787.3646   4317505.3511   1   8   0.0054   0.0084   0.0073   0.0051  -0.0064  -0.0036   0.00   37.8
2173 281601.000  -1787004.0097  -4328787.3608   4317505.3496   1   8   0.0053   0.0084   0.0075   0.0051  -0.0062  -0.0040   0.00   38.0
2173 281602.000  -1787004.0059  -4328787.3610   4317505.3539   1   8   0.0053   0.0084   0.0072   0.0052  -0.0062  -0.0037   0.00   38.2
2173 281603.000  -1787004.0086  -4328787.3632   4317505.3509   1   8   0.0051   0.0084   0.0074   0.0053  -0.0062  -0.0039   0.00   38.2
2173 281604.000  -1787004.0096  -4328787.3665   4317505.3557   1   8   0.0053   0.0085   0.0074   0.0051  -0.0061  -0.0042   0.00   38.5
2173 281605.000  -1787004.0090  -4328787.3651   4317505.3535   1   8   0.0052   0.0085   0.0073   0.0051  -0.0062  -0.0040   0.00   38.7
2173 281606.000  -1787004.0114  -4328787.3650   4317505.3534   1   8   0.0053   0.0085   0.0075   0.0052  -0.0061  -0.0039   0.00   38.8
2173 281607.000  -1787004.0085  -4328787.3619   4317505.3507   1   8   0.0052   0.0084   0.0075   0.0053  -0.0061  -0.0043   0.00   38.7
2173 281608.000  -1787004.0076  -4328787.3629   4317505.3511   1   8   0.0054   0.0085   0.0076   0.0051  -0.0061  -0.0043   0.00   39.0
2173 281609.000  -1787004.0134  -4328787.3675   4317505.3508   1   8   0.0054   0.0084   0.0073   0.0052  -0.0061  -0.0040   0.00   39.4
2173 281610.000  -1787004.0095  -4328787.3682   4317505.3523   1   8   0.0052   0.0083   0.0074   0.0052  -0.0064  -0.0038   0.00   39.7
2173 281611.000  -1787004.0122  -4328787.3687   4317505.3509   1   8   0.0052   0.0084   0.0070   0.0053  -0.0062  -0.0039   0.00   39.9
2173 281612.000  -1787004.0104  -4328787.3669   4317505.3511   1   8   0.0051   0.0084   0.0071   0.0052  -0.0063  -0.0039   0.00   40.0
2173 281613.000  -1787004.0079  -4328787.3641   4317505.3483   1   8   0.0052   0.0085   0.0073   0.0051  -0.0063  -0.0039   0.00   40.0
2173 281614.000  -1787004.0123  -4328787.3651   4317505.3483   1   8   0.0052   0.0083   0.0075   0.0053  -0.0063  -0.0039   0.00   40.1
2173 281615.000  -1787004.0118  -4328787.3687   4317505.3559   1   8   0.0053   0.0084   0.0073   0.0052  -0.0061  -0.0040   0.00   40.2
2173 281616.000  -1787004.0115  -4328787.3607   4317505.3468   1   8   0.0053   0.0084   0.0074   0.0053  -0.0062  -0.0041   0.00   40.0
2173 281617.000  -1787004.0092  -4328787.3641   4317505.3490   1   8   0.0053   0.0084   0.0074   0.0052  -0.0061  -0.0042   0.00   39.9
2173 281618.000  -1787004.0099  -4328787.3629   4317505.3486   1   8   0.0057   0.0085   0.0073   0.0050  -0.0061  -0.0037   0.00   39.9
2173 281619.000  -1787004.0081  -4328787.3607   4317505.3497   1   8   0.0056   0.0085   0.0074   0.0051  -0.0061  -0.0040   0.00   39.9
2173 281620.000  -1787004.0073  -4328787.3582   4317505.3438   1   8   0.0054   0.0085   0.0077   0.0052  -0.0061  -0.0042   0.00   39.9
2173 281621.000  -1787004.0083  -4328787.3639   4317505.3476   1   8   0.0054   0.0084   0.0074   0.0050  -0.0062  -0.0040   0.00   39.8
2173 281622.000  -1787004.0105  -4328787.3659   4317505.3517   1   8   0.0056   0.0083   0.0071   0.0052  -0.0065  -0.0037   0.00   39.8
2173 281623.000  -1787004.0098  -4328787.3606   4317505.3460   1   8   0.0053   0.0084   0.0071   0.0052  -0.0063  -0.0037   0.00   39.5
2173 281624.000  -1787004.0096  -4328787.3618   4317505.3489   1   8   0.0052   0.0084   0.0072   0.0052  -0.0061  -0.0040   0.00   39.4
2173 281625.000  -1787004.0095  -4328787.3627   4317505.3494   1   8   0.0051   0.0084   0.0073   0.0052  -0.0063  -0.0040   0.00   39.1
2173 281626.000  -1787004.0112  -4328787.3628   4317505.3486   1   8   0.0053   0.0085   0.0077   0.0052  -0.0060  -0.0042   0.00   39.0
2173 281627.000  -1787004.0069  -4328787.3617   4317505.3493   1   8   0.0051   0.0084   0.0074   0.0053  -0.0061  -0.0040   0.00   38.8
2173 281628.000  -1787004.0085  -4328787.3634   4317505.3484   1   8   0.0052   0.0084   0.0071   0.0053  -0.0063  -0.0038   0.00   38.6
2173 281629.000  -1787004.0071  -4328787.3583   4317505.3443   1   8   0.0050   0.0085   0.0076   0.0052  -0.0062  -0.0041   0.00   38.3
2173 281630.000  -1787004.0083  -4328787.3611   4317505.3489   1   8   0.0052   0.0085   0.0075   0.0051  -0.0062  -0.0042   0.00   38.2
2173 281631.000  -1787004.0074  -4328787.3610   4317505.3512   1   8   0.0054   0.0084   0.0073   0.0053  -0.0062  -0.0037   0.00   38.2
2173 281632.000  -1787004.0061  -4328787.3592   4317505.3434   1   8   0.0053   0.0084   0.0071   0.0052  -0.0063  -0.0038   0.00   38.0
2173 281633.000  -1787004.0095  -4328787.3611   4317505.3465   1   8   0.0054   0.0084   0.0078   0.0051  -0.0060  -0.0046   0.00   37.8
2173 281634.000  -1787004.0082  -4328787.3643   4317505.3510   1   8   0.0051   0.0084   0.0074   0.0053  -0.0063  -0.0039   0.00   37.6
2173 281635.000  -1787004.0079  -4328787.3593   4317505.3476   1   8   0.0054   0.0084   0.0075   0.0052  -0.0062  -0.0041   0.00   37.6
2173 281636.000  -1787004.0072  -4328787.3624   4317505.3473   1   8   0.0049   0.0085   0.0074   0.0052  -0.0060  -0.0042   0.00   37.5
2173 281637.000  -1787004.0089  -4328787.3617   4317505.3502   1   8   0.0051   0.0084   0.0074   0.0053  -0.0060  -0.0039   0.00   37.6
2173 281638.000  -1787004.0092  -4328787.3619   4317505.3471   1   8   0.0055   0.0084   0.0074   0.0052  -0.0063  -0.0038   0.00   37.8
2173 281639.000  -1787004.0096  -4328787.3684   4317505.3501   1   8   0.0055   0.0084   0.0075   0.0053  -0.0063  -0.0038   0.00   37.9
2173 281640.000  -1787004.0085  -4328787.3582   4317505.3481   1   8   0.0053   0.0085   0.0077   0.0053  -0.0062  -0.0043   0.00   37.9
2173 281641.000  -1787004.0125  -4328787.3668   4317505.3539   1   8   0.0054   0.0084   0.0075   0.0053  -0.0061  -0.0039   0.00   38.1
2173 281642.000  -1787004.0109  -4328787.3678   4317505.3559   1   8   0.0053   0.0085   0.0076   0.0051  -0.0061  -0.0041   0.00   38.5
2173 281643.000  -1787004.0098  -4328787.3645   4317505.3474   1   8   0.0052   0.0084   0.0074   0.0053  -0.0060  -0.0041   0.00   38.7
2173 281644.000  -1787004.0100  -4328787.3666   4317505.3530   1   8   0.0056   0.0084   0.0072   0.0052  -0.0062  -0.0038   0.00   38.9
2173 281645.000  -1787004.0119  -4328787.3637   4317505.3517   1   8   0.0055   0.0085   0.0075   0.0052  -0.0061  -0.0041   0.00   38.9
2173 281646.000  -1787004.0112  -4328787.3654   4317505.3519   1   8   0.0055   0.0084   0.0075   0.0052  -0.0063  -0.0041   0.00   38.9
2173 281647.000  -1787004.0101  -4328787.3652   4317505.3515   1   8   0.0048   0.0084   0.0075   0.0054  -0.0063  -0.0041   0.00   38.9
2173 281648.000  -1787004.0114  -4328787.3667   4317505.3525   1   8   0.0055   0.0084   0.0075   0.0052  -0.0063  -0.0040   0.00   38.9
2173 281649.000  -1787004.0078  -4328787.3656   4317505.3540   1   8   0.0054   0.0085   0.0078   0.0051  -0.0061  -0.0042   0.00   39.0
2173 281650.000  -1787004.0104  -4328787.3670   4317505.3570   1   8   0.0058   0.0085   0.0075   0.0052  -0.0061  -0.0041   0.00   39.0
2173 281651.000  -1787004.0115  -4328787.3720   4317505.3586   1   8   0.0053   0.0085   0.0075   0.0052  -0.0062  -0.0042   0.00   39.0
2173 281652.000  -1787004.0089  -4328787.3686   4317505.3532   1   8   0.0055   0.0085   0.0075   0.0050  -0.0063  -0.0041   0.00   39.0
2173 281653.000  -1787004.0079  -4328787.3650   4317505.3547   1   8   0.0053   0.0085   0.0076   0.0052  -0.0062  -0.0039   0.00   39.0
2173 281654.000  -1787004.0110  -4328787.3665   4317505.3519   1   8   0.0053   0.0085   0.0071   0.0051  -0.0063  -0.0040   0.00   39.0
2173 281655.000  -1787004.0106  -4328787.3672   4317505.3514   1   8   0.0055   0.0084   0.0071   0.0052  -0.0063  -0.0039   0.00   39.2
2173 281656.000  -1787004.0080  -4328787.3639   4317505.3517   1   8   0.0054   0.0085   0.0075   0.0052  -0.0060  -0.0042   0.00   39.4
2173 281657.000  -1787004.0109  -4328787.3703   4317505.3556   1   8   0.0053   0.0085   0.0075   0.0052  -0.0062  -0.0040   0.00   39.5
2173 281658.000  -1787004.0098  -4328787.3706   4317505.3557   1   8   0.0055   0.0085   0.0073   0.0051  -0.0063  -0.0042   0.00   39.5
2173 281659.000  -1787004.0106  -4328787.3699   4317505.3549   1   8   0.0050   0.0085   0.0075   0.0052  -0.0061  -0.0040   0.00   39.4
2173 281660.000  -1787004.0070  -4328787.3651   4317505.3556   1   8   0.0053   0.0085   0.0072   0.0051  -0.0062  -0.0040   0.00   39.3
2173 281661.000  -1787004.0113  -4328787.3714   4317505.3553   1   8   0.0055   0.0084   0.0074   0.0052  -0.0063  -0.0035   0.00   39.3
2173 281662.000  -1787004.0079  -4328787.3642   4317505.3524   1   8   0.0053   0.0084   0.0073   0.0052  -0.0061  -0.0039   0.00   39.2
2173 281663.000  -1787004.0087  -4328787.3681   4317505.3533   1   8   0.0055   0.0084   0.0074   0.0052  -0.0062  -0.0038   0.00   39.3
2173 281664.000  -1787004.0090  -4328787.3658   4317505.3540   1   8   0.0052   0.0084   0.0076   0.0052  -0.0061  -0.0043   0.00   39.3
2173 281665.000  -1787004.0137  -4328787.3698   4317505.3570   1   8   0.0053   0.0084   0.0074   0.0052  -0.0062  -0.0039   0.00   39.5
2173 281666.000  -1787004.0096  -4328787.3688   4317505.3518   1   8   0.0055   0.0084   0.0073   0.0052  -0.0062  -0.0040   0.00   39.6
2173 281667.000  -1787004.0099  -4328787.3719   4317505.3566   1   8   0.0054   0.0085   0.0074   0.0051  -0.0061  -0.0041   0.00   39.7
2173 281668.000  -1787004.0117  -4328787.3698   4317505.3569   1   8   0.0053   0.0084   0.0073   0.0052  -0.0063  -0.0041   0.00   39.8
2173 281669.000  -1787004.0099  -4328787.3662   4317505.3542   1   8   0.0053   0.0084   0.0074   0.0052  -0.0064  -0.0038   0.00   39.7
2173 281670.000  -1787004.0127  -4328787.3745   4317505.3602   1   8   0.0053   0.0084   0.0074   0.0052  -0.0063  -0.0042   0.00   39.8
2173 281671.000  -1787004.0102  -4328787.3682   4317505.3531   1   8   0.0058   0.0084   0.0073   0.0052  -0.0061  -0.0040   0.00   39.8
2173 281672.000  -1787004.0114  -4328787.3742   4317505.3564   1   8   0.0056   0.0085   0.0074   0.0052  -0.0061  -0.0040   0.00   39.9
2173 281673.000  -1787004.0117  -4328787.3706   4317505.3594   1   8   0.0055   0.0086   0.0077   0.0053  -0.0060  -0.0041   0.00   40.0
2173 281674.000  -1787004.0079  -4328787.3674   4317505.3566   1   8   0.0054   0.0084   0.0071   0.0053  -0.0063  -0.0037   0.00   40.1
2173 281675.000  -1787004.0103  -4328787.3732   4317505.3556   1   8   0.0053   0.0084   0.0074   0.0052  -0.0063  -0.0038   0.00   40.2
2173 281676.000  -1787004.0120  -4328787.3727   4317505.3617   1   8   0.0053   0.0084   0.0070   0.0052  -0.0063  -0.0038   0.00   40.4
2173 281677.000  -1787004.0087  -4328787.3705   4317505.3564   1   8   0.0054   0.0084   0.0074   0.0051  -0.0063  -0.0039   0.00   40.7
2173 281678.000  -1787004.0111  -4328787.3721   4317505.3599   1   8   0.0050   0.0085   0.0075   0.0053  -0.0061  -0.0040   0.00   40.9
2173 281679.000  -1787004.0057  -4328787.3673   4317505.3515   1   8   0.0054   0.0085   0.0074   0.0051  -0.0062  -0.0039   0.00   41.2
2173 281680.000  -1787004.0107  -4328787.3732   4317505.3576   1   8   0.0054   0.0085   0.0071   0.0052  -0.0064  -0.0040   0.00   41.4
2173 281681.000  -1787004.0106  -4328787.3746   4317505.3545   1   8   0.0056   0.0084   0.0075   0.0051  -0.0061  -0.0039   0.00   41.6
2173 281682.000  -1787004.0097  -4328787.3730   4317505.3558   1   8   0.0054   0.0086   0.0074   0.0052  -0.0060  -0.0039   0.00   42.0
2173 281683.000  -1787004.0119  -4328787.3766   4317505.3592   1   8   0.0053   0.0085   0.0074   0.0051  -0.0062  -0.0040   0.00   42.3
2173 281684.000  -1787004.0105  -4328787.3735   4317505.3575   1   8   0.0055   0.0085   0.0074   0.0051  -0.0063  -0.0038   0.00   42.6
2173 281685.000  -1787004.0115  -4328787.3729   4317505.3565   1   8   0.0054   0.0085   0.0074   0.0051  -0.0061  -0.0040   0.00   42.8
2173 281686.000  -1787004.0089  -4328787.3728   4317505.3591   1   8   0.0053   0.0085   0.0075   0.0051  -0.0063  -0.0039   0.00   43.0
2173 281687.000  -1787004.0124  -4328787.3720   4317505.3599   1   8   0.0054   0.0084   0.0073   0.0053  -0.0062  -0.0041   0.00   43.3
2173 281688.000  -1787004.0105  -4328787.3742   4317505.3584   1   8   0.0051   0.0085   0.0076   0.0052  -0.0061  -0.0041   0.00   43.7
2173 281689.000  -1787004.0126  -4328787.3758   4317505.3598   1   8   0.0057   0.0085   0.0075   0.0051  -0.0061  -0.0037   0.00   43.9
2173 281690.000  -1787004.0117  -4328787.3750   4317505.3581   1   8   0.0052   0.0086   0.0077   0.0050  -0.0059  -0.0042   0.00   44.4
2173 281691.000  -1787004.0121  -4328787.3719   4317505.3584   1   8   0.0056   0.0085   0.0073   0.0051  -0.0062  -0.0039   0.00   44.7
2173 281692.000  -1787004.0116  -4328787.3737   4317505.3586   1   8   0.0053   0.0085   0.0073   0.0053  -0.0060  -0.0039   0.00   45.0
2173 281693.000  -1787004.0101  -4328787.3740   4317505.3617   1   8   0.0056   0.0084   0.0071   0.0051  -0.0064  -0.0038   0.00   45.4
2173 281694.000  -1787004.0110  -4328787.3768   4317505.3607   1   8   0.0054   0.0084   0.0073   0.0053  -0.0063  -0.0038   0.00   45.7
2173 281695.000  -1787004.0134  -4328787.3749   4317505.3588   1   8   0.0054   0.0084   0.0072   0.0053  -0.0063  -0.0040   0.00   46.0
2173 281696.000  -1787004.0125  -4328787.3751   4317505.3611   1   8   0.0053   0.0085   0.0074   0.0051  -0.0062  -0.0040   0.00   46.2
2173 281697.000  -1787004.0121  -4328787.3796   4317505.3634   1   8   0.0053   0.0086   0.0078   0.0052  -0.0059  -0.0044   0.00   46.5
2173 281698.000  -1787004.0095  -4328787.3735   4317505.3594   1   8   0.0055   0.0085   0.0075   0.0051  -0.0062  -0.0040   0.00   46.7
2173 281699.000  -1787004.0125  -4328787.3733   4317505.3611   1   8   0.0051   0.0084   0.0074   0.0052  -0.0063  -0.0043   0.00   46.9
2173 281700.000  -1787004.0101  -4328787.3728   4317505.3613   1   8   0.0050   0.0085   0.0072   0.0053  -0.0062  -0.0039   0.00   47.2
2173 281701.000  -1787004.0080  -4328787.3761   4317505.3627   1   8   0.0056   0.0085   0.0075   0.0052  -0.0060  -0.0040   0.00   47.5
2173 281702.000  -1787004.0092  -4328787.3765   4317505.3599   1   8   0.0054   0.0084   0.0074   0.0053  -0.0063  -0.0040   0.00   47.7
2173 281703.000  -1787004.0109  -4328787.3741   4317505.3592   1   8   0.0053   0.0084   0.0072   0.0053  -0.0062  -0.0039   0.00   48.0
2173 281704.000  -1787004.0096  -4328787.3736   4317505.3600   1   8   0.0052   0.0086   0.0074   0.0051  -0.0061  -0.0041   0.00   48.1
2173 281705.000  -1787004.0104  -4328787.3752   4317505.3641   1   8   0.0053   0.0085   0.0074   0.0051  -0.0062  -0.0042   0.00   48.3
2173 281706.000  -1787004.0109  -4328787.3750   4317505.3600   1   8   0.0051   0.0085   0.0073   0.0052  -0.0062  -0.0042   0.00   48.5
2173 281707.000  -1787004.0122  -4328787.3786   4317505.3638   1   8   0.0056   0.0084   0.0075   0.0051  -0.0062  -0.0040   0.00   48.8
2173 281708.000  -1787004.0112  -4328787.3746   4317505.3612   1   8   0.0057   0.0085   0.0072   0.0052  -0.0062  -0.0036   0.00   48.8
2173 281709.000  -1787004.0113  -4328787.3790   4317505.3630   1   8   0.0053   0.0085   0.0075   0.0052  -0.0061  -0.0043   0.00   48.9
2173 281710.000  -1787004.0125  -4328787.3745   4317505.3594   1   8   0.0054   0.0085   0.0072   0.0052  -0.0063  -0.0039   0.00   49.1
2173 281711.000  -1787004.0127  -4328787.3772   4317505.3614   1   8   0.0051   0.0084   0.0074   0.0053  -0.0062  -0.0040   0.00   49.3
2173 281712.000  -1787004.0125  -4328787.3754   4317505.3630   1   8   0.0054   0.0085   0.0074   0.0052  -0.0061  -0.0040   0.00   49.4
2173 281713.000  -1787004.0137  -4328787.3783   4317505.3639   1   8   0.0055   0.0084   0.0073   0.0052  -0.0063  -0.0039   0.00   49.4
2173 281714.000  -1787004.0117  -4328787.3723   4317505.3584   1   8   0.0055   0.0085   0.0077   0.0050  -0.0062  -0.0038   0.00   49.6
2173 281715.000  -1787004.0139  -4328787.3760   4317505.3587   1   8   0.0052   0.0084   0.0075   0.0053  -0.0064  -0.0038   0.00   49.7
2173 281716.000  -1787004.0135  -4328787.3752   4317505.3611   1   8   0.0051   0.0085   0.0071   0.0051  -0.0063  -0.0046   0.00   49.7
2173 281717.000  -1787004.0124  -4328787.3768   4317505.3620   1   8   0.0050   0.0084   0.0072   0.0053  -0.0064  -0.0041   0.00   49.9
2173 281718.000  -1787004.0148  -4328787.3784   4317505.3612   1   8   0.0055   0.0085   0.0074   0.0051  -0.0062  -0.0041   0.00   50.0
2173 281719.000  -1787004.0147  -4328787.3755   4317505.3643   1   8   0.0051   0.0085   0.0077   0.0051  -0.0061  -0.0044   0.00   50.1
2173 281720.000  -1787004.0152  -4328787.3737   4317505.3608   1   8   0.0055   0.0085   0.0073   0.0051  -0.0063  -0.0042   0.00   50.4
2173 281721.000  -1787004.0133  -4328787.3742   4317505.3613   1   8   0.0053   0.0085   0.0073   0.0052  -0.0062  -0.0037   0.00   50.5
2173 281722.000  -1787004.0163  -4328787.3749   4317505.3610   1   8   0.0048   0.0085   0.0075   0.0053  -0.0061  -0.0041   0.00   50.6
2173 281723.000  -1787004.0149  -4328787.3766   4317505.3584   1   8   0.0053   0.0085   0.0072   0.0053  -0.0062  -0.0038   0.00   50.8
2173 281724.000  -1787004.0113  -4328787.3702   4317505.3582   1   8   0.0056   0.0085   0.0076   0.0051  -0.0061  -0.0044   0.00   50.9
2173 281725.000  -1787004.0143  -4328787.3731   4317505.3583   1   8   0.0053   0.0085   0.0076   0.0053  -0.0061  -0.0040   0.00   51.0
2173 281726.000  -1787004.0140  -4328787.3726   4317505.3609   1   8   0.0053   0.0085   0.0071   0.0052  -0.0062  -0.0040   0.00   51.1
2173 281727.000  -1787004.0152  -4328787.3751   4317505.3627   1   8   0.0052   0.0084   0.0074   0.0051  -0.0063  -0.0041   0.00   51.2
2173 281728.000  -1787004.0114  -4328787.3714   4317505.3567   1   8   0.0056   0.0086   0.0076   0.0050  -0.0059  -0.0041   0.00   51.3
2173 281729.000  -1787004.0120  -4328787.3664   4317505.3561   1   8   0.0052   0.0085   0.0074   0.0052  -0.0062  -0.0039   0.00   51.3
2173 281730.000  -1787004.0138  -4328787.3711   4317505.3619   1   8   0.0056   0.0086   0.0077   0.0050  -0.0060  -0.0041   0.00   51.5
2173 281731.000  -1787004.0147  -4328787.3675   4317505.3578   1   8   0.0053   0.0085   0.0073   0.0052  -0.0063  -0.0040   0.00   51.5
2173 281732.000  -1787004.0144  -4328787.3730   4317505.3571   1   8   0.0053   0.0085   0.0074   0.0051  -0.0062  -0.0041   0.00   51.6
2173 281733.000  -1787004.0108  -4328787.3657   4317505.3541   1   8   0.0054   0.0085   0.0073   0.0051  -0.0062  -0.0045   0.00   51.5
2173 281734.000  -1787004.0114  -4328787.3670   4317505.3565   1   8   0.0056   0.0085   0.0074   0.0051  -0.0062  -0.0040   0.00   51.7
2173 281735.000  -1787004.0119  -4328787.3707   4317505.3575   1   8   0.0054   0.0085   0.0075   0.0052  -0.0063  -0.0041   0.00   51.8
2173 281736.000  -1787004.0105  -4328787.3669   4317505.3558   1   8   0.0055   0.0084   0.0075   0.0052  -0.0062  -0.0039   0.00   52.0
2173 281737.000  -1787004.0120  -4328787.3652   4317505.3556   1   8   0.0053   0.0084   0.0070   0.0053  -0.0064  -0.0037   0.00   52.0
2173 281738.000  -1787004.0112  -4328787.3675   4317505.3551   1   8   0.0053   0.0085   0.0074   0.0052  -0.0062  -0.0038   0.00   52.1
2173 281739.000  -1787004.0121  -4328787.3674   4317505.3547   1   8   0.0052   0.0086   0.0072   0.0051  -0.0061  -0.0041   0.00   52.0
2173 281740.000  -1787004.0129  -4328787.3688   4317505.3575   1   8   0.0054   0.0085   0.0073   0.0053  -0.0062  -0.0036   0.00   52.0
2173 281741.000  -1787004.0112  -4328787.3693   4317505.3557   1   8   0.0054   0.0085   0.0074   0.0052  -0.0062  -0.0042   0.00   52.0
2173 281742.000  -1787004.0106  -4328787.3653   4317505.3559   1   8   0.0051   0.0085   0.0076   0.0051  -0.0062  -0.0041   0.00   52.1
2173 281743.000  -1787004.0135  -4328787.3666   4317505.3564   1   8   0.0054   0.0085   0.0075   0.0052  -0.0060  -0.0040   0.00   52.1
2173 281744.000  -1787004.0128  -4328787.3727   4317505.3605   1   8   0.0051   0.0085   0.0073   0.0051  -0.0063  -0.0043   0.00   52.3
2173 281745.000  -1787004.0135  -4328787.3722   4317505.3569   1   8   0.0051   0.0086   0.0075   0.0051  -0.0061  -0.0045   0.00   52.4
2173 281746.000  -1787004.0131  -4328787.3738   4317505.3613   1   8   0.0054   0.0085   0.0073   0.0052  -0.0063  -0.0039   0.00   52.4
2173 281747.000  -1787004.0137  -4328787.3717   4317505.3590   1   8   0.0052   0.0085   0.0073   0.0052  -0.0062  -0.0039   0.00   52.5
2173 281748.000  -1787004.0139  -4328787.3739   4317505.3621   1   8   0.0054   0.0086   0.0073   0.0052  -0.0061  -0.0039   0.00   52.5
2173 281749.000  -1787004.0153  -4328787.3771   4317505.3614   1   8   0.0054   0.0085   0.0072   0.0050  -0.0063  -0.0041   0.00   52.6
2173 281750.000  -1787004.0138  -4328787.3728   4317505.3603   1   8   0.0054   0.0085   0.0077   0.0050  -0.0061  -0.0041   0.00   52.6
2173 281751.000  -1787004.0142  -4328787.3731   4317505.3605   1   8   0.0055   0.0085   0.0072   0.0052  -0.0062  -0.0041   0.00   52.7
2173 281752.000  -1787004.0113  -4328787.3705   4317505.3576   1   8   0.0053   0.0085   0.0072   0.0052  -0.0063  -0.0041   0.00   52.7
2173 281753.000  -1787004.0134  -4328787.3733   4317505.3572   1   8   0.0051   0.0085   0.0072   0.0052  -0.0062  -0.0041   0.00   52.8
2173 281754.000  -1787004.0119  -4328787.3729   4317505.3577   1   8   0.0054   0.0085   0.0073   0.0051  -0.0063  -0.0042   0.00   52.8
2173 281755.000  -1787004.0100  -4328787.3695   4317505.3539   1   8   0.0049   0.0086   0.0072   0.0052  -0.0061  -0.0039   0.00   52.6
2173 281756.000  -1787004.0145  -4328787.3717   4317505.3603   1   8   0.0056   0.0086   0.0076   0.0051  -0.0061  -0.0043   0.00   52.5
2173 281757.000  -1787004.0118  -4328787.3715   4317505.3598   1   8   0.0053   0.0085   0.0072   0.0052  -0.0061  -0.0042   0.00   52.6
2173 281758.000  -1787004.0132  -4328787.3681   4317505.3549   1   8   0.0056   0.0085   0.0075   0.0052  -0.0061  -0.0040   0.00   52.5
2173 281759.000  -1787004.0124  -4328787.3702   4317505.3575   1   8   0.0052   0.0085   0.0072   0.0052  -0.0061  -0.0041   0.00   52.5
2173 281760.000  -1787004.0134  -4328787.3694   4317505.3569   1   8   0.0054   0.0085   0.0072   0.0050  -0.0063  -0.0040   0.00   52.5
2173 281761.000  -1787004.0117  -4328787.3665   4317505.3541   1   8   0.0056   0.0086   0.0077   0.0051  -0.0061  -0.0044   0.00   52.4
2173 281762.000  -1787004.0116  -4328787.3653   4317505.3541   1   8   0.0053   0.0084   0.0073   0.0053  -0.0064  -0.0041   0.00   52.4
2173 281763.000  -1787004.0119  -4328787.3666   4317505.3513   1   8   0.0054   0.0084   0.0074   0.0053  -0.0063  -0.0039   0.00   52.4
2173 281764.000  -1787004.0113  -4328787.3679   4317505.3538   1   8   0.0054   0.0085   0.0073   0.0051  -0.0063  -0.0041   0.00   52.4
2173 281765.000  -1787004.0139  -4328787.3690   4317505.3532   1   8   0.0055   0.0085   0.0074   0.0051  -0.0063  -0.0041   0.00   52.4
2173 281766.000  -1787004.0110  -4328787.3689   4317505.3516   1   8   0.0053   0.0085   0.0073   0.0053  -0.0062  -0.0041   0.00   52.3
2173 281767.000  -1787004.0115  -4328787.3677   4317505.3535   1   8   0.0052   0.0085   0.0076   0.0052  -0.0062  -0.0043   0.00   52.3
2173 281768.000  -1787004.0136  -4328787.3687   4317505.3540   1   8   0.0055   0.0085   0.0073   0.0051  -0.0062  -0.0041   0.00   52.4
2173 281769.000  -1787004.0148  -4328787.3701   4317505.3555   1   8   0.0052   0.0086   0.0074   0.0053  -0.0062  -0.0040   0.00   52.4
2173 281770.000  -1787004.0138  -4328787.3673   4317505.3572   1   8   0.0053   0.0086   0.0074   0.0050  -0.0061  -0.0040   0.00   52.3
2173 281771.000  -1787004.0122  -4328787.3689   4317505.3574   1   8   0.0053   0.0085   0.0072   0.0051  -0.0062  -0.0038   0.00   52.3
2173 281772.000  -1787004.0144  -4328787.3680   4317505.3546   1   8   0.0056   0.0085   0.0074   0.0052  -0.0061  -0.0038   0.00   52.2
2173 281773.000  -1787004.0134  -4328787.3729   4317505.3569   1   8   0.0051   0.0086   0.0073   0.0051  -0.0061  -0.0040   0.00   52.3
2173 281774.000  -1787004.0129  -4328787.3698   4317505.3548   1   8   0.0054   0.0084   0.0071   0.0052  -0.0064  -0.0037   0.00   52.4
2173 281775.000  -1787004.0140  -4328787.3747   4317505.3586   1   8   0.0054   0.0086   0.0072   0.0051  -0.0063  -0.0040   0.00   52.5
2173 281776.000  -1787004.0163  -4328787.3714   4317505.3583   1   8   0.0052   0.0085   0.0075   0.0052  -0.0063  -0.0041   0.00   52.6
2173 281777.000  -1787004.0146  -4328787.3720   4317505.3589   1   8   0.0055   0.0085   0.0074   0.0052  -0.0063  -0.0038   0.00   52.7
2173 281778.000  -1787004.0120  -4328787.3674   4317505.3566   1   8   0.0055   0.0085   0.0071   0.0053  -0.0064  -0.0038   0.00   52.7
2173 281779.000  -1787004.0127  -4328787.3694   4317505.3580   1   8   0.0051   0.0085   0.0072   0.0051  -0.0063  -0.0040   0.00   52.7
2173 281780.000  -1787004.0125  -4328787.3732   4317505.3614   1   8   0.0051   0.0084   0.0073   0.0052  -0.0063  -0.0040   0.00   52.9
2173 281781.000  -1787004.0143  -4328787.3748   4317505.3618   1   8   0.0054   0.0085   0.0075   0.0051  -0.0062  -0.0043   0.00   53.0
2173 281782.000  -1787004.0141  -4328787.3729   4317505.3560   1   8   0.0053   0.0085   0.0074   0.0052  -0.0062  -0.0043   0.00   53.1
2173 281783.000  -1787004.0153  -4328787.3740   4317505.3628   1   8   0.0052   0.0085   0.0070   0.0053  -0.0062  -0.0040   0.00   53.1
2173 281784.000  -1787004.0131  -4328787.3732   4317505.3601   1   8   0.0054   0.0085   0.0075   0.0052  -0.0062  -0.0040   0.00   53.3
2173 281785.000  -1787004.0125  -4328787.3734   4317505.3599   1   8   0.0054   0.0085   0.0077   0.0053  -0.0061  -0.0042   0.00   53.4
2173 281786.000  -1787004.0090  -4328787.3696   4317505.3584   1   8   0.0055   0.0086   0.0074   0.0051  -0.0061  -0.0038   0.00   53.6
2173 281787.000  -1787004.0130  -4328787.3726   4317505.3584   1   8   0.0054   0.0085   0.0073   0.0051  -0.0062  -0.0039   0.00   54.0
2173 281788.000  -1787004.0115  -4328787.3712   4317505.3574   1   8   0.0054   0.0086   0.0075   0.0052  -0.0062  -0.0039   0.00   54.2
2173 281789.000  -1787004.0117  -4328787.3732   4317505.3600   1   8   0.0053   0.0085   0.0075   0.0053  -0.0062  -0.0041   0.00   54.5
2173 281790.000  -1787004.0135  -4328787.3749   4317505.3591   1   8   0.0053   0.0085   0.0072   0.0051  -0.0064  -0.0043   0.00   54.7
2173 281791.000  -1787004.0108  -4328787.3709   4317505.3569   1   8   0.0058   0.0086   0.0076   0.0051  -0.0061  -0.0041   0.00   55.0
2173 281792.000  -1787004.0074  -4328787.3682   4317505.3581   1   8   0.0053   0.0085   0.0072   0.0053  -0.0063  -0.0040   0.00   55.3
2173 281793.000  -1787004.0135  -4328787.3735   4317505.3575   1   8   0.0050   0.0085   0.0072   0.0053  -0.0063  -0.0041   0.00   55.5
2173 281794.000  -1787004.0125  -4328787.3737   4317505.3614   1   8   0.0054   0.0084   0.0074   0.0052  -0.0064  -0.0042   0.00   55.9
2173 281795.000  -1787004.0102  -4328787.3733   4317505.3609   1   8   0.0053   0.0086   0.0073   0.0052  -0.0062  -0.0040   0.00   56.2
2173 281796.000  -1787004.0111  -4328787.3753   4317505.3599   1   8   0.0054   0.0086   0.0076   0.0050  -0.0062  -0.0041   0.00   56.6
2173 281797.000  -1787004.0071  -4328787.3697   4317505.3559   1   8   0.0053   0.0085   0.0074   0.0050  -0.0062  -0.0041   0.00   56.9
2173 281798.000  -1787004.0089  -4328787.3726   4317505.3607   1   8   0.0052   0.0085   0.0072   0.0052  -0.0064  -0.0038   0.00   57.3
2173 281799.000  -1787004.0088  -4328787.3770   4317505.3630   1   8   0.0055   0.0085   0.0075   0.0052  -0.0062  -0.0041   0.00   57.6
2173 281800.000  -1787004.0107  -4328787.3761   4317505.3611   1   8   0.0051   0.0085   0.0070   0.0051  -0.0064  -0.0040   0.00   58.0
2173 281801.000  -1787004.0119  -4328787.3759   4317505.3611   1   8   0.0056   0.0085   0.0076   0.0050  -0.0062  -0.0042   0.00   58.3
2173 281802.000  -1787004.0105  -4328787.3771   4317505.3593   1   8   0.0057   0.0086   0.0073   0.0051  -0.0062  -0.0041   0.00   58.5
2173 281803.000  -1787004.0115  -4328787.3768   4317505.3588   1   8   0.0055   0.0086   0.0075   0.0051  -0.0061  -0.0040   0.00   58.8
2173 281804.000  -1787004.0095  -4328787.3740   4317505.3590   1   8   0.0053   0.0085   0.0074   0.0053  -0.0063  -0.0038   0.00   59.4
2173 281805.000  -1787004.0083  -4328787.3698   4317505.3541   1   8   0.0051   0.0086   0.0075   0.0052  -0.0061  -0.0040   0.00   59.7
2173 281806.000  -1787004.0098  -4328787.3766   4317505.3607   1   8   0.0054   0.0085   0.0073   0.0051  -0.0063  -0.0041   0.00   60.0
2173 281807.000  -1787004.0133  -4328787.3764   4317505.3630   1   8   0.0057   0.0085   0.0075   0.0052  -0.0062  -0.0041   0.00   60.4
2173 281808.000  -1787004.0116  -4328787.3763   4317505.3604   1   8   0.0056   0.0086   0.0074   0.0051  -0.0062  -0.0040   0.00   60.5
2173 281809.000  -1787004.0085  -4328787.3730   4317505.3558   1   8   0.0053   0.0085   0.0074   0.0052  -0.0063  -0.0040   0.00   60.8
2173 281810.000  -1787004.0102  -4328787.3734   4317505.3589   1   8   0.0054   0.0086   0.0074   0.0050  -0.0061  -0.0042   0.00   61.2
2173 281811.000  -1787004.0100  -4328787.3750   4317505.3599   1   8   0.0052   0.0086   0.0073   0.0051  -0.0062  -0.0039   0.00   61.5
2173 281812.000  -1787004.0115  -4328787.3791   4317505.3601   1   8   0.0053   0.0085   0.0073   0.0052  -0.0063  -0.0042   0.00   61.9
2173 281813.000  -1787004.0093  -4328787.3792   4317505.3615   1   8   0.0056   0.0086   0.0075   0.0050  -0.0062  -0.0040   0.00   62.3
2173 281814.000  -1787004.0105  -4328787.3762   4317505.3603   1   8   0.0051   0.0085   0.0074   0.0053  -0.0064  -0.0041   0.00   62.7
2173 281815.000  -1787004.0095  -4328787.3753   4317505.3593   1   8   0.0053   0.0085   0.0073   0.0053  -0.0063  -0.0041   0.00   63.2
2173 281816.000  -1787004.0116  -4328787.3770   4317505.3609   1   8   0.0053   0.0085   0.0072   0.0052  -0.0064  -0.0040   0.00   63.5
2173 281817.000  -1787004.0082  -4328787.3756   4317505.3565   1   8   0.0055   0.0085   0.0074   0.0052  -0.0062  -0.0044   0.00   63.7
2173 281818.000  -1787004.0120  -4328787.3818   4317505.3656   1   8   0.0054   0.0085   0.0074   0.0052  -0.0062  -0.0041   0.00   64.0
2173 281819.000  -1787004.0122  -4328787.3747   4317505.3601   1   8   0.0049   0.0086   0.0074   0.0052  -0.0062  -0.0044   0.00   64.5
2173 281820.000  -1787004.0083  -4328787.3711   4317505.3569   1   8   0.0049   0.0084   0.0071   0.0053  -0.0065  -0.0039   0.00   64.7
2173 281821.000  -1787004.0120  -4328787.3806   4317505.3594   1   8   0.0056   0.0086   0.0076   0.0051  -0.0061  -0.0046   0.00   64.9
2173 281822.000  -1787004.0125  -4328787.3795   4317505.3616   1   8   0.0051   0.0085   0.0071   0.0053  -0.0064  -0.0041   0.00   65.0
2173 281823.000  -1787004.0116  -4328787.3756   4317505.3588   1   8   0.0056   0.0086   0.0073   0.0052  -0.0062  -0.0041   0.00   65.3
2173 281824.000  -1787004.0128  -4328787.3770   4317505.3608   1   8   0.0053   0.0084   0.0074   0.0053  -0.0063  -0.0039   0.00   65.7
2173 281825.000  -1787004.0128  -4328787.3793   4317505.3634   1   8   0.0056   0.0085   0.0075   0.0052  -0.0062  -0.0042   0.00   65.8
2173 281826.000  -1787004.0127  -4328787.3772   4317505.3609   1   8   0.0053   0.0086   0.0073   0.0051  -0.0063  -0.0042   0.00   66.1
2173 281827.000  -1787004.0142  -4328787.3805   4317505.3680   1   8   0.0052   0.0086   0.0077   0.0051  -0.0061  -0.0043   0.00   66.3
2173 281828.000  -1787004.0143  -4328787.3756   4317505.3611   1   8   0.0057   0.0085   0.0073   0.0052  -0.0063  -0.0040   0.00   66.6
2173 281829.000  -1787004.0091  -4328787.3711   4317505.3593   1   8   0.0056   0.0085   0.0073   0.0051  -0.0062  -0.0040   0.00   66.8
2173 281830.000  -1787004.0100  -4328787.3744   4317505.3613   1   8   0.0057   0.0086   0.0076   0.0051  -0.0062  -0.0041   0.00   67.2
2173 281831.000  -1787004.0112  -4328787.3737   4317505.3567   1   8   0.0054   0.0086   0.0071   0.0051  -0.0063  -0.0040   0.00   67.6
2173 281832.000  -1787004.0131  -4328787.3767   4317505.3620   1   8   0.0051   0.0086   0.0076   0.0052  -0.0061  -0.0043   0.00   67.7
2173 281833.000  -1787004.0130  -4328787.3766   4317505.3615   1   8   0.0054   0.0086   0.0075   0.0052  -0.0061  -0.0039   0.00   68.0
2173 281834.000  -1787004.0120  -4328787.3707   4317505.3573   1   8   0.0055   0.0085   0.0072   0.0052  -0.0062  -0.0041   0.00   68.2
2173 281835.000  -1787004.0140  -4328787.3736   4317505.3626   1   8   0.0052   0.0086   0.0073   0.0051  -0.0062  -0.0042   0.00   68.4
2173 281836.000  -1787004.0123  -4328787.3752   4317505.3596   1   8   0.0056   0.0086   0.0074   0.0051  -0.0063  -0.0038   0.00   68.8
2173 281837.000  -1787004.0131  -4328787.3770   4317505.3636   1   8   0.0056   0.0085   0.0074   0.0052  -0.0063  -0.0034   0.00   69.1
2173 281838.000  -1787004.0116  -4328787.3736   4317505.3613   1   8   0.0054   0.0086   0.0077   0.0051  -0.0060  -0.0042   0.00   69.4
2173 281839.000  -1787004.0111  -4328787.3731   4317505.3600   1   8   0.0055   0.0085   0.0074   0.0052  -0.0064  -0.0042   0.00   69.3
2173 281840.000  -1787004.0106  -4328787.3738   4317505.3590   1   8   0.0053   0.0085   0.0076   0.0052  -0.0063  -0.0043   0.00   69.3
2173 281841.000  -1787004.0098  -4328787.3687   4317505.3586   1   8   0.0055   0.0085   0.0074   0.0052  -0.0062  -0.0041   0.00   69.5
2173 281842.000  -1787004.0104  -4328787.3694   4317505.3610   1   8   0.0056   0.0086   0.0071   0.0052  -0.0063  -0.0037   0.00   69.7
2173 281843.000  -1787004.0119  -4328787.3723   4317505.3602   1   8   0.0054   0.0085   0.0071   0.0051  -0.0064  -0.0041   0.00   69.8
2173 281844.000  -1787004.0101  -4328787.3671   4317505.3551   1   8   0.0052   0.0086   0.0075   0.0052  -0.0062  -0.0043   0.00   69.9
2173 281845.000  -1787004.0111  -4328787.3723   4317505.3610   1   8   0.0055   0.0086   0.0075   0.0052  -0.0061  -0.0040   0.00   69.8
2173 281846.000  -1787004.0120  -4328787.3699   4317505.3580   1   8   0.0056   0.0086   0.0075   0.0051  -0.0062  -0.0041   0.00   69.8
2173 281847.000  -1787004.0107  -4328787.3757   4317505.3631   1   8   0.0055   0.0085   0.0071   0.0052  -0.0064  -0.0039   0.00   69.7
2173 281848.000  -1787004.0134  -4328787.3730   4317505.3621   1   8   0.0052   0.0086   0.0075   0.0052  -0.0062  -0.0043   0.00   69.7
2173 281849.000  -1787004.0104  -4328787.3711   4317505.3592   1   8   0.0052   0.0085   0.0072   0.0052  -0.0064  -0.0042   0.00   69.8
2173 281850.000  -1787004.0116  -4328787.3693   4317505.3554   1   8   0.0051   0.0085   0.0073   0.0052  -0.0063  -0.0042   0.00   69.9
2173 281851.000  -1787004.0093  -4328787.3693   4317505.3584   1   8   0.0054   0.0085   0.0075   0.0052  -0.0063  -0.0041   0.00   70.0
2173 281852.000  -1787004.0133  -4328787.3716   4317505.3628   1   8   0.0053   0.0085   0.0075   0.0053  -0.0062  -0.0043   0.00   69.8
2173 281853.000  -1787004.0127  -4328787.3721   4317505.3620   1   8   0.0052   0.0086   0.0076   0.0051  -0.0062  -0.0041   0.00   69.8
2173 281854.000  -1787004.0113  -4328787.3697   4317505.3559   1   8   0.0054   0.0086   0.0073   0.0050  -0.0062  -0.0041   0.00   69.9
2173 281855.000  -1787004.0118  -4328787.3659   4317505.3610   1   8   0.0054   0.0085   0.0074   0.0054  -0.0061  -0.0037   0.00   69.9
2173 281856.000  -1787004.0127  -4328787.3674   4317505.3576   1   8   0.0055   0.0086   0.0075   0.0052  -0.0061  -0.0042   0.00   69.9
2173 281857.000  -1787004.0118  -4328787.3695   4317505.3607   1   8   0.0053   0.0085   0.0072   0.0053  -0.0064  -0.0041   0.00   69.8
2173 281858.000  -1787004.0163  -4328787.3703   4317505.3586   1   8   0.0052   0.0086   0.0072   0.0052  -0.0062  -0.0040   0.00   69.6
2173 281859.000  -1787004.0128  -4328787.3689   4317505.3591   1   8   0.0053   0.0085   0.0070   0.0052  -0.0063  -0.0039   0.00   69.7
2173 281860.000  -1787004.0108  -4328787.3680   4317505.3544   1   8   0.0055   0.0087   0.0075   0.0050  -0.0060  -0.0042   0.00   69.6
2173 281861.000  -1787004.0123  -4328787.3692   4317505.3581   1   8   0.0055   0.0085   0.0075   0.0053  -0.0063  -0.0041   0.00   69.5
2173 281862.000  -1787004.0127  -4328787.3704   4317505.3572   1   8   0.0053   0.0086   0.0072   0.0052  -0.0063  -0.0041   0.00   69.6
2173 281863.000  -1787004.0114  -4328787.3651   4317505.3536   1   8   0.0051   0.0085   0.0072   0.0053  -0.0065  -0.0039   0.00   69.7
2173 281864.000  -1787004.0133  -4328787.3698   4317505.3578   1   8   0.0051   0.0087   0.0074   0.0051  -0.0062  -0.0042   0.00   69.9
2173 281865.000  -1787004.0118  -4328787.3680   4317505.3570   1   8   0.0052   0.0085   0.0074   0.0053  -0.0063  -0.0042   0.00   69.9
2173 281866.000  -1787004.0101  -4328787.3668   4317505.3571   1   8   0.0052   0.0085   0.0076   0.0051  -0.0063  -0.0044   0.00   69.8
2173 281867.000  -1787004.0127  -4328787.3731   4317505.3571   1   8   0.0056   0.0086   0.0076   0.0052  -0.0061  -0.0040   0.00   69.9
2173 281868.000  -1787004.0116  -4328787.3682   4317505.3560   1   8   0.0055   0.0086   0.0074   0.0052  -0.0062  -0.0042   0.00   70.2
2173 281869.000  -1787004.0133  -4328787.3699   4317505.3547   1   8   0.0051   0.0086   0.0074   0.0051  -0.0062  -0.0043   0.00   70.2
2173 281870.000  -1787004.0152  -4328787.3753   4317505.3602   1   8   0.0055   0.0085   0.0076   0.0052  -0.0063  -0.0041   0.00   70.4
2173 281871.000  -1787004.0144  -4328787.3739   4317505.3598   1   8   0.0053   0.0086   0.0073   0.0052  -0.0062  -0.0043   0.00   70.5
2173 281872.000  -1787004.0146  -4328787.3735   4317505.3557   1   8   0.0055   0.0086   0.0074   0.0050  -0.0062  -0.0039   0.00   70.5
2173 281873.000  -1787004.0163  -4328787.3750   4317505.3619   1   8   0.0056   0.0085   0.0071   0.0053  -0.0063  -0.0041   0.00   70.7
2173 281874.000  -1787004.0115  -4328787.3719   4317505.3551   1   8   0.0056   0.0085   0.0074   0.0052  -0.0063  -0.0035   0.00   70.8
2173 281875.000  -1787004.0100  -4328787.3709   4317505.3547   1   8   0.0055   0.0085   0.0074   0.0052  -0.0062  -0.0039   0.00   70.8
2173 281876.000  -1787004.0106  -4328787.3725   4317505.3580   1   8   0.0052   0.0086   0.0072   0.0052  -0.0062  -0.0043   0.00   70.8
2173 281877.000  -1787004.0141  -4328787.3742   4317505.3580   1   8   0.0051   0.0087   0.0074   0.0052  -0.0060  -0.0042   0.00   70.9
2173 281878.000  -1787004.0157  -4328787.3789   4317505.3627   1   8   0.0052   0.0085   0.0074   0.0053  -0.0062  -0.0043   0.00   71.0
2173 281879.000  -1787004.0122  -4328787.3733   4317505.3587   1   8   0.0056   0.0086   0.0072   0.0051  -0.0063  -0.0041   0.00   70.9
2173 281880.000  -1787004.0159  -4328787.3755   4317505.3588   1   8   0.0052   0.0086   0.0074   0.0051  -0.0063  -0.0043   0.00   71.0
2173 281881.000  -1787004.0151  -4328787.3787   4317505.3641   1   8   0.0051   0.0086   0.0073   0.0052  -0.0064  -0.0040   0.00   71.0
2173 281882.000  -1787004.0130  -4328787.3722   4317505.3558   1   8   0.0052   0.0085   0.0073   0.0052  -0.0063  -0.0041   0.00   71.0
2173 281883.000  -1787004.0145  -4328787.3740   4317505.3589   1   8   0.0052   0.0086   0.0074   0.0053  -0.0062  -0.0042   0.00   71.2
2173 281884.000  -1787004.0137  -4328787.3746   4317505.3552   1   8   0.0053   0.0086   0.0074   0.0052  -0.0063  -0.0041   0.00   71.1
2173 281885.000  -1787004.0124  -4328787.3727   4317505.3595   1   8   0.0052   0.0085   0.0073   0.0051  -0.0062  -0.0040   0.00   71.1
2173 281886.000  -1787004.0172  -4328787.3748   4317505.3593   1   8   0.0054   0.0085   0.0070   0.0052  -0.0063  -0.0040   0.00   71.0
2173 281887.000  -1787004.0148  -4328787.3770   4317505.3605   1   8   0.0056   0.0086   0.0074   0.0051  -0.0062  -0.0042   0.00   71.1
2173 281888.000  -1787004.0142  -4328787.3802   4317505.3617   1   8   0.0056   0.0086   0.0076   0.0051  -0.0062  -0.0042   0.00   71.0
2173 281889.000  -1787004.0126  -4328787.3704   4317505.3575   1   8   0.0052   0.0086   0.0072   0.0052  -0.0064  -0.0041   0.00   71.0
2173 281890.000  -1787004.0170  -4328787.3827   4317505.3620   1   8   0.0054   0.0085   0.0075   0.0052  -0.0063  -0.0040   0.00   70.9
2173 281891.000  -1787004.0123  -4328787.3789   4317505.3588   1   8   0.0056   0.0085   0.0073   0.0053  -0.0062  -0.0043   0.00   70.7
2173 281892.000  -1787004.0155  -4328787.3792   4317505.3613   1   8   0.0053   0.0086   0.0073   0.0052  -0.0062  -0.0041   0.00   70.6
2173 281893.000  -1787004.0132  -4328787.3746   4317505.3541   1   8   0.0055   0.0086   0.0074   0.0051  -0.0062  -0.0042   0.00   70.6
2173 281894.000  -1787004.0133  -4328787.3768   4317505.3581   1   8   0.0052   0.0085   0.0073   0.0051  -0.0063  -0.0044   0.00   70.4
2173 281895.000  -1787004.0157  -4328787.3784   4317505.3607   1   8   0.0053   0.0085   0.0072   0.0053  -0.0064  -0.0042   0.00   70.3
2173 281896.000  -1787004.0178  -4328787.3802   4317505.3606   1   8   0.0054   0.0085   0.0074   0.0052  -0.0064  -0.0044   0.00   70.1
2173 281897.000  -1787004.0134  -4328787.3726   4317505.3555   1   8   0.0056   0.0085   0.0075   0.0051  -0.0062  -0.0041   0.00   70.1
