     2.11           OBSERVATION DATA    M (MIXED)           RINEX VERSION / TYPE
CONVBIN 2.4.3                           20210901 004936 UTC PGM / RUN BY / DATE 
log: logs/21_08_31_19_18_40_pbch_SW.rtcm                    COMMENT             
format: RTCM 3, station ID: 1204                            COMMENT             
1204                                                        MARKER NAME         
                                                            MARKER NUMBER       
                                                            OBSERVER / AGENCY   
                    SWFT                                    REC # / TYPE / VERS 
                    NULL                                    ANT # / TYPE        
   974910.6272 -5655458.4910  2773892.8335                  APPROX POSITION XYZ 
        0.0000        0.0000        0.0000                  ANTENNA: DELTA H/E/N
     1     1                                                WAVELENGTH FACT L1/2
     5    C1    L1    P2    L2    C2                        # / TYPES OF OBSERV 
  2021     8    31    19    18   45.0000000     GPS         TIME OF FIRST OBS   
  2021     8    31    19    48   43.0000000     GPS         TIME OF LAST OBS    
                                                            END OF HEADER       
 21  8 31 19 18 45.0000000  0 12G 5G10G13G15G18G23G24G29E 3E 5E 9E36
  23351704.342   122714009.353    23351706.504    95621299.388                  
  24483010.448   128659008.476    24483015.433   100253752.456                  
  23013479.171   120936628.314    23013480.601    94236328.222                  
  20805757.489   109334990.495    20805758.418    85196095.438                  
  20672774.915   108636160.152    20672776.255    84651554.012                  
  22084430.195   116054453.196    22084431.857    90432040.496                  
  21493362.192   112948312.056    21493366.856    88011654.507                  
  22382039.077   117618374.255    22382041.561    91650671.977                  
  26698084.072   140299305.977                                                  
  23610462.322   124073794.961                                                  
  23116664.077   121478863.059                                                  
  23391584.463   122923540.203                                                  
 21  8 31 19 18 46.0000000  0 12G 5G10G13G15G18G23G24G29E 3E 5E 9E36
  23352052.627   122715839.559    23352054.771    95622725.520                  
  24482661.055   128657172.489    24482666.058   100252321.816                  
  23014099.673   120939889.082    23014101.103    94238869.078                  
  20806163.258   109337122.886    20806164.205    85197757.039                  
  20672433.438   108634365.628    20672434.778    84650155.680                  
  22084189.357   116053187.577    22084191.019    90431054.302                  
  21492936.462   112946074.797    21492941.126    88009911.191                  
  22382590.676   117621272.880    22382593.142    91652930.645                  
  26697710.681   140297343.797                                                  
  23610441.737   124073686.832                                                  
  23117029.606   121480783.849                                                  
  23391679.044   122924037.222                                                  
 21  8 31 19 18 47.0000000  0 12G 5G10G13G15G18G23G24G29E 3E 5E 9E36
  23352400.894   122717669.804    23352403.056    95624151.683                  
  24482311.680   128655336.484    24482316.683   100250891.168                  
  23014720.229   120943150.043    23014721.658    94241410.087                  
  20806569.100   109339255.625    20806570.065    85199418.914                  
  20672092.015   108632571.504    20672093.355    84648757.661                  
  22083948.536   116051922.020    22083950.180    90430068.153                  
  21492510.804   112943837.970    21492515.468    88008168.211                  
  22383142.328   117624171.768    22383144.776    91655189.520                  
  26697337.344   140295381.845                                                  
  23610421.223   124073578.986                                                  
  23117395.116   121482704.727                                                  
  23391773.696   122924534.661                                                  
 21  8 31 19 18 48.0000000  0 12G 5G10G13G15G18G23G24G29E 3E 5E 9E36
  23352749.197   122719500.090    23352751.359    95625577.880                  
  24481962.305   128653500.473    24481967.272   100249460.507                  
  23015340.802   120946411.181    23015342.214    94243951.231                  
  20806975.012   109341388.720    20806975.959    85201081.063                  
  20671750.699   108630777.760    20671752.021    84647359.941                  
  22083707.715   116050656.504    22083709.359    90429082.039                  
  21492085.236   112941601.594    21492089.900    88006425.578                  
  22383694.016   117627070.942    22383696.482    91657448.614                  
  26696964.024   140293420.113                                                  
  23610400.763   124073471.417                                                  
  23117760.681   121484625.699                                                  
  23391868.438   122925032.520                                                  
 21  8 31 19 18 49.0000000  0 12G 5G10G13G15G18G23G24G29E 3E 5E 9E36
  23353097.500   122721330.414    23353099.662    95627004.106                  
  24481612.912   128651664.432    24481617.897   100248029.831                  
  23015961.393   120949672.480    23015962.841    94246492.503                  
  20807380.997   109343522.172    20807381.961    85202743.496                  
  20671409.436   108628984.425    20671410.758    84645962.534                  
  22083466.894   116049391.047    22083468.556    90428095.968                  
  21491659.756   112939365.656    21491664.420    88004683.293                  
  22384245.758   117629970.403    22384248.242    91659707.929                  
  26696590.758   140291458.605                                                  
  23610380.339   124073364.160                                                  
  23118126.245   121486546.777                                                  
  23391963.269   122925530.798                                                  
 21  8 31 19 18 50.0000000  0 12G 5G10G13G15G18G23G24G29E 3E 5E 9E36
  23353445.803   122723160.782    23353447.965    95628430.363                  
  24481263.519   128649828.392    24481268.522   100246599.153                  
  23016582.056   120952933.973    23016583.485    94249033.921                  
  20807787.052   109345655.977    20807787.999    85204406.198                  
  20671068.245   108627191.477    20671069.585    84644565.434                  
  22083226.091   116048125.648    22083227.753    90427109.941                  
  21491234.366   112937130.152    21491238.995    88002941.344                  
  22384797.571   117632870.134    22384800.037    91661967.458                  
  26696217.546   140289497.313                                                  
  23610359.986   124073257.188                                                  
  23118491.828   121488467.937                                                  
  23392058.153   122926029.493                                                  
 21  8 31 19 18 51.0000000  0 16G 5G10G13G15G18G23G24G29C19C22C29C35
                                E 3E 5E 9E36
  23353794.124   122724991.194    23353796.286    95629856.655                  
  24480914.144   128647992.337    24480919.111   100245168.460                  
  23017202.718   120956195.624    23017204.148    94251575.470                  
  20808193.162   109347790.134    20808194.126    85206069.180                  
  20670727.143   108625398.925    20670728.465    84643168.641                  
  22082985.324   116046860.296    22082986.968    90426123.957                  
  21490809.048   112934895.094    21490813.694    88001199.743                  
  22385349.420   117635770.143    22385351.886    91664227.208                  
                 118004199.710                   118004199.710    22661467.817  
                 120510521.119                   120510521.119    23142776.080  
                 126728898.164                   126728898.164    24336962.474  
                 115401059.336                   115401059.336    22161563.602  
  26695844.369   140287536.239                                                  
  23610339.687   124073150.500                                                  
  23118857.446   121490389.208                                                  
  23392153.145   122926528.610                                                  
 21  8 31 19 18 52.0000000  0 16G 5G10G13G15G18G23G24G29C19C22C29C35
                                E 3E 5E 9E36
  23354142.463   122726821.647    23354144.607    95631282.985                  
  24480564.733   128646156.273    24480569.718   100243737.766                  
  23017823.435   120959457.469    23017824.864    94254117.165                  
  20808599.360   109349924.646    20808600.307    85207732.434                  
  20670386.095   108623606.772    20670387.417    84641772.156                  
  22082744.539   116045595.003    22082746.183    90425138.012                  
  21490383.801   112932660.485    21490388.465    87999458.487                  
  22385901.341   117638670.426    22385903.807    91666487.164                  
                 118005525.413                   118005525.413    22661722.415  
                 120509987.848                   120509987.848    23142673.673  
                 126732081.552                   126732081.552    24337573.827  
                 115402222.601                   115402222.601    22161786.983  
  26695471.228   140285575.400                                                  
  23610319.441   124073044.112                                                  
  23119223.064   121492310.571                                                  
  23392248.208   122927028.141                                                  
 21  8 31 19 18 53.0000000  0 16G 5G10G13G15G18G23G24G29C19C22C29C35
                                E 3E 5E 9E36
  23354490.784   122728652.133    23354492.946    95632709.335                  
  24480215.358   128644320.194    24480220.343   100242307.055                  
  23018444.187   120962719.481    23018445.598    94256658.988                  
  20809005.595   109352059.516    20809006.559    85209395.969                  
  20670045.136   108621815.013    20670046.458    84640375.980                  
  22082503.772   116044329.763    22082505.416    90424152.108                  
  21489958.643   112930426.296    21489963.307    87997717.563                  
  22386453.297   117641570.982    22386455.763    91668747.332                  
                 118006851.147                   118006851.147    22661976.995  
                 120509454.734                   120509454.734    23142571.301  
                 126735265.073                   126735265.073    24338185.180  
                 115403386.370                   115403386.370    22162010.489  
  26695098.123   140283614.777                                                  
  23610299.231   124072938.008                                                  
  23119588.700   121494232.027                                                  
  23392343.343   122927528.083                                                  
 21  8 31 19 18 54.0000000  0 16G 5G10G13G15G18G23G24G29C19C22C29C35
                                E 3E 5E 9E36
  23354839.122   122730482.677    23354841.285    95634135.726                  
  24479865.965   128642484.101    24479870.932   100240876.336                  
  23019064.939   120965981.660    23019066.386    94259200.946                  
  20809411.918   109354194.726    20809412.883    85211059.769                  
  20669704.267   108620023.649    20669705.589    84638980.114                  
  22082263.022   116043064.570    22082264.666    90423166.250                  
  21489533.575   112928192.556    21489538.239    87995976.984                  
  22387005.307   117644471.804    22387007.755    91671007.716                  
                 118008176.914                   118008176.914    22662231.593  
                 120508921.774                   120508921.774    23142468.947  
                 126738448.731                   126738448.731    24338796.586  
                 115404550.645                   115404550.645    22162234.066  
  26694725.071   140281654.366                                                  
  23610279.093   124072832.183                                                  
  23119954.354   121496153.589                                                  
  23392438.549   122928028.453                                                  
 21  8 31 19 18 55.0000000  0 16G 5G10G13G15G18G23G24G29C19C22C29C35
                                E 3E 5E 9E36
  23355187.479   122732313.253    23355189.623    95635562.151                  
  24479516.554   128640648.005    24479521.539   100239445.609                  
  23019685.762   120969244.016    23019687.174    94261743.039                  
  20809818.296   109356330.300    20809819.260    85212723.851                  
  20669363.433   108618232.668    20669364.755    84637584.546                  
  22082022.255   116041799.435    22082023.917    90422180.427                  
  21489108.596   112925959.264    21489113.260    87994236.761                  
  22387557.353   117647372.911    22387559.836    91673268.317                  
                 118009502.710                   118009502.710    22662486.227  
                 120508388.972                   120508388.972    23142366.611  
                 126741632.514                   126741632.514    24339407.975  
                 115405715.425                   115405715.425    22162457.732  
  26694352.055   140279694.193                                                  
  23610259.026   124072726.663                                                  
  23120320.043   121498075.230                                                  
  23392533.844   122928529.238                                                  
 21  8 31 19 18 56.0000000  0 16G 5G10G13G15G18G23G24G29C19C22C29C35
                                E 3E 5E 9E36
  23355535.818   122734143.880    23355537.980    95636988.609                  
  24479167.161   128638811.886    24479172.146   100238014.871                  
  23020306.603   120972506.550    23020308.015    94264285.273                  
  20810224.762   109358466.227    20810225.727    85214388.211                  
  20669022.706   108616442.102    20669024.047    84636189.296                  
  22081781.524   116040534.350    22081783.186    90421194.649                  
  21488683.706   112923726.402    21488688.352    87992496.870                  
  22388109.488   117650274.289    22388111.936    91675529.130                  
                 118010828.534                   118010828.534    22662740.825  
                 120507856.320                   120507856.320    23142264.347  
                 126744816.437                   126744816.437    24340019.417  
                 115406880.712                   115406880.712    22162681.524  
  26693979.075   140277734.228                                                  
  23610238.995   124072621.425                                                  
  23120685.733   121499996.980                                                  
  23392629.211   122929030.444                                                  
 21  8 31 19 18 57.0000000  0 16G 5G10G13G15G18G23G24G29C19C22C29C35
                                E 3E 5E 9E36
  23355884.192   122735974.535    23355886.337    95638415.094                  
  24478817.732   128636975.757    24478822.717   100236584.122                  
  23020927.481   120975769.258    23020928.892    94266827.640                  
  20810631.282   109360602.508    20810632.247    85216052.844                  
  20668682.033   108614651.913    20668683.374    84634794.348                  
  22081540.792   116039269.324    22081542.454    90420208.914                  
  21488258.888   112921493.988    21488263.534    87990757.327                  
  22388661.640   117653175.945    22388664.124    91677790.156                  
                 118012154.394                   118012154.394    22662995.440  
                 120507323.829                   120507323.829    23142162.083  
                 126748000.488                   126748000.488    24340630.895  
                 115408046.505                   115408046.505    22162905.405  
  26693606.167   140275774.489                                                  
  23610219.035   124072516.483                                                  
  23121051.440   121501918.823                                                  
  23392724.685   122929532.068                                                  
 21  8 31 19 18 58.0000000  0 16G 5G10G13G15G18G23G24G29C19C22C29C35
                                E 3E 5E 9E36
  23356232.567   122737805.247    23356234.729    95639841.622                  
  24478468.339   128635139.608    24478473.324   100235153.359                  
  23021548.375   120979032.141    23021549.805    94269370.145                  
  20811037.874   109362739.144    20811038.821    85217717.753                  
  20668341.468   108612862.125    20668342.772    84633399.708                  
  22081300.079   116038004.345    22081301.741    90419223.218                  
  21487834.142   112919262.008    21487838.805    87989018.122                  
  22389213.865   117656077.879    22389216.348    91680051.402                  
                 118013480.285                   118013480.285    22663250.056  
                 120506791.491                   120506791.491    23142059.836  
                 126751184.672                   126751184.672    24341242.373  
                 115409212.800                   115409212.800    22163129.375  
  26693233.276   140273814.964                                                  
  23610199.111   124072411.823                                                  
  23121417.183   121503840.758                                                  
  23392820.213   122930034.102                                                  
 21  8 31 19 18 59.0000000  0 16G 5G10G13G15G18G23G24G29C19C22C29C35
                                E 3E 5E 9E36
  23356580.941   122739635.984    23356583.103    95641268.171                  
  24478118.928   128633303.456    24478123.896   100233722.593                  
  23022169.324   120982295.195    23022170.736    94271912.782                  
  20811444.520   109364876.136    20811445.485    85219382.941                  
  20668000.938   108611072.734    20668002.278    84632005.375                  
  22081059.383   116036739.422    22081061.027    90418237.562                  
  21487409.502   112917030.477    21487414.166    87987279.269                  
  22389766.143   117658980.087    22389768.609    91682312.860                  
                 118014806.203                   118014806.203    22663504.707  
                 120506259.308                   120506259.308    23141957.643  
                 126754368.987                   126754368.987    24341853.905  
                 115410379.605                   115410379.605    22163353.453  
  26692860.439   140271855.679                                                  
  23610179.259   124072307.457                                                  
  23121782.944   121505762.780                                                  
  23392915.813   122930536.562                                                  
 21  8 31 19 19  0.0000000  0 16G 5G10G13G15G18G23G24G29C19C22C29C35
                                E 3E 5E 9E36
  23356929.334   122741466.778    23356931.496    95642694.757                  
  24477769.517   128631467.284    24477774.503   100232291.812                  
  23022790.273   120985558.410    23022791.720    94274455.547                  
  20811851.254   109367013.485    20811852.201    85221048.410                  
  20667660.515   108609283.747    20667661.837    84630611.359                  
  22080818.687   116035474.554    22080820.313    90417251.953                  
  21486984.934   112914799.384    21486989.598    87985540.755                  
  22390318.456   117661882.570    22390320.940    91684574.535                  
                 118016132.155                   118016132.155    22663759.341  
                 120505727.276                   120505727.276    23141855.486  
                 126757553.436                   126757553.436    24342465.436  
                 115411546.915                   115411546.915    22163577.620  
  26692487.637   140269896.595                                                  
  23610159.460   124072203.384                                                  
  23122148.705   121507684.906                                                  
  23393011.519   122931039.438                                                  
 21  8 31 19 19  1.0000000  0 16G 5G10G13G15G18G23G24G29C19C22C29C35
                                E 3E 5E 9E36
  23357277.744   122743297.607    23357279.888    95644121.374                  
  24477420.106   128629631.106    24477425.074   100230861.024                  
  23023411.293   120988821.819    23023412.722    94276998.461                  
  20812258.043   109369151.184    20812259.008    85222714.147                  
  20667320.164   108607495.133    20667321.486    84629217.636                  
  22080577.991   116034209.739    22080579.635    90416266.383                  
  21486560.455   112912568.722    21486565.119    87983802.581                  
  22390870.841   117664785.333    22390873.325    91686836.426                  
                 118017458.137                   118017458.137    22664013.975  
                 120505195.407                   120505195.407    23141753.347  
                 126760738.019                   126760738.019    24343077.003  
                 115412714.731                   115412714.731    22163801.894  
  26692114.872   140267937.739                                                  
  23610139.697   124072099.589                                                  
  23122514.484   121509607.125                                                  
  23393107.297   122931542.725                                                  
 21  8 31 19 19  2.0000000  0 16G 5G10G13G15G18G23G24G29C19C22C29C35
                                E 3E 5E 9E36
  23357626.136   122745128.474    23357628.298    95645548.028                  
  24477070.678   128627794.910    24477075.663   100229430.222                  
  23024032.348   120992085.401    23024033.760    94279541.512                  
  20812664.902   109371289.241    20812665.867    85224380.168                  
  20666979.866   108605706.925    20666981.206    84627824.227                  
  22080337.314   116032944.972    22080338.958    90415280.852                  
  21486136.066   112910338.509    21486140.712    87982064.753                  
  22391423.280   117667688.362    22391425.746    91689098.524                  
                 118018784.148                   118018784.148    22664268.626  
                 120504663.689                   120504663.689    23141651.225  
                 126763922.736                   126763922.736    24343688.606  
                 115413883.051                   115413883.051    22164026.257  
  26691742.159   140265979.094                                                  
  23610120.005   124071996.091                                                  
  23122880.299   121511529.441                                                  
  23393203.146   122932046.432                                                  
 21  8 31 19 19  3.0000000  0 16G 5G10G13G15G18G23G24G29C19C22C29C35
                                E 3E 5E 9E36
  23357974.546   122746959.382    23357976.708    95646974.708                  
  24476721.267   128625958.696    24476726.234   100227999.410                  
  23024653.404   120995349.159    23024654.834    94282084.695                  
  20813071.816   109373427.653    20813072.781    85226046.461                  
  20666639.658   108603919.118    20666640.980    84626431.128                  
  22080096.636   116031680.257    22080098.298    90414295.359                  
  21485711.748   112908108.733    21485716.394    87980327.265                  
  22391975.754   117670591.676    22391978.220    91691360.844                  
                 118020110.196                   118020110.196    22664523.277  
                 120504132.122                   120504132.122    23141549.139  
                 126767107.577                   126767107.577    24344300.227  
                 115415051.879                   115415051.879    22164250.728  
  26691369.483   140264020.673                                                  
  23610100.367   124071892.884                                                  
  23123246.114   121513451.851                                                  
  23393299.085   122932550.568                                                  
 21  8 31 19 19  4.0000000  0 16G 5G10G13G15G18G23G24G29C19C22C29C35
                                E 3E 5E 9E36
  23358322.957   122748790.328    23358325.119    95648401.419                  
  24476371.838   128624122.474    24476376.823   100226568.586                  
  23025274.513   120998613.093    23025275.943    94284628.021                  
  20813478.819   109375566.411    20813479.783    85227713.023                  
  20666299.521   108602131.704    20666300.861    84625038.341                  
  22079855.976   116030415.606    22079857.638    90413309.913                  
  21485287.520   112905879.397    21485292.184    87978590.125                  
  22392528.300   117673495.254    22392530.766    91693623.368                  
                 118021436.268                   118021436.268    22664777.947  
                 120503600.715                   120503600.715    23141447.107  
                 126770292.555                   126770292.555    24344911.866  
                 115416221.210                   115416221.210    22164475.288  
  26690996.843   140262062.477                                                  
  23610080.783   124071789.961                                                  
  23123611.964   121515374.364                                                  
  23393395.095   122933055.111                                                  
 21  8 31 19 19  5.0000000  0 16G 5G10G13G15G18G23G24G29C19C22C29C35
                                E 3E 5E 9E36
  23358671.402   122750621.324    23358673.565    95649828.165                  
  24476022.427   128622286.225    24476027.377   100225137.749                  
  23025895.659   121001877.192    23025897.088    94287171.469                  
  20813885.875   109377705.524    20813886.840    85229379.862                  
  20665959.455   108600344.681    20665960.796    84623645.851                  
  22079615.334   116029150.991    22079616.995    90412324.503                  
  21484863.381   112903650.516    21484868.027    87976853.333                  
  22393080.882   117676399.114    22393083.366    91695886.114                  
                 118022762.375                   118022762.375    22665032.598  
                 120503069.459                   120503069.459    23141345.057  
                 126773477.664                   126773477.664    24345523.523  
                 115417391.047                   115417391.047    22164699.937  
  26690624.256   140260104.493                                                  
  23610061.234   124071687.320                                                  
  23123977.814   121517296.962                                                  
  23393491.177   122933560.074                                                  
 21  8 31 19 19  6.0000000  0 16G 5G10G13G15G18G23G24G29C19C22C29C35
                                E 3E 5E 9E36
  23359019.813   122752452.352    23359021.975    95651254.938                  
  24475672.980   128620449.977    24475677.966   100223706.906                  
  23026516.822   121005141.469    23026518.251    94289715.062                  
  20814293.003   109379844.980    20814293.968    85231046.973                  
  20665619.479   108598558.059    20665620.820    84622253.683                  
  22079374.691   116027886.446    22079376.353    90411339.144                  
  21484439.313   112901422.061    21484443.959    87975116.879                  
  22393633.517   117679303.249    22393636.001    91698149.079                  
                 118024088.508                   118024088.508    22665287.268  
                 120502538.361                   120502538.361    23141243.079  
                 126776662.901                   126776662.901    24346135.215  
                 115418561.391                   115418561.391    22164924.676  
  26690251.704   140258146.755                                                  
  23610041.774   124071584.972                                                  
  23124343.700   121519219.665                                                  
  23393587.366   122934065.485                                                  
 21  8 31 19 19  7.0000000  0 16G 5G10G13G15G18G23G24G29C19C22C29C35
                                E 3E 5E 9E36
  23359368.276   122754283.422    23359370.421    95652681.747                  
  24475323.552   128618613.722    24475328.519   100222276.063                  
  23027138.038   121008405.926    23027139.468    94292258.792                  
  20814700.202   109381984.774    20814701.167    85232714.343                  
  20665279.575   108596771.849    20665280.897    84620861.828                  
  22079134.085   116026621.948    22079135.747    90410353.821                  
  21484015.335   112899194.043    21484019.981    87973380.763                  
  22394186.224   117682207.652    22394188.672    91700412.245                  
                 118025414.676                   118025414.676    22665541.937  
                 120502007.419                   120502007.419    23141141.118  
                 126779848.278                   126779848.278    24346746.943  
                 115419732.240                   115419732.240    22165149.540  
  26689879.207   140256189.243                                                  
  23610022.333   124071482.915                                                  
  23124709.587   121521142.462                                                  
  23393683.627   122934571.308                                                  
 21  8 31 19 19  8.0000000  0 16G 5G10G13G15G18G23G24G29C19C22C29C35
                                E 3E 5E 9E36
  23359716.722   122756114.547    23359718.885    95654108.593                  
  24474974.123   128616777.444    24474979.108   100220845.195                  
  23027759.273   121011670.538    23027760.702    94294802.648                  
  20815107.455   109384124.985    20815108.420    85234382.040                  
  20664939.742   108594985.997    20664941.082    84619470.257                  
  22078893.461   116025357.489    22078895.123    90409368.527                  
  21483591.446   112896966.489    21483596.092    87971645.004                  
  22394738.967   117685112.313    22394741.415    91702675.617                  
                 118026740.872                   118026740.872    22665796.624  
                 120501476.626                   120501476.626    23141039.175  
                 126783033.777                   126783033.777    24347358.671  
                 115420903.595                   115420903.595    22165374.475  
  26689506.745   140254231.899                                                  
  23610002.981   124071381.163                                                  
  23125075.508   121523065.333                                                  
  23393779.941   122935077.468                                                  
 21  8 31 19 19  9.0000000  0 16G 5G10G13G15G18G23G24G29C19C22C29C35
                                E 3E 5E 9E36
  23360065.186   122757945.716    23360067.348    95655535.476                  
  24474624.676   128614941.157    24474629.662   100219414.324                  
  23028380.543   121014935.347    23028381.972    94297346.653                  
  20815514.797   109386265.512    20815515.744    85236049.985                  
  20664599.980   108593200.567    20664601.320    84618079.011                  
  22078652.854   116024093.093    22078654.498    90408383.289                  
  21483167.646   112894739.357    21483172.274    87969909.579                  
  22395291.745   117688017.261    22395294.229    91704939.211                  
                 118028067.101                   118028067.101    22666051.311  
                 120500945.992                   120500945.992    23140937.286  
                 126786219.415                   126786219.415    24347970.453  
                 115422075.450                   115422075.450    22165599.518  
  26689134.301   140252274.812                                                  
  23609983.682   124071279.684                                                  
  23125441.448   121524988.315                                                  
  23393876.344   122935584.118                                                  
 21  8 31 19 19 10.0000000  0 16G 5G10G13G15G18G23G24G29C19C22C29C35
                                E 3E 5E 9E36
  23360413.668   122759776.926    23360415.812    95656962.391                  
  24474275.248   128613104.856    24474280.215   100217983.442                  
  23029001.867   121018200.331    23029003.278    94299890.792                  
  20815922.193   109388406.398    20815923.140    85237718.208                  
  20664260.308   108591415.527    20664261.648    84616688.075                  
  22078412.266   116022828.754    22078413.892    90407398.085                  
  21482743.918   112892512.683    21482748.564    87968174.508                  
  22395844.595   117690922.491    22395847.060    91707203.027                  
                 118029393.359                   118029393.359    22666305.998  
                 120500415.513                   120500415.513    23140835.397  
                 126789405.181                   126789405.181    24348582.235  
                 115423247.817                   115423247.817    22165824.667  
  26688761.928   140250317.940                                                  
  23609964.419   124071178.501                                                  
  23125807.388   121526911.394                                                  
  23393972.837   122936091.179                                                  
 21  8 31 19 19 11.0000000  0 16G 5G10G13G15G18G23G24G29C19C22C29C35
                                E 3E 5E 9E36
  23360762.114   122761608.172    23360764.276    95658389.335                  
  24473925.801   128611268.536    24473930.786   100216552.546                  
  23029623.173   121021465.480    23029624.620    94302435.062                  
  20816329.660   109390547.630    20816330.607    85239386.696                  
  20663920.707   108589630.878    20663922.012    84615297.437                  
  22078171.677   116021564.462    22078173.321    90406412.926                  
  21482320.261   112890286.434    21482324.925    87966439.769                  
  22396397.498   117693827.985    22396399.964    91709467.044                  
                 118030719.649                   118030719.649    22666560.703  
                 120499885.185                   120499885.185    23140733.561  
                 126792591.078                   126792591.078    24349194.052  
                 115424420.684                   115424420.684    22166049.906  
  26688389.573   140248361.288                                                  
  23609945.228   124071077.597                                                  
  23126173.363   121528834.567                                                  
  23394069.401   122936598.651                                                  
 21  8 31 19 19 12.0000000  0 16G 5G10G13G15G18G23G24G29C19C22C29C35
                                E 3E 5E 9E36
  23361110.613   122763439.470    23361112.776    95659816.321                  
  24473576.354   128609432.203    24473581.340   100215121.641                  
  23030244.568   121024730.799    23030245.997    94304979.468                  
  20816737.181   109392689.220    20816738.146    85241055.469                  
  20663581.160   108587846.642    20663582.500    84613907.121                  
  22077931.107   116020300.228    22077932.733    90405427.809                  
  21481896.712   112888060.637    21481901.358    87964705.384                  
  22396950.437   117696733.758    22396952.921    91711731.282                  
                 118032045.965                   118032045.965    22666815.426  
                 120499355.011                   120499355.011    23140631.744  
                 126795777.106                   126795777.106    24349805.923  
                 115425594.057                   115425594.057    22166275.235  
  26688017.308   140246404.862                                                  
  23609926.073   124070976.993                                                  
  23126539.339   121530757.828                                                  
  23394166.054   122937106.542                                                  
 21  8 31 19 19 13.0000000  0 16G 5G10G13G15G18G23G24G29C19C22C29C35
                                E 3E 5E 9E36
  23361459.095   122765270.804    23361461.257    95661243.332                  
  24473226.926   128607595.860    24473231.893   100213690.723                  
  23030865.963   121027996.298    23030867.393    94307524.008                  
  20817144.774   109394831.156    20817145.739    85242724.508                  
  20663241.720   108586062.785    20663243.042    84612517.105                  
  22077690.518   116019036.047    22077692.180    90404442.731                  
  21481473.234   112885835.269    21481477.880    87962971.335                  
  22397503.447   117699639.804    22397505.913    91713995.731                  
                 118033372.316                   118033372.316    22667070.114  
                 120498824.997                   120498824.997    23140529.962  
                 126798963.265                   126798963.265    24350417.777  
                 115426767.936                   115426767.936    22166500.688  
  26687645.043   140244448.659                                                  
  23609906.988   124070876.667                                                  
  23126905.332   121532681.183                                                  
  23394262.779   122937614.862                                                  
 21  8 31 19 19 14.0000000  0 16G 5G10G13G15G18G23G24G29C19C22C29C35
                                E 3E 5E 9E36
  23361807.595   122767102.184    23361809.757    95662670.379                  
  24472877.479   128605759.509    24472882.447   100212259.804                  
  23031487.394   121031261.966    23031488.841    94310068.685                  
  20817552.438   109396973.450    20817553.402    85244393.828                  
  20662902.334   108584279.333    20662903.656    84611127.402                  
  22077449.983   116017771.919    22077451.627    90403457.696                  
  21481049.863   112883610.364    21481054.491    87961237.641                  
  22398056.494   117702546.132    22398058.977    91716260.398                  
                 118034698.696                   118034698.696    22667324.836  
                 120498295.134                   120498295.134    23140428.198  
                 126802149.557                   126802149.557    24351029.684  
                 115427942.324                   115427942.324    22166726.195  
  26687272.813   140242492.685                                                  
  23609887.940   124070776.637                                                  
  23127271.361   121534604.644                                                  
  23394359.594   122938123.587                                                  
 21  8 31 19 19 15.0000000  0 16G 5G10G13G15G18G23G24G29C19C22C29C35
                                E 3E 5E 9E36
  23362156.112   122768933.608    23362158.274    95664097.466                  
  24472528.015   128603923.145    24472533.000   100210828.872                  
  23032108.879   121034527.813    23032110.308    94312613.496                  
  20817960.173   109399116.090    20817961.138    85246063.418                  
  20662563.019   108582496.274    20662564.359    84609738.008                  
  22077209.413   116016507.844    22077211.074    90402472.707                  
  21480626.546   112881385.891    21480631.192    87959504.290                  
  22398609.611   117705452.726    22398612.077    91718525.277                  
                 118036025.108                   118036025.108    22667579.559  
                 120497765.425                   120497765.425    23140326.487  
                 126805335.981                   126805335.981    24351641.608  
                 115429117.212                   115429117.212    22166951.827  
  26686900.655   140240536.922                                                  
  23609868.963   124070676.898                                                  
  23127637.408   121536528.195                                                  
  23394456.480   122938632.737                                                  
 21  8 31 19 19 16.0000000  0 16G 5G10G13G15G18G23G24G29C19C22C29C35
                                E 3E 5E 9E36
  23362504.647   122770765.030    23362506.792    95665524.527                  
  24472178.568   128602086.700    24472183.535   100209397.839                  
  23032730.381   121037793.758    23032731.829    94315158.351                  
  20818367.980   109401259.044    20818368.945    85247733.227                  
  20662223.793   108580713.629    20662225.116    84608348.941                  
  22076968.896   116015243.827    22076970.540    90401487.759                  
  21480203.318   112879161.875    21480207.982    87957771.300                  
  22399162.783   117708359.620    22399165.267    91720790.396                  
                 118037351.552                   118037351.552    22667834.300  
                 120497235.876                   120497235.876    23140224.777  
                 126808522.532                   126808522.532    24352253.533  
                 115430292.606                   115430292.606    22167177.549  
  26686528.515   140238581.238                                                  
  23609850.040   124070577.464                                                  
  23128003.455   121538451.843                                                  
  23394553.437   122939142.292                                                  
 21  8 31 19 19 17.0000000  0 16G 5G10G13G15G18G23G24G29C19C22C29C35
                                E 3E 5E 9E36
  23362853.165   122772596.540    23362855.327    95666951.675                  
  24471829.121   128600250.308    24471834.089   100207966.891                  
  23033351.919   121041059.946    23033353.331    94317703.433                  
  20818775.840   109403402.386    20818776.805    85249403.368                  
  20661884.639   108578931.371    20661885.979    84606960.168                  
  22076728.361   116013979.860    22076730.022    90400502.847                  
  21479780.198   112876938.294    21479784.844    87956038.641                  
  22399715.972   117711266.770    22399718.456    91723055.702                  
                 118038678.019                   118038678.019    22668089.041  
                 120496706.473                   120496706.473    23140123.120  
                 126811709.214                   126811709.214    24352865.511  
                 115431468.509                   115431468.509    22167403.360  
  26686156.446   140236625.921                                                  
  23609831.152   124070478.301                                                  
  23128369.538   121540375.586                                                  
  23394650.502   122939652.273                                                  
 21  8 31 19 19 18.0000000  0 16G 5G10G13G15G18G23G24G29C19C22C29C35
                                E 3E 5E 9E36
  23363201.682   122774428.087    23363203.862    95668378.855                  
  24471479.657   128598413.895    24471484.624   100206535.922                  
  23033973.476   121044326.301    23033974.923    94320248.644                  
  20819183.772   109405546.094    20819184.737    85251073.788                  
  20661545.557   108577149.512    20661546.897    84605571.712                  
  22076487.844   116012715.949    22076489.505    90399517.984                  
  21479357.149   112874715.165    21479361.795    87954306.333                  
  22400269.268   117714174.189    22400271.716    91725321.224                  
                 118040004.524                   118040004.524    22668343.782  
                 120496177.229                   120496177.229    23140021.481  
                 126814896.027                   126814896.027    24353477.507  
                 115432644.909                   115432644.909    22167629.278  
  26685784.395   140234670.813                                                  
  23609812.354   124070379.433                                                  
  23128735.620   121542299.422                                                  
  23394747.620   122940162.694                                                  
 21  8 31 19 19 19.0000000  0 16G 5G10G13G15G18G23G24G29C19C22C29C35
                                E 3E 5E 9E36
  23363550.218   122776259.673    23363552.398    95669806.069                  
  24471130.192   128596577.482    24471135.160   100205104.953                  
  23034595.085   121047592.835    23034596.515    94322793.996                  
  20819591.776   109407690.137    20819592.740    85252744.476                  
  20661206.563   108575368.038    20661207.904    84604183.554                  
  22076247.344   116011452.085    22076249.006    90398533.160                  
  21478934.189   112872492.470    21478938.817    87952574.367                  
  22400822.565   117717081.875    22400825.049    91727586.958                  
                 118041331.056                   118041331.056    22668598.523  
                 120495648.140                   120495648.140    23139919.878  
                 126818082.974                   126818082.974    24354089.521  
                 115433821.821                   115433821.821    22167855.303  
  26685412.398   140232715.933                                                  
  23609793.592   124070280.859                                                  
  23129101.739   121544223.355                                                  
  23394844.845   122940673.535                                                  
 21  8 31 19 19 20.0000000  0 16G 5G10G13G15G18G23G24G29C19C22C29C35
                                E 3E 5E 9E36
  23363898.789   122778091.309    23363900.933    95671233.316                  
  24470780.728   128594741.036    24470785.695   100203673.961                  
  23035216.713   121050859.542    23035218.160    94325339.479                  
  20819999.833   109409834.538    20820000.797    85254415.437                  
  20660867.642   108573586.966    20660868.964    84602795.704                  
  22076006.845   116010188.268    22076008.507    90397548.372                  
  21478511.300   112870270.206    21478515.946    87950842.738                  
  22401375.933   117719989.840    22401378.416    91729852.902                  
                 118042657.616                   118042657.616    22668853.281  
                 120495119.202                   120495119.202    23139818.292  
                 126821270.046                   126821270.046    24354701.571  
                 115434999.236                   115434999.236    22168081.400  
  26685040.436   140230761.282                                                  
  23609774.883   124070182.555                                                  
  23129467.857   121546147.376                                                  
  23394942.124   122941184.765                                                  
 21  8 31 19 19 21.0000000  0 16G 5G10G13G15G18G23G24G29C19C22C29C35
                                E 3E 5E 9E36
  23364247.342   122779922.986    23364249.504    95672660.589                  
  24470431.263   128592904.585    24470436.249   100202242.960                  
  23035838.376   121054126.425    23035839.823    94327885.101                  
  20820407.979   109411979.297    20820408.944    85256086.676                  
  20660528.773   108571806.295    20660530.114    84601408.168                  
  22075766.364   116008924.513    22075768.026    90396563.625                  
  21478088.502   112868048.394    21478093.147    87949111.456                  
  22401929.354   117722898.078    22401931.838    91732119.059                  
                 118043984.211                   118043984.211    22669108.040  
                 120494590.421                   120494590.421    23139716.760  
                 126824457.254                   126824457.254    24355313.639  
                 115436177.154                   115436177.154    22168307.622  
  26684668.528   140228806.837                                                  
  23609756.245   124070084.542                                                  
  23129834.011   121548071.485                                                  
  23395039.474   122941696.425                                                  
 21  8 31 19 19 22.0000000  0 16G 5G10G13G15G18G23G24G29C19C22C29C35
                                E 3E 5E 9E36
  23364595.895   122781754.686    23364598.057    95674087.891                  
  24470081.799   128591068.122    24470086.766   100200811.950                  
  23036460.075   121057393.476    23036461.523    94330430.856                  
  20820816.179   109414124.403    20820817.144    85257758.186                  
  20660189.995   108570026.013    20660191.335    84600020.933                  
  22075525.883   116007660.807    22075527.544    90395578.917                  
  21477665.774   112865827.029    21477670.420    87947380.519                  
  22402482.811   117725806.586    22402485.295    91734385.427                  
                 118045310.832                   118045310.832    22669362.799  
                 120494061.794                   120494061.794    23139615.246  
                 126827644.591                   126827644.591    24355925.742  
                 115437355.575                   115437355.575    22168533.915  
  26684296.638   140226852.617                                                  
  23609737.644   124069986.816                                                  
  23130200.183   121549995.699                                                  
  23395136.914   122942208.506                                                  
 21  8 31 19 19 23.0000000  0 16G 5G10G13G15G18G23G24G29C19C22C29C35
                                E 3E 5E 9E36
  23364944.484   122783586.448    23364946.646    95675515.238                  
  24469732.317   128589231.645    24469737.284   100199380.933                  
  23037081.828   121060660.696    23037083.257    94332976.743                  
  20821224.432   109416269.860    20821225.397    85259429.969                  
  20659851.305   108568246.138    20659852.645    84598634.019                  
  22075285.419   116006397.158    22075287.081    90394594.257                  
  21477243.154   112863606.088    21477247.800    87945649.921                  
  22403036.358   117728715.376    22403038.842    91736652.012                  
                 118046637.489                   118046637.489    22669617.557  
                 120493533.321                   120493533.321    23139513.733  
                 126830832.055                   126830832.055    24356537.863  
                 115438534.504                   115438534.504    22168760.315  
  26683924.801   140224898.621                                                  
  23609719.096   124069889.392                                                  
  23130566.355   121551919.999                                                  
  23395234.461   122942720.999                                                  
 21  8 31 19 19 24.0000000  0 16G 5G10G13G15G18G23G24G29C19C22C29C35
                                E 3E 5E 9E36
  23365293.055   122785418.263    23365295.217    95676942.626                  
  24469382.834   128587395.161    24469387.820   100197949.907                  
  23037703.580   121063928.084    23037705.028    94335522.757                  
  20821632.775   109418415.673    20821633.740    85261102.031                  
  20659512.687   108566466.653    20659514.027    84597247.406                  
  22075044.956   116005133.555    22075046.618    90393609.634                  
  21476820.605   112861385.600    21476825.269    87943919.673                  
  22403589.940   117731624.420    22403592.406    91738918.800                  
                 118047964.171                   118047964.171    22669872.334  
                 120493004.999                   120493004.999    23139412.272  
                 126834019.653                   126834019.653    24357150.003  
                 115439713.937                   115439713.937    22168986.823  
  26683553.001   140222944.857                                                  
  23609700.619   124069792.241                                                  
  23130932.563   121553844.399                                                  
  23395332.062   122943233.923                                                  
 21  8 31 19 19 25.0000000  0 16G 5G10G13G15G18G23G24G29C19C22C29C35
                                E 3E 5E 9E36
  23365641.644   122787250.119    23365643.824    95678370.044                  
  24469033.388   128585558.648    24469038.337   100196518.860                  
  23038325.387   121067195.657    23038326.816    94338068.913                  
  20822041.172   109420561.831    20822042.137    85262774.362                  
  20659174.141   108564687.567    20659175.463    84595861.110                  
  22074804.528   116003870.011    22074806.154    90392625.054                  
  21476398.146   112859165.564    21476402.792    87942189.774                  
  22404143.558   117734533.750    22404146.042    91741185.807                  
                 118049290.883                   118049290.883    22670127.128  
                 120492476.837                   120492476.837    23139310.866  
                 126837207.379                   126837207.379    24357762.177  
                 115440893.876                   115440893.876    22169213.420  
  26683181.254   140220991.312                                                  
  23609682.178   124069695.384                                                  
  23131298.789   121555768.886                                                  
  23395429.734   122943747.246                                                  
 21  8 31 19 19 26.0000000  0 16G 5G10G13G15G18G23G24G29C19C22C29C35
                                E 3E 5E 9E36
  23365990.233   122789082.013    23365992.413    95679797.489                  
  24468683.905   128583722.136    24468688.855   100195087.816                  
  23038947.229   121070463.392    23038948.658    94340615.200                  
  20822449.658   109422708.351    20822450.605    85264446.977                  
  20658835.666   108562908.875    20658836.988    84594475.118                  
  22074564.082   116002606.519    22074565.744    90391640.515                  
  21475975.758   112856945.965    21475980.421    87940460.219                  
  22404697.248   117737443.347    22404699.714    91743453.028                  
                 118050617.629                   118050617.629    22670381.923  
                 120491948.824                   120491948.824    23139209.459  
                 126840395.233                   126840395.233    24358374.388  
                 115442074.315                   115442074.315    22169440.107  
  26682809.560   140219037.976                                                  
  23609663.809   124069598.820                                                  
  23131665.014   121557693.474                                                  
  23395527.495   122944261.003                                                  
 21  8 31 19 19 27.0000000  0 16G 5G10G13G15G18G23G24G29C19C22C29C35
                                E 3E 5E 9E36
  23366338.857   122790913.951    23366341.019    95681224.973                  
  24468334.405   128581885.593    24468339.373   100193656.747                  
  23039569.089   121073731.296    23039570.518    94343161.616                  
  20822858.179   109424855.214    20822859.144    85266119.855                  
  20658497.262   108561130.587    20658498.602    84593089.437                  
  22074323.655   116001343.081    22074325.317    90390656.020                  
  21475553.477   112854726.808    21475558.123    87938731.008                  
  22405250.955   117740353.219    22405253.439    91745720.456                  
                 118051944.402                   118051944.402    22670636.699  
                 120491420.964                   120491420.964    23139108.106  
                 126843583.224                   126843583.224    24358986.599  
                 115443255.263                   115443255.263    22169666.900  
  26682437.884   140217084.872                                                  
  23609645.475   124069502.538                                                  
  23132031.276   121559618.155                                                  
  23395625.346   122944775.172                                                  
 21  8 31 19 19 28.0000000  0 16G 5G10G13G15G18G23G24G29C19C22C29C35
                                E 3E 5E 9E36
  23366687.464   122792745.930    23366689.644    95682652.489                  
  24467984.923   128580049.054    24467989.908   100192225.675                  
