     2.11           OBSERVATION DATA    M (MIXED)           RINEX VERSION / TYPE
CONVBIN 2.4.3                           20210902 201812 UTC PGM / RUN BY / DATE 
log: logs/21_09_01_11_42_59_fmyr_SW.rtcm                    COMMENT             
format: RTCM 3, station ID: 3060                            COMMENT             
3060                                                        MARKER NAME         
                                                            MARKER NUMBER       
                                                            OBSERVER / AGENCY   
                    SWFT                                    REC # / TYPE / VERS 
                    NULL                                    ANT # / TYPE        
   813911.2619 -5693305.6189  2748430.1503                  APPROX POSITION XYZ 
        0.0000        0.0000        0.0000                  ANTENNA: DELTA H/E/N
     1     1                                                WAVELENGTH FACT L1/2
     5    C1    L1    P2    L2    C2                        # / TYPES OF OBSERV 
  2021     9     1    11    43    4.0000000     GPS         TIME OF FIRST OBS   
  2021     9     1    12    13    2.0000000     GPS         TIME OF LAST OBS    
                                                            END OF HEADER       
 21  9  1 11 43  4.0000000  0 12G 2G 6G14G17G19G24G30C23C27C28C33E13
  22805893.356   119845796.007    22805891.533    93386339.216                  
  20552441.412   108003771.317    20552444.253    84158772.884                  
  20764457.995   109117970.281    20764458.460    85026993.671                  
  21769051.840   114397149.887    21769051.446    89140638.297                  
  21123120.057   111002765.234    21123117.877    86495666.773                  
  24111481.332   126706649.468    24111484.245    98732444.059                  
  24330041.766   127855173.867    24330045.053    99627393.508                  
                 126145514.762                   126145514.762    24224912.907  
                 121638146.699                   121638146.699    23359326.606  
                 117766403.980                   117766403.980    22615798.687  
                 129253083.505                   129253083.505    24821730.001  
  24661083.446   129594826.561                                                  
 21  9  1 11 43  5.0000000  0 12G 2G 6G14G17G19G24G30C23C27C28C33E13
  22805529.239   119843882.594    22805527.416    93384848.247                  
  20552333.412   108003203.780    20552336.289    84158330.647                  
  20764727.085   109119384.289    20764727.532    85028095.493                  
  21769148.600   114397658.309    21769148.207    89141034.468                  
  21123061.929   111002459.770    21123059.766    86495428.749                  
  24111359.519   126706009.303    24111362.414    98731945.231                  
  24330659.319   127858419.176    24330662.625    99629922.315                  
                 126148491.489                   126148491.489    24225484.537  
                 121637201.517                   121637201.517    23359145.092  
                 117767239.595                   117767239.595    22615959.168  
                 129251773.952                   129251773.952    24821478.512  
  24661434.679   129596672.335                                                  
 21  9  1 11 43  6.0000000  0 12G 2G 6G14G17G19G24G30C23C27C28C33E13
  22805165.193   119841969.572    22805163.388    93383357.575                  
  20552225.519   108002636.756    20552228.360    84157888.809                  
  20764996.264   109120798.820    20764996.728    85029197.722                  
  21769245.343   114398166.755    21769244.968    89141430.657                  
  21123003.819   111002154.411    21123001.639    86495190.810                  
  24111237.813   126705369.685    24111240.708    98731446.825                  
  24331276.855   127861664.395    24331280.160    99632451.059                  
                 126151468.390                   126151468.390    24226056.221  
                 121636256.456                   121636256.456    23358963.597  
                 117768075.262                   117768075.262    22616119.632  
                 129250464.745                   129250464.745    24821227.095  
  24661785.949   129598518.165                                                  
 21  9  1 11 43  7.0000000  0 12G 2G 6G14G17G19G24G30C23C27C28C33E13
  22804801.237   119840056.919    22804799.414    93381867.199                  
  20552117.715   108002070.255    20552120.556    84157447.379                  
  20765265.514   109122213.866    20765265.979    85030300.358                  
  21769342.104   114398675.216    21769341.693    89141826.863                  
  21122945.744   111001849.164    21122943.564    86494952.952                  
  24111116.196   126704730.594    24111119.073    98730948.832                  
  24331894.408   127864909.531    24331897.696    99634979.734                  
                 126154445.465                   126154445.465    24226627.940  
                 121635311.532                   121635311.532    23358782.137  
                 117768910.982                   117768910.982    22616280.114  
                 129249155.879                   129249155.879    24820975.731  
  24662137.182   129600364.039                                                  
 21  9  1 11 43  8.0000000  0 12G 2G 6G14G17G19G24G30C23C27C28C33E13
  22804437.352   119838144.668    22804435.547    93380377.138                  
  20552010.000   108001504.188    20552012.842    84157006.288                  
  20765534.908   109123629.441    20765535.354    85031403.406                  
  21769438.865   114399183.688    21769438.454    89142223.077                  
  21122887.652   111001544.034    21122885.508    86494715.191                  
  24110994.687   126704092.017    24110997.564    98730451.237                  
  24332511.908   127868154.564    24332515.196    99637508.332                  
                 126157422.715                   126157422.715    24227199.695  
                 121634366.727                   121634366.727    23358600.695  
                 117769746.754                   117769746.754    22616440.614  
                 129247847.364                   129247847.364    24820724.457  
  24662488.487   129602210.042                                                  
 21  9  1 11 43  9.0000000  0 12G 2G 6G14G17G19G24G30C23C27C28C33E13
  22804073.539   119836232.781    22804071.716    93378887.355                  
  20551902.375   108000938.656    20551905.234    84156565.618                  
  20765804.372   109125045.530    20765804.837    85032506.852                  
  21769535.625   114399692.187    21769535.232    89142619.308                  
  21122829.613   111001239.016    21122827.451    86494477.512                  
  24110873.267   126703453.980    24110876.162    98729954.070                  
  24333129.408   127871399.500    24333132.696    99640036.856                  
                 126160400.139                   126160400.139    24227771.486  
                 121633422.050                   121633422.050    23358419.288  
                 117770582.578                   117770582.578    22616601.149  
                 129246539.187                   129246539.187    24820473.237  
  24662839.756   129604056.050                                                  
 21  9  1 11 43 10.0000000  0 12G 2G 6G14G17G19G24G30C23C27C28C33E13
  22803709.779   119834321.281    22803707.956    93377397.875                  
  20551794.857   108000373.636    20551797.716    84156125.341                  
  20766073.945   109126462.141    20766074.391    85033610.700                  
  21769632.404   114400200.707    21769631.993    89143015.559                  
  21122771.593   111000934.106    21122769.448    86494239.918                  
  24110751.954   126702816.474    24110754.831    98729457.308                  
  24333746.872   127874644.343    24333750.160    99642565.300                  
                 126163377.741                   126163377.741    24228343.295  
                 121632477.499                   121632477.499    23358237.900  
                 117771418.458                   117771418.458    22616761.666  
                 129245231.356                   129245231.356    24820222.087  
  24663191.061   129605902.138                                                  
 21  9  1 11 43 11.0000000  0 12G 2G 6G14G17G19G24G30C23C27C28C33E13
  22803346.127   119832410.160    22803344.286    93375908.688                  
  20551687.447   107999809.110    20551690.288    84155685.450                  
  20766343.624   109127879.253    20766344.088    85034714.946                  
  21769729.165   114400709.238    21769728.772    89143411.817                  
  21122713.608   111000629.296    21122711.428    86494002.411                  
  24110630.749   126702179.499    24110633.643    98728960.968                  
  24334364.318   127877889.095    24334367.624    99645093.676                  
                 126166355.514                   126166355.514    24228915.139  
                 121631533.075                   121631533.075    23358056.547  
                 117772254.387                   117772254.387    22616922.202  
                 129243923.867                   129243923.867    24819970.974  
  24663542.366   129607748.276                                                  
 21  9  1 11 43 12.0000000  0 12G 2G 6G14G17G19G24G30C23C27C28C33E13
  22802982.492   119830499.417    22802980.687    93374419.797                  
  20551580.125   107999245.089    20551582.967    84155245.953                  
  20766613.375   109129296.891    20766613.839    85035819.599                  
  21769825.943   114401217.792    21769825.533    89143808.093                  
  21122655.623   111000324.601    21122653.443    86493764.981                  
  24110509.615   126701543.047    24110512.527    98728465.031                  
  24334981.764   127881133.738    24334985.052    99647621.969                  
                 126169333.465                   126169333.465    24229487.037  
                 121630588.779                   121630588.779    23357875.177  
                 117773090.371                   117773090.371    22617082.737  
                 129242616.728                   129242616.728    24819719.968  
  24663893.671   129609594.487                                                  
 21  9  1 11 43 13.0000000  0 13G 2G 3G 6G14G17G19G24G30C23C27C28C33
                                E13
  22802618.982   119828589.059    22802617.160    93372931.206                  
  23724590.753   124673529.774    23724593.755    97148195.332                  
  20551472.875   107998681.569    20551475.717    84154806.847                  
  20766883.233   109130715.046    20766883.715    85036924.652                  
  21769922.722   114401726.367    21769922.311    89144204.383                  
  21122597.656   111000020.017    21122595.476    86493527.645                  
  24110388.623   126700907.140    24110391.500    98727969.519                  
  24335599.175   127884378.296    24335602.480    99650150.199                  
                 126172311.590                   126172311.590    24230058.953  
                 121629644.605                   121629644.605    23357693.878  
                 117773926.405                   117773926.405    22617243.272  
                 129241309.929                   129241309.929    24819468.997  
  24664245.012   129611440.754                                                  
 21  9  1 11 43 14.0000000  0 13G 2G 3G 6G14G17G19G24G30C23C27C28C33
                                E13
  22802255.526   119826679.079    22802253.704    93371442.911                  
  23724950.099   124675418.103    23724953.101    97149666.758                  
  20551365.733   107998118.554    20551368.574    84154368.134                  
  20767153.216   109132133.722    20767153.680    85038030.116                  
  21770019.501   114402234.960    21770019.108    89144600.687                  
  21122539.724   110999715.547    21122537.544    86493290.394                  
  24110267.704   126700271.758    24110270.599    98727474.415                  
  24336216.585   127887622.754    24336219.873    99652678.348                  
                 126175289.887                   126175289.887    24230630.905  
                 121628700.562                   121628700.562    23357512.578  
                 117774762.497                   117774762.497    22617403.861  
                 129240003.473                   129240003.473    24819218.116  
  24664596.353   129613287.088                                                  
 21  9  1 11 43 15.0000000  0 13G 2G 3G 6G14G17G19G24G30C23C27C28C33
                                E13
  22801892.142   119824769.472    22801890.319    93369954.907                  
  23725309.535   124677306.969    23725312.537    97151138.602                  
  20551258.697   107997556.046    20551261.539    84153929.816                  
  20767423.288   109133552.918    20767423.735    85039135.983                  
  21770116.279   114402743.570    21770115.904    89144997.011                  
  21122481.793   110999411.192    21122479.649    86493053.234                  
  24110146.891   126699636.905    24110149.786    98726979.726                  
  24336833.960   127890867.124    24336837.266    99655206.426                  
                 126178268.358                   126178268.358    24231202.875  
                 121627756.644                   121627756.644    23357331.297  
                 117775598.635                   117775598.635    22617564.414  
                 129238697.366                   129238697.366    24818967.289  
  24664947.711   129615133.476                                                  
 21  9  1 11 43 16.0000000  0 13G 2G 3G 6G14G17G19G24G30C23C27C28C33
                                E13
  22801528.811   119822860.215    22801527.006    93368467.153                  
  23725669.077   124679196.355    23725672.079    97152610.853                  
  20551151.733   107996994.035    20551154.592    84153491.890                  
  20767693.432   109134972.634    20767693.897    85040242.253                  
  21770213.076   114403252.198    21770212.683    89145393.340                  
  21122423.897   110999106.922    21122421.735    86492816.136                  
  24110026.204   126699002.565    24110029.081    98726485.433                  
  24337451.335   127894111.409    24337454.623    99657734.450                  
                 126181247.004                   126181247.004    24231774.898  
                 121626812.851                   121626812.851    23357150.052  
                 117776434.829                   117776434.829    22617725.003  
                 129237391.602                   129237391.602    24818716.533  
  24665299.088   129616979.913                                                  
 21  9  1 11 43 17.0000000  0 13G 2G 3G 6G14G17G19G24G30C23C27C28C33
                                E13
  22801165.587   119820951.368    22801163.765    93366979.743                  
  23726028.727   124681086.286    23726031.711    97154083.520                  
  20551044.895   107996432.517    20551047.736    84153054.343                  
  20767963.701   109136392.851    20767964.166    85041348.923                  
  21770309.872   114403760.844    21770309.479    89145789.692                  
  21122366.020   110998802.781    21122363.857    86492579.145                  
  24109905.588   126698368.786    24109908.483    98725991.579                  
  24338068.674   127897355.586    24338071.979    99660262.379                  
                 126184225.824                   126184225.824    24232346.957  
                 121625869.183                   121625869.183    23356968.842  
                 117777271.075                   117777271.075    22617885.592  
                 129236086.184                   129236086.184    24818465.848  
  24665650.464   129618826.423                                                  
 21  9  1 11 43 18.0000000  0 13G 2G 3G 6G14G17G19G24G30C23C27C28C33
                                E13
  22800802.417   119819042.917    22800800.595    93365492.633                  
  23726388.466   124682976.761    23726391.486    97155556.616                  
  20550938.145   107995871.509    20550940.986    84152617.192                  
  20768234.059   109137813.594    20768234.524    85042455.988                  
  21770406.669   114404269.513    21770406.276    89146186.051                  
  21122308.177   110998498.743    21122305.997    86492342.226                  
  24109785.079   126697735.526    24109787.974    98725498.125                  
  24338685.995   127900599.660    24338689.301    99662790.222                  
                 126187204.821                   126187204.821    24232919.033  
                 121624925.643                   121624925.643    23356787.632  
                 117778107.374                   117778107.374    22618046.199  
                 129234781.109                   129234781.109    24818215.217  
  24666001.859   129620672.984                                                  
 21  9  1 11 43 19.0000000  0 13G 2G 3G 6G14G17G19G24G30C23C27C28C33
                                E13
  22800439.319   119817134.836    22800437.496    93364005.817                  
  23726748.313   124684867.778    23726751.315    97157030.132                  
  20550831.485   107995311.000    20550834.326    84152180.429                  
  20768504.525   109139234.864    20768504.972    85043563.469                  
  21770503.465   114404778.197    21770503.072    89146582.425                  
  21122250.335   110998194.825    21122248.155    86492105.406                  
  24109664.678   126697102.809    24109667.555    98725005.095                  
  24339303.316   127903843.648    24339306.622    99665318.003                  
                 126190183.988                   126190183.988    24233491.164  
                 121623982.232                   121623982.232    23356606.476  
                 117778943.727                   117778943.727    22618206.824  
                 129233476.378                   129233476.378    24817964.658  
  24666353.253   129622519.614                                                  
 21  9  1 11 43 20.0000000  0 13G 2G 3G 6G14G17G19G24G30C23C27C28C33
                                E13
  22800076.292   119815227.136    22800074.487    93362519.298                  
  23727108.266   124686759.323    23727111.268    97158504.063                  
  20550724.914   107994750.996    20550727.755    84151744.062                  
  20768775.080   109140656.637    20768775.544    85044671.344                  
  21770600.262   114405286.901    21770599.887    89146978.820                  
  21122192.511   110997891.013    21122190.367    86491868.667                  
  24109544.384   126696470.603    24109547.260    98724512.469                  
  24339920.619   127907087.534    24339923.907    99667845.707                  
                 126193163.331                   126193163.331    24234063.312  
                 121623038.942                   121623038.942    23356425.320  
                 117779780.130                   117779780.130    22618367.448  
                 129232171.992                   129232171.992    24817714.152  
  24666704.683   129624366.298                                                  
 21  9  1 11 43 21.0000000  0 13G 2G 3G 6G14G17G19G24G30C23C27C28C33
                                E13
  22799713.336   119813319.824    22799711.514    93361033.083                  
  23727468.327   124688651.403    23727471.311    97159978.411                  
  20550618.432   107994191.487    20550621.274    84151308.082                  
  20769045.724   109142078.947    20769046.206    85045779.633                  
  21770697.076   114405795.632    21770696.683    89147375.232                  
  21122134.741   110997587.312    21122132.561    86491632.020                  
  24109424.179   126695838.937    24109427.056    98724020.261                  
  24340537.887   127910331.335    24340541.175    99670373.344                  
                 126196142.849                   126196142.849    24234635.496  
                 121622095.783                   121622095.783    23356244.199  
                 117780616.583                   117780616.583    22618528.055  
                 129230867.952                   129230867.952    24817463.736  
  24667056.095   129626213.052                                                  
 21  9  1 11 43 22.0000000  0 13G 2G 3G 6G14G17G19G24G30C23C27C28C33
                                E13
  22799350.488   119811412.899    22799348.647    93359547.165                  
  23727828.477   124690544.034    23727831.479    97161453.189                  
  20550512.058   107993632.489    20550514.917    84150872.497                  
  20769316.475   109143501.755    20769316.940    85046888.317                  
  21770793.873   114406304.374    21770793.497    89147771.657                  
  21122076.952   110997283.723    21122074.808    86491395.457                  
  24109304.081   126695207.801    24109306.958    98723528.469                  
  24341155.136   127913575.048    24341158.442    99672900.906                  
                 126199122.539                   126199122.539    24235207.716  
                 121621152.746                   121621152.746    23356063.097  
                 117781453.093                   117781453.093    22618688.697  
                 129229564.259                   129229564.259    24817213.373  
  24667407.543   129628059.853                                                  
 21  9  1 11 43 23.0000000  0 13G 2G 3G 6G14G17G19G24G30C23C27C28C33
                                E13
  22798987.657   119809506.347    22798985.835    93358061.540                  
  23728188.717   124692437.188    23728191.736    97162928.371                  
  20550405.773   107993073.982    20550408.632    84150437.296                  
  20769587.334   109144925.086    20769587.799    85047997.406                  
  21770890.705   114406813.137    21770890.294    89148168.093                  
  21122019.218   110996980.251    21122017.038    86491158.985                  
  24109184.073   126694577.194    24109186.967    98723037.085                  
  24341772.386   127916818.644    24341775.674    99675428.387                  
                 126202102.403                   126202102.403    24235779.953  
                 121620209.837                   121620209.837    23355882.012  
                 117782289.653                   117782289.653    22618849.358  
                 129228260.911                   129228260.911    24816963.081  
  24667758.973   129629906.721                                                  
 21  9  1 11 43 24.0000000  0 13G 2G 3G 6G14G17G19G24G30C23C27C28C33
                                E13
  22798624.934   119807600.176    22798623.094    93356576.214                  
  23728549.081   124694330.884    23728552.101    97164403.981                  
  20550299.595   107992515.988    20550302.437    84150002.500                  
  20769858.282   109146348.945    20769858.747    85049106.911                  
  21770987.519   114407321.923    21770987.126    89148564.548                  
  21121961.483   110996676.867    21121959.303    86490922.582                  
  24109064.171   126693947.124    24109067.066    98722546.121                  
  24342389.600   127920062.169    24342392.906    99677955.809                  
                 126205082.438                   126205082.438    24236352.262  
                 121619267.050                   121619267.050    23355700.963  
                 117783126.266                   117783126.266    22619010.018  
                 129226957.907                   129226957.907    24816712.844  
  24668110.439   129631753.657                                                  
 21  9  1 11 43 25.0000000  0 13G 2G 3G 6G14G17G19G24G30C23C27C28C33
                                E13
  22798262.282   119805694.390    22798260.442    93355091.184                  
  23728909.535   124696225.117    23728912.555    97165880.005                  
  20550193.525   107991958.489    20550196.366    84149568.086                  
  20770129.337   109147773.320    20770129.802    85050216.809                  
  21771084.334   114407830.718    21771083.941    89148961.011                  
  21121903.784   110996373.610    21121901.604    86490686.277                  
  24108944.377   126693317.585    24108947.254    98722055.574                  
  24343006.796   127923305.582    24343010.102    99680483.140                  
                 126208062.648                   126208062.648    24236924.571  
                 121618324.394                   121618324.394    23355519.932  
                 117783962.931                   117783962.931    22619170.696  
                 129225655.245                   129225655.245    24816462.677  
  24668461.923   129633600.643                                                  
 21  9  1 11 43 26.0000000  0 13G 2G 3G 6G14G17G19G24G30C23C27C28C33
                                E13
  22797899.684   119803788.973    22797897.861    93353606.446                  
  23729270.114   124698119.891    23729273.116    97167356.449                  
  20550087.526   107991401.484    20550090.367    84149134.055                  
  20770400.482   109149198.212    20770400.946    85051327.114                  
  21771181.166   114408339.540    21771180.773    89149357.496                  
  21121846.085   110996070.458    21121843.922    86490450.055                  
  24108824.673   126692688.563    24108827.568    98721565.426                  
  24343623.974   127926548.905    24343627.280    99683010.407                  
                 126211043.036                   126211043.036    24237496.916  
                 121617381.860                   121617381.860    23355338.937  
                 117784799.648                   117784799.648    22619331.375  
                 129224352.933                   129224352.933    24816212.582  
  24668813.406   129635447.700                                                  
 21  9  1 11 43 27.0000000  0 13G 2G 3G 6G14G17G19G24G30C23C27C28C33
                                E13
  22797537.157   119801883.938    22797535.335    93352122.001                  
  23729630.782   124700015.186    23729633.784    97168833.305                  
  20549981.616   107990844.995    20549984.457    84148700.426                  
  20770671.716   109150623.617    20770672.180    85052437.820                  
  21771277.998   114408848.376    21771277.605    89149753.992                  
  21121788.421   110995767.417    21121786.241    86490213.922                  
  24108705.076   126692060.098    24108707.988    98721075.711                  
  24344241.152   127929792.122    24344244.458    99685537.586                  
                 126214023.589                   126214023.589    24238069.297  
                 121616439.454                   121616439.454    23355157.959  
                 117785636.417                   117785636.417    22619492.089  
                 129223050.964                   129223050.964    24815962.559  
  24669164.908   129637294.812                                                  
 21  9  1 11 43 28.0000000  0 13G 2G 3G 6G14G17G19G24G30C23C27C28C33
                                E13
  22797174.720   119799979.290    22797172.897    93350637.859                  
  23729991.540   124701911.034    23729994.542    97170310.589                  
  20549875.814   107990288.999    20549878.655    84148267.184                  
  20770943.075   109152049.542    20770943.539    85053548.930                  
  21771374.813   114409357.230    21771374.437    89150150.503                  
  21121730.776   110995464.491    21121728.596    86489977.876                  
  24108585.585   126691432.132    24108588.480    98720586.391                  
  24344858.295   127933035.254    24344861.601    99688064.702                  
                 126217004.319                   126217004.319    24238641.713  
                 121615497.177                   121615497.177    23354977.000  
                 117786473.239                   117786473.239    22619652.785  
                 129221749.343                   129221749.343    24815712.607  
  24669516.392   129639141.988                                                  
 21  9  1 11 43 29.0000000  0 13G 2G 3G 6G14G17G19G24G30C23C27C28C33
                                E13
  22796812.354   119798075.021    22796810.531    93349154.016                  
  23730352.423   124703807.409    23730355.425    97171788.282                  
  20549770.118   107989733.508    20549772.960    84147834.336                  
  20771214.523   109153475.983    20771214.988    85054660.445                  
  21771471.663   114409866.111    21771471.287    89150547.031                  
  21121673.166   110995161.677    21121670.986    86489741.914                  
  24108466.202   126690804.714    24108469.079    98720097.493                  
  24345475.419   127936278.286    24345478.725    99690591.738                  
                 126219985.227                   126219985.227    24239214.183  
                 121614555.021                   121614555.021    23354796.076  
                 117787310.113                   117787310.113    22619813.481  
                 129220448.069                   129220448.069    24815462.709  
  24669867.911   129640989.223                                                  
 21  9  1 11 43 30.0000000  0 13G 2G 3G 6G14G17G19G24G30C23C27C28C33
                                E13
  22796450.060   119796171.136    22796448.237    93347670.469                  
  23730713.377   124705704.325    23730716.379    97173266.398                  
  20549664.495   107989178.516    20549667.336    84147401.870                  
  20771486.061   109154902.950    20771486.525    85055772.362                  
  21771568.495   114410375.011    21771568.120    89150943.577                  
  21121615.538   110994858.968    21121613.376    86489506.039                  
  24108346.909   126690177.831    24108349.786    98719609.012                  
  24346092.544   127939521.218    24346095.832    99693118.700                  
                 126222966.301                   126222966.301    24239786.653  
                 121613612.993                   121613612.993    23354615.152  
                 117788147.040                   117788147.040    22619974.213  
                 129219147.138                   129219147.138    24815212.864  
  24670219.466   129642836.526                                                  
 21  9  1 11 43 31.0000000  0 13G 2G 3G 6G14G17G19G24G30C23C27C28C33
                                E13
  22796087.837   119794267.633    22796085.996    93346187.222                  
  23731074.457   124707601.780    23731077.459    97174744.934                  
  20549558.978   107988624.029    20549561.837    84146969.804                  
  20771757.705   109156330.421    20771758.152    85056884.684                  
  21771665.345   114410883.921    21771664.952    89151340.133                  
  21121557.964   110994556.382    21121555.802    86489270.258                  
  24108227.705   126689551.470    24108230.599    98719120.939                  
  24346709.633   127942764.059    24346712.939    99695645.585                  
                 126225947.552                   126225947.552    24240359.176  
                 121612671.087                   121612671.087    23354434.282  
                 117788984.018                   117788984.018    22620134.945  
                 129217846.556                   129217846.556    24814963.109  
  24670571.004   129644683.882                                                  
 21  9  1 11 43 32.0000000  0 13G 2G 3G 6G14G17G19G24G30C23C27C28C33
                                E13
  22795725.685   119792364.508    22795723.862    93344704.265                  
  23731435.643   124709499.773    23731438.645    97176223.887                  
  20549453.569   107988070.043    20549456.428    84146538.125                  
  20772029.440   109157758.420    20772029.904    85057997.407                  
  21771762.195   114411392.851    21771761.802    89151736.699                  
  21121500.408   110994253.899    21121498.246    86489034.555                  
  24108108.625   126688925.640    24108111.502    98718633.277                  
  24347326.704   127946006.792    24347329.992    99698172.390                  
                 126228928.971                   126228928.971    24240931.736  
                 121611729.309                   121611729.309    23354253.412  
                 117789821.049                   117789821.049    22620295.677  
                 129216546.314                   129216546.314    24814713.407  
  24670922.541   129646531.293                                                  
 21  9  1 11 43 33.0000000  0 13G 2G 3G 6G14G17G19G24G30C23C27C28C33
                                E13
  22795363.605   119790461.762    22795361.782    93343221.610                  
  23731796.901   124711398.285    23731799.921    97177703.249                  
  20549348.249   107987516.559    20549351.072    84146106.839                  
  20772301.281   109159186.933    20772301.746    85059110.536                  
  21771859.045   114411901.814    21771858.652    89152133.293                  
  21121442.852   110993951.528    21121440.708    86488798.941                  
  24107989.618   126688300.344    24107992.513    98718146.036                  
  24347943.757   127949249.446    24347947.063    99700699.133                  
                 126231910.565                   126231910.565    24241504.313  
                 121610787.660                   121610787.660    23354072.577  
                 117790658.133                   117790658.133    22620456.444  
                 129215246.423                   129215246.423    24814463.777  
  24671274.096   129648378.778                                                  
 21  9  1 11 43 34.0000000  0 13G 2G 3G 6G14G17G19G24G30C23C27C28C33
                                E13
  22795001.597   119788559.397    22794999.756    93341739.246                  
  23732158.284   124713297.351    23732161.304    97179183.039                  
  20549243.018   107986963.571    20549245.859    84145675.941                  
  20772573.194   109160615.960    20772573.659    85060224.063                  
  21771955.895   114412410.785    21771955.502    89152529.894                  
  21121385.332   110993649.271    21121383.188    86488563.414                  
  24107870.735   126687675.562    24107873.612    98717659.192                  
  24348560.792   127952491.985    24348564.098    99703225.789                  
                 126234892.337                   126234892.337    24242076.943  
                 121609846.132                   121609846.132    23353891.778  
                 117791495.266                   117791495.266    22620617.194  
                 129213946.876                   129213946.876    24814214.218  
  24671625.687   129650226.315                                                  
 21  9  1 11 43 35.0000000  0 13G 2G 3G 6G14G17G19G24G30C23C27C28C33
                                E13
  22794639.659   119786657.423    22794637.837    93340257.188                  
  23732519.757   124715196.943    23732522.777    97180663.238                  
  20549137.877   107986411.091    20549140.718    84145245.437                  
  20772845.232   109162045.509    20772845.697    85061337.993                  
  21772052.763   114412919.786    21772052.352    89152926.521                  
  21121327.865   110993347.122    21121325.685    86488327.976                  
  24107751.942   126687051.329    24107754.837    98717172.777                  
  24349177.827   127955734.439    24349181.115    99705752.374                  
                 126237874.277                   126237874.277    24242649.574  
                 121608904.729                   121608904.729    23353710.997  
                 117792332.454                   117792332.454    22620777.979  
                 129212647.675                   129212647.675    24813964.713  
  24671977.260   129652073.915                                                  
 21  9  1 11 43 36.0000000  0 13G 2G 3G 6G14G17G19G24G30C23C27C28C33
                                E13
  22794277.794   119784755.821    22794275.953    93338775.423                  
  23732881.354   124717097.077    23732884.356    97182143.862                  
  20549032.843   107985859.109    20549035.684    84144815.324                  
  20773117.377   109163475.574    20773117.842    85062452.329                  
  21772149.613   114413428.798    21772149.220    89153323.151                  
  21121270.380   110993045.074    21121268.200    86488092.613                  
  24107633.256   126686427.629    24107636.133    98716686.777                  
  24349794.827   127958976.796    24349798.115    99708278.886                  
                 126240856.392                   126240856.392    24243222.276  
                 121607963.457                   121607963.457    23353530.234  
                 117793169.692                   117793169.692    22620938.765  
                 129211348.820                   129211348.820    24813715.279  
  24672328.869   129653921.567                                                  
 21  9  1 11 43 37.0000000  0 13G 2G 3G 6G14G17G19G24G30C23C27C28C33
                                E13
  22793916.000   119782854.606    22793914.177    93337293.957                  
  23733243.041   124718997.746    23733246.043    97183624.905                  
  20548927.898   107985307.621    20548930.739    84144385.593                  
  20773389.594   109164906.159    20773390.059    85063567.071                  
  21772246.481   114413937.831    21772246.106    89153719.800                  
  21121212.914   110992743.145    21121210.734    86487857.344                  
  24107514.677   126685804.449    24107517.554    98716201.185                  
  24350411.808   127962219.048    24350415.096    99710805.311                  
                 126243838.675                   126243838.675    24243794.978  
                 121607022.308                   121607022.308    23353349.507  
                 117794006.984                   117794006.984    22621099.568  
                 129210050.314                   129210050.314    24813465.917  
  24672680.477   129655769.289                                                  
 21  9  1 11 43 38.0000000  0 13G 2G 3G 6G14G17G19G24G30C23C27C28C33
                                E13
  22793554.277   119780953.762    22793552.455    93335812.781                  
  23733604.817   124720898.937    23733607.819    97185106.351                  
  20548823.042   107984756.646    20548825.901    84143956.262                  
  20773661.936   109166337.254    20773662.400    85064682.212                  
  21772343.367   114414446.887    21772342.956    89154116.470                  
  21121155.483   110992441.320    21121153.320    86487622.155                  
  24107396.187   126685181.809    24107399.082    98715716.008                  
  24351028.754   127965461.202    24351032.060    99713331.673                  
                 126246821.133                   126246821.133    24244367.734  
                 121606081.286                   121606081.286    23353168.780  
                 117794844.324                   117794844.324    22621260.354  
                 129208752.148                   129208752.148    24813216.626  
  24673032.104   129657617.061                                                  
 21  9  1 11 43 39.0000000  0 13G 2G 3G 6G14G17G19G24G30C23C27C28C33
                                E13
  22793192.644   119779053.304    22793190.821    93334331.903                  
  23733966.719   124722800.683    23733969.721    97186588.235                  
  20548718.294   107984206.167    20548721.135    84143527.317                  
  20773934.367   109167768.877    20773934.814    85065797.763                  
  21772440.235   114414955.964    21772439.842    89154513.153                  
  21121098.052   110992139.608    21121095.907    86487387.058                  
  24107277.805   126684559.694    24107280.700    98715231.246                  
  24351645.700   127968703.266    24351649.006    99715857.954                  
                 126249803.762                   126249803.762    24244940.526  
                 121605140.386                   121605140.386    23352988.088  
                 117795681.718                   117795681.718    22621421.157  
                 129207454.337                   129207454.337    24812967.371  
  24673383.713   129659464.901                                                  
 21  9  1 11 43 40.0000000  0 18G 2G 3G 6G14G17G19G24G30C23C27C28C33
                                E 1E13E21E26E27E33
  22792831.064   119777153.222    22792829.242    93332851.320                  
  23734328.692   124724702.953    23734331.711    97188070.519                  
  20548613.635   107983656.195    20548616.476    84143098.765                  
  20774206.887   109169201.014    20774207.352    85066913.711                  
  21772537.121   114415465.062    21772536.728    89154909.852                  
  21121040.674   110991838.020    21121038.494    86487152.050                  
  24107159.512   126683938.117    24107162.407    98714746.899                  
  24352262.646   127971945.242    24352265.934    99718384.164                  
                 126252786.563                   126252786.563    24245513.335  
                 121604199.614                   121604199.614    23352807.415  
                 117796519.165                   117796519.165    22621581.996  
                 129206156.866                   129206156.866    24812718.224  
  25392551.687   133438725.602                                                  
  24673735.357   129661312.797                                                  
  23456302.866   123263679.030                                                  
  23423240.456   123089929.937                                                  
  25870143.175   135948494.573                                                  
  26985622.455   141810418.262                                                  
 21  9  1 11 43 41.0000000  0 18G 2G 3G 6G14G17G19G24G30C23C27C28C33
                                E 1E13E21E26E27E33
  22792469.556   119775253.496    22792467.733    93331371.016                  
  23734690.807   124726605.773    23734693.791    97189553.233                  
  20548509.084   107983106.714    20548511.925    84142670.598                  
  20774479.515   109170633.665    20774479.980    85068030.063                  
  21772634.007   114415974.177    21772633.596    89155306.563                  
  21120983.297   110991536.526    21120981.135    86486917.122                  
  24107041.344   126683317.070    24107044.221    98714262.965                  
  24352879.538   127975187.109    24352882.844    99720910.297                  
                 126255769.538                   126255769.538    24246086.180  
                 121603258.965                   121603258.965    23352626.777  
                 117797356.665                   117797356.665    22621742.817  
                 129204859.741                   129204859.741    24812469.112  
  25392160.194   133436668.363                                                  
  24674087.020   129663160.745                                                  
  23456362.066   123263990.152                                                  
  23423203.360   123089734.949                                                  
  25870617.579   135950987.566                                                  
  26985281.800   141808628.102                                                  
 21  9  1 11 43 42.0000000  0 18G 2G 3G 6G14G17G19G24G30C23C27C28C33
                                E 1E13E21E26E27E33
  22792108.119   119773354.168    22792106.297    93329891.020                  
  23735052.995   124728509.112    23735055.997    97191036.355                  
  20548404.621   107982557.737    20548407.462    84142242.829                  
  20774752.232   109172066.841    20774752.697    85069146.821                  
  21772730.875   114416483.321    21772730.482    89155703.297                  
  21120925.955   110991235.150    21120923.775    86486682.285                  
  24106923.266   126682696.554    24106926.143    98713779.446                  
  24353496.413   127978428.882    24353499.719    99723436.351                  
                 126258752.682                   126258752.682    24246659.061  
                 121602318.446                   121602318.446    23352446.157  
                 117798194.216                   117798194.216    22621903.656  
                 129203562.968                   129203562.968    24812220.089  
  25391768.773   133434611.394                                                  
  24674438.700   129665008.772                                                  
  23456421.355   123264301.711                                                  
  23423166.299   123089540.227                                                  
  25871092.037   135953480.800                                                  
  26984941.180   141806838.167                                                  
 21  9  1 11 43 43.0000000  0 18G 2G 3G 6G14G17G19G24G30C23C27C28C33
                                E 1E13E21E26E27E33
  22791746.772   119771455.219    22791744.931    93328411.320                  
  23735415.307   124730413.000    23735418.309    97192519.906                  
  20548300.248   107982009.265    20548303.072    84141815.446                  
  20775025.056   109173500.527    20775025.521    85070263.981                  
  21772827.761   114416992.471    21772827.385    89156100.042                  
  21120868.613   110990933.890    21120866.451    86486447.535                  
  24106805.277   126682076.558    24106808.154    98713296.332                  
  24354113.305   127981670.550    24354116.593    99725962.328                  
                 126261736.001                   126261736.001    24247231.978  
                 121601378.047                   121601378.047    23352265.572  
                 117799031.817                   117799031.817    22622064.513  
                 129202266.538                   129202266.538    24811971.120  
  25391377.406   133432554.656                                                  
  24674790.362   129666856.847                                                  
  23456480.716   123264613.687                                                  
  23423129.293   123089345.762                                                  
  25871566.514   135955974.262                                                  
  26984600.615   141805048.456                                                  
 21  9  1 11 43 44.0000000  0 18G 2G 3G 6G14G17G19G24G30C23C27C28C33
                                E 1E13E21E26E27E33
  22791385.478   119769556.649    22791383.655    93326931.914                  
  23735777.709   124732317.410    23735780.693    97194003.860                  
  20548195.965   107981461.292    20548198.806    84141388.454                  
  20775297.988   109174934.733    20775298.435    85071381.544                  
  21772924.664   114417501.648    21772924.253    89156496.801                  
  21120811.325   110990632.737    21120809.145    86486212.870                  
  24106687.395   126681457.093    24106690.272    98712813.632                  
  24354730.144   127984912.120    24354733.432    99728488.228                  
                 126264719.493                   126264719.493    24247804.948  
                 121600437.778                   121600437.778    23352085.006  
                 117799869.468                   117799869.468    22622225.388  
                 129200970.457                   129200970.457    24811722.222  
  25390986.056   133430498.160                                                  
  24675142.060   129668704.983                                                  
  23456540.166   123264926.080                                                  
  23423092.339   123089151.551                                                  
  25872041.061   135958467.965                                                  
  26984260.085   141803258.962                                                  
 21  9  1 11 43 45.0000000  0 18G 2G 3G 6G14G17G19G24G30C23C27C28C33
                                E 1E13E21E26E27E33
  22791024.274   119767658.483    22791022.433    93325452.829                  
  23736140.200   124734222.363    23736143.202    97195488.238                  
  20548091.788   107980913.821    20548094.612    84140961.851                  
  20775571.009   109176369.458    20775571.455    85072499.512                  
  21773021.568   114418010.854    21773021.157    89156893.587                  
  21120754.037   110990331.692    21120751.857    86485978.290                  
  24106569.620   126680838.165    24106572.497    98712331.351                  
  24355346.982   127988153.597    24355350.288    99731014.051                  
                 126267703.152                   126267703.152    24248377.918  
                 121599497.631                   121599497.631    23351904.457  
                 117800707.176                   117800707.176    22622386.263  
                 129199674.722                   129199674.722    24811473.396  
  25390594.760   133428441.915                                                  
  24675493.759   129670553.181                                                  
  23456599.706   123265238.906                                                  
  23423055.440   123088957.604                                                  
  25872515.645   135960961.903                                                  
  26983919.608   141801469.688                                                  
 21  9  1 11 43 46.0000000  0 18G 2G 3G 6G14G17G19G24G30C23C27C28C33
                                E 1E13E21E26E27E33
  22790663.141   119765760.684    22790661.300    93323974.024                  
  23736502.798   124736127.847    23736505.800    97196973.031                  
  20547987.701   107980366.855    20547990.542    84140535.645                  
  20775844.119   109177804.703    20775844.583    85073617.882                  
  21773118.454   114418520.075    21773118.061    89157290.382                  
  21120696.767   110990030.758    21120694.605    86485743.796                  
  24106451.935   126680219.766    24106454.812    98711849.481                  
  24355963.803   127991394.983    24355967.091    99733539.804                  
                 126270686.985                   126270686.985    24248950.924  
                 121598557.610                   121598557.610    23351723.944  
                 117801544.935                   117801544.935    22622547.138  
                 129198379.336                   129198379.336    24811224.623  
  25390203.518   133426385.918                                                  
  24675845.457   129672401.434                                                  
  23456659.317   123265552.165                                                  
  23423018.576   123088763.925                                                  
  25872990.264   135963456.078                                                  
  26983579.168   141799680.640                                                  
 21  9  1 11 43 47.0000000  0 18G 2G 3G 6G14G17G19G24G30C23C27C28C33
                                E 1E13E21E26E27E33
  22790302.061   119763863.255    22790300.239    93322495.504                  
  23736865.503   124738033.874    23736868.505    97198458.247                  
  20547883.704   107979820.387    20547886.563    84140109.824                  
  20776117.336   109179240.458    20776117.801    85074736.652                  
  21773215.358   114419029.304    21773214.982    89157687.184                  
  21120639.515   110989729.933    21120637.352    86485509.387                  
  24106334.357   126679601.888    24106337.251    98711368.020                  
  24356580.606   127994636.275    24356583.894    99736065.484                  
                 126273670.993                   126273670.993    24249523.984  
                 121597617.713                   121597617.713    23351543.431  
                 117802382.742                   117802382.742    22622708.048  
                 129197084.296                   129197084.296    24810975.922  
  25389812.312   133424330.169                                                  
  24676197.208   129674249.753                                                  
  23456719.000   123265865.848                                                  
  23422981.784   123088570.495                                                  
  25873464.937   135965950.489                                                  
  26983238.745   141797891.809                                                  
 21  9  1 11 43 48.0000000  0 18G 2G 3G 6G14G17G19G24G30C23C27C28C33
                                E 1E13E21E26E27E33
  22789941.071   119761966.219    22789939.249    93321017.296                  
  23737228.298   124739940.438    23737231.318    97199943.879                  
  20547779.813   107979274.418    20547782.654    84139684.398                  
  20776390.643   109180676.730    20776391.125    85075855.827                  
  21773312.279   114419538.569    21773311.886    89158084.012                  
  21120582.298   110989429.214    21120580.118    86485275.062                  
  24106216.886   126678984.559    24106219.780    98710886.980                  
  24357197.373   127997877.452    24357200.679    99738591.079                  
                 126276655.169                   126276655.169    24250097.061  
                 121596677.945                   121596677.945    23351362.954  
                 117803220.602                   117803220.602    22622868.941  
                 129195789.602                   129195789.602    24810727.293  
  25389421.177   133422274.656                                                  
  24676548.924   129676098.126                                                  
  23456778.771   123266179.961                                                  
  23422945.027   123088377.335                                                  
  25873939.663   135968445.137                                                  
  26982898.376   141796103.195                                                  
 21  9  1 11 43 49.0000000  0 18G 2G 3G 6G14G17G19G24G30C23C27C28C33
                                E 1E13E21E26E27E33
  22789580.153   119760069.565    22789578.312    93319539.386                  
  23737591.218   124741847.524    23737594.220    97201429.923                  
  20547676.012   107978728.945    20547678.853    84139259.355                  
  20776664.057   109182113.532    20776664.521    85076975.409                  
  21773409.183   114420047.848    21773408.808    89158480.851                  
  21120525.099   110989128.618    21120522.919    86485040.827                  
  24106099.522   126678367.747    24106102.399    98710406.352                  
  24357814.123   128001118.542    24357817.446    99741116.601                  
                 126279639.517                   126279639.517    24250670.157  
                 121595738.301                   121595738.301    23351182.513  
                 117804058.517                   117804058.517    22623029.834  
                 129194495.254                   129194495.254    24810478.717  
  25389030.077   133420219.394                                                  
  24676900.676   129677946.559                                                  
  23456838.615   123266494.492                                                  
  23422908.306   123088184.439                                                  
  25874414.425   135970940.022                                                  
  26982558.060   141794314.801                                                  
 21  9  1 11 43 50.0000000  0 18G 2G 3G 6G14G17G19G24G30C23C27C28C33
                                E 1E13E21E26E27E33
  22789219.306   119758173.292    22789217.483    93318061.769                  
  23737954.227   124743755.153    23737957.211    97202916.382                  
  20547572.318   107978183.989    20547575.159    84138834.711                  
  20776937.578   109183550.843    20776938.042    85078095.394                  
  21773506.105   114420557.151    21773505.711    89158877.715                  
  21120467.918   110988828.133    21120465.738    86484806.683                  
  24105982.247   126677751.466    24105985.124    98709926.133                  
  24358430.872   128004359.540    24358434.178    99743642.055                  
                 126282624.030                   126282624.030    24251243.323  
                 121594798.780                   121594798.780    23351002.107  
                 117804896.476                   117804896.476    22623190.762  
                 129193201.255                   129193201.255    24810230.212  
  25388639.014   133418164.374                                                  
  24677252.428   129679795.059                                                  
  23456898.565   123266809.447                                                  
  23422871.639   123087991.792                                                  
  25874889.223   135973435.146                                                  
  26982217.780   141792526.628                                                  
 21  9  1 11 43 51.0000000  0 18G 2G 3G 6G14G17G19G24G30C23C27C28C33
                                E 1E13E21E26E27E33
  22788858.512   119756277.407    22788856.708    93316584.458                  
  23738317.343   124745663.325    23738320.345    97204403.270                  
  20547468.695   107977639.520    20547471.537    84138410.449                  
  20777211.188   109184988.667    20777211.635    85079215.778                  
  21773603.026   114421066.472    21773602.633    89159274.585                  
  21120410.755   110988527.754    21120408.575    86484572.624                  
  24105865.062   126677135.722    24105867.957    98709446.337                  
