% program   : rnx2rtkp ver.2.4.3 b31
% inp file  : ngs/21_08_31_18_48_32_moip.obs
% inp file  : ngs/21_08_31_18_48_32_moip_SW.obs
% inp file  : ngs/21_08_31_18_48_32_brdc.nav
% obs start : 2021/08/31 18:00:00.0 GPST (week2173 237600.0s)
% obs end   : 2021/08/31 18:59:59.0 GPST (week2173 241199.0s)
% ref pos   :  -383815.1154  -5002440.0174   3924985.2500
%
% (x/y/z-ecef=WGS84,Q=1:fix,2:float,3:sbas,4:dgps,5:single,6:ppp,ns=# of satellites)
%  GPST              x-ecef(m)      y-ecef(m)      z-ecef(m)   Q  ns   sdx(m)   sdy(m)   sdz(m)  sdxy(m)  sdyz(m)  sdzx(m) age(s)  ratio
2173 240487.000   -379063.0919  -4940495.0353   4002991.4575   2   7   0.4193   1.0476   0.7717  -0.1854  -0.6685  -0.2500 -30.00    1.1
2173 240488.000   -379063.1060  -4940495.1500   4002991.5495   2   7   0.2983   0.7454   0.5487  -0.1325  -0.4757  -0.1772 -29.00    1.2
2173 240489.000   -379063.1097  -4940495.1008   4002991.4945   2   7   0.2442   0.6103   0.4491  -0.1087  -0.3894  -0.1449 -28.00    1.2
2173 240490.000   -379063.0941  -4940495.0329   4002991.4446   2   7   0.2119   0.5295   0.3896  -0.0944  -0.3378  -0.1257 -27.00    1.1
2173 240491.000   -379063.0891  -4940494.9471   4002991.4320   2   7   0.1898   0.4742   0.3489  -0.0847  -0.3025  -0.1126 -26.00    1.1
2173 240492.000   -379063.0971  -4940494.9590   4002991.4389   2   7   0.1734   0.4333   0.3188  -0.0775  -0.2763  -0.1029 -25.00    1.1
2173 240493.000   -379063.0917  -4940494.9907   4002991.4737   2   7   0.1607   0.4014   0.2953  -0.0719  -0.2560  -0.0953 -24.00    1.2
2173 240494.000   -379063.1003  -4940495.0082   4002991.4748   2   7   0.1504   0.3757   0.2764  -0.0673  -0.2396  -0.0892 -23.00    1.2
2173 240495.000   -379063.1079  -4940494.9959   4002991.4549   2   7   0.1418   0.3544   0.2606  -0.0636  -0.2259  -0.0841 -22.00    1.2
2173 240496.000   -379063.1004  -4940495.0020   4002991.4593   2   7   0.1346   0.3363   0.2473  -0.0604  -0.2144  -0.0797 -21.00    1.2
2173 240497.000   -379063.0995  -4940494.9709   4002991.4470   2   7   0.1284   0.3207   0.2358  -0.0577  -0.2044  -0.0760 -20.00    1.2
2173 240498.000   -379063.1012  -4940494.9798   4002991.4564   2   7   0.1229   0.3071   0.2257  -0.0553  -0.1957  -0.0727 -19.00    1.2
2173 240499.000   -379063.1029  -4940494.9859   4002991.4508   2   7   0.1181   0.2950   0.2168  -0.0532  -0.1880  -0.0698 -18.00    1.3
2173 240500.000   -379063.1170  -4940494.9563   4002991.4383   2   7   0.1138   0.2843   0.2089  -0.0513  -0.1811  -0.0672 -17.00    1.3
2173 240501.000   -379063.1244  -4940494.9435   4002991.4453   2   7   0.1099   0.2746   0.2017  -0.0497  -0.1749  -0.0649 -16.00    1.3
2173 240502.000   -379063.1366  -4940494.9231   4002991.4571   2   7   0.1064   0.2658   0.1952  -0.0481  -0.1693  -0.0627 -15.00    1.4
2173 240503.000   -379063.1356  -4940494.9257   4002991.4637   2   7   0.1032   0.2578   0.1893  -0.0468  -0.1642  -0.0608 -14.00    1.4
2173 240504.000   -379063.1458  -4940494.9038   4002991.4626   2   7   0.1002   0.2505   0.1838  -0.0455  -0.1595  -0.0590 -13.00    1.4
2173 240505.000   -379063.1466  -4940494.9056   4002991.4732   2   7   0.0975   0.2437   0.1788  -0.0443  -0.1552  -0.0573 -12.00    1.5
2173 240506.000   -379063.1416  -4940494.9085   4002991.4722   2   7   0.0950   0.2374   0.1742  -0.0433  -0.1512  -0.0558 -11.00    1.5
2173 240507.000   -379063.1432  -4940494.8903   4002991.4684   2   7   0.0927   0.2316   0.1699  -0.0423  -0.1475  -0.0544 -10.00    1.5
2173 240508.000   -379063.1445  -4940494.8762   4002991.4592   2   7   0.0905   0.2262   0.1659  -0.0413  -0.1440  -0.0530  -9.00    1.5
2173 240509.000   -379063.1480  -4940494.8543   4002991.4574   2   7   0.0885   0.2212   0.1621  -0.0404  -0.1408  -0.0518  -8.00    1.5
2173 240510.000   -379063.1546  -4940494.8442   4002991.4716   2   7   0.0866   0.2164   0.1586  -0.0396  -0.1378  -0.0506  -7.00    1.5
2173 240511.000   -379063.1561  -4940494.8255   4002991.4753   2   7   0.0848   0.2120   0.1553  -0.0388  -0.1349  -0.0495  -6.00    1.5
2173 240512.000   -379063.1549  -4940494.8090   4002991.4697   2   7   0.0831   0.2078   0.1522  -0.0381  -0.1323  -0.0485  -5.00    1.5
2173 240513.000   -379063.1573  -4940494.8083   4002991.4823   2   7   0.0816   0.2038   0.1492  -0.0374  -0.1298  -0.0475  -4.00    1.4
2173 240514.000   -379063.1594  -4940494.8049   4002991.4836   2   7   0.0801   0.2001   0.1465  -0.0368  -0.1274  -0.0466  -3.00    1.4
2173 240515.000   -379063.1607  -4940494.7947   4002991.4910   2   7   0.0787   0.1965   0.1439  -0.0361  -0.1251  -0.0457  -2.00    1.4
2173 240516.000   -379063.1643  -4940494.7934   4002991.5000   2   7   0.0773   0.1932   0.1414  -0.0355  -0.1230  -0.0449  -1.00    1.3
2173 240517.000   -379063.1613  -4940494.7927   4002991.5072   2   7   0.0761   0.1900   0.1391  -0.0350  -0.1210  -0.0441   0.00    1.3
2173 240518.000   -379063.1665  -4940494.7961   4002991.5183   2   7   0.0748   0.1870   0.1368  -0.0344  -0.1191  -0.0434   0.00    1.2
2173 240519.000   -379063.1633  -4940494.8087   4002991.5326   2   7   0.0737   0.1841   0.1347  -0.0339  -0.1173  -0.0427   0.00    1.2
2173 240520.000   -379063.1629  -4940494.8084   4002991.5398   2   7   0.0726   0.1814   0.1327  -0.0334  -0.1155  -0.0421   0.00    1.2
2173 240521.000   -379063.1613  -4940494.8033   4002991.5333   2   7   0.0716   0.1788   0.1307  -0.0330  -0.1139  -0.0414   0.00    1.2
2173 240522.000   -379063.1602  -4940494.7838   4002991.5242   2   7   0.0706   0.1763   0.1289  -0.0325  -0.1123  -0.0408   0.00    1.2
2173 240523.000   -379063.1600  -4940494.7777   4002991.5278   2   7   0.0696   0.1738   0.1271  -0.0321  -0.1108  -0.0402   0.00    1.2
2173 240524.000   -379063.1520  -4940494.7787   4002991.5282   2   7   0.0687   0.1715   0.1254  -0.0317  -0.1093  -0.0396   0.00    1.2
2173 240525.000   -379063.1483  -4940494.7800   4002991.5389   2   7   0.0678   0.1693   0.1237  -0.0312  -0.1079  -0.0391   0.00    1.2
2173 240526.000   -379063.1459  -4940494.7801   4002991.5429   2   7   0.0670   0.1671   0.1221  -0.0308  -0.1065  -0.0386   0.00    1.2
2173 240527.000   -379063.1439  -4940494.7725   4002991.5458   2   7   0.0661   0.1650   0.1206  -0.0305  -0.1052  -0.0380   0.00    1.2
2173 240528.000   -379063.1468  -4940494.7752   4002991.5498   2   7   0.0653   0.1630   0.1191  -0.0301  -0.1040  -0.0376   0.00    1.2
2173 240529.000   -379063.1488  -4940494.7618   4002991.5515   2   7   0.0645   0.1611   0.1177  -0.0298  -0.1027  -0.0371   0.00    1.2
2173 240530.000   -379063.1482  -4940494.7547   4002991.5496   2   7   0.0638   0.1592   0.1163  -0.0294  -0.1016  -0.0366   0.00    1.2
2173 240531.000   -379063.1510  -4940494.7489   4002991.5539   2   7   0.0631   0.1574   0.1149  -0.0290  -0.1005  -0.0361   0.00    1.2
2173 240532.000   -379063.1510  -4940494.7493   4002991.5587   2   7   0.0624   0.1557   0.1136  -0.0287  -0.0994  -0.0357   0.00    1.2
2173 240533.000   -379063.1563  -4940494.7374   4002991.5604   2   7   0.0617   0.1540   0.1124  -0.0284  -0.0983  -0.0353   0.00    1.2
2173 240534.000   -379063.1599  -4940494.7442   4002991.5685   2   7   0.0611   0.1523   0.1112  -0.0281  -0.0973  -0.0349   0.00    1.2
2173 240535.000   -379063.1568  -4940494.7468   4002991.5681   2   7   0.0604   0.1507   0.1100  -0.0277  -0.0963  -0.0344   0.00    1.2
2173 240536.000   -379063.1573  -4940494.7512   4002991.5735   2   7   0.0598   0.1491   0.1088  -0.0274  -0.0954  -0.0341   0.00    1.2
2173 240537.000   -379063.1561  -4940494.7493   4002991.5754   2   7   0.0592   0.1476   0.1077  -0.0271  -0.0944  -0.0337   0.00    1.2
2173 240538.000   -379063.1579  -4940494.7517   4002991.5776   2   7   0.0586   0.1462   0.1066  -0.0268  -0.0935  -0.0333   0.00    1.2
2173 240539.000   -379063.1575  -4940494.7604   4002991.5872   2   7   0.0581   0.1447   0.1056  -0.0265  -0.0927  -0.0330   0.00    1.2
2173 240540.000   -379063.1623  -4940494.7620   4002991.5866   2   7   0.0575   0.1433   0.1046  -0.0263  -0.0918  -0.0326   0.00    1.1
2173 240541.000   -379063.1621  -4940494.7526   4002991.5918   2   7   0.0570   0.1420   0.1035  -0.0260  -0.0910  -0.0322   0.00    1.1
2173 240542.000   -379063.1614  -4940494.7597   4002991.5960   2   7   0.0565   0.1406   0.1026  -0.0257  -0.0902  -0.0319   0.00    1.1
2173 240543.000   -379063.1631  -4940494.7519   4002991.5942   2   7   0.0560   0.1394   0.1016  -0.0254  -0.0894  -0.0316   0.00    1.1
2173 240544.000   -379063.1631  -4940494.7550   4002991.6001   2   7   0.0555   0.1381   0.1007  -0.0251  -0.0887  -0.0312   0.00    1.1
2173 240545.000   -379063.1640  -4940494.7548   4002991.6045   2   7   0.0550   0.1369   0.0998  -0.0249  -0.0879  -0.0309   0.00    1.1
2173 240546.000   -379063.1609  -4940494.7588   4002991.6014   2   7   0.0545   0.1357   0.0989  -0.0246  -0.0873  -0.0306   0.00    1.1
2173 240547.000   -379063.1607  -4940494.7501   4002991.5927   2   7   0.0541   0.1345   0.0980  -0.0243  -0.0865  -0.0303   0.00    1.1
2173 240548.000   -379063.1636  -4940494.7630   4002991.6120   2   7   0.0536   0.1333   0.0972  -0.0241  -0.0859  -0.0300   0.00    1.1
2173 240549.000   -379063.1665  -4940494.7687   4002991.6213   2   7   0.0532   0.1322   0.0963  -0.0238  -0.0852  -0.0297   0.00    1.1
2173 240550.000   -379063.1674  -4940494.7695   4002991.6263   2   7   0.0527   0.1311   0.0955  -0.0236  -0.0846  -0.0294   0.00    1.1
2173 240551.000   -379063.1718  -4940494.7718   4002991.6330   2   7   0.0523   0.1300   0.0947  -0.0233  -0.0840  -0.0291   0.00    1.1
2173 240552.000   -379063.1734  -4940494.7680   4002991.6387   2   7   0.0520   0.1290   0.0939  -0.0230  -0.0833  -0.0288   0.00    1.1
2173 240553.000   -379063.1755  -4940494.7656   4002991.6413   2   7   0.0516   0.1279   0.0932  -0.0228  -0.0828  -0.0285   0.00    1.1
2173 240554.000   -379063.1753  -4940494.7582   4002991.6423   2   7   0.0512   0.1269   0.0924  -0.0226  -0.0822  -0.0283   0.00    1.1
2173 240555.000   -379063.1857  -4940494.7644   4002991.6693   2   7   0.0508   0.1259   0.0917  -0.0224  -0.0816  -0.0280   0.00    1.1
2173 240556.000   -379063.1905  -4940494.7517   4002991.6863   2   7   0.0504   0.1249   0.0910  -0.0221  -0.0810  -0.0277   0.00    1.1
2173 240557.000   -379063.1951  -4940494.7421   4002991.7006   2   7   0.0500   0.1240   0.0903  -0.0219  -0.0805  -0.0275   0.00    1.1
2173 240558.000   -379063.1999  -4940494.7374   4002991.7175   2   7   0.0497   0.1231   0.0896  -0.0217  -0.0800  -0.0272   0.00    1.1
2173 240559.000   -379063.2032  -4940494.7245   4002991.7299   2   7   0.0493   0.1221   0.0889  -0.0214  -0.0794  -0.0270   0.00    1.1
2173 240560.000   -379063.2082  -4940494.7150   4002991.7407   2   7   0.0490   0.1212   0.0883  -0.0212  -0.0789  -0.0267   0.00    1.1
2173 240561.000   -379063.2105  -4940494.7057   4002991.7599   2   7   0.0486   0.1203   0.0876  -0.0210  -0.0785  -0.0265   0.00    1.1
2173 240562.000   -379063.2155  -4940494.6935   4002991.7729   2   7   0.0483   0.1195   0.0870  -0.0208  -0.0780  -0.0262   0.00    1.1
2173 240563.000   -379063.2201  -4940494.6858   4002991.7820   2   7   0.0480   0.1186   0.0863  -0.0206  -0.0775  -0.0259   0.00    1.1
2173 240564.000   -379063.2251  -4940494.6826   4002991.7962   2   7   0.0477   0.1178   0.0857  -0.0203  -0.0770  -0.0258   0.00    1.1
2173 240565.000   -379063.2288  -4940494.6670   4002991.8062   2   7   0.0473   0.1169   0.0851  -0.0201  -0.0765  -0.0255   0.00    1.2
2173 240566.000   -379063.2318  -4940494.6584   4002991.8166   2   7   0.0470   0.1161   0.0845  -0.0199  -0.0761  -0.0252   0.00    1.2
2173 240567.000   -379063.2375  -4940494.6476   4002991.8283   2   7   0.0467   0.1153   0.0839  -0.0197  -0.0757  -0.0251   0.00    1.2
2173 240568.000   -379063.2387  -4940494.6399   4002991.8399   2   7   0.0464   0.1145   0.0834  -0.0195  -0.0752  -0.0248   0.00    1.2
2173 240569.000   -379063.2433  -4940494.6325   4002991.8537   2   7   0.0461   0.1138   0.0828  -0.0192  -0.0748  -0.0246   0.00    1.2
2173 240570.000   -379063.2457  -4940494.6229   4002991.8594   2   7   0.0458   0.1130   0.0822  -0.0191  -0.0744  -0.0244   0.00    1.2
2173 240571.000   -379063.2491  -4940494.6092   4002991.8666   2   7   0.0455   0.1122   0.0817  -0.0188  -0.0740  -0.0242   0.00    1.2
2173 240572.000   -379063.2508  -4940494.6030   4002991.8787   2   7   0.0453   0.1115   0.0811  -0.0186  -0.0736  -0.0240   0.00    1.2
2173 240573.000   -379063.2549  -4940494.6058   4002991.8899   2   7   0.0450   0.1108   0.0806  -0.0184  -0.0732  -0.0238   0.00    1.2
2173 240574.000   -379063.2563  -4940494.5997   4002991.9046   2   7   0.0447   0.1100   0.0801  -0.0182  -0.0728  -0.0235   0.00    1.2
2173 240575.000   -379063.2588  -4940494.5982   4002991.9150   2   7   0.0445   0.1093   0.0796  -0.0180  -0.0724  -0.0234   0.00    1.2
2173 240576.000   -379063.2622  -4940494.5901   4002991.9281   2   7   0.0442   0.1086   0.0791  -0.0178  -0.0721  -0.0232   0.00    1.2
2173 240577.000   -379063.2648  -4940494.5797   4002991.9348   2   7   0.0439   0.1080   0.0786  -0.0177  -0.0717  -0.0229   0.00    1.2
2173 240578.000   -379063.2658  -4940494.5758   4002991.9436   2   7   0.0437   0.1073   0.0781  -0.0174  -0.0713  -0.0227   0.00    1.2
2173 240579.000   -379063.2661  -4940494.5727   4002991.9526   2   7   0.0435   0.1066   0.0776  -0.0172  -0.0710  -0.0225   0.00    1.2
2173 240580.000   -379063.2689  -4940494.5717   4002991.9660   2   7   0.0432   0.1060   0.0771  -0.0170  -0.0706  -0.0223   0.00    1.2
2173 240581.000   -379063.2709  -4940494.5670   4002991.9709   2   7   0.0429   0.1053   0.0766  -0.0168  -0.0703  -0.0222   0.00    1.2
2173 240582.000   -379063.2741  -4940494.5661   4002991.9823   2   7   0.0427   0.1047   0.0762  -0.0167  -0.0699  -0.0220   0.00    1.3
2173 240583.000   -379063.2731  -4940494.5665   4002991.9961   2   7   0.0424   0.1040   0.0757  -0.0165  -0.0696  -0.0218   0.00    1.3
2173 240584.000   -379063.2755  -4940494.5683   4002992.0093   2   7   0.0422   0.1034   0.0752  -0.0163  -0.0693  -0.0216   0.00    1.3
2173 240585.000   -379063.2773  -4940494.5639   4002992.0187   2   7   0.0420   0.1028   0.0748  -0.0161  -0.0690  -0.0214   0.00    1.3
2173 240586.000   -379063.2791  -4940494.5581   4002992.0302   2   7   0.0418   0.1022   0.0744  -0.0158  -0.0687  -0.0213   0.00    1.3
2173 240587.000   -379063.2837  -4940494.5531   4002992.0374   2   7   0.0415   0.1016   0.0739  -0.0157  -0.0683  -0.0211   0.00    1.3
2173 240588.000   -379063.2888  -4940494.5523   4002992.0542   2   7   0.0413   0.1010   0.0735  -0.0154  -0.0680  -0.0210   0.00    1.3
2173 240589.000   -379063.2904  -4940494.5395   4002992.0620   2   7   0.0411   0.1004   0.0731  -0.0153  -0.0677  -0.0207   0.00    1.3
2173 240590.000   -379063.2939  -4940494.5367   4002992.0749   2   7   0.0409   0.0998   0.0727  -0.0152  -0.0674  -0.0205   0.00    1.3
2173 240591.000   -379063.2973  -4940494.5314   4002992.0856   2   7   0.0407   0.0993   0.0722  -0.0149  -0.0671  -0.0204   0.00    1.3
2173 240592.000   -379063.3001  -4940494.5267   4002992.0912   2   7   0.0405   0.0987   0.0718  -0.0147  -0.0668  -0.0203   0.00    1.3
2173 240593.000   -379063.3026  -4940494.5253   4002992.1011   2   7   0.0403   0.0982   0.0714  -0.0146  -0.0666  -0.0200   0.00    1.3
2173 240594.000   -379063.3038  -4940494.5272   4002992.1090   2   7   0.0401   0.0976   0.0710  -0.0144  -0.0663  -0.0199   0.00    1.3
2173 240595.000   -379063.3055  -4940494.5236   4002992.1177   2   7   0.0399   0.0971   0.0706  -0.0143  -0.0660  -0.0197   0.00    1.3
2173 240596.000   -379063.3071  -4940494.5291   4002992.1263   2   7   0.0397   0.0965   0.0703  -0.0140  -0.0657  -0.0196   0.00    1.4
2173 240597.000   -379063.3088  -4940494.5288   4002992.1306   2   7   0.0395   0.0960   0.0699  -0.0138  -0.0654  -0.0195   0.00    1.4
2173 240598.000   -379063.3111  -4940494.5333   4002992.1381   2   7   0.0394   0.0955   0.0695  -0.0136  -0.0652  -0.0193   0.00    1.4
2173 240599.000   -379063.3136  -4940494.5427   4002992.1472   2   7   0.0392   0.0950   0.0691  -0.0134  -0.0649  -0.0191   0.00    1.4
2173 240600.000   -379063.3162  -4940494.5429   4002992.1544   2   7   0.0389   0.0944   0.0688  -0.0133  -0.0646  -0.0190   0.00    1.4
2173 240601.000   -379063.3180  -4940494.5420   4002992.1613   2   7   0.0387   0.0939   0.0684  -0.0131  -0.0644  -0.0188   0.00    1.4
2173 240602.000   -379063.3190  -4940494.5477   4002992.1694   2   7   0.0385   0.0934   0.0680  -0.0129  -0.0641  -0.0186   0.00    1.4
2173 240603.000   -379063.3210  -4940494.5401   4002992.1721   2   7   0.0384   0.0930   0.0677  -0.0128  -0.0639  -0.0185   0.00    1.4
2173 240604.000   -379063.3221  -4940494.5439   4002992.1783   2   7   0.0382   0.0925   0.0673  -0.0127  -0.0636  -0.0183   0.00    1.4
2173 240605.000   -379063.3236  -4940494.5405   4002992.1842   2   7   0.0380   0.0920   0.0670  -0.0125  -0.0634  -0.0182   0.00    1.4
2173 240606.000   -379063.3240  -4940494.5445   4002992.1880   2   7   0.0379   0.0915   0.0666  -0.0123  -0.0631  -0.0181   0.00    1.4
2173 240607.000   -379063.3231  -4940494.5429   4002992.1871   2   7   0.0377   0.0910   0.0663  -0.0121  -0.0629  -0.0179   0.00    1.4
2173 240608.000   -379063.3228  -4940494.5502   4002992.1977   2   7   0.0375   0.0906   0.0659  -0.0119  -0.0626  -0.0178   0.00    1.4
2173 240609.000   -379063.3217  -4940494.5535   4002992.1993   2   7   0.0374   0.0901   0.0656  -0.0116  -0.0624  -0.0177   0.00    1.4
2173 240610.000   -379063.3216  -4940494.5570   4002992.2094   2   7   0.0372   0.0897   0.0653  -0.0116  -0.0622  -0.0175   0.00    1.5
2173 240611.000   -379063.3218  -4940494.5609   4002992.2178   2   7   0.0370   0.0892   0.0650  -0.0115  -0.0619  -0.0174   0.00    1.5
2173 240612.000   -379063.3239  -4940494.5639   4002992.2263   2   7   0.0369   0.0888   0.0646  -0.0113  -0.0617  -0.0172   0.00    1.5
2173 240613.000   -379063.3243  -4940494.5642   4002992.2324   2   7   0.0367   0.0883   0.0643  -0.0111  -0.0615  -0.0170   0.00    1.5
2173 240614.000   -379063.3270  -4940494.5627   4002992.2391   2   7   0.0365   0.0879   0.0640  -0.0110  -0.0612  -0.0169   0.00    1.5
2173 240615.000   -379063.3311  -4940494.5529   4002992.2448   2   7   0.0364   0.0874   0.0637  -0.0109  -0.0610  -0.0168   0.00    1.5
2173 240616.000   -379063.3293  -4940494.5577   4002992.2490   2   7   0.0362   0.0870   0.0634  -0.0106  -0.0608  -0.0167   0.00    1.5
2173 240617.000   -379063.3270  -4940494.5617   4002992.2585   2   7   0.0360   0.0866   0.0631  -0.0105  -0.0606  -0.0166   0.00    1.5
2173 240618.000   -379063.3287  -4940494.5622   4002992.2648   2   7   0.0360   0.0862   0.0628  -0.0102  -0.0604  -0.0165   0.00    1.5
2173 240619.000   -379063.3262  -4940494.5647   4002992.2710   2   7   0.0357   0.0858   0.0625  -0.0102  -0.0601  -0.0163   0.00    1.6
2173 240620.000   -379063.3252  -4940494.5740   4002992.2808   2   7   0.0356   0.0853   0.0622  -0.0100  -0.0599  -0.0162   0.00    1.6
2173 240621.000   -379063.3259  -4940494.5720   4002992.2854   2   7   0.0355   0.0849   0.0619  -0.0098  -0.0597  -0.0161   0.00    1.6
2173 240622.000   -379063.3249  -4940494.5781   4002992.2951   2   7   0.0354   0.0845   0.0616  -0.0095  -0.0595  -0.0160   0.00    1.6
2173 240623.000   -379063.3249  -4940494.5853   4002992.3028   2   7   0.0352   0.0841   0.0613  -0.0095  -0.0593  -0.0158   0.00    1.6
2173 240624.000   -379063.3270  -4940494.5987   4002992.3159   2   7   0.0351   0.0838   0.0611  -0.0092  -0.0591  -0.0157   0.00    1.6
2173 240625.000   -379063.3272  -4940494.6028   4002992.3205   2   7   0.0349   0.0834   0.0608  -0.0092  -0.0589  -0.0156   0.00    1.7
2173 240626.000   -379063.3240  -4940494.6146   4002992.3295   2   7   0.0348   0.0830   0.0605  -0.0089  -0.0587  -0.0155   0.00    1.7
2173 240627.000   -379063.3226  -4940494.6190   4002992.3312   2   7   0.0347   0.0826   0.0602  -0.0088  -0.0584  -0.0154   0.00    1.7
2173 240628.000   -379063.3229  -4940494.6184   4002992.3351   2   7   0.0345   0.0822   0.0599  -0.0086  -0.0583  -0.0152   0.00    1.7
2173 240629.000   -379063.3232  -4940494.6303   4002992.3354   2   7   0.0344   0.0818   0.0597  -0.0085  -0.0581  -0.0151   0.00    1.7
2173 240630.000   -379063.3210  -4940494.6420   4002992.3380   2   7   0.0343   0.0815   0.0594  -0.0082  -0.0579  -0.0150   0.00    1.7
2173 240631.000   -379063.3200  -4940494.6417   4002992.3315   2   7   0.0341   0.0811   0.0591  -0.0081  -0.0577  -0.0150   0.00    1.8
2173 240632.000   -379063.3177  -4940494.6471   4002992.3294   2   7   0.0340   0.0807   0.0589  -0.0080  -0.0575  -0.0148   0.00    1.8
2173 240633.000   -379063.3167  -4940494.6584   4002992.3286   2   7   0.0339   0.0804   0.0586  -0.0078  -0.0573  -0.0147   0.00    1.8
2173 240634.000   -379063.3117  -4940494.6660   4002992.3288   2   7   0.0337   0.0800   0.0584  -0.0076  -0.0571  -0.0146   0.00    1.8
2173 240635.000   -379063.3114  -4940494.6737   4002992.3281   2   7   0.0336   0.0797   0.0581  -0.0075  -0.0569  -0.0145   0.00    1.8
2173 240636.000   -379063.3111  -4940494.6811   4002992.3249   2   7   0.0334   0.0793   0.0578  -0.0074  -0.0567  -0.0144   0.00    1.8
2173 240637.000   -379063.3084  -4940494.6867   4002992.3235   2   7   0.0334   0.0790   0.0576  -0.0072  -0.0565  -0.0143   0.00    1.9
2173 240638.000   -379063.3049  -4940494.7060   4002992.3271   2   7   0.0332   0.0786   0.0574  -0.0070  -0.0564  -0.0142   0.00    1.9
2173 240639.000   -379063.3038  -4940494.7135   4002992.3292   2   7   0.0332   0.0783   0.0571  -0.0069  -0.0562  -0.0141   0.00    1.9
2173 240640.000   -379063.3033  -4940494.7176   4002992.3306   2   7   0.0331   0.0779   0.0569  -0.0065  -0.0560  -0.0140   0.00    1.9
2173 240641.000   -379063.3014  -4940494.7289   4002992.3342   2   7   0.0329   0.0776   0.0566  -0.0065  -0.0558  -0.0139   0.00    1.9
2173 240642.000   -379063.3010  -4940494.7289   4002992.3364   2   7   0.0327   0.0773   0.0564  -0.0064  -0.0556  -0.0138   0.00    2.0
2173 240643.000   -379063.3008  -4940494.7326   4002992.3380   2   7   0.0326   0.0769   0.0562  -0.0062  -0.0554  -0.0137   0.00    2.0
2173 240644.000   -379063.3003  -4940494.7427   4002992.3398   2   7   0.0326   0.0766   0.0559  -0.0060  -0.0553  -0.0136   0.00    2.0
2173 240645.000   -379063.2995  -4940494.7457   4002992.3393   2   7   0.0324   0.0763   0.0557  -0.0057  -0.0551  -0.0135   0.00    2.0
2173 240646.000   -379063.2989  -4940494.7514   4002992.3455   2   7   0.0323   0.0760   0.0555  -0.0055  -0.0549  -0.0134   0.00    2.0
2173 240647.000   -379063.2982  -4940494.7534   4002992.3433   2   7   0.0322   0.0756   0.0552  -0.0055  -0.0547  -0.0133   0.00    2.0
2173 240648.000   -379063.2980  -4940494.7628   4002992.3455   2   7   0.0321   0.0753   0.0550  -0.0052  -0.0546  -0.0132   0.00    2.0
2173 240649.000   -379063.2975  -4940494.7599   4002992.3438   2   7   0.0320   0.0750   0.0547  -0.0051  -0.0544  -0.0131   0.00    2.1
2173 240650.000   -379063.2954  -4940494.7688   4002992.3466   2   7   0.0319   0.0747   0.0546  -0.0048  -0.0542  -0.0131   0.00    2.1
2173 240651.000   -379063.2944  -4940494.7700   4002992.3465   2   7   0.0317   0.0744   0.0543  -0.0047  -0.0540  -0.0130   0.00    2.1
2173 240652.000   -379063.2951  -4940494.7782   4002992.3491   2   7   0.0317   0.0741   0.0541  -0.0044  -0.0539  -0.0129   0.00    2.1
2173 240653.000   -379063.2930  -4940494.7894   4002992.3500   2   7   0.0316   0.0738   0.0539  -0.0044  -0.0537  -0.0128   0.00    2.1
2173 240654.000   -379063.2954  -4940494.7954   4002992.3532   2   7   0.0315   0.0735   0.0537  -0.0040  -0.0535  -0.0126   0.00    2.1
2173 240655.000   -379063.2982  -4940494.8022   4002992.3556   2   7   0.0313   0.0732   0.0534  -0.0042  -0.0534  -0.0125   0.00    2.2
2173 240656.000   -379063.3008  -4940494.8112   4002992.3584   2   7   0.0313   0.0729   0.0533  -0.0034  -0.0532  -0.0125   0.00    2.2
2173 240657.000   -379063.3062  -4940494.8165   4002992.3680   2   7   0.0311   0.0726   0.0530  -0.0036  -0.0531  -0.0124   0.00    2.2
2173 240658.000   -379063.3078  -4940494.8192   4002992.3678   2   7   0.0311   0.0723   0.0528  -0.0033  -0.0529  -0.0124   0.00    2.2
2173 240659.000   -379063.3095  -4940494.8215   4002992.3712   2   7   0.0310   0.0720   0.0526  -0.0027  -0.0527  -0.0123   0.00    2.2
2173 240660.000   -379063.3134  -4940494.8170   4002992.3718   2   7   0.0308   0.0717   0.0524  -0.0028  -0.0526  -0.0122   0.00    2.2
2173 240661.000   -379063.3135  -4940494.8155   4002992.3697   2   7   0.0307   0.0715   0.0522  -0.0022  -0.0524  -0.0121   0.00    2.2
2173 240662.000   -379063.3174  -4940494.8140   4002992.3739   2   7   0.0306   0.0712   0.0520  -0.0024  -0.0523  -0.0120   0.00    2.2
2173 240663.000   -379063.3194  -4940494.8206   4002992.3785   2   7   0.0306   0.0709   0.0518  -0.0014  -0.0521  -0.0120   0.00    2.2
2173 240664.000   -379063.3212  -4940494.8219   4002992.3808   2   7   0.0305   0.0706   0.0516  -0.0009  -0.0519  -0.0118   0.00    2.2
2173 240665.000   -379063.3241  -4940494.8256   4002992.3834   2   7   0.0303   0.0704   0.0514   0.0007  -0.0518  -0.0118   0.00    2.2
2173 240666.000   -379063.3243  -4940494.8322   4002992.3849   2   7   0.0303   0.0701   0.0512   0.0011  -0.0516  -0.0117   0.00    2.2
2173 240667.000   -379063.3249  -4940494.8358   4002992.3853   2   7   0.0302   0.0698   0.0511   0.0009  -0.0515  -0.0116   0.00    2.2
2173 240668.000   -379063.3284  -4940494.8442   4002992.3908   2   7   0.0301   0.0695   0.0509   0.0017  -0.0513  -0.0115   0.00    2.2
2173 240669.000   -379063.3284  -4940494.8475   4002992.3922   2   7   0.0300   0.0693   0.0507   0.0021  -0.0512  -0.0114   0.00    2.2
2173 240670.000   -379063.3316  -4940494.8524   4002992.3984   2   7   0.0299   0.0690   0.0505   0.0028  -0.0510  -0.0114   0.00    2.2
2173 240671.000   -379063.3345  -4940494.8587   4002992.4066   2   7   0.0298   0.0688   0.0503   0.0024  -0.0508  -0.0113   0.00    2.2
2173 240672.000   -379063.3355  -4940494.8640   4002992.4102   2   7   0.0297   0.0685   0.0501   0.0030  -0.0507  -0.0113   0.00    2.2
2173 240673.000   -379063.3407  -4940494.8627   4002992.4151   2   7   0.0297   0.0682   0.0499   0.0032  -0.0505  -0.0113   0.00    2.2
2173 240674.000   -379063.3416  -4940494.8710   4002992.4183   2   7   0.0295   0.0680   0.0497   0.0030  -0.0504  -0.0112   0.00    2.2
2173 240675.000   -379063.3411  -4940494.8652   4002992.4163   2   7   0.0295   0.0677   0.0496   0.0033  -0.0503  -0.0111   0.00    2.2
2173 240676.000   -379063.3446  -4940494.8784   4002992.4046   2   7   0.0294   0.0675   0.0494   0.0038  -0.0501  -0.0110   0.00    2.2
2173 240677.000   -379063.3490  -4940494.8856   4002992.4145   2   7   0.0293   0.0672   0.0492   0.0039  -0.0500  -0.0109   0.00    2.1
2173 240678.000   -379063.3509  -4940494.8894   4002992.4210   2   7   0.0292   0.0670   0.0490   0.0039  -0.0498  -0.0108   0.00    2.1
2173 240679.000   -379063.3532  -4940494.8885   4002992.4254   2   7   0.0292   0.0667   0.0488   0.0042  -0.0497  -0.0108   0.00    2.1
2173 240680.000   -379063.3548  -4940494.8950   4002992.4325   2   7   0.0291   0.0665   0.0487   0.0042  -0.0495  -0.0106   0.00    2.1
2173 240681.000   -379063.3552  -4940494.9025   4002992.4383   2   7   0.0289   0.0662   0.0485   0.0041  -0.0494  -0.0106   0.00    2.1
2173 240682.000   -379063.3579  -4940494.9137   4002992.4440   2   7   0.0289   0.0660   0.0483   0.0043  -0.0493  -0.0105   0.00    2.1
2173 240683.000   -379063.3615  -4940494.9214   4002992.4534   2   7   0.0288   0.0658   0.0481   0.0043  -0.0491  -0.0104   0.00    2.1
2173 240684.000   -379063.3696  -4940494.9239   4002992.4592   2   7   0.0287   0.0655   0.0480   0.0046  -0.0490  -0.0104   0.00    2.1
2173 240685.000   -379063.3433  -4940494.9389   4002992.4830   2   7   0.0286   0.0653   0.0478   0.0046  -0.0488  -0.0103   0.00    2.1
2173 240686.000   -379063.3471  -4940494.9511   4002992.4921   2   7   0.0285   0.0651   0.0476   0.0049  -0.0487  -0.0103   0.00    2.0
2173 240687.000   -379063.3493  -4940494.9650   4002992.5045   2   7   0.0285   0.0648   0.0475   0.0052  -0.0485  -0.0103   0.00    2.0
2173 240688.000   -379063.3519  -4940494.9713   4002992.5142   2   7   0.0283   0.0646   0.0473   0.0048  -0.0484  -0.0101   0.00    2.0
2173 240689.000   -379063.3517  -4940494.9842   4002992.5239   2   7   0.0283   0.0644   0.0471   0.0051  -0.0483  -0.0100   0.00    2.0
2173 240690.000   -379063.3546  -4940494.9961   4002992.5324   2   7   0.0282   0.0641   0.0470   0.0052  -0.0481  -0.0101   0.00    2.0
2173 240691.000   -379063.3571  -4940495.0001   4002992.5399   2   7   0.0281   0.0639   0.0468   0.0050  -0.0480  -0.0100   0.00    2.0
2173 240692.000   -379063.3565  -4940495.0159   4002992.5425   2   7   0.0280   0.0637   0.0467   0.0051  -0.0479  -0.0099   0.00    2.0
2173 240693.000   -379063.3577  -4940495.0312   4002992.5550   2   7   0.0280   0.0635   0.0465   0.0053  -0.0477  -0.0099   0.00    1.9
2173 240694.000   -379063.3612  -4940495.0462   4002992.5589   2   7   0.0280   0.0632   0.0464   0.0056  -0.0476  -0.0099   0.00    1.9
2173 240695.000   -379063.3619  -4940495.0542   4002992.5668   2   7   0.0279   0.0630   0.0462   0.0055  -0.0475  -0.0097   0.00    1.9
2173 240696.000   -379063.3653  -4940495.0704   4002992.5779   2   7   0.0279   0.0628   0.0460   0.0057  -0.0473  -0.0098   0.00    1.9
2173 240697.000   -379063.3661  -4940495.0832   4002992.5850   2   7   0.0277   0.0626   0.0459   0.0056  -0.0472  -0.0096   0.00    1.9
2173 240698.000   -379063.3687  -4940495.0988   4002992.5976   2   7   0.0276   0.0624   0.0457   0.0057  -0.0470  -0.0096   0.00    1.9
2173 240699.000   -379063.3692  -4940495.1031   4002992.6032   2   7   0.0276   0.0622   0.0456   0.0058  -0.0469  -0.0095   0.00    1.9
2173 240700.000   -379063.3715  -4940495.1138   4002992.6142   2   7   0.0275   0.0619   0.0454   0.0058  -0.0468  -0.0094   0.00    1.8
2173 240701.000   -379063.3716  -4940495.1238   4002992.6242   2   7   0.0274   0.0617   0.0453   0.0058  -0.0467  -0.0094   0.00    1.8
2173 240702.000   -379063.3726  -4940495.1352   4002992.6367   2   7   0.0274   0.0615   0.0451   0.0059  -0.0465  -0.0094   0.00    1.8
2173 240703.000   -379063.3721  -4940495.1490   4002992.6447   2   7   0.0273   0.0613   0.0450   0.0060  -0.0464  -0.0093   0.00    1.8
2173 240704.000   -379063.3709  -4940495.1597   4002992.6547   2   7   0.0273   0.0611   0.0448   0.0061  -0.0463  -0.0093   0.00    1.8
2173 240705.000   -379063.3712  -4940495.1635   4002992.6600   2   7   0.0272   0.0609   0.0447   0.0062  -0.0462  -0.0093   0.00    1.8
2173 240706.000   -379063.3696  -4940495.1793   4002992.6655   2   7   0.0271   0.0607   0.0445   0.0060  -0.0460  -0.0092   0.00    1.8
2173 240707.000   -379063.3669  -4940495.1940   4002992.6689   2   7   0.0270   0.0605   0.0444   0.0060  -0.0459  -0.0090   0.00    1.8
2173 240708.000   -379063.3651  -4940495.2056   4002992.6723   2   7   0.0270   0.0603   0.0442   0.0062  -0.0458  -0.0090   0.00    1.8
2173 240709.000   -379063.3624  -4940495.2215   4002992.6821   2   7   0.0268   0.0601   0.0441   0.0062  -0.0456  -0.0090   0.00    1.8
2173 240710.000   -379063.3595  -4940495.2403   4002992.6885   2   7   0.0268   0.0599   0.0439   0.0063  -0.0455  -0.0090   0.00    1.8
2173 240711.000   -379063.3581  -4940495.2540   4002992.6937   2   7   0.0267   0.0597   0.0438   0.0063  -0.0454  -0.0089   0.00    1.8
2173 240712.000   -379063.3575  -4940495.2678   4002992.7015   2   7   0.0266   0.0595   0.0436   0.0063  -0.0453  -0.0089   0.00    1.7
2173 240713.000   -379063.3557  -4940495.2867   4002992.7101   2   7   0.0266   0.0593   0.0435   0.0064  -0.0451  -0.0089   0.00    1.7
2173 240714.000   -379063.3554  -4940495.3028   4002992.7162   2   7   0.0266   0.0591   0.0434   0.0064  -0.0450  -0.0088   0.00    1.7
2173 240715.000   -379063.3503  -4940495.3206   4002992.7274   2   7   0.0265   0.0589   0.0432   0.0066  -0.0449  -0.0088   0.00    1.7
2173 240716.000   -379063.3499  -4940495.3362   4002992.7364   2   7   0.0265   0.0587   0.0431   0.0066  -0.0448  -0.0088   0.00    1.7
2173 240717.000   -379063.3467  -4940495.3453   4002992.7378   2   7   0.0264   0.0585   0.0430   0.0067  -0.0447  -0.0087   0.00    1.7
2173 240718.000   -379063.3452  -4940495.3578   4002992.7480   2   7   0.0263   0.0584   0.0428   0.0066  -0.0445  -0.0086   0.00    1.7
2173 240719.000   -379063.3451  -4940495.3650   4002992.7539   2   7   0.0262   0.0582   0.0427   0.0066  -0.0444  -0.0086   0.00    1.7
2173 240720.000   -379063.3435  -4940495.3817   4002992.7605   2   7   0.0261   0.0580   0.0426   0.0068  -0.0443  -0.0085   0.00    1.7
2173 240721.000   -379063.3405  -4940495.3823   4002992.7620   2   7   0.0260   0.0578   0.0424   0.0066  -0.0442  -0.0085   0.00    1.7
2173 240722.000   -379063.3403  -4940495.3948   4002992.7643   2   7   0.0261   0.0576   0.0423   0.0068  -0.0440  -0.0085   0.00    1.7
2173 240723.000   -379063.3377  -4940495.4013   4002992.7661   2   7   0.0261   0.0574   0.0421   0.0070  -0.0439  -0.0085   0.00    1.7
2173 240724.000   -379063.3373  -4940495.4158   4002992.7676   2   7   0.0260   0.0572   0.0421   0.0069  -0.0439  -0.0085   0.00    1.7
2173 240725.000   -379063.3377  -4940495.4270   4002992.7688   2   7   0.0259   0.0571   0.0419   0.0070  -0.0437  -0.0083   0.00    1.7
2173 240726.000   -379063.3350  -4940495.4345   4002992.7669   2   7   0.0258   0.0569   0.0418   0.0068  -0.0436  -0.0083   0.00    1.7
2173 240727.000   -379063.3339  -4940495.4427   4002992.7586   2   7   0.0257   0.0567   0.0417   0.0069  -0.0435  -0.0082   0.00    1.7
2173 240728.000   -379063.3347  -4940495.4538   4002992.7707   2   7   0.0257   0.0565   0.0415   0.0069  -0.0434  -0.0082   0.00    1.7
2173 240729.000   -379063.3342  -4940495.4623   4002992.7719   2   7   0.0256   0.0564   0.0414   0.0070  -0.0432  -0.0080   0.00    1.7
2173 240730.000   -379063.3289  -4940495.4739   4002992.7742   2   7   0.0255   0.0562   0.0413   0.0069  -0.0431  -0.0080   0.00    1.7
2173 240731.000   -379063.3297  -4940495.4809   4002992.7768   2   7   0.0256   0.0560   0.0411   0.0071  -0.0430  -0.0081   0.00    1.7
2173 240732.000   -379063.3283  -4940495.4933   4002992.7799   2   7   0.0255   0.0558   0.0410   0.0070  -0.0429  -0.0081   0.00    1.7
2173 240733.000   -379063.3265  -4940495.5036   4002992.7810   2   7   0.0253   0.0557   0.0409   0.0071  -0.0428  -0.0081   0.00    1.7
2173 240734.000   -379063.3245  -4940495.5152   4002992.7828   2   7   0.0253   0.0555   0.0408   0.0071  -0.0427  -0.0080   0.00    1.7
2173 240735.000   -379063.3238  -4940495.5497   4002992.7927   2   7   0.0254   0.0553   0.0406   0.0072  -0.0426  -0.0080   0.00    1.7
2173 240736.000   -379063.3236  -4940495.5546   4002992.7906   2   7   0.0252   0.0552   0.0405   0.0070  -0.0425  -0.0079   0.00    1.7
2173 240737.000   -379063.3215  -4940495.5715   4002992.7917   2   7   0.0252   0.0550   0.0404   0.0070  -0.0423  -0.0078   0.00    1.7
2173 240738.000   -379063.3202  -4940495.5777   4002992.7926   2   7   0.0252   0.0548   0.0403   0.0073  -0.0422  -0.0079   0.00    1.7
2173 240739.000   -379063.3160  -4940495.5885   4002992.7943   2   7   0.0251   0.0547   0.0402   0.0072  -0.0422  -0.0078   0.00    1.7
2173 240740.000   -379063.3140  -4940495.5976   4002992.7933   2   7   0.0250   0.0545   0.0401   0.0072  -0.0420  -0.0077   0.00    1.7
2173 240741.000   -379063.3138  -4940495.6098   4002992.7960   2   7   0.0249   0.0543   0.0400   0.0071  -0.0419  -0.0076   0.00    1.7
2173 240742.000   -379063.3089  -4940495.6331   4002992.7967   2   7   0.0249   0.0542   0.0398   0.0072  -0.0418  -0.0076   0.00    1.7
2173 240743.000   -379063.3089  -4940495.6428   4002992.8012   2   7   0.0249   0.0540   0.0397   0.0073  -0.0417  -0.0075   0.00    1.7
2173 240744.000   -379063.3068  -4940495.6525   4002992.8034   2   7   0.0247   0.0538   0.0396   0.0072  -0.0416  -0.0076   0.00    1.7
2173 240745.000   -379063.3034  -4940495.6674   4002992.8105   2   7   0.0248   0.0537   0.0395   0.0072  -0.0415  -0.0075   0.00    1.7
2173 240746.000   -379063.3034  -4940495.6819   4002992.8148   2   7   0.0247   0.0535   0.0394   0.0072  -0.0414  -0.0074   0.00    1.7
2173 240747.000   -379063.3012  -4940495.6914   4002992.8194   2   7   0.0245   0.0534   0.0392   0.0071  -0.0412  -0.0073   0.00    1.7
2173 240748.000   -379063.2989  -4940495.7045   4002992.8227   2   7   0.0247   0.0532   0.0391   0.0073  -0.0412  -0.0075   0.00    1.7
2173 240749.000   -379063.2991  -4940495.7119   4002992.8275   2   7   0.0245   0.0531   0.0391   0.0073  -0.0411  -0.0074   0.00    1.7
2173 240750.000   -379063.2993  -4940495.7222   4002992.8331   2   7   0.0245   0.0529   0.0389   0.0073  -0.0409  -0.0074   0.00    1.7
2173 240751.000   -379063.2964  -4940495.7241   4002992.8292   2   7   0.0244   0.0527   0.0388   0.0074  -0.0408  -0.0074   0.00    1.7
2173 240752.000   -379063.2951  -4940495.7327   4002992.8338   2   7   0.0244   0.0526   0.0387   0.0074  -0.0407  -0.0072   0.00    1.7
2173 240753.000   -379063.2956  -4940495.7392   4002992.8369   2   7   0.0243   0.0524   0.0386   0.0074  -0.0406  -0.0072   0.00    1.7
2173 240754.000   -379063.2907  -4940495.7446   4002992.8356   2   7   0.0243   0.0523   0.0385   0.0074  -0.0406  -0.0072   0.00    1.7
2173 240755.000   -379063.2902  -4940495.7507   4002992.8350   2   7   0.0242   0.0521   0.0383   0.0074  -0.0404  -0.0072   0.00    1.7
2173 240756.000   -379063.2897  -4940495.7596   4002992.8394   2   7   0.0241   0.0520   0.0382   0.0074  -0.0403  -0.0072   0.00    1.7
2173 240757.000   -379063.2905  -4940495.7679   4002992.8443   2   7   0.0242   0.0518   0.0381   0.0075  -0.0402  -0.0072   0.00    1.7
2173 240758.000   -379063.2915  -4940495.7747   4002992.8458   2   7   0.0240   0.0517   0.0381   0.0074  -0.0401  -0.0072   0.00    1.7
2173 240759.000   -379063.2934  -4940495.7891   4002992.8529   2   7   0.0240   0.0515   0.0379   0.0074  -0.0400  -0.0070   0.00    1.7
2173 240760.000   -379063.2917  -4940495.7918   4002992.8497   2   7   0.0241   0.0514   0.0378   0.0075  -0.0399  -0.0071   0.00    1.7
2173 240761.000   -379063.2921  -4940495.7983   4002992.8513   2   7   0.0240   0.0513   0.0377   0.0075  -0.0398  -0.0070   0.00    1.6
2173 240762.000   -379063.2929  -4940495.8097   4002992.8542   2   7   0.0239   0.0511   0.0376   0.0075  -0.0397  -0.0070   0.00    1.6
2173 240763.000   -379063.2936  -4940495.8196   4002992.8558   2   7   0.0239   0.0510   0.0375   0.0076  -0.0396  -0.0070   0.00    1.6
2173 240764.000   -379063.2924  -4940495.8302   4002992.8577   2   7   0.0238   0.0508   0.0374   0.0074  -0.0395  -0.0069   0.00    1.6
2173 240765.000   -379063.2924  -4940495.8330   4002992.8581   2   7   0.0237   0.0507   0.0373   0.0075  -0.0394  -0.0069   0.00    1.6
2173 240766.000   -379063.2945  -4940495.8440   4002992.8632   2   7   0.0237   0.0505   0.0372   0.0076  -0.0393  -0.0068   0.00    1.6
2173 240767.000   -379063.2952  -4940495.8496   4002992.8659   2   7   0.0236   0.0504   0.0371   0.0075  -0.0392  -0.0068   0.00    1.6
2173 240768.000   -379063.2975  -4940495.8599   4002992.8718   2   7   0.0236   0.0502   0.0370   0.0076  -0.0392  -0.0068   0.00    1.6
2173 240769.000   -379063.2950  -4940495.8727   4002992.8747   2   7   0.0235   0.0501   0.0369   0.0075  -0.0390  -0.0068   0.00    1.6
2173 240770.000   -379063.2945  -4940495.8886   4002992.8816   2   7   0.0235   0.0500   0.0368   0.0076  -0.0389  -0.0068   0.00    1.6
2173 240771.000   -379063.2931  -4940495.8960   4002992.8799   2   7   0.0235   0.0498   0.0367   0.0075  -0.0389  -0.0067   0.00    1.6
2173 240772.000   -379063.2924  -4940495.9054   4002992.8843   2   7   0.0234   0.0497   0.0366   0.0076  -0.0387  -0.0067   0.00    1.6
2173 240773.000   -379063.2921  -4940495.9168   4002992.8889   2   7   0.0234   0.0496   0.0365   0.0076  -0.0386  -0.0067   0.00    1.6
2173 240774.000   -379063.2896  -4940495.9236   4002992.8888   2   7   0.0233   0.0494   0.0364   0.0075  -0.0385  -0.0067   0.00    1.6
2173 240775.000   -379063.2882  -4940495.9390   4002992.8928   2   7   0.0233   0.0493   0.0362   0.0075  -0.0384  -0.0066   0.00    1.6
2173 240776.000   -379063.2893  -4940495.9553   4002992.9006   2   7   0.0232   0.0491   0.0362   0.0076  -0.0383  -0.0065   0.00    1.6
2173 240777.000   -379063.2864  -4940495.9762   4002992.9058   2   7   0.0231   0.0490   0.0361   0.0075  -0.0383  -0.0064   0.00    1.6
2173 240778.000   -379063.2871  -4940495.9971   4002992.9147   2   7   0.0232   0.0489   0.0360   0.0077  -0.0382  -0.0066   0.00    1.6
2173 240779.000   -379063.2865  -4940496.0122   4002992.9211   2   7   0.0231   0.0487   0.0359   0.0076  -0.0381  -0.0065   0.00    1.6
2173 240780.000   -379063.2881  -4940496.0291   4002992.9303   2   7   0.0230   0.0486   0.0358   0.0075  -0.0380  -0.0064   0.00    1.6
2173 240781.000   -379063.2873  -4940496.0327   4002992.9357   2   7   0.0230   0.0485   0.0357   0.0076  -0.0379  -0.0065   0.00    1.6
2173 240782.000   -379063.2865  -4940496.0452   4002992.9404   2   7   0.0229   0.0483   0.0356   0.0074  -0.0378  -0.0064   0.00    1.6
2173 240783.000   -379063.2855  -4940496.0567   4002992.9473   2   7   0.0229   0.0482   0.0355   0.0077  -0.0377  -0.0064   0.00    1.6
2173 240784.000   -379063.2843  -4940496.0720   4002992.9547   2   7   0.0230   0.0481   0.0354   0.0077  -0.0376  -0.0064   0.00    1.6
2173 240785.000   -379063.2856  -4940496.0826   4002992.9572   2   7   0.0228   0.0479   0.0353   0.0075  -0.0375  -0.0063   0.00    1.6
2173 240786.000   -379063.2809  -4940496.0955   4002992.9564   2   7   0.0227   0.0478   0.0353   0.0076  -0.0374  -0.0063   0.00    1.6
2173 240787.000   -379063.2818  -4940496.0955   4002992.9557   2   7   0.0227   0.0477   0.0352   0.0075  -0.0374  -0.0062   0.00    1.6
2173 240788.000   -379063.2820  -4940496.1194   4002992.9715   2   7   0.0227   0.0475   0.0350   0.0077  -0.0373  -0.0064   0.00    1.6
2173 240789.000   -379063.2809  -4940496.1344   4002992.9751   2   7   0.0226   0.0474   0.0350   0.0077  -0.0372  -0.0063   0.00    1.6
2173 240790.000   -379063.2836  -4940496.1455   4002992.9853   2   7   0.0226   0.0473   0.0349   0.0076  -0.0371  -0.0062   0.00    1.6
2173 240791.000   -379063.2861  -4940496.1586   4002992.9920   2   7   0.0225   0.0472   0.0348   0.0076  -0.0370  -0.0063   0.00    1.6
2173 240792.000   -379063.2886  -4940496.1684   4002992.9962   2   7   0.0226   0.0471   0.0347   0.0076  -0.0369  -0.0063   0.00    1.6
2173 240793.000   -379063.2907  -4940496.1735   4002993.0020   2   7   0.0225   0.0469   0.0346   0.0077  -0.0368  -0.0062   0.00    1.6
2173 240794.000   -379063.2908  -4940496.1804   4002993.0055   2   7   0.0225   0.0468   0.0345   0.0076  -0.0367  -0.0062   0.00    1.6
2173 240795.000   -379063.2842  -4940496.1679   4002993.0198   2   7   0.0224   0.0467   0.0344   0.0077  -0.0366  -0.0062   0.00    1.6
2173 240796.000   -379063.2877  -4940496.1824   4002993.0252   2   7   0.0224   0.0466   0.0343   0.0076  -0.0365  -0.0061   0.00    1.6
2173 240797.000   -379063.2892  -4940496.1965   4002993.0299   2   7   0.0224   0.0465   0.0343   0.0076  -0.0364  -0.0060   0.00    1.6
2173 240798.000   -379063.2804  -4940496.1862   4002993.0337   2   7   0.0223   0.0463   0.0342   0.0076  -0.0364  -0.0059   0.00    1.6
2173 240799.000   -379063.2826  -4940496.1941   4002993.0329   2   7   0.0222   0.0462   0.0341   0.0076  -0.0363  -0.0060   0.00    1.6
2173 240800.000   -379063.2817  -4940496.1964   4002993.0327   2   7   0.0222   0.0461   0.0340   0.0076  -0.0362  -0.0060   0.00    1.6
2173 240801.000   -379063.2850  -4940496.2008   4002993.0294   2   7   0.0221   0.0460   0.0339   0.0077  -0.0361  -0.0060   0.00    1.6
2173 240802.000   -379063.2830  -4940496.2055   4002993.0263   2   7   0.0221   0.0459   0.0338   0.0077  -0.0360  -0.0061   0.00    1.6
2173 240803.000   -379063.2837  -4940496.2028   4002993.0236   2   7   0.0221   0.0457   0.0337   0.0077  -0.0359  -0.0060   0.00    1.6
2173 240804.000   -379063.2837  -4940496.2127   4002993.0266   2   7   0.0221   0.0456   0.0336   0.0076  -0.0358  -0.0060   0.00    1.6
2173 240805.000   -379063.2844  -4940496.2128   4002993.0245   2   7   0.0221   0.0455   0.0335   0.0077  -0.0357  -0.0060   0.00    1.6
2173 240806.000   -379063.2846  -4940496.2234   4002993.0260   2   7   0.0220   0.0454   0.0335   0.0076  -0.0357  -0.0059   0.00    1.6
2173 240807.000   -379063.2855  -4940496.2219   4002993.0230   2   7   0.0220   0.0453   0.0333   0.0078  -0.0356  -0.0058   0.00    1.6
2173 240808.000   -379063.2851  -4940496.2239   4002993.0268   2   7   0.0219   0.0452   0.0333   0.0076  -0.0355  -0.0057   0.00    1.7
2173 240809.000   -379063.2854  -4940496.2199   4002993.0187   2   7   0.0218   0.0450   0.0332   0.0076  -0.0354  -0.0057   0.00    1.7
2173 240810.000   -379063.2890  -4940496.2183   4002993.0181   2   7   0.0218   0.0449   0.0331   0.0076  -0.0353  -0.0059   0.00    1.7
2173 240811.000   -379063.2899  -4940496.2181   4002993.0174   2   7   0.0217   0.0448   0.0331   0.0078  -0.0353  -0.0059   0.00    1.7
2173 240812.000   -379063.2890  -4940496.2240   4002993.0180   2   7   0.0217   0.0447   0.0329   0.0076  -0.0352  -0.0057   0.00    1.7
2173 240813.000   -379063.2899  -4940496.2214   4002993.0148   2   7   0.0217   0.0446   0.0329   0.0077  -0.0351  -0.0058   0.00    1.7
2173 240814.000   -379063.2907  -4940496.2232   4002993.0117   2   7   0.0216   0.0445   0.0328   0.0075  -0.0350  -0.0057   0.00    1.7
2173 240815.000   -379063.2911  -4940496.2244   4002993.0084   2   7   0.0217   0.0444   0.0327   0.0077  -0.0349  -0.0057   0.00    1.7
2173 240816.000   -379063.2899  -4940496.2291   4002993.0069   2   7   0.0215   0.0442   0.0327   0.0076  -0.0349  -0.0056   0.00    1.7
2173 240817.000   -379063.2934  -4940496.2235   4002993.0027   2   7   0.0215   0.0441   0.0326   0.0076  -0.0348  -0.0056   0.00    1.7
2173 240818.000   -379063.2914  -4940496.2284   4002993.0016   2   7   0.0216   0.0440   0.0325   0.0077  -0.0347  -0.0056   0.00    1.7
2173 240819.000   -379063.2911  -4940496.2339   4002992.9984   2   7   0.0215   0.0439   0.0324   0.0077  -0.0346  -0.0057   0.00    1.7
2173 240820.000   -379063.2906  -4940496.2385   4002992.9991   2   7   0.0214   0.0438   0.0323   0.0076  -0.0345  -0.0056   0.00    1.7
2173 240821.000   -379063.2890  -4940496.2411   4002992.9950   2   7   0.0215   0.0437   0.0323   0.0077  -0.0344  -0.0056   0.00    1.7
2173 240822.000   -379063.2903  -4940496.2436   4002992.9947   2   7   0.0214   0.0436   0.0321   0.0076  -0.0343  -0.0056   0.00    1.7
2173 240823.000   -379063.2882  -4940496.2442   4002992.9887   2   7   0.0214   0.0435   0.0321   0.0077  -0.0343  -0.0056   0.00    1.7
2173 240824.000   -379063.2884  -4940496.2504   4002992.9902   2   7   0.0214   0.0434   0.0320   0.0077  -0.0342  -0.0056   0.00    1.7
2173 240825.000   -379063.2868  -4940496.2522   4002992.9882   2   7   0.0213   0.0433   0.0319   0.0076  -0.0341  -0.0055   0.00    1.7
2173 240826.000   -379063.2843  -4940496.2470   4002992.9859   2   7   0.0212   0.0432   0.0319   0.0076  -0.0340  -0.0054   0.00    1.7
2173 240827.000   -379063.2829  -4940496.2469   4002992.9785   2   7   0.0211   0.0431   0.0318   0.0076  -0.0340  -0.0054   0.00    1.7
2173 240828.000   -379063.2821  -4940496.2489   4002992.9774   2   7   0.0212   0.0430   0.0316   0.0077  -0.0338  -0.0057   0.00    1.7
2173 240829.000   -379063.2792  -4940496.2514   4002992.9780   2   7   0.0211   0.0428   0.0316   0.0077  -0.0338  -0.0055   0.00    1.7
2173 240830.000   -379063.2806  -4940496.2527   4002992.9763   2   7   0.0210   0.0428   0.0316   0.0076  -0.0337  -0.0054   0.00    1.7
2173 240831.000   -379063.2774  -4940496.2578   4002992.9763   2   7   0.0211   0.0426   0.0315   0.0076  -0.0337  -0.0053   0.00    1.7
2173 240832.000   -379063.2790  -4940496.2571   4002992.9744   2   7   0.0211   0.0426   0.0314   0.0076  -0.0336  -0.0054   0.00    1.7
2173 240833.000   -379063.2758  -4940496.2639   4002992.9728   2   7   0.0209   0.0424   0.0313   0.0076  -0.0335  -0.0053   0.00    1.7
2173 240834.000   -379063.2748  -4940496.2671   4002992.9736   2   7   0.0208   0.0423   0.0312   0.0074  -0.0334  -0.0052   0.00    1.7
2173 240835.000   -379063.2711  -4940496.2696   4002992.9744   2   7   0.0209   0.0422   0.0312   0.0075  -0.0333  -0.0054   0.00    1.7
2173 240836.000   -379063.2709  -4940496.2715   4002992.9753   2   7   0.0209   0.0422   0.0311   0.0077  -0.0333  -0.0055   0.00    1.7
2173 240837.000   -379063.2694  -4940496.2754   4002992.9737   2   7   0.0208   0.0420   0.0310   0.0076  -0.0332  -0.0055   0.00    1.7
2173 240838.000   -379063.2694  -4940496.2754   4002992.9720   2   7   0.0208   0.0419   0.0310   0.0076  -0.0332  -0.0053   0.00    1.7
2173 240839.000   -379063.2675  -4940496.2804   4002992.9734   2   7   0.0207   0.0418   0.0308   0.0075  -0.0331  -0.0053   0.00    1.7
2173 240840.000   -379063.2666  -4940496.2869   4002992.9714   2   7   0.0208   0.0417   0.0308   0.0076  -0.0330  -0.0052   0.00    1.7
2173 240841.000   -379063.2682  -4940496.2822   4002992.9721   2   7   0.0208   0.0416   0.0308   0.0076  -0.0329  -0.0052   0.00    1.7
2173 240842.000   -379063.2681  -4940496.2858   4002992.9694   2   7   0.0207   0.0415   0.0306   0.0076  -0.0328  -0.0051   0.00    1.7
2173 240843.000   -379063.2671  -4940496.2919   4002992.9697   2   7   0.0206   0.0414   0.0306   0.0076  -0.0328  -0.0052   0.00    1.7
2173 240844.000   -379063.2675  -4940496.2889   4002992.9678   2   7   0.0206   0.0413   0.0305   0.0076  -0.0327  -0.0051   0.00    1.7
2173 240845.000   -379063.2661  -4940496.2845   4002992.9605   2   7   0.0206   0.0412   0.0304   0.0077  -0.0326  -0.0052   0.00    1.7
2173 240846.000   -379063.2664  -4940496.2915   4002992.9563   2   7   0.0206   0.0412   0.0304   0.0076  -0.0326  -0.0052   0.00    1.7
2173 240847.000   -379063.2651  -4940496.2786   4002992.9448   2   7   0.0205   0.0410   0.0303   0.0075  -0.0325  -0.0052   0.00    1.7
2173 240848.000   -379063.2589  -4940496.2902   4002992.9515   2   7   0.0207   0.0410   0.0302   0.0077  -0.0324  -0.0053   0.00    1.7
2173 240849.000   -379063.2585  -4940496.2958   4002992.9470   2   7   0.0205   0.0409   0.0302   0.0076  -0.0323  -0.0052   0.00    1.7
2173 240850.000   -379063.2583  -4940496.3016   4002992.9450   2   7   0.0204   0.0408   0.0301   0.0075  -0.0323  -0.0051   0.00    1.7
2173 240851.000   -379063.2579  -4940496.2991   4002992.9432   2   7   0.0204   0.0407   0.0300   0.0076  -0.0322  -0.0052   0.00    1.7
2173 240852.000   -379063.2577  -4940496.3089   4002992.9463   2   7   0.0204   0.0406   0.0300   0.0074  -0.0321  -0.0051   0.00    1.7
2173 240853.000   -379063.2562  -4940496.3064   4002992.9441   2   7   0.0203   0.0405   0.0298   0.0075  -0.0321  -0.0051   0.00    1.7
2173 240854.000   -379063.2562  -4940496.3114   4002992.9393   2   7   0.0203   0.0404   0.0298   0.0075  -0.0320  -0.0049   0.00    1.7
2173 240855.000   -379063.2540  -4940496.3001   4002992.9162   2   7   0.0203   0.0403   0.0298   0.0076  -0.0319  -0.0050   0.00    1.7
2173 240856.000   -379063.2523  -4940496.3010   4002992.9173   2   7   0.0202   0.0402   0.0297   0.0075  -0.0318  -0.0050   0.00    1.7
2173 240857.000   -379063.2512  -4940496.3042   4002992.9140   2   7   0.0202   0.0401   0.0296   0.0075  -0.0317  -0.0050   0.00    1.7
2173 240858.000   -379063.2506  -4940496.3016   4002992.9158   2   7   0.0201   0.0400   0.0296   0.0076  -0.0317  -0.0051   0.00    1.7
2173 240859.000   -379063.2470  -4940496.3060   4002992.9137   2   7   0.0201   0.0399   0.0295   0.0074  -0.0316  -0.0048   0.00    1.7
2173 240860.000   -379063.2447  -4940496.3039   4002992.9107   2   7   0.0200   0.0398   0.0294   0.0074  -0.0316  -0.0050   0.00    1.7
2173 240861.000   -379063.2460  -4940496.3096   4002992.9109   2   7   0.0201   0.0398   0.0293   0.0076  -0.0315  -0.0051   0.00    1.7
2173 240862.000   -379063.2455  -4940496.3047   4002992.9093   2   7   0.0200   0.0397   0.0292   0.0076  -0.0314  -0.0050   0.00    1.7
2173 240863.000   -379063.2433  -4940496.3098   4002992.9096   2   7   0.0200   0.0396   0.0292   0.0075  -0.0313  -0.0049   0.00    1.7
2173 240864.000   -379063.2432  -4940496.3081   4002992.9065   2   7   0.0199   0.0395   0.0292   0.0074  -0.0313  -0.0050   0.00    1.7
2173 240865.000   -379063.2433  -4940496.3120   4002992.9068   2   7   0.0199   0.0394   0.0291   0.0075  -0.0312  -0.0049   0.00    1.7
2173 240866.000   -379063.2420  -4940496.3160   4002992.9051   2   7   0.0199   0.0393   0.0290   0.0075  -0.0311  -0.0048   0.00    1.7
2173 240867.000   -379063.2441  -4940496.3222   4002992.9062   2   7   0.0199   0.0392   0.0290   0.0074  -0.0311  -0.0049   0.00    1.7
2173 240868.000   -379063.2442  -4940496.3204   4002992.9053   2   7   0.0198   0.0391   0.0288   0.0076  -0.0310  -0.0050   0.00    1.7
2173 240869.000   -379063.2442  -4940496.3240   4002992.9063   2   7   0.0198   0.0391   0.0288   0.0074  -0.0309  -0.0048   0.00    1.7
2173 240870.000   -379063.2459  -4940496.3259   4002992.9069   2   7   0.0197   0.0390   0.0288   0.0075  -0.0309  -0.0049   0.00    1.7
2173 240871.000   -379063.2460  -4940496.3168   4002992.9049   2   7   0.0198   0.0389   0.0287   0.0075  -0.0308  -0.0049   0.00    1.7
2173 240872.000   -379063.2440  -4940496.3150   4002992.8983   2   7   0.0197   0.0388   0.0287   0.0075  -0.0308  -0.0049   0.00    1.7
2173 240873.000   -379063.2453  -4940496.3112   4002992.8952   2   7   0.0197   0.0387   0.0286   0.0075  -0.0307  -0.0048   0.00    1.7
2173 240874.000   -379063.2440  -4940496.3091   4002992.8932   2   7   0.0197   0.0386   0.0285   0.0076  -0.0306  -0.0049   0.00    1.7
2173 240875.000   -379063.2441  -4940496.3010   4002992.8873   2   7   0.0196   0.0385   0.0284   0.0075  -0.0305  -0.0049   0.00    1.7
2173 240876.000   -379063.2441  -4940496.2970   4002992.8835   2   7   0.0196   0.0384   0.0284   0.0075  -0.0305  -0.0048   0.00    1.7
2173 240877.000   -379063.2428  -4940496.2971   4002992.8816   2   7   0.0196   0.0384   0.0283   0.0075  -0.0304  -0.0048   0.00    1.7
2173 240878.000   -379063.2423  -4940496.2955   4002992.8772   2   7   0.0195   0.0383   0.0282   0.0074  -0.0304  -0.0046   0.00    1.7
2173 240879.000   -379063.2459  -4940496.2932   4002992.8750   2   7   0.0195   0.0382   0.0282   0.0074  -0.0303  -0.0049   0.00    1.7
2173 240880.000   -379063.2456  -4940496.2971   4002992.8733   2   7   0.0196   0.0381   0.0282   0.0076  -0.0302  -0.0051   0.00    1.7
2173 240881.000   -379063.2479  -4940496.2976   4002992.8680   2   7   0.0195   0.0380   0.0281   0.0075  -0.0302  -0.0049   0.00    1.7
2173 240882.000   -379063.2494  -4940496.3010   4002992.8656   2   7   0.0193   0.0379   0.0280   0.0072  -0.0301  -0.0045   0.00    1.7
2173 240883.000   -379063.2497  -4940496.3004   4002992.8606   2   7   0.0194   0.0379   0.0280   0.0074  -0.0301  -0.0047   0.00    1.7
2173 240884.000   -379063.2515  -4940496.2979   4002992.8590   2   7   0.0195   0.0378   0.0279   0.0075  -0.0300  -0.0049   0.00    1.7
2173 240885.000   -379063.2521  -4940496.2901   4002992.8500   2   7   0.0195   0.0377   0.0278   0.0075  -0.0299  -0.0048   0.00    1.7
2173 240886.000   -379063.2544  -4940496.2864   4002992.8482   2   7   0.0193   0.0376   0.0278   0.0074  -0.0298  -0.0047   0.00    1.7
2173 240887.000   -379063.2518  -4940496.2850   4002992.8420   2   7   0.0192   0.0375   0.0277   0.0073  -0.0298  -0.0045   0.00    1.7
2173 240888.000   -379063.2546  -4940496.2768   4002992.8386   2   7   0.0193   0.0375   0.0277   0.0074  -0.0297  -0.0047   0.00    1.7
2173 240889.000   -379063.2521  -4940496.2769   4002992.8384   2   7   0.0192   0.0374   0.0276   0.0075  -0.0296  -0.0048   0.00    1.7
2173 240890.000   -379063.2527  -4940496.2750   4002992.8356   2   7   0.0193   0.0373   0.0275   0.0074  -0.0296  -0.0047   0.00    1.7
2173 240891.000   -379063.2538  -4940496.2698   4002992.8305   2   7   0.0191   0.0372   0.0275   0.0074  -0.0295  -0.0047   0.00    1.7
2173 240892.000   -379063.2574  -4940496.2705   4002992.8301   2   7   0.0191   0.0371   0.0274   0.0074  -0.0295  -0.0047   0.00    1.7
2173 240893.000   -379063.2612  -4940496.2629   4002992.8272   2   7   0.0192   0.0371   0.0274   0.0074  -0.0294  -0.0046   0.00    1.7
2173 240894.000   -379063.2611  -4940496.2617   4002992.8233   2   7   0.0192   0.0370   0.0273   0.0074  -0.0294  -0.0047   0.00    1.7
2173 240895.000   -379063.2629  -4940496.2594   4002992.8210   2   7   0.0191   0.0369   0.0272   0.0074  -0.0293  -0.0047   0.00    1.7
2173 240896.000   -379063.2639  -4940496.2597   4002992.8172   2   7   0.0190   0.0368   0.0273   0.0073  -0.0292  -0.0045   0.00    1.7
2173 240897.000   -379063.2654  -4940496.2540   4002992.8143   2   7   0.0190   0.0367   0.0271   0.0073  -0.0292  -0.0044   0.00    1.7
2173 240898.000   -379063.2678  -4940496.2469   4002992.8115   2   7   0.0191   0.0367   0.0271   0.0075  -0.0291  -0.0047   0.00    1.7
2173 240899.000   -379063.2670  -4940496.2420   4002992.8065   2   7   0.0189   0.0366   0.0270   0.0074  -0.0291  -0.0045   0.00    1.7
2173 240900.000   -379063.2680  -4940496.2374   4002992.8052   2   7   0.0190   0.0365   0.0270   0.0074  -0.0290  -0.0045   0.00    1.7
2173 240901.000   -379063.2666  -4940496.2322   4002992.8011   2   7   0.0190   0.0364   0.0269   0.0072  -0.0289  -0.0044   0.00    1.7
2173 240902.000   -379063.2671  -4940496.2290   4002992.7958   2   7   0.0190   0.0364   0.0268   0.0073  -0.0288  -0.0046   0.00    1.7
2173 240903.000   -379063.2658  -4940496.2291   4002992.7957   2   7   0.0188   0.0363   0.0268   0.0073  -0.0288  -0.0046   0.00    1.7
2173 240904.000   -379063.2650  -4940496.2269   4002992.7949   2   7   0.0188   0.0362   0.0268   0.0072  -0.0287  -0.0044   0.00    1.7
2173 240905.000   -379063.2663  -4940496.2280   4002992.7929   2   7   0.0187   0.0361   0.0266   0.0072  -0.0287  -0.0043   0.00    1.7
2173 240906.000   -379063.2640  -4940496.2202   4002992.7857   2   7   0.0189   0.0361   0.0266   0.0075  -0.0286  -0.0045   0.00    1.7
2173 240907.000   -379063.2644  -4940496.2151   4002992.7783   2   7   0.0188   0.0360   0.0266   0.0074  -0.0286  -0.0045   0.00    1.7
2173 240908.000   -379063.2643  -4940496.2263   4002992.7881   2   7   0.0187   0.0359   0.0266   0.0071  -0.0286  -0.0044   0.00    1.7
2173 240909.000   -379063.2649  -4940496.2218   4002992.7835   2   7   0.0187   0.0358   0.0265   0.0073  -0.0285  -0.0045   0.00    1.7
2173 240910.000   -379063.2671  -4940496.2320   4002992.7861   2   7   0.0187   0.0358   0.0264   0.0072  -0.0284  -0.0046   0.00    1.7
2173 240911.000   -379063.2684  -4940496.2374   4002992.7822   2   7   0.0186   0.0357   0.0264   0.0071  -0.0284  -0.0043   0.00    1.7
2173 240912.000   -379063.2681  -4940496.2399   4002992.7824   2   7   0.0186   0.0356   0.0263   0.0073  -0.0283  -0.0046   0.00    1.7
2173 240913.000   -379063.2720  -4940496.2349   4002992.7801   2   7   0.0186   0.0355   0.0263   0.0072  -0.0283  -0.0043   0.00    1.7
2173 240914.000   -379063.2657  -4940496.2393   4002992.7754   2   8   0.0187   0.0355   0.0262   0.0074  -0.0281  -0.0047   0.00    1.0
2173 240915.000   -379063.2648  -4940496.2257   4002992.7673   2   8   0.0185   0.0354   0.0261   0.0072  -0.0281  -0.0040   0.00    1.0
2173 240916.000   -379063.2656  -4940496.2177   4002992.7635   2   8   0.0185   0.0353   0.0260   0.0071  -0.0280  -0.0039   0.00    1.0
2173 240917.000   -379063.2650  -4940496.2117   4002992.7578   2   8   0.0184   0.0353   0.0259   0.0072  -0.0280  -0.0042   0.00    1.0
2173 240918.000   -379063.2655  -4940496.2045   4002992.7521   2   8   0.0186   0.0352   0.0258   0.0072  -0.0279  -0.0041   0.00    1.0
2173 240919.000   -379063.2653  -4940496.1967   4002992.7451   2   8   0.0185   0.0351   0.0258   0.0071  -0.0278  -0.0039   0.00    1.0
