     2.11           OBSERVATION DATA    M (MIXED)           RINEX VERSION / TYPE
CONVBIN 2.4.3                           20210901 004912 UTC PGM / RUN BY / DATE 
log: logs/21_08_31_18_48_30_moip_SNMO.rtcm                  COMMENT             
format: RTCM 3, station ID: 10                              COMMENT             
0010                                                        MARKER NAME         
                                                            MARKER NUMBER       
                                                            OBSERVER / AGENCY   
1705328             LEICA GR30          4.50                REC # / TYPE / VERS 
                    GPPNULLANTENNA                          ANT # / TYPE        
  -379046.1897 -4940284.4028  4002819.2058                  APPROX POSITION XYZ 
        0.0000        0.0000        0.0000                  ANTENNA: DELTA H/E/N
     1     1                                                WAVELENGTH FACT L1/2
     7    C1    L1    C2    L2    P2    C5    L5            # / TYPES OF OBSERV 
  2021     8    31    18    48   37.0000000     GPS         TIME OF FIRST OBS   
  2021     8    31    19    18   34.0000000     GPS         TIME OF LAST OBS    
                                                            END OF HEADER       
 21  8 31 18 48 37.0000000  0 15G 5G13G15G18G23G29R 4R 5R18R19R20E 5
                                E 9E11E36
  23083693.264   121305626.411    23083692.174    94523857.437    23083691.620  
                                
  21960814.171   115404856.676                    89925853.014    21960811.794  
                                
  20284426.456   106595380.453    20284424.741    83061325.496    20284424.098  
                                
  20393262.029   107167314.946    20393260.367    83506990.844    20393260.046  
  20393264.656    80027550.409  
  21260375.078   111724024.917    21260373.594    87057674.658    21260373.309  
  21260377.615    83430288.127  
  22149690.423   116397408.105    22149689.315    90699272.199    22149688.743  
                                
  19852347.102   106308417.540    19852346.423    82684321.025    19852346.405  
                                
  19757902.829   105617313.417    19757903.472    82146801.748    19757903.544  
                                
  23092273.790   123268125.297    23092277.221    95875222.180    23092277.274  
                                
  19763728.559   105722620.900    19763728.845    82228706.032    19763728.470  
                                
  20245610.132   108262375.413    20245613.009    84204081.573    20245612.008  
                                
  23844062.540   125301395.124                                                  
  23844065.721    93569235.500  
  22406641.970   117747699.024                                                  
  22406644.703    87928485.697  
  25554441.014   134289493.911                                                  
  25554442.444   100281120.809  
  23719318.605   124645861.276                                                  
  23719322.215    93079715.197  
 21  8 31 18 48 38.0000000  0 15G 5G13G15G18G23G29R 4R 5R18R19R20E 5
                                E 9E11E36
  23084225.117   121308421.330    23084224.045    94526035.298    23084223.491  
                                
  21961218.046   115406979.066                    89927506.826    21961215.688  
                                
  20284562.511   106596095.481    20284560.796    83061882.661    20284560.170  
                                
  20393037.505   107166135.028    20393035.825    83506071.427    20393035.504  
  20393040.150    80026669.297  
  21260088.333   111722518.089    21260086.868    87056500.507    21260086.582  
  21260090.889    83429162.894  
  22150291.268   116400565.618    22150290.161    90701732.601    22150289.589  
                                
  19852756.731   106310611.177    19852756.070    82686027.187    19852756.052  
                                
  19757609.455   105615745.230    19757610.099    82145582.049    19757610.188  
                                
  23093019.678   123272106.955    23093023.127    95878319.023    23093023.181  
                                
  19764072.985   105724463.385    19764073.271    82230139.076    19764072.913  
                                
  20245109.442   108259698.091    20245112.319    84201999.217    20245111.318  
                                
  23843782.497   125299923.583                                                  
  23843785.696    93568136.618  
  22406883.898   117748970.432                                                  
  22406886.650    87929435.123  
  25554918.028   134292000.611                                                  
  25554919.457   100282992.689  
  23719488.808   124646755.678                                                  
  23719492.417    93080383.095  
 21  8 31 18 48 39.0000000  0 15G 5G13G15G18G23G29R 4R 5R18R19R20E 5
                                E 9E11E36
  23084756.935   121311216.019    23084755.845    94528212.976    23084755.291  
                                
  21961621.976   115409101.717                    89929160.837    21961619.617  
                                
  20284698.655   106596810.885    20284696.940    83062440.121    20284696.314  
                                
  20392812.981   107164955.177    20392811.301    83505152.063    20392810.979  
  20392815.625    80025788.242  
  21259801.589   111721011.244    21259800.124    87055326.346    21259799.838  
  21259804.127    83428037.655  
  22150892.132   116403723.211    22150891.042    90704193.065    22150890.453  
                                
  19853166.414   106312805.014    19853165.753    82687733.512    19853165.735  
                                
  19757316.153   105614177.356    19757316.797    82144362.599    19757316.868  
                                
  23093765.567   123276088.578    23093769.016    95881415.843    23093769.070  
                                
  19764417.500   105726306.280    19764417.785    82231572.439    19764417.410  
                                
  20244608.823   108257020.972    20244611.700    84199917.020    20244610.699  
                                
  23843502.507   125298452.107                                                  
  23843505.670    93567037.788  
  22407125.863   117750241.893                                                  
  22407128.597    87930384.600  
  25555395.005   134294507.167                                                  
  25555396.435   100284864.476  
  23719659.010   124647650.104                                                  
  23719662.637    93081051.010  
 21  8 31 18 48 40.0000000  0 15G 5G13G15G18G23G29R 4R 5R18R19R20E 5
                                E 9E11E36
  23085288.753   121314010.747    23085287.681    94530390.681    23085287.109  
                                
  21962026.012   115411224.878                    89930815.251    21962023.636  
                                
  20284834.906   106597526.925    20284833.191    83062998.075    20284832.566  
                                
  20392588.528   107163775.646    20392586.848    83504232.948    20392586.527  
  20392591.155    80024907.428  
  21259514.899   111719504.649    21259513.415    87054152.371    21259513.147  
  21259517.436    83426912.597  
  22151493.067   116406881.126    22151491.960    90706653.779    22151491.388  
                                
  19853576.187   106314999.276    19853575.508    82689440.155    19853575.490  
                                
  19757022.976   105612610.070    19757023.602    82143143.598    19757023.691  
                                
  23094511.510   123280070.421    23094514.958    95884512.835    23094515.012  
                                
  19764762.121   105728149.850    19764762.407    82233006.329    19764762.050  
                                
  20244108.276   108254344.310    20244111.153    84197835.172    20244110.152  
                                
  23843222.535   125296980.963                                                  
  23843225.716    93565939.208  
  22407367.881   117751513.669                                                  
  22407370.615    87931334.291  
  25555872.001   134297013.849                                                  
  25555873.431   100286736.358  
  23719829.266   124648544.812                                                  
  23719832.893    93081719.134  
 21  8 31 18 48 41.0000000  0 15G 5G13G15G18G23G29R 4R 5R18R19R20E 5
                                E 9E11E36
  23085820.624   121316805.721    23085819.534    94532568.583    23085818.980  
                                
  21962430.156   115413348.770                    89932470.237    21962427.797  
                                
  20284971.319   106598243.820    20284969.603    83063556.694    20284968.978  
                                
  20392364.164   107162596.658    20392362.485    83503314.256    20392362.163  
  20392366.791    80024027.017  
  21259228.279   111717998.502    21259226.814    87052978.753    21259226.528  
  21259230.817    83425787.888  
  22152094.110   116410039.582    22152093.002    90709114.911    22152092.430  
                                
  19853986.066   106317194.190    19853985.405    82691147.313    19853985.387  
                                
  19756729.924   105611043.605    19756730.567    82141925.234    19756730.639  
                                
  23095257.541   123284052.732    23095260.990    95887610.186    23095261.044  
                                
  19765106.940   105729994.328    19765107.226    82234440.923    19765106.869  
                                
  20243607.836   108251668.326    20243610.713    84195753.850    20243609.712  
                                
  23842942.707   125295510.372                                                  
  23842945.887    93564841.036  
  22407609.970   117752785.969                                                  
  22407612.704    87932284.392  
  25556349.086   134299520.889                                                  
  25556350.534   100288608.494  
  23719999.629   124649440.012                                                  
  23720003.257    93082387.632  
 21  8 31 18 48 42.0000000  0 15G 5G13G15G18G23G29R 4R 5R18R19R20E 5
                                E 9E11E36
  23086352.496   121319600.844    23086351.442    94534746.599    23086350.888  
                                
  21962834.460   115415473.308                    89934125.718    21962832.066  
                                
  20285107.909   106598961.486    20285106.158    83064115.916    20285105.551  
                                
  20392139.890   107161418.143    20392138.229    83502395.932    20392137.925  
  20392142.535    80023146.954  
  21258941.750   111716492.745    21258940.284    87051805.436    21258939.981  
  21258944.287    83424663.462  
  22152695.242   116413198.501    22152694.134    90711576.404    22152693.544  
                                
  19854396.053   106319389.699    19854395.410    82692854.929    19854395.374  
                                
  19756437.033   105609477.901    19756437.658    82140707.462    19756437.766  
                                
  23096003.644   123288035.404    23096007.075    95890707.813    23096007.147  
                                
  19765451.884   105731839.627    19765452.170    82235876.153    19765451.812  
                                
  20243107.521   108248992.948    20243110.416    84193673.001    20243109.416  
                                
  23842662.949   125294040.243                                                  
  23842666.112    93563743.216  
  22407852.167   117754058.716                                                  
  22407854.901    87933234.818  
  25556826.207   134302028.161                                                  
  25556827.654   100290480.808  
  23720170.046   124650335.638                                                  
  23720173.674    93083056.437  
 21  8 31 18 48 43.0000000  0 15G 5G13G15G18G23G29R 4R 5R18R19R20E 5
                                E 9E11E36
  23086884.421   121322396.018    23086883.349    94536924.659    23086882.795  
                                
  21963238.836   115417598.380                    89935781.618    21963236.460  
                                
  20285244.590   106599679.807    20285242.856    83064675.642    20285242.231  
                                
  20391915.688   107160239.962    20391914.008    83501477.869    20391913.686  
  20391918.332    80022267.151  
  21258655.256   111714987.250    21258653.790    87050632.323    21258653.504  
  21258657.793    83423539.222  
  22153296.427   116416357.781    22153295.319    90714038.180    22153294.730  
                                
  19854806.165   106321585.686    19854805.468    82694562.916    19854805.451  
                                
  19756144.249   105607912.838    19756144.892    82139490.194    19756144.982  
                                
  23096749.783   123292018.336    23096753.214    95893805.641    23096753.304  
                                
  19765796.988   105733685.617    19765797.256    82237311.923    19765796.899  
                                
  20242607.314   108246318.051    20242610.191    84191592.527    20242609.190  
                                
  23842383.263   125292570.481                                                  
  23842386.444    93562645.669  
  22408094.417   117755331.800                                                  
  22408097.187    87934185.499  
  25557303.363   134304535.603                                                  
  25557304.811   100292353.226  
  23720340.535   124651231.554                                                  
  23720344.162    93083725.465  
 21  8 31 18 48 44.0000000  0 15G 5G13G15G18G23G29R 4R 5R18R19R20E 5
                                E 9E11E36
  23087416.346   121325191.300    23087415.274    94539102.801    23087414.702  
                                
  21963643.355   115419724.074                    89937437.994    21963640.979  
                                
  20285381.413   106600398.823    20285379.697    83065235.915    20285379.072  
                                
  20391691.592   107159062.239    20391689.931    83500560.160    20391689.609  
  20391694.237    80021387.667  
  21258368.833   111713482.083    21258367.386    87049459.466    21258367.100  
  21258371.388    83422415.227  
  22153897.684   116419517.472    22153896.576    90716500.275    22153896.004  
                                
  19855216.331   106323782.214    19855215.670    82696271.330    19855215.652  
                                
  19755851.626   105606348.505    19755852.251    82138273.490    19755852.323  
                                
  23097495.976   123296001.565    23097499.442    95896903.718    23097499.496  
                                
  19766142.218   105735532.368    19766142.504    82238748.278    19766142.128  
                                
  20242107.214   108243643.724    20242110.090    84189512.488    20242109.072  
                                
  23842103.667   125291101.144                                                  
  23842106.829    93561548.443  
  22408336.775   117756605.263                                                  
  22408339.509    87935136.457  
  25557780.538   134307043.219                                                  
  25557781.985   100294225.801  
  23720511.112   124652127.838                                                  
  23720514.740    93084394.768  
 21  8 31 18 48 45.0000000  0 15G 5G13G15G18G23G29R 4R 5R18R19R20E 5
                                E 9E11E36
  23087948.289   121327986.653    23087947.217    94541280.995    23087946.645  
                                
  21964047.964   115421850.287                    89939094.784    21964045.587  
                                
  20285518.379   106601118.526    20285516.645    83065796.724    20285516.038  
                                
  20391467.533   107157884.826    20391465.853    83499642.694    20391465.531  
  20391470.159    80020508.441  
  21258082.464   111711977.196    21258081.017    87048286.826    21258080.731  
  21258085.001    83421291.450  
  22154499.030   116422677.535    22154497.922    90718962.664    22154497.351  
                                
  19855626.604   106325979.186    19855625.942    82697980.085    19855625.925  
                                
  19755559.110   105604784.780    19755559.718    82137057.262    19755559.807  
                                
  23098242.222   123299985.084    23098245.671    95900002.005    23098245.742  
                                
  19766487.590   105737379.812    19766487.840    82240185.177    19766487.483  
                                
  20241607.167   108240969.871    20241610.044    84187432.830    20241609.043  
                                
  23841824.124   125289632.179                                                  
  23841827.304    93560451.476  
  22408579.168   117757879.077                                                  
  22408581.920    87936087.683  
  25558257.730   134309550.960                                                  
  25558259.160   100296098.500  
  23720681.708   124653024.441                                                  
  23720685.353    93085064.314  
 21  8 31 18 48 46.0000000  0 15G 5G13G15G18G23G29R 4R 5R18R19R20E 5
                                E 9E11E36
  23088480.178   121330781.694    23088479.088    94543458.950    23088478.534  
                                
  21964452.608   115423976.703                    89940751.733    21964450.231  
                                
  20285655.381   106601838.540    20285653.665    83066357.774    20285653.040  
                                
  20391243.473   107156707.441    20391241.829    83498725.246    20391241.507  
  20391246.118    80019629.218  
  21257796.077   111710472.220    21257794.612    87047114.115    21257794.344  
  21257798.615    83420167.611  
  22155100.377   116425837.596    22155099.269    90721425.047    22155098.697  
                                
  19856036.894   106328176.291    19856036.233    82699688.947    19856036.215  
                                
  19755266.630   105603221.327    19755267.255    82135841.243    19755267.345  
                                
  23098988.450   123303968.501    23098991.899    95903100.218    23098991.953  
                                
  19766832.998   105739227.609    19766833.284    82241622.352    19766832.927  
                                
  20241107.174   108238296.151    20241110.051    84185353.265    20241109.050  
                                
  23841544.581   125288163.212                                                  
  23841547.761    93559354.526  
  22408821.561   117759152.886                                                  
  22408824.331    87937038.901  
  25558734.940   134312058.537                                                  
  25558736.370   100297971.028  
  23720852.339   124653921.012                                                  
  23720855.949    93085733.822  
 21  8 31 18 48 47.0000000  0 15G 5G13G15G18G23G29R 4R 5R18R19R20E 5
                                E 9E11E36
  23089012.103   121333577.009    23089011.031    94545637.117    23089010.477  
                                
  21964857.377   115426103.846                    89942409.250    21964855.000  
                                
  20285792.561   106602559.428    20285790.846    83066919.505    20285790.220  
                                
  20391019.538   107155530.601    20391017.859    83497808.230    20391017.537  
  20391022.183    80018750.411  
  21257509.780   111708967.740    21257508.332    87045941.793    21257508.046  
  21257512.317    83419044.127  
  22155701.830   116428998.223    22155700.722    90723887.873    22155700.150  
                                
  19856447.328   106330374.100    19856446.667    82701398.349    19856446.649  
                                
  19754974.311   105601658.730    19754974.936    82134625.888    19754975.025  
                                
  23099734.750   123307952.359    23099738.217    95906198.773    23099738.270  
                                
  19767178.621   105741076.302    19767178.871    82243060.224    19767178.514  
                                
  20240607.306   108235623.164    20240610.183    84183274.276    20240609.182  
                                
  23841265.163   125286694.811                                                  
  23841268.325    93558257.996  
  22409064.062   117760427.244                                                  
  22409066.814    87937990.530  
  25559212.168   134314566.455                                                  
  25559213.598   100299843.815  
  23721023.042   124654818.081                                                  
  23721026.669    93086403.718  
 21  8 31 18 48 48.0000000  0 15G 5G13G15G18G23G29R 4R 5R18R19R20E 5
                                E 9E11E36
  23089544.064   121336372.458    23089542.974    94547815.392    23089542.420  
                                
  21965262.289   115428231.633                    89944067.265    21965259.894  
                                
  20285929.902   106603281.088    20285928.169    83067481.838    20285927.544  
                                
  20390795.693   107154354.230    20390794.013    83496891.582    20390793.692  
  20390798.338    80017871.952  
  21257223.572   111707463.624    21257222.088    87044769.754    21257221.820  
  21257226.091    83417920.927  
  22156303.355   116432159.331    22156302.247    90726351.074    22156301.693  
                                
  19856857.851   106332572.488    19856857.190    82703108.207    19856857.172  
                                
  19754682.134   105600096.871    19754682.777    82133411.110    19754682.849  
                                
  23100481.139   123311936.563    23100484.588    95909297.593    23100484.659  
                                
  19767524.351   105742925.831    19767524.619    82244498.744    19767524.261  
                                
  20240107.563   108232950.754    20240110.440    84181195.737    20240109.439  
                                
  23840985.834   125285226.891                                                  
  23840988.997    93557161.815  
  22409306.652   117761702.033                                                  
  22409309.386    87938942.487  
  25559689.468   134317074.631                                                  
  25559690.897   100301716.816  
  23721193.834   124655715.573                                                  
  23721197.461    93087073.921  
 21  8 31 18 48 49.0000000  0 15G 5G13G15G18G23G29R 4R 5R18R19R20E 5
                                E 9E11E36
  23090076.025   121339168.022    23090074.953    94549993.739    23090074.399  
                                
  21965667.290   115430359.962                    89945725.701    21965664.914  
                                
  20286067.351   106604003.408    20286065.618    83068044.678    20286064.992  
                                
  20390571.901   107153178.221    20390570.222    83495975.209    20390569.900  
  20390574.546    80016993.757  
  21256937.399   111705959.786    21256935.934    87043597.933    21256935.648  
  21256939.919    83416797.925  
  22156904.969   116435320.794    22156903.861    90728814.543    22156903.307  
                                
  19857268.481   106334771.337    19857267.820    82704818.416    19857267.802  
                                
  19754390.065   105598535.627    19754390.708    82132196.807    19754390.798  
                                
  23101227.582   123315921.015    23101231.013    95912396.583    23101231.084  
                                
  19767870.241   105744776.053    19767870.527    82245937.804    19767870.152  
                                
  20239607.891   108230278.837    20239610.768    84179117.572    20239609.767  
                                
  23840706.559   125283759.324                                                  
  23840709.740    93556065.911  
  22409549.313   117762977.153                                                  
  22409552.047    87939894.690  
  25560166.785   134319582.968                                                  
  25560168.215   100303589.875  
  23721364.680   124656613.353                                                  
  23721368.289    93087744.337  
 21  8 31 18 48 50.0000000  0 15G 5G13G15G18G23G29R 4R 5R18R19R20E 5
                                E 9E11E36
  23090608.039   121341963.759    23090606.985    94552172.236    23090606.413  
                                
  21966072.435   115432488.974                    89947384.670    21966070.058  
                                
  20286204.942   106604726.539    20286203.227    83068608.156    20286202.601  
                                
  20390348.199   107152002.698    20390346.520    83495059.220    20390346.198  
  20390350.844    80016115.943  
  21256651.316   111704456.374    21256649.851    87042426.443    21256649.565  
  21256653.854    83415675.248  
  22157506.673   116438482.753    22157505.565    90731278.405    22157504.993  
                                
  19857679.236   106336970.826    19857678.557    82706529.129    19857678.539  
                                
  19754098.174   105596975.203    19754098.782    82130983.144    19754098.889  
                                
  23101974.078   123319905.931    23101977.527    95915495.968    23101977.580  
                                
  19768216.275   105746627.144    19768216.561    82247377.541    19768216.186  
                                
  20239108.345   108227607.559    20239111.240    84177039.911    20239110.239  
                                
  23840427.391   125282292.279                                                  
  23840430.554    93554970.390  
  22409792.046   117764252.773                                                  
  22409794.798    87940847.262  
  25560644.174   134322091.592                                                  
  25560645.586   100305463.199  
  23721535.615   124657511.603                                                  
  23721539.242    93088415.105  
 21  8 31 18 48 51.0000000  0 15G 5G13G15G18G23G29R 4R 5R18R19R20E 5
                                E 9E11E36
  23091140.072   121344759.614    23091139.000    94554350.821    23091138.428  
                                
  21966477.686   115434618.600                    89949044.119    21966475.292  
                                
  20286342.695   106605450.400    20286340.961    83069172.208    20286340.336  
                                
  20390124.586   107150827.610    20390122.907    83494143.569    20390122.585  
  20390127.231    80015238.444  
  21256365.269   111702953.288    21256363.821    87041255.212    21256363.536  
  21256367.788    83414552.826  
  22158108.466   116441645.155    22158107.358    90733742.607    22158106.786  
                                
  19858090.063   106339170.859    19858089.402    82708240.264    19858089.384  
                                
  19753806.373   105595415.475    19753806.999    82129770.025    19753807.106  
                                
  23102720.646   123323891.197    23102724.077    95918595.623    23102724.148  
                                
  19768562.470   105748478.979    19768562.755    82248817.855    19768562.380  
                                
  20238608.923   108224936.860    20238611.800    84174962.701    20238610.800  
                                
  23840148.295   125280825.659                                                  
  23840151.476    93553875.185  
  22410034.850   117765528.797                                                  
  22410037.602    87941800.136  
  25561121.563   134324600.411                                                  
  25561122.992   100307336.671  
  23721706.621   124658410.242                                                  
  23721710.231    93089086.167  
 21  8 31 18 48 52.0000000  0 15G 5G13G15G18G23G29R 4R 5R18R19R20E 5
                                E 9E11E36
  23091672.122   121347555.539    23091671.050    94556529.459    23091670.496  
                                
  21966883.045   115436748.766                    89950703.991    21966880.668  
                                
  20286480.572   106606174.927    20286478.839    83069736.772    20286478.213  
                                
  20389901.045   107149652.883    20389899.383    83493228.195    20389899.061  
  20389903.672    80014361.208  
  21256079.311   111701450.490    21256077.846    87040084.202    21256077.560  
  21256081.830    83413430.605  
  22158710.312   116444807.907    22158709.204    90736207.085    22158708.633  
                                
  19858500.997   106341371.362    19858500.336    82709951.766    19858500.318  
                                
  19753514.715   105593856.371    19753515.341    82128557.391    19753515.448  
                                
  23103467.267   123327876.724    23103470.734    95921695.478    23103470.770  
                                
  19768908.789   105750331.543    19768909.057    82250258.736    19768908.700  
                                
  20238109.574   108222266.639    20238112.450    84172885.862    20238111.450  
                                
  23839869.270   125279359.394                                                  
  23839872.433    93552780.247  
  22410277.744   117766805.159                                                  
  22410280.496    87942753.263  
  25561599.005   134327109.370                                                  
  25561600.435   100309210.256  
  23721877.681   124659309.181                                                  
  23721881.291    93089757.453  
 21  8 31 18 48 53.0000000  0 15G 5G13G15G18G23G29R 4R 5R18R19R20E 5
                                E 9E11E36
  23092204.190   121350351.619    23092203.136    94558708.223    23092202.582  
                                
  21967288.529   115438879.575                    89952364.359    21967286.134  
                                
  20286618.592   106606900.217    20286616.859    83070301.933    20286616.234  
                                
  20389677.593   107148478.613    20389675.913    83492313.177    20389675.591  
  20389680.237    80013484.319  
  21255793.406   111699948.070    21255791.941    87038913.486    21255791.673  
  21255795.926    83412308.663  
  22159312.266   116447971.125    22159311.158    90738671.930    22159310.586  
                                
  19858912.038   106343572.450    19858911.377    82711663.726    19858911.341  
                                
  19753223.200   105592297.998    19753223.807    82127345.325    19753223.915  
                                
  23104213.942   123331862.562    23104217.409    95924795.567    23104217.445  
                                
  19769255.234   105752184.908    19769255.520    82251700.244    19769255.162  
                                
  20237610.331   108219597.021    20237613.226    84170809.495    20237612.225  
                                
  23839590.353   125277893.611                                                  
  23839593.516    93551685.671  
  22410520.709   117768081.970                                                  
  22410523.479    87943706.726  
  25562076.501   134329618.608                                                  
  25562077.931   100311084.026  
  23722048.813   124660208.540                                                  
  23722052.458    93090429.050  
 21  8 31 18 48 54.0000000  0 15G 5G13G15G18G23G29R 4R 5R18R19R20E 5
                                E 9E11E36
  23092736.258   121353147.573    23092735.186    94560886.882    23092734.632  
                                
  21967694.066   115441010.742                    89954025.006    21967691.690  
                                
  20286756.702   106607626.011    20286754.987    83070867.483    20286754.361  
                                
  20389454.176   107147304.543    20389452.497    83491398.320    20389452.175  
  20389456.821    80012607.576  
  21255507.520   111698445.750    21255506.055    87037742.837    21255505.769  
  21255510.057    83411186.798  
  22159914.238   116451134.531    22159913.130    90741136.926    22159912.576  
                                
  19859323.151   106345773.862    19859322.471    82713375.940    19859322.436  
                                
  19752931.756   105590740.073    19752932.382    82126133.611    19752932.471  
                                
  23104960.653   123335848.501    23104964.120    95927895.728    23104964.155  
                                
  19769601.803   105754038.807    19769602.089    82253142.168    19769601.732  
                                
  20237111.160   108216927.666    20237114.037    84168733.330    20237113.036  
                                
  23839311.471   125276428.030                                                  
  23839314.616    93550591.246  
  22410763.710   117769358.939                                                  
  22410766.462    87944660.311  
  25562553.979   134332127.776                                                  
  25562555.409   100312957.780  
  23722219.998   124661108.030                                                  
  23722223.608    93091100.754  
 21  8 31 18 48 55.0000000  0 15G 5G13G15G18G23G29R 4R 5R18R19R20E 5
                                E 9E11E36
  23093268.344   121355943.674    23093267.272    94563065.657    23093266.718  
                                
  21968099.729   115443142.501                    89955686.112    21968097.352  
                                
  20286894.955   106608352.513    20286893.203    83071433.589    20286892.596  
                                
  20389230.831   107146130.864    20389229.152    83490483.762    20389228.830  
  20389233.476    80011731.131  
  21255221.705   111696943.752    21255220.240    87036572.452    21255219.954  
  21255224.224    83410065.177  
  22160516.281   116454298.339    22160515.209    90743602.226    22160514.619  
                                
  19859734.335   106347975.782    19859733.673    82715088.544    19859733.638  
                                
  19752640.455   105589182.844    19752641.063    82124922.434    19752641.152  
                                
  23105707.417   123339834.729    23105710.866    95930996.132    23105710.920  
                                
  19769948.534   105755893.459    19769948.784    82254584.675    19769948.427  
                                
  20236612.078   108214258.896    20236614.955    84166657.622    20236613.954  
                                
  23839032.643   125274962.842                                                  
  23839035.805    93549497.118  
  22411006.782   117770636.304                                                  
  22411009.534    87945614.190  
  25563031.511   134334637.166                                                  
  25563032.905   100314831.680  
  23722391.237   124662007.894                                                  
  23722394.847    93091772.727  
 21  8 31 18 48 56.0000000  0 15G 5G13G15G18G23G29R 4R 5R18R19R20E 5
                                E 9E11E36
  23093800.430   121358739.766    23093799.375    94565244.431    23093798.786  
                                
  21968505.499   115445274.777                    89957347.626    21968503.104  
                                
  20287033.315   106609079.632    20287031.581    83072000.174    20287030.956  
                                
  20389007.540   107144957.516    20389005.878    83489569.465    20389005.557  
  20389010.202    80010854.926  
  21254935.926   111695441.998    21254934.460    87035402.252    21254934.192  
  21254938.463    83408943.729  
  22161118.413   116457462.469    22161117.323    90746067.782    22161116.734  
                                
  19860145.590   106350178.138    19860144.929    82716801.488    19860144.911  
                                
  19752349.244   105587626.235    19752349.869    82123711.736    19752349.941  
                                
  23106454.200   123343821.195    23106457.648    95934096.719    23106457.702  
                                
  19770295.336   105757748.768    19770295.622    82256027.696    19770295.264  
                                
  20236113.086   108211590.604    20236115.980    84164582.284    20236114.980  
                                
  23838753.886   125273497.998                                                  
  23838757.049    93548403.235  
  22411249.908   117771913.960                                                  
  22411252.660    87946568.281  
  25563509.061   134337146.692                                                  
  25563510.490   100316705.663  
  23722562.512   124662908.009                                                  
  23722566.139    93092444.890  
 21  8 31 18 48 57.0000000  0 15G 5G13G15G18G23G29R 4R 5R18R19R20E 5
                                E 9E11E36
  23094332.533   121361535.958    23094331.461    94567423.281    23094330.907  
                                
  21968911.358   115447407.643                    89959009.599    21968908.981  
                                
  20287171.817   106609807.475    20287170.102    83072567.322    20287169.476  
                                
  20388784.356   107143784.573    20388782.676    83488655.483    20388782.355  
  20388786.983    80009979.022  
  21254650.218   111693940.553    21254648.753    87034232.294    21254648.467  
  21254652.737    83407822.524  
  22161720.599   116460627.017    22161719.509    90748533.666    22161718.920  
                                
  19860556.971   106352381.006    19860556.292    82718514.830    19860556.274  
                                
  19752058.193   105586070.325    19752058.801    82122501.586    19752058.890  
                                
  23107201.053   123347807.978    23107204.502    95937197.555    23107204.556  
                                
  19770642.317   105759604.824    19770642.603    82257471.297    19770642.245  
                                
  20235614.218   108208922.861    20235617.095    84162507.378    20235616.094  
                                
  23838475.218   125272033.553                                                  
  23838478.381    93547309.660  
  22411493.123   117773192.018                                                  
  22411495.875    87947522.671  
  25563986.646   134339656.408                                                  
  25563988.040   100318579.806  
  23722733.876   124663808.486                                                  
  23722737.503    93093117.328  
 21  8 31 18 48 58.0000000  0 15G 5G13G15G18G23G29R 4R 5R18R19R20E 5
                                E 9E11E36
  23094864.601   121364332.003    23094863.547    94569602.013    23094862.958  
                                
  21969317.306   115449540.825                    89960671.822    21969314.912  
                                
  20287310.409   106610535.778    20287308.694    83073134.834    20287308.069  
                                
  20388561.154   107142611.768    20388559.474    83487741.609    20388559.153  
  20388563.816    80009103.237  
  21254364.492   111692439.180    21254363.045    87033062.391    21254362.777  
  21254367.030    83406701.373  
  22162322.821   116463791.708    22162321.749    90750999.657    22162321.159  
                                
  19860968.405   106354584.158    19860967.726    82720228.393    19860967.708  
                                
  19751767.196   105584514.842    19751767.804    82121291.768    19751767.911  
                                
  23107947.943   123351794.835    23107951.374    95940298.437    23107951.445  
                                
  19770989.369   105761461.385    19770989.655    82258915.289    19770989.297  
                                
  20235115.386   108206255.405    20235118.263    84160432.692    20235117.263  
                                
  23838196.569   125270569.281                                                  
  23838199.732    93546216.210  
  22411736.356   117774470.217                                                  
  22411739.126    87948477.168  
  25564464.249   134342166.075                                                  
  25564465.643   100320453.899  
  23722905.258   124664709.080                                                  
  23722908.867    93093789.849  
 21  8 31 18 48 59.0000000  0 15G 5G13G15G18G23G29R 4R 5R18R19R20E 5
                                E 9E11E36
  23095396.669   121367128.169    23095395.615    94571780.841    23095395.061  
                                
  21969723.344   115451674.639                    89962334.536    21969720.950  
                                
  20287449.145   106611264.813    20287447.411    83073702.910    20287446.786  
                                
  20388338.059   107141439.391    20388336.380    83486828.071    20388336.058  
  20388340.722    80008227.759  
  21254078.874   111690938.163    21254077.426    87031892.770    21254077.140  
  21254081.393    83405580.477  
  22162925.114   116466956.821    22162924.042    90753465.974    22162923.453  
                                
  19861379.929   106356787.857    19861379.250    82721942.392    19861379.214  
                                
  19751476.342   105582960.066    19751476.968    82120082.510    19751477.039  
                                
  23108694.868   123355781.981    23108698.317    95943399.546    23108698.370  
                                
  19771336.582   105763318.696    19771336.850    82260359.861    19771336.492  
                                
  20234616.662   108203588.513    20234619.539    84158358.443    20234618.538  
                                
  23837918.027   125269105.422                                                  
  23837921.172    93545123.067  
  22411979.661   117775748.791                                                  
  22411982.413    87949431.958  
  25564941.835   134344675.926                                                  
  25564943.246   100322328.134  
  23723076.693   124665610.055                                                  
  23723080.320    93094462.653  
 21  8 31 18 49  0.0000000  0 15G 5G13G15G18G23G29R 4R 5R18R19R20E 5
                                E 9E11E36
  23095928.791   121369924.422    23095927.737    94573959.740    23095927.165  
                                
  21970129.507   115453808.995                    89963997.671    21970127.112  
                                
  20287587.987   106611994.516    20287586.271    83074271.510    20287585.646  
                                
  20388115.054   107140267.402    20388113.374    83485914.835    20388113.052  
  20388117.698    80007352.570  
  21253793.291   111689437.421    21253791.826    87030723.361    21253791.540  
  21253795.811    83404459.805  
  22163527.497   116470122.319    22163526.407    90755932.598    22163525.835  
                                
  19861791.542   106358992.065    19861790.863    82723656.771    19861790.845  
                                
  19751185.595   105581405.923    19751186.221    82118873.734    19751186.292  
                                
  23109441.847   123359769.410    23109445.277    95946500.884    23109445.331  
                                
  19771683.920   105765176.729    19771684.188    82261804.996    19771683.830  
                                
  20234118.045   108200922.150    20234120.922    84156284.605    20234119.921  
                                
  23837639.520   125267641.957                                                  
  23837642.683    93544030.219  
  22412223.019   117777027.744                                                  
  22412225.789    87950387.018  
  25565419.492   134347185.962                                                  
  25565420.885   100324202.494  
  23723248.218   124666511.353                                                  
  23723251.827    93095135.701  
 21  8 31 18 49  1.0000000  0 15G 5G13G15G18G23G29R 4R 5R18R19R20E 5
                                E 9E11E36
  23096460.948   121372720.858    23096459.894    94576138.778    23096459.322  
                                
  21970535.795   115455944.044                    89965661.345    21970533.383  
                                
  20287727.026   106612725.053    20287725.275    83074840.760    20287724.667  
                                
  20387892.120   107139095.926    20387890.458    83485001.994    20387890.136  
  20387894.782    80006477.766  
  21253507.798   111687937.129    21253506.332    87029554.304    21253506.046  
  21253510.317    83403339.461  
  22164129.987   116473288.343    22164128.879    90758399.627    22164128.307  
                                
  19862203.280   106361196.909    19862202.601    82725371.648    19862202.583  
                                
  19750895.009   105579852.577    19750895.635    82117665.576    19750895.724  
                                
  23110188.915   123363757.275    23110192.346    95949602.552    23110192.381  
                                
  19772031.419   105767035.632    19772031.705    82263250.812    19772031.329  
                                
  20233619.535   108198256.417    20233622.412    84154211.257    20233621.411  
                                
  23837361.156   125266179.023                                                  
  23837364.283    93542937.773  
  22412466.503   117778307.193                                                  
  22412469.254    87951342.453  
  25565897.184   134349696.283                                                  
  25565898.596   100326077.100  
  23723419.814   124667413.118                                                  
  23723423.441    93095809.101  
 21  8 31 18 49  2.0000000  0 15G 5G13G15G18G23G29R 4R 5R18R19R20E 5
                                E 9E11E36
  23096993.088   121375517.214    23096992.016    94578317.755    23096991.444  
                                
  21970942.154   115458079.504                    89967325.340    21970939.760  
                                
  20287866.136   106613456.091    20287864.385    83075410.400    20287863.777  
                                
  20387669.240   107137924.658    20387667.560    83484089.316    20387667.238  
  20387671.884    80005603.114  
  21253222.322   111686436.957    21253220.857    87028385.341    21253220.571  
  21253224.842    83402219.200  
  22164732.477   116476454.548    22164731.405    90760866.800    22164730.815  
                                
  19862615.089   106363402.071    19862614.428    82727086.776    19862614.392  
                                
  19750604.512   105578299.739    19750605.138    82116457.818    19750605.209  
                                
  23110935.983   123367745.229    23110939.414    95952704.292    23110939.485  
                                
  19772379.043   105768895.117    19772379.293    82264697.083    19772378.935  
                                
  20233121.078   108195591.036    20233123.955    84152138.185    20233122.973  
                                
  23837082.793   125264716.294                                                  
  23837085.956    93541845.471  
  22412710.004   117779586.830                                                  
  22412712.791    87952298.022  
  25566374.877   134352206.595                                                  
  25566376.271   100327951.699  
  23723591.428   124668315.044                                                  
  23723595.055    93096482.615  
 21  8 31 18 49  3.0000000  0 15G 5G13G15G18G23G29R 4R 5R18R19R20E 5
                                E 9E11E36
  23097525.227   121378313.755    23097524.173    94580496.880    23097523.619  
                                
  21971348.657   115460215.618                    89968989.842    21971346.244  
                                
  20288005.389   106614187.937    20288003.656    83075980.674    20288003.049  
                                
  20387446.449   107136753.863    20387444.769    83483177.011    20387444.447  
  20387449.093    80004728.826  
  21252936.918   111684937.192    21252935.453    87027216.693    21252935.185  
  21252939.438    83401099.242  
  22165335.092   116479621.270    22165334.020    90763334.376    22165333.430  
                                
  19863026.988   106365607.821    19863026.327    82728802.360    19863026.309  
                                
  19750314.177   105576747.676    19750314.802    82115250.653    19750314.873  
                                
  23111683.140   123371733.591    23111686.589    95955806.347    23111686.643  
                                
  19772726.792   105770755.415    19772727.078    82266143.981    19772726.702  
                                
  20232622.747   108192926.291    20232625.642    84150065.603    20232624.641  
                                
  23836804.536   125263254.059                                                  
  23836807.699    93540753.544  
  22412953.612   117780866.942                                                  
  22412956.382    87953253.952  
  25566852.659   134354717.245                                                  
  25566854.052   100329826.510  
  23723763.149   124669217.425                                                  
  23723766.777    93097156.464  
 21  8 31 18 49  4.0000000  0 15G 5G13G15G18G23G29R 4R 5R18R19R20E 5
                                E 9E11E36
  23098057.403   121381110.302    23098056.348    94582676.012    23098055.795  
                                
  21971755.231   115462352.225                    89970654.733    21971752.818  
                                
  20288144.768   106614920.422    20288143.052    83076551.442    20288142.409  
                                
  20387223.711   107135583.406    20387222.031    83482264.964    20387221.710  
  20387226.356    80003854.787  
  21252651.568   111683437.651    21252650.102    87026048.224    21252649.816  
  21252654.087    83399979.470  
  22165937.778   116482788.323    22165936.670    90765802.203    22165936.098  
                                
  19863438.976   106367813.993    19863438.315    82730518.274    19863438.297  
                                
  19750023.948   105575196.208    19750024.555    82114043.949    19750024.645  
                                
  23112430.351   123375722.180    23112433.800    95958908.559    23112433.836  
                                
  19773074.702   105772616.411    19773074.952    82267591.420    19773074.594  
                                
  20232124.523   108190261.976    20232127.400    84147993.359    20232126.399  
                                
  23836526.369   125261792.166                                                  
  23836529.496    93539661.873  
  22413197.256   117782147.376                                                  
  22413200.026    87954210.109  
  25567330.441   134357227.979                                                  
  25567331.834   100331701.401  
  23723934.924   124670120.074                                                  
  23723938.552    93097830.518  
 21  8 31 18 49  5.0000000  0 15G 5G13G15G18G23G29R 4R 5R18R19R20E 5
                                E 9E11E36
  23098589.578   121383906.911    23098588.524    94584855.183    23098587.970  
                                
  21972161.930   115464489.378                    89972320.047    21972159.517  
                                
  20288284.289   106615653.550    20288282.556    83077122.708    20288281.930  
                                
  20387001.063   107134413.300    20386999.383    83481353.191    20386999.062  
  20387003.690    80002980.998  
  21252366.271   111681938.389    21252364.806    87024879.970    21252364.538  
  21252368.790    83398859.877  
  22166540.500   116485955.714    22166539.410    90768270.299    22166538.821  
                                
  19863851.054   106370020.647    19863850.393    82732234.562    19863850.375  
                                
  19749733.826   105573645.378    19749734.452    82112837.746    19749734.523  
                                
  23113177.598   123379711.025    23113181.047    95962010.992    23113181.100  
                                
  19773422.719   105774478.089    19773422.969    82269039.387    19773422.611  
                                
  20231626.370   108187598.175    20231629.265    84145921.513    20231628.265  
                                
  23836248.220   125260330.608                                                  
  23836251.365    93538570.450  
  22413440.990   117783428.116                                                  
  22413443.742    87955166.508  
  25567808.223   134359738.820                                                  
  25567809.616   100333576.379  
  23724106.753   124671023.009                                                  
  23724110.362    93098504.786  
 21  8 31 18 49  6.0000000  0 15G 5G13G15G18G23G29R 4R 5R18R19R20E 5
                                E 9E11E36
  23099121.789   121386703.622    23099120.735    94587034.436    23099120.163  
                                
  21972568.718   115466627.127                    89973985.827    21972566.323  
                                
  20288423.935   106616387.385    20288422.220    83077694.528    20288421.577  
                                
  20386778.487   107133243.606    20386776.807    83480441.740    20386776.485  
  20386781.113    80002107.519  
  21252081.028   111680439.443    21252079.562    87023711.963    21252079.294  
  21252083.547    83397740.539  
  22167143.312   116489123.513    22167142.222    90770738.714    22167141.650  
                                
  19864263.238   106372227.847    19864262.577    82733951.274    19864262.559  
                                
  19749443.848   105572095.211    19749444.455    82111632.063    19749444.527  
                                
  23113924.899   123383700.187    23113928.347    95965113.671    23113928.401  
                                
  19773770.879   105776340.513    19773771.147    82270487.944    19773770.789  
                                
  20231128.325   108184934.888    20231131.202    84143850.067    20231130.201  
                                
  23835970.196   125258869.476                                                  
  23835973.323    93537479.349  
  22413684.777   117784709.253                                                  
  22413687.529    87956123.197  
  25568286.058   134362249.877                                                  
  25568287.470   100335451.519  
  23724278.653   124671926.323                                                  
  23724282.262    93099179.338  
 21  8 31 18 49  7.0000000  0 15G 5G13G15G18G23G29R 4R 5R18R19R20E 5
                                E 9E11E36
  23099653.982   121389500.351    23099652.928    94589213.701    23099652.374  
                                
  21972975.613   115468765.368                    89975651.987    21972973.219  
                                
  20288563.707   106617121.854    20288561.956    83078266.841    20288561.348  
                                
  20386555.946   107132074.222    20386554.266    83479530.530    20386553.944  
  20386558.608    80001234.284  
  21251795.838   111678940.735    21251794.373    87022544.136    21251794.087  
  21251798.358    83396621.376  
  22167746.177   116492291.649    22167745.105    90773207.391    22167744.515  
                                
  19864675.513   106374435.491    19864674.834    82735668.330    19864674.816  
                                
  19749153.977   105570545.638    19749154.566    82110426.842    19749154.656  
                                
  23114672.253   123387689.556    23114675.683    95968216.514    23114675.737  
                                
  19774119.164   105778203.595    19774119.432    82271937.008    19774119.075  
                                
  20230630.369   108182272.057    20230633.264    84141778.977    20230632.263  
                                
  23835692.207   125257408.673                                                  
  23835695.352    93536388.485  
  22413928.618   117785990.688                                                  
  22413931.387    87957080.113  
  25568763.929   134364761.046                                                  
  25568765.305   100337326.743  
  23724450.588   124672829.908                                                  
  23724454.216    93099854.097  
 21  8 31 18 49  8.0000000  0 15G 5G13G15G18G23G29R 4R 5R18R19R20E 5
                                E 9E11E36
  23100186.175   121392297.065    23100185.139    94591392.961    23100184.567  
                                
  21973382.598   115470904.094                    89977318.527    21973380.204  
                                
  20288703.568   106617856.910    20288701.852    83078839.612    20288701.209  
                                
  20386333.476   107130905.141    20386331.797    83478619.558    20386331.475  
  20386336.121    80000361.267  
  21251510.666   111677442.253    21251509.237    87021376.485    21251508.951  
  21251513.186    83395502.374  
  22168349.113   116495460.064    22168348.041    90775676.282    22168347.469  
                                
  19865087.840   106376643.541    19865087.161    82737385.699    19865087.143  
                                
  19748864.195   105568996.647    19748864.802    82109222.069    19748864.892  
                                
  23115419.624   123391679.135    23115423.055    95971319.522    23115423.109  
                                
  19774467.574   105780067.331    19774467.824    82273386.580    19774467.467  
                                
  20230132.502   108179609.677    20230135.361    84139708.237    20230134.361  
                                
  23835414.273   125255948.171                                                  
  23835417.418    93535297.847  
  22414172.530   117787272.402                                                  
  22414175.299    87958037.239  
  25569241.783   134367272.291                                                  
  25569243.177   100339202.021  
  23724622.596   124673733.750                                                  
  23724626.205    93100529.036  
 21  8 31 18 49  9.0000000  0 15G 5G13G15G18G23G29R 4R 5R18R19R20E 5
                                E 9E11E36
  23100718.458   121395094.096    23100717.385    94593572.459    23100716.814  
                                
  21973789.726   115473043.577                    89978985.647    21973787.332  
                                
  20288843.625   106618592.884    20288841.892    83079413.096    20288841.267  
