     2.11           OBSERVATION DATA    M (MIXED)           RINEX VERSION / TYPE
CONVBIN 2.4.3                           20210902 202006 UTC PGM / RUN BY / DATE 
log: logs/21_08_31_19_48_48_scwt_SW.rtcm                    COMMENT             
format: RTCM 3, station ID: 1448                            COMMENT             
1448                                                        MARKER NAME         
                                                            MARKER NUMBER       
                                                            OBSERVER / AGENCY   
                    SWFT                                    REC # / TYPE / VERS 
                    NULL                                    ANT # / TYPE        
   877834.0614 -5342142.3465  3360930.2191                  APPROX POSITION XYZ 
        0.0000        0.0000        0.0000                  ANTENNA: DELTA H/E/N
     1     1                                                WAVELENGTH FACT L1/2
     5    C1    L1    P2    L2    C2                        # / TYPES OF OBSERV 
  2021     8    31    19    48   53.0000000     GPS         TIME OF FIRST OBS   
  2021     8    31    20    18   51.0000000     GPS         TIME OF LAST OBS    
                                                            END OF HEADER       
 21  8 31 19 48 53.0000000  0 16G 5G10G15G18G23G29G32C19C21C22C35E 3
                                E 5E 9E15E36
  23954054.704   125879379.849    23954056.973    98087821.331                  
  23521218.292   123604772.046    23521222.366    96315390.316                  
  21270524.468   111777359.441    21270525.308    87099240.551                  
  20088969.347   105568245.575    20088970.401    82260972.382                  
  21273034.262   111790545.996    21273035.459    87109517.259                  
  24035841.543   126309149.235    24035844.974    98422700.500                  
  24605820.222   129304370.452    24605826.262   100756630.214                  
                 118551220.768                   118551220.768    22766516.944  
                 135227010.532                   135227010.532    25968930.942  
                 118231751.391                   118231751.391    22705161.117  
                 120221731.861                   120221731.861    23087323.481  
  26287941.552   138144014.915                                                  
  23509353.636   123542469.565                                                  
  23404896.081   122993534.597                                                  
  27539527.912   144721131.450                                                  
  23984690.625   126040334.148                                                  
 21  8 31 19 48 54.0000000  0 16G 5G10G15G18G23G29G32C19C21C22C35E 3
                                E 5E 9E15E36
  23954494.925   125881693.169    23954497.176    98089623.918                  
  23520810.342   123602628.202    23520814.399    96313719.794                  
  21270997.926   111779847.481    21270998.766    87101179.286                  
  20088884.809   105567801.335    20088885.863    82260626.223                  
  21272801.768   111789324.238    21272802.965    87108565.238                  
  24036490.385   126312558.852    24036493.798    98425357.343                  
  24605246.394   129301354.948    24605252.434   100754280.473                  
                 118552669.996                   118552669.996    22766795.237  
                 135225050.278                   135225050.278    25968554.496  
                 118231209.551                   118231209.551    22705057.083  
                 120224096.446                   120224096.446    23087777.586  
  26287579.222   138142110.746                                                  
  23509356.299   123542483.548                                                  
  23405270.187   122995500.464                                                  
  27538994.986   144718330.809                                                  
  23985007.926   126042001.610                                                  
 21  8 31 19 48 55.0000000  0 16G 5G10G15G18G23G29G32C19C21C22C35E 3
                                E 5E 9E15E36
  23954935.146   125884006.559    23954937.398    98091426.559                  
  23520402.393   123600484.371    23520406.449    96312049.273                  
  21271471.437   111782335.802    21271472.259    87103118.235                  
  20088800.378   105567357.678    20088801.432    82260280.515                  
  21272569.292   111788102.613    21272570.507    87107613.324                  
  24037139.192   126315968.453    24037142.641    98428014.177                  
  24604672.602   129298339.632    24604678.642   100751930.874                  
                 118554119.282                   118554119.282    22767073.564  
                 135223090.112                   135223090.112    25968178.067  
                 118230667.868                   118230667.868    22704953.032  
                 120226461.380                   120226461.380    23088231.745  
  26287216.892   138140206.805                                                  
  23509359.015   123542497.777                                                  
  23405644.275   122997466.409                                                  
  27538462.060   144715530.263                                                  
  23985325.297   126043669.454                                                  
 21  8 31 19 48 56.0000000  0 16G 5G10G15G18G23G29G32C19C21C22C35E 3
                                E 5E 9E15E36
  23955375.385   125886320.040    23955377.637    98093229.270                  
  23519994.443   123598340.548    23519998.481    96310378.762                  
  21271945.002   111784824.411    21271945.842    87105057.406                  
  20088716.054   105566914.600    20088717.126    82259935.261                  
  21272336.852   111786881.128    21272338.067    87106661.520                  
  24037788.034   126319378.070    24037791.465    98430671.015                  
  24604098.846   129295324.525    24604104.885   100749581.442                  
                 118555568.625                   118555568.625    22767351.892  
                 135221130.047                   135221130.047    25967801.656  
                 118230126.339                   118230126.339    22704849.052  
                 120228826.664                   120228826.664    23088685.958  
  26286854.615   138138303.056                                                  
  23509361.784   123542512.270                                                  
  23406018.399   122999432.419                                                  
  27537929.134   144712729.792                                                  
  23985642.758   126045337.694                                                  
 21  8 31 19 48 57.0000000  0 16G 5G10G15G18G23G29G32C19C21C22C35E 3
                                E 5E 9E15E36
  23955815.642   125888633.606    23955817.894    98095032.046                  
  23519586.475   123596196.722    23519590.514    96308708.250                  
  21272418.620   111787313.293    21272419.460    87106996.797                  
  20088631.855   105566472.106    20088632.927    82259590.458                  
  21272104.447   111785659.781    21272105.644    87105709.817                  
  24038436.858   126322787.691    24038440.307    98433327.864                  
  24603525.125   129292309.593    24603531.165   100747232.149                  
                 118557018.027                   118557018.027    22767630.238  
                 135219170.069                   135219170.069    25967425.263  
                 118229584.965                   118229584.965    22704745.072  
                 120231192.304                   120231192.304    23089140.260  
  26286492.392   138136399.505                                                  
  23509364.572   123542527.007                                                  
  23406392.540   123001398.488                                                  
  27537396.244   144709929.410                                                  
  23985960.309   126047006.321                                                  
 21  8 31 19 48 58.0000000  0 16G 5G10G15G18G23G29G32C19C21C22C35E 3
                                E 5E 9E15E36
  23956255.917   125890947.257    23956258.186    98096834.896                  
  23519178.525   123594052.917    23519182.564    96307037.755                  
  21272892.275   111789802.450    21272893.114    87108936.398                  
  20088547.763   105566030.196    20088548.835    82259246.112                  
  21271872.043   111784438.566    21271873.258    87104758.223                  
  24039085.700   126326197.309    24039089.113    98435984.703                  
  24602951.422   129289294.855    24602957.462   100744883.003                  
                 118558467.488                   118558467.488    22767908.602  
                 135217210.188                   135217210.188    25967048.887  
                 118229043.741                   118229043.741    22704641.164  
                 120233558.294                   120233558.294    23089594.616  
  26286130.205   138134496.169                                                  
  23509367.413   123542542.005                                                  
  23406766.682   123003364.630                                                  
  27536863.354   144707129.101                                                  
  23986277.895   126048675.333                                                  
 21  8 31 19 48 59.0000000  0 16G 5G10G15G18G23G29G32C19C21C22C35E 3
                                E 5E 9E15E36
  23956696.192   125893260.993    23956698.479    98098637.805                  
  23518770.576   123591909.114    23518774.596    96305367.257                  
  21273366.018   111792291.884    21273366.840    87110876.214                  
  20088463.779   105565588.852    20088464.833    82258902.210                  
  21271639.674   111783217.495    21271640.871    87103806.739                  
  24039734.524   126329606.932    24039737.955    98438641.550                  
  24602377.773   129286280.311    24602383.813   100742534.012                  
                 118559917.009                   118559917.009    22768186.965  
                 135215250.399                   135215250.399    25966672.548  
                 118228502.680                   118228502.680    22704537.238  
                 120235924.633                   120235924.633    23090049.061  
  26285768.036   138132593.018                                                  
  23509370.344   123542557.264                                                  
  23407140.841   123005330.842                                                  
  27536330.500   144704328.892                                                  
  23986595.552   126050344.720                                                  
 21  8 31 19 49  0.0000000  0 16G 5G10G15G18G23G29G32C19C21C22C35E 3
                                E 5E 9E15E36
  23957136.503   125895574.812    23957138.772    98100440.778                  
  23518362.626   123589765.321    23518366.664    96303696.773                  
  21273839.797   111794781.593    21273840.619    87112816.250                  
  20088379.920   105565148.095    20088380.974    82258558.761                  
  21271407.341   111781996.562    21271408.556    87102855.363                  
  24040383.367   126333016.565    24040386.797    98441298.406                  
  24601804.159   129283265.958    24601810.199   100740185.165                  
                 118561366.591                   118561366.591    22768465.347  
                 135213290.703                   135213290.703    25966296.208  
                 118227961.771                   118227961.771    22704433.365  
                 120238291.324                   120238291.324    23090503.559  
  26285405.920   138130690.093                                                  
  23509373.274   123542572.770                                                  
  23407515.019   123007297.134                                                  
  27535797.664   144701528.762                                                  
  23986913.317   126052014.509                                                  
 21  8 31 19 49  1.0000000  0 16G 5G10G15G18G23G29G32C19C21C22C35E 3
                                E 5E 9E15E36
  23957576.849   125897888.718    23957579.100    98102243.820                  
  23517954.676   123587621.539    23517958.696    96302026.294                  
  21274313.612   111797271.570    21274314.452    87114756.493                  
  20088296.132   105564707.924    20088297.222    82258215.773                  
  21271175.044   111780775.764    21271176.241    87101904.094                  
  24041032.209   126336426.200    24041035.622    98443955.263                  
  24601230.582   129280251.792    24601236.621   100737836.469                  
                 118562816.226                   118562816.226    22768743.728  
                 135211331.101                   135211331.101    25965919.869  
                 118227421.013                   118227421.013    22704329.528  
                 120240658.366                   120240658.366    23090958.111  
  26285043.858   138128787.367                                                  
  23509376.276   123542588.545                                                  
  23407889.196   123009263.485                                                  
  27535264.827   144698728.714                                                  
  23987231.136   126053684.691                                                  
 21  8 31 19 49  2.0000000  0 16G 5G10G15G18G23G29G32C19C21C22C35E 3
                                E 5E 9E15E36
  23958017.159   125900202.710    23958019.447    98104046.930                  
  23517546.726   123585477.775    23517550.765    96300355.828                  
  21274787.499   111799761.828    21274788.339    87116696.949                  
  20088212.505   105564268.329    20088213.559    82257873.230                  
  21270942.764   111779555.110    21270943.961    87100952.930                  
  24041681.033   126339835.836    24041684.464    98446612.117                  
  24600657.040   129277237.820    24600663.079   100735487.917                  
                 118564265.922                   118564265.922    22769022.128  
                 135209371.588                   135209371.588    25965543.565  
                 118226880.411                   118226880.411    22704225.691  
                 120243025.757                   120243025.757    23091412.753  
  26284681.814   138126884.847                                                  
  23509379.332   123542604.568                                                  
  23408263.391   123011229.911                                                  
  27534732.009   144695928.746                                                  
  23987549.044   126055355.255                                                  
 21  8 31 19 49  3.0000000  0 16G 5G10G15G18G23G29G32C19C21C22C35E 3
                                E 5E 9E15E36
  23958457.524   125902516.778    23958459.793    98105850.097                  
  23517138.776   123583333.999    23517142.815    96298685.361                  
  21275261.439   111802252.367    21275262.261    87118637.630                  
  20088128.967   105563829.315    20088130.021    82257531.141                  
  21270710.503   111778334.591    21270711.700    87100001.878                  
  24042329.857   126343245.477    24042333.306    98449268.980                  
  24600083.533   129274224.048    24600089.573   100733139.528                  
                 118565715.678                   118565715.678    22769300.545  
                 135207412.172                   135207412.172    25965167.279  
                 118226339.961                   118226339.961    22704121.926  
                 120245393.503                   120245393.503    23091867.466  
  26284319.805   138124982.520                                                  
  23509382.441   123542620.845                                                  
  23408637.604   123013196.400                                                  
  27534199.208   144693128.874                                                  
  23987867.023   126057026.204                                                  
 21  8 31 19 49  4.0000000  0 16G 5G10G15G18G23G29G32C19C21C22C35E 3
                                E 5E 9E15E36
  23958897.906   125904830.933    23958900.157    98107653.336                  
  23516730.844   123581190.249    23516734.883    96297014.902                  
  21275735.415   111804743.177    21275736.255    87120578.520                  
  20088045.519   105563390.888    20088046.573    82257189.507                  
  21270478.259   111777114.207    21270479.474    87099050.934                  
  24042978.699   126346655.121    24042982.148    98451925.844                  
  24599510.081   129271210.460    24599516.102   100730791.282                  
                 118567165.493                   118567165.493    22769578.962  
                 135205452.852                   135205452.852    25964790.993  
                 118225799.668                   118225799.668    22704018.160  
                 120247761.598                   120247761.598    23092322.215  
  26283957.868   138123080.423                                                  
  23509385.586   123542637.378                                                  
  23409011.835   123015162.950                                                  
  27533666.425   144690329.090                                                  
  23988185.056   126058697.542                                                  
 21  8 31 19 49  5.0000000  0 16G 5G10G15G18G23G29G32C19C21C22C35E 3
                                E 5E 9E15E36
  23959338.288   125907145.174    23959340.557    98109456.640                  
  23516322.895   123579046.499    23516326.915    96295344.450                  
  21276209.462   111807234.263    21276210.302    87122519.626                  
  20087962.195   105562953.039    20087963.268    82256848.328                  
  21270246.069   111775893.969    21270247.266    87098100.098                  
  24043627.541   126350064.762    24043630.954    98454582.702                  
  24598936.646   129268197.052    24598942.686   100728443.172                  
                 118568615.363                   118568615.363    22769857.397  
                 135203493.621                   135203493.621    25964414.761  
                 118225259.532                   118225259.532    22703914.449  
                 120250130.042                   120250130.042    23092777.053  
  26283595.913   138121178.504                                                  
  23509388.785   123542654.163                                                  
  23409386.066   123017129.582                                                  
  27533133.660   144687529.383                                                  
  23988503.178   126060369.259                                                  
 21  8 31 19 49  6.0000000  0 16G 5G10G15G18G23G29G32C19C21C22C35E 3
                                E 5E 9E15E36
  23959778.688   125909459.504    23959780.957    98111260.011                  
  23515914.963   123576902.762    23515918.983    96293674.007                  
  21276683.545   111809725.624    21276684.385    87124460.944                  
  20087878.997   105562515.777    20087880.052    82256507.607                  
  21270013.879   111774673.866    21270015.076    87097149.368                  
  24044276.383   126353474.407    24044279.796    98457239.566                  
  24598363.247   129265183.860    24598369.286   100726095.230                  
                 118570065.298                   118570065.298    22770135.833  
                 135201534.481                   135201534.481    25964038.529  
                 118224719.547                   118224719.547    22703810.737  
                 120252498.841                   120252498.841    23093231.962  
  26283234.048   138119276.820                                                  
  23509392.019   123542671.212                                                  
  23409760.315   123019096.272                                                  
  27532600.913   144684729.767                                                  
  23988821.372   126062041.390                                                  
 21  8 31 19 49  7.0000000  0 16G 5G10G15G18G23G29G32C19C21C22C35E 3
                                E 5E 9E15E36
  23960219.106   125911773.906    23960221.375    98113063.442                  
  23515507.013   123574759.033    23515511.033    96292003.571                  
  21277157.682   111812217.244    21277158.522    87126402.464                  
  20087795.906   105562079.093    20087796.961    82256167.331                  
  21269781.742   111773453.899    21269782.939    87096198.742                  
  24044925.208   126356884.054    24044928.638    98459896.434                  
  24597789.883   129262170.845    24597795.923   100723747.431                  
                 118571515.284                   118571515.284    22770414.303  
                 135199575.437                   135199575.437    25963662.314  
                 118224179.714                   118224179.714    22703707.061  
                 120254867.989                   120254867.989    23093686.943  
  26282872.200   138117375.344                                                  
  23509395.307   123542688.507                                                  
  23410134.582   123021063.040                                                  
  27532068.184   144681930.235                                                  
  23989139.637   126063713.900                                                  
 21  8 31 19 49  8.0000000  0 16G 5G10G15G18G23G29G32C19C21C22C35E 3
                                E 5E 9E15E36
  23960659.541   125914088.390    23960661.793    98114866.934                  
  23515099.081   123572615.292    23515103.102    96290333.122                  
  21277631.872   111814709.160    21277632.712    87128344.219                  
  20087712.905   105561642.972    20087713.977    82255827.497                  
  21269549.606   111772234.066    21269550.821    87095248.223                  
  24045574.032   126360293.710    24045577.481    98462553.304                  
  24597216.556   129259158.003    24597222.595   100721399.762                  
                 118572965.334                   118572965.334    22770692.756  
                 135197616.486                   135197616.486    25963286.118  
                 118223640.040                   118223640.040    22703603.420  
                 120257237.488                   120257237.488    23094141.978  
  26282510.406   138115474.001                                                  
  23509398.648   123542706.073                                                  
  23410508.866   123023029.868                                                  
  27531535.455   144679130.792                                                  
  23989457.973   126065386.743                                                  
 21  8 31 19 49  9.0000000  0 16G 5G10G15G18G23G29G32C19C21C22C35E 3
                                E 5E 9E15E36
  23961099.977   125916402.969    23961102.264    98116670.499                  
  23514691.131   123570471.583    23514695.187    96288662.699                  
  21278106.134   111817201.348    21278106.956    87130286.184                  
  20087630.046   105561207.453    20087631.100    82255488.133                  
  21269317.505   111771014.374    21269318.720    87094297.816                  
  24046222.874   126363703.374    24046226.323    98465210.183                  
  24596643.282   129256145.360    24596649.304   100719052.250                  
                 118574415.440                   118574415.440    22770971.245  
                 135195657.630                   135195657.630    25962909.939  
                 118223100.520                   118223100.520    22703499.816  
                 120259607.337                   120259607.337    23094597.084  
  26282148.612   138113572.909                                                  
  23509402.043   123542723.882                                                  
  23410883.133   123024996.762                                                  
  27531002.762   144676331.422                                                  
  23989776.382   126067060.013                                                  
 21  8 31 19 49 10.0000000  0 16G 5G10G15G18G23G29G32C19C21C22C35E 3
                                E 5E 9E15E36
  23961540.448   125918717.630    23961542.718    98118474.129                  
  23514283.199   123568327.875    23514287.238    96286992.282                  
  21278580.431   111819693.807    21278581.253    87132228.355                  
  20087547.259   105560772.500    20087548.313    82255149.207                  
  21269085.440   111769794.821    21269086.637    87093347.517                  
  24046871.716   126367113.030    24046875.165    98467867.058                  
  24596070.026   129253132.929    24596076.065   100716704.906                  
                 118575865.610                   118575865.610    22771249.716  
                 135193698.862                   135193698.862    25962533.778  
                 118222561.152                   118222561.152    22703396.247  
                 120261977.534                   120261977.534    23095052.262  
  26281786.907   138111672.021                                                  
  23509405.474   123542741.941                                                  
  23411257.435   123026963.722                                                  
  27530470.086   144673532.137                                                  
  23990094.879   126068733.661                                                  
 21  8 31 19 49 11.0000000  0 16G 5G10G15G18G23G29G32C19C21C22C35E 3
                                E 5E 9E15E36
  23961980.938   125921032.378    23961983.207    98120277.831                  
  23513875.267   123566184.169    23513879.306    96285321.860                  
  21279054.782   111822186.542    21279055.622    87134170.751                  
  20087464.597   105560338.132    20087465.669    82254810.738                  
  21268853.375   111768575.402    21268854.572    87092397.316                  
  24047520.558   126370522.698    24047524.007    98470523.937                  
  24595496.823   129250120.679    24595502.845   100714357.698                  
                 118577315.832                   118577315.832    22771528.223  
                 135191740.190                   135191740.190    25962157.618  
                 118222021.941                   118222021.941    22703292.678  
                 120264348.083                   120264348.083    23095507.493  
  26281425.220   138109771.343                                                  
  23509408.959   123542760.266                                                  
  23411631.756   123028930.756                                                  
  27529937.393   144670732.947                                                  
  23990413.448   126070407.708                                                  
 21  8 31 19 49 12.0000000  0 16G 5G10G15G18G23G29G32C19C21C22C35E 3
                                E 5E 9E15E36
  23962421.445   125923347.224    23962423.696    98122081.603                  
  23513467.335   123564040.476    23513471.356    96283651.453                  
  21279529.205   111824679.561    21279530.027    87136113.359                  
  20087382.060   105559904.356    20087383.114    82254472.730                  
  21268621.364   111767356.124    21268622.561    87091447.233                  
  24048169.400   126373932.375    24048172.849    98473180.823                  
  24594923.638   129247108.620    24594929.660   100712010.644                  
                 118578766.112                   118578766.112    22771806.747  
                 135189781.608                   135189781.608    25961781.493  
                 118221482.884                   118221482.884    22703189.163  
                 120266718.981                   120266718.981    23095962.796  
  26281063.569   138107870.859                                                  
  23509412.497   123542778.844                                                  
  23412006.076   123030897.864                                                  
  27529404.735   144667933.841                                                  
  23990732.053   126072082.148                                                  
 21  8 31 19 49 13.0000000  0 18G 5G10G13G15G18G23G24G29G32C19C21C22
                                C35E 3E 5E 9E15E36
  23962861.934   125925662.137    23962864.221    98123885.431                  
  23513059.404   123561896.793    23513063.442    96281981.052                  
  23729591.846   124699826.821    23729593.204    97168690.965                  
  21280003.645   111827172.845    21280004.485    87138056.177                  
  20087299.612   105559471.152    20087300.684    82254135.169                  
  21268389.352   111766136.990    21268390.585    87090497.259                  
  21131218.065   111045245.202    21131221.907    86528748.675                  
  24048818.242   126377342.051    24048821.673    98475837.712                  
  24594350.507   129244096.747    24594356.511   100709663.727                  
                 118580216.456                   118580216.456    22772085.254  
                 135187823.125                   135187823.125    25961405.403  
                 118220943.977                   118220943.977    22703085.683  
                 120269090.231                   120269090.231    23096418.188  
  26280701.936   138105970.587                                                  
  23509416.088   123542797.681                                                  
  23412380.432   123032865.039                                                  
  27528872.113   144665134.820                                                  
  23991050.782   126073756.958                                                  
 21  8 31 19 49 14.0000000  0 18G 5G10G13G15G18G23G24G29G32C19C21C22
                                C35E 3E 5E 9E15E36
  23963302.477   125927977.144    23963304.764    98125689.332                  
  23512651.472   123559753.126    23512655.528    96280310.659                  
  23730241.296   124703239.720    23730242.654    97171350.364                  
  21280478.157   111829666.407    21280478.997    87139999.210                  
  20087217.307   105559038.535    20087218.362    82253798.063                  
  21268157.394   111764917.985    21268158.592    87089547.382                  
  21130884.701   111043493.415    21130888.543    86527383.649                  
  24049467.084   126380751.722    24049470.515    98478494.598                  
  24593777.376   129241085.075    24593783.416   100707316.972                  
                 118581666.856                   118581666.856    22772363.796  
                 135185864.729                   135185864.729    25961029.296  
                 118220405.226                   118220405.226    22702982.222  
                 120271461.827                   120271461.827    23096873.616  
  26280340.374   138104070.523                                                  
  23509419.716   123542816.757                                                  
  23412754.788   123034832.281                                                  
  27528339.509   144662335.870                                                  
  23991369.566   126075432.162                                                  
 21  8 31 19 49 15.0000000  0 18G 5G10G13G15G18G23G24G29G32C19C21C22
                                C35E 3E 5E 9E15E36
  23963743.020   125930292.230    23963745.307    98127493.293                  
  23512243.540   123557609.450    23512247.578    96278640.265                  
  23730890.781   124706652.700    23730892.139    97174009.828                  
  21280952.723   111832160.242    21280953.563    87141942.458                  
  20087135.074   105558606.496    20087136.146    82253461.409                  
  21267925.455   111763699.120    21267926.652    87088597.620                  
  21130551.462   111041742.204    21130555.303    86526019.071                  
  24050115.926   126384161.398    24050119.357    98481151.489                  
  24593204.317   129238073.583    24593210.339   100704970.360                  
                 118583117.316                   118583117.316    22772642.338  
                 135183906.430                   135183906.430    25960653.242  
                 118219866.634                   118219866.634    22702878.778  
                 120273833.778                   120273833.778    23097329.115  
  26279978.848   138102170.649                                                  
  23509423.397   123542836.098                                                  
  23413129.162   123036799.586                                                  
  27527806.887   144659537.028                                                  
  23991688.403   126077107.743                                                  
 21  8 31 19 49 16.0000000  0 18G 5G10G13G15G18G23G24G29G32C19C21C22
                                C35E 3E 5E 9E15E36
  23964183.581   125932607.442    23964185.868    98129297.371                  
  23511835.626   123555465.806    23511839.664    96276969.900                  
  23731540.266   124710065.772    23731541.624    97176669.364                  
  21281427.342   111834654.403    21281428.164    87143885.981                  
  20087052.984   105558174.976    20087054.038    82253125.126                  
  21267693.532   111762480.368    21267694.748    87087647.922                  
  21130218.311   111039991.509    21130222.153    86524654.859                  
  24050764.786   126387571.113    24050768.217    98483808.414                  
  24592631.275   129235062.211    24592637.315   100702623.790                  
                 118584567.832                   118584567.832    22772920.898  
                 135181948.223                   135181948.223    25960277.189  
                 118219328.193                   118219328.193    22702775.388  
                 120276206.077                   120276206.077    23097784.704  
  26279617.339   138100270.964                                                  
  23509427.114   123542855.701                                                  
  23413503.518   123038766.957                                                  
  27527274.301   144656738.345                                                  
  23992007.347   126078783.836                                                  
 21  8 31 19 49 17.0000000  0 18G 5G10G13G15G18G23G24G29G32C19C21C22
                                C35E 3E 5E 9E15E36
  23964624.159   125934922.698    23964626.446    98131101.464                  
  23511427.694   123553322.159    23511431.732    96275299.528                  
  23732189.752   124713478.917    23732191.128    97179328.957                  
  21281901.997   111837148.790    21281902.837    87145829.661                  
  20086971.001   105557744.106    20086972.055    82252789.382                  
  21267461.664   111761261.788    21267462.861    87086698.382                  
  21129885.304   111038241.460    21129889.146    86523291.188                  
  24051413.629   126390980.792    24051417.059    98486465.305                  
  24592058.305   129232051.109    24592064.327   100700277.484                  
                 118586018.406                   118586018.406    22773199.459  
                 135179990.106                   135179990.106    25959901.135  
                 118218789.903                   118218789.903    22702671.998  
                 120278578.726                   120278578.726    23098240.346  
  26279255.903   138098371.504                                                  
  23509430.902   123542875.558                                                  
  23413877.928   123040734.405                                                  
  27526741.732   144653939.673                                                  
  23992326.345   126080460.198                                                  
 21  8 31 19 49 18.0000000  0 18G 5G10G13G15G18G23G24G29G32C19C21C22
                                C35E 3E 5E 9E15E36
  23965064.756   125937238.043    23965067.043    98132905.624                  
  23511019.780   123551178.530    23511023.818    96273629.167                  
  23732839.273   124716892.153    23732840.649    97181988.617                  
  21282376.723   111839643.449    21282377.563    87147773.547                  
  20086889.107   105557313.824    20086890.179    82252454.098                  
  21267229.796   111760043.346    21267230.993    87085748.945                  
  21129552.387   111036492.000    21129556.228    86521927.969                  
  24052062.453   126394390.472    24052065.901    98489122.195                  
  24591485.335   129229040.212    24591491.357   100697931.328                  
                 118587469.043                   118587469.043    22773478.037  
                 135178032.085                   135178032.085    25959525.117  
                 118218251.771                   118218251.771    22702568.661  
                 120280951.727                   120280951.727    23098696.059  
  26278894.484   138096472.270                                                  
  23509434.726   123542895.671                                                  
  23414252.319   123042701.920                                                  
  27526209.182   144651141.093                                                  
  23992645.414   126082136.945                                                  
 21  8 31 19 49 19.0000000  0 18G 5G10G13G15G18G23G24G29G32C19C21C22
                                C35E 3E 5E 9E15E36
  23965505.388   125939553.475    23965507.657    98134709.860                  
  23510611.866   123549034.904    23510615.904    96271958.814                  
  23733488.812   124720305.474    23733490.188    97184648.343                  
  21282851.485   111842138.382    21282852.325    87149717.653                  
  20086807.338   105556884.118    20086808.393    82252119.262                  
  21266997.963   111758825.043    21266999.160    87084799.622                  
  21129219.576   111034743.104    21129223.418    86520565.195                  
  24052711.295   126397800.163    24052714.744    98491779.098                  
  24590912.418   129226029.491    24590918.440   100695585.317                  
                 118588919.734                   118588919.734    22773756.633  
                 135176074.155                   135176074.155    25959149.117  
                 118217713.789                   118217713.789    22702465.360  
                 120283325.073                   120283325.073    23099151.827  
  26278533.101   138094573.230                                                  
  23509438.603   123542916.042                                                  
  23414626.747   123044669.500                                                  
  27525676.631   144648342.586                                                  
  23992964.555   126083814.079                                                  
 21  8 31 19 49 20.0000000  0 18G 5G10G13G15G18G23G24G29G32C19C21C22
                                C35E 3E 5E 9E15E36
  23965946.002   125941868.984    23965948.272    98136514.152                  
  23510203.934   123546891.280    23510207.972    96270288.458                  
  23734138.369   124723718.883    23734139.727    97187308.145                  
  21283326.301   111844633.593    21283327.141    87151661.969                  
  20086725.677   105556454.994    20086726.731    82251784.879                  
  21266766.148   111757606.874    21266767.345    87083850.399                  
  21128886.873   111032994.789    21128890.715    86519202.871                  
  24053360.137   126401209.857    24053363.586    98494435.995                  
  24590339.519   129223018.967    24590345.559   100693239.456                  
                 118590370.485                   118590370.485    22774035.246  
                 135174116.320                   135174116.320    25958773.135  
                 118217175.965                   118217175.965    22702362.059  
                 120285698.768                   120285698.768    23099607.683  
  26278171.753   138092674.390                                                  
  23509442.517   123542936.665                                                  
  23415001.174   123046637.157                                                  
  27525144.117   144645544.172                                                  
  23993283.785   126085491.612                                                  
 21  8 31 19 49 21.0000000  0 18G 5G10G13G15G18G23G24G29G32C19C21C22
                                C35E 3E 5E 9E15E36
  23966386.635   125944184.575    23966388.922    98138318.504                  
  23509796.020   123544747.674    23509800.058    96268618.118                  
  23734787.925   124727132.380    23734789.301    97189968.013                  
  21283801.188   111847129.069    21283802.028    87153606.500                  
  20086644.123   105556026.450    20086645.195    82251450.949                  
  21266534.351   111756388.849    21266535.566    87082901.284                  
  21128554.294   111031247.047    21128558.136    86517840.996                  
  24054008.979   126404619.539    24054012.428    98497092.890                  
  24589766.674   129220008.640    24589772.696   100690893.751                  
                 118591821.294                   118591821.294    22774313.860  
                 135172158.573                   135172158.573    25958397.189  
                 118216638.292                   118216638.292    22702258.812  
                 120288072.816                   120288072.816    23100063.576  
  26277810.460   138090775.755                                                  
  23509446.501   123542957.538                                                  
  23415375.620   123048604.874                                                  
  27524611.602   144642745.835                                                  
  23993603.086   126087169.527                                                  
 21  8 31 19 49 22.0000000  0 18G 5G10G13G15G18G23G24G29G32C19C21C22
                                C35E 3E 5E 9E15E36
  23966827.303   125946500.233    23966829.572    98140122.918                  
  23509388.106   123542604.063    23509392.144    96266947.773                  
  23735437.518   124730545.960    23735438.876    97192627.949                  
  21284276.093   111849624.820    21284276.933    87155551.243                  
  20086562.676   105555598.484    20086563.766    82251117.476                  
  21266302.608   111755170.953    21266303.805    87081952.281                  
  21128221.823   111029499.888    21128225.665    86516479.583                  
  24054657.821   126408029.230    24054661.288    98499749.797                  
  24589193.865   129216998.503    24589199.905   100688548.192                  
                 118593272.165                   118593272.165    22774592.474  
                 135170200.927                   135170200.927    25958021.225  
                 118216100.779                   118216100.779    22702155.583  
                 120290447.215                   120290447.215    23100519.558  
  26277449.202   138088877.316                                                  
  23509450.522   123542978.674                                                  
  23415750.083   123050572.663                                                  
  27524079.123   144639947.592                                                  
  23993922.459   126088847.841                                                  
 21  8 31 19 49 23.0000000  0 18G 5G10G13G15G18G23G24G29G32C19C21C22
                                C35E 3E 5E 9E15E36
  23967267.988   125948815.977    23967270.240    98141927.395                  
  23508980.191   123540460.466    23508984.212    96265277.440                  
  23736087.129   124733959.621    23736088.487    97195287.945                  
  21284751.087   111852120.844    21284751.927    87157496.199                  
  20086481.354   105555171.102    20086482.426    82250784.454                  
  21266070.864   111753953.198    21266072.079    87081003.386                  
  21127889.460   111027753.298    21127893.301    86515118.606                  
  24055306.681   126411438.918    24055310.112    98502406.699                  
  24588621.073   129213988.555    24588627.113   100686202.784                  
                 118594723.090                   118594723.090    22774871.124  
                 135168243.366                   135168243.366    25957645.296  
                 118215563.414                   118215563.414    22702052.407  
                 120292821.960                   120292821.960    23100975.593  
  26277087.979   138086979.095                                                  
  23509454.578   123543000.055                                                  
  23416124.546   123052540.513                                                  
  27523546.644   144637149.434                                                  
  23994241.904   126090526.518                                                  
 21  8 31 19 49 24.0000000  0 18G 5G10G13G15G18G23G24G29G32C19C21C22
                                C35E 3E 5E 9E15E36
  23967708.656   125951131.814    23967710.944    98143731.946                  
  23508572.277   123538316.872    23508576.316    96263607.114                  
  23736736.721   124737373.368    23736738.097    97197948.007                  
  21285226.117   111854617.133    21285226.957    87159441.364                  
  20086400.139   105554744.298    20086401.193    82250451.884                  
  21265839.157   111752735.578    21265840.354    87080054.598                  
  21127557.203   111026007.290    21127561.045    86513758.082                  
  24055955.523   126414848.607    24055958.954    98505063.597                  
  24588048.335   129210978.788    24588054.375   100683857.518                  
                 118596174.074                   118596174.074    22775149.755  
                 135166285.904                   135166285.904    25957269.386  
                 118215026.203                   118215026.203    22701949.213  
                 120295197.054                   120295197.054    23101431.718  
  26276726.793   138085081.061                                                  
  23509458.706   123543021.691                                                  
  23416499.045   123054508.433                                                  
  27523014.183   144634351.356                                                  
  23994561.420   126092205.583                                                  
 21  8 31 19 49 25.0000000  0 18G 5G10G13G15G18G23G24G29G32C19C21C22
                                C35E 3E 5E 9E15E36
  23968149.360   125953447.733    23968151.647    98145536.563                  
  23508164.363   123536173.290    23508168.402    96261936.793                  
  23737386.367   124740787.199    23737387.725    97200608.141                  
  21285701.201   111857113.700    21285702.041    87161386.738                  
  20086319.032   105554318.087    20086320.104    82250119.769                  
  21265607.485   111751518.102    21265608.682    87079105.915                  
  21127225.054   111024261.847    21127228.895    86512398.000                  
  24056604.365   126418258.286    24056607.796    98507720.488                  
  24587475.633   129207969.217    24587481.655   100681512.403                  
                 118597625.116                   118597625.116    22775428.423  
                 135164328.531                   135164328.531    25956893.493  
                 118214489.149                   118214489.149    22701846.091  
                 120297572.497                   120297572.497    23101887.896  
  26276365.642   138083183.242                                                  
  23509462.852   123543043.582                                                  
  23416873.526   123056476.427                                                  
  27522481.739   144631553.359                                                  
  23994881.007   126093885.038                                                  
 21  8 31 19 49 26.0000000  0 18G 5G10G13G15G18G23G24G29G32C19C21C22
                                C35E 3E 5E 9E15E36
  23968590.082   125955763.726    23968592.369    98147341.231                  
  23507756.467   123534029.716    23507760.488    96260266.476                  
  23738035.996   124744201.116    23738037.372    97203268.331                  
  21286176.321   111859610.534    21286177.160    87163332.323                  
  20086238.031   105553892.442    20086239.103    82249788.098                  
  21265375.849   111750300.757    21265377.046    87078157.335                  
  21126893.011   111022516.995    21126896.853    86511038.379                  
  24057253.207   126421667.983    24057256.638    98510377.395                  
  24586902.985   129204959.852    24586909.006   100679167.446                  
                 118599076.219                   118599076.219    22775707.072  
                 135162371.249                   135162371.249    25956517.618  
                 118213952.249                   118213952.249    22701742.987  
                 120299948.292                   120299948.292    23102344.146  
  26276004.545   138081285.622                                                  
  23509467.087   123543065.722                                                  
  23417248.043   123058444.476                                                  
  27521949.314   144628755.453                                                  
  23995200.666   126095564.872                                                  
 21  8 31 19 49 27.0000000  0 18G 5G10G13G15G18G23G24G29G32C19C21C22
                                C35E 3E 5E 9E15E36
  23969030.821   125958079.816    23969033.108    98149145.976                  
  23507348.535   123531886.140    23507352.574    96258596.163                  
  23738685.678   124747615.118    23738687.036    97205928.590                  
  21286651.512   111862107.644    21286652.351    87165278.126                  
  20086157.156   105553467.393    20086158.228    82249456.895                  
  21265144.195   111749083.554    21265145.428    87077208.867                  
  21126561.094   111020772.724    21126564.936    86509679.202                  
  24057902.032   126425077.677    24057905.498    98513034.297                  
  24586330.336   129201950.664    24586336.376   100676822.626                  
                 118600527.378                   118600527.378    22775985.758  
                 135160414.063                   135160414.063    25956141.761  
                 118213415.501                   118213415.501    22701639.901  
                 120302324.432                   120302324.432    23102800.467  
  26275643.483   138079388.208                                                  
  23509471.339   123543088.121                                                  
  23417622.560   123060412.599                                                  
  27521416.924   144625957.633                                                  
  23995520.397   126097245.105                                                  
 21  8 31 19 49 28.0000000  0 18G 5G10G13G15G18G23G24G29G32C19C21C22
                                C35E 3E 5E 9E15E36
  23969471.578   125960395.997    23969473.866    98150950.785                  
  23506940.639   123529742.587    23506944.677    96256925.860                  
  23739335.360   124751029.202    23739336.718    97208588.917                  
  21287126.756   111864605.033    21287127.578    87167224.136                  
  20086076.388   105553042.923    20086077.442    82249126.137                  
  21264912.594   111747866.498    21264913.827    87076260.507                  
  21126229.284   111019029.019    21126233.126    86508320.476                  
  24058550.892   126428487.368    24058554.340    98515691.194                  
  24585757.759   129198941.674    24585763.781   100674477.961                  
                 118601978.594                   118601978.594    22776264.461  
                 135158456.970                   135158456.970    25955765.922  
                 118212878.907                   118212878.907    22701536.868  
                 120304700.922                   120304700.922    23103256.842  
  26275282.440   138077491.008                                                  
  23509475.664   123543110.775                                                  
  23417997.095   123062380.789                                                  
  27520884.517   144623159.895                                                  
  23995840.199   126098925.708                                                  
 21  8 31 19 49 29.0000000  0 18G 5G10G13G15G18G23G24G29G32C19C21C22
                                C35E 3E 5E 9E15E36
  23969912.354   125962712.242    23969914.623    98152755.656                  
  23506532.743   123527599.034    23506536.763    96255255.564                  
  23739985.041   124754443.368    23739986.417    97211249.304                  
  21287602.036   111867102.683    21287602.876    87169170.359                  
  20085995.727   105552619.024    20085996.782    82248795.824                  
  21264681.047   111746649.567    21264682.245    87075312.250                  
  21125897.582   111017285.895    21125901.424    86506962.195                  
  24059199.734   126431897.059    24059203.182    98518348.097                  
  24585185.200   129195932.879    24585191.222   100672133.445                  
                 118603429.872                   118603429.872    22776543.164  
                 135156499.970                   135156499.970    25955390.100  
                 118212342.469                   118212342.469    22701433.835  
                 120307077.761                   120307077.761    23103713.306  
  26274921.467   138075593.996                                                  
  23509480.024   123543133.681                                                  
  23418371.647   123064349.044                                                  
  27520352.163   144620362.253                                                  
  23996160.108   126100606.706                                                  
 21  8 31 19 49 30.0000000  0 18G 5G10G13G15G18G23G24G29G32C19C21C22
                                C35E 3E 5E 9E15E36
  23970353.147   125965028.587    23970355.416    98154560.598                  
  23506124.847   123525455.501    23506128.867    96253585.276                  
  23740634.759   124757857.625    23740636.117    97213909.762                  
  21288077.388   111869600.620    21288078.228    87171116.804                  
  20085915.156   105552195.718    20085916.228    82248465.979                  
  21264449.483   111745432.777    21264450.680    87074364.106                  
  21125565.986   111015543.352    21125569.828    86505604.371                  
  24059848.576   126435306.745    24059852.024    98521004.992                  
  24584612.676   129192924.271    24584618.698   100669789.075                  
                 118604881.207                   118604881.207    22776821.885  
                 135154543.060                   135154543.060    25955014.297  
                 118211806.183                   118211806.183    22701330.856  
                 120309454.954                   120309454.954    23104169.806  
  26274560.495   138073697.192                                                  
  23509484.420   123543156.837                                                  
  23418746.200   123066317.364                                                  
  27519819.809   144617564.691                                                  
  23996480.053   126102288.090                                                  
 21  8 31 19 49 31.0000000  0 18G 5G10G13G15G18G23G24G29G32C19C21C22
                                C35E 3E 5E 9E15E36
  23970793.940   125967345.005    23970796.227    98156365.593                  
  23505716.933   123523311.960    23505720.953    96251914.989                  
  23741284.477   124761271.956    23741285.853    97216570.277                  
  21288552.776   111872098.816    21288553.615    87173063.450                  
  20085834.727   105551772.993    20085835.782    82248136.581                  
  21264217.954   111744216.138    21264219.187    87073416.071                  
  21125234.498   111013801.390    21125238.340    86504247.001                  
  24060497.418   126438716.442    24060500.884    98523661.899                  
  24584040.206   129189915.860    24584046.228   100667444.863                  
                 118606332.598                   118606332.598    22777100.606  
                 135152586.246                   135152586.246    25954638.494  
                 118211270.051                   118211270.051    22701227.895  
                 120311832.488                   120311832.488    23104626.377  
  26274199.595   138071800.602                                                  
  23509488.887   123543180.253                                                  
  23419120.788   123068285.762                                                  
  27519287.455   144614767.220                                                  
  23996800.087   126103969.863                                                  
 21  8 31 19 49 32.0000000  0 18G 5G10G13G15G18G23G24G29G32C19C21C22
                                C35E 3E 5E 9E15E36
  23971234.769   125969661.503    23971237.038    98158170.660                  
  23505309.036   123521168.448    23505313.057    96250244.718                  
  23741934.248   124764686.392    23741935.606    97219230.872                  
  21289028.217   111874597.296    21289029.057    87175010.315                  
