% program   : rnx2rtkp ver.2.4.3 b31
% inp file  : ngs/21_08_31_08_48_19_nvbm.obs
% inp file  : ngs/21_08_31_08_48_19_nvbm_P1.obs
% inp file  : ngs/21_08_31_08_48_19_brdc.nav
% obs start : 2021/08/31 08:00:00.0 GPST (week2173 201600.0s)
% obs end   : 2021/08/31 08:59:59.0 GPST (week2173 205199.0s)
% ref pos   : -2198247.3460  -4654293.0410   3755064.5390
%
% (x/y/z-ecef=WGS84,Q=1:fix,2:float,3:sbas,4:dgps,5:single,6:ppp,ns=# of satellites)
%  GPST              x-ecef(m)      y-ecef(m)      z-ecef(m)   Q  ns   sdx(m)   sdy(m)   sdz(m)  sdxy(m)  sdyz(m)  sdzx(m) age(s)  ratio
2173 204474.000  -2197190.6062  -4678268.0214   3725899.9164   2   9   0.4654   0.7402   0.6786   0.3932  -0.5419  -0.2638 -30.00    1.6
2173 204475.000  -2197190.6057  -4678268.0179   3725899.9063   2   9   0.3314   0.5269   0.4824   0.2801  -0.3854  -0.1877 -29.00    1.6
2173 204476.000  -2197190.6082  -4678268.0205   3725899.9065   2   9   0.2714   0.4314   0.3949   0.2293  -0.3155  -0.1537 -28.00    1.7
2173 204477.000  -2197190.6116  -4678268.0270   3725899.9092   2   9   0.2355   0.3743   0.3427   0.1990  -0.2738  -0.1333 -27.00    1.7
2173 204478.000  -2197190.6115  -4678268.0281   3725899.9102   2   9   0.2109   0.3352   0.3070   0.1782  -0.2452  -0.1194 -26.00    1.8
2173 204479.000  -2197190.6127  -4678268.0280   3725899.9105   2   9   0.1927   0.3063   0.2805   0.1628  -0.2241  -0.1092 -25.00    1.8
2173 204480.000  -2197190.6102  -4678268.0285   3725899.9082   2   9   0.1785   0.2838   0.2600   0.1508  -0.2077  -0.1012 -24.00    1.9
2173 204481.000  -2197190.6123  -4678268.0316   3725899.9129   2   9   0.1670   0.2656   0.2434   0.1412  -0.1944  -0.0947 -23.00    1.9
2173 204482.000  -2197190.6132  -4678268.0321   3725899.9104   2   9   0.1575   0.2505   0.2296   0.1331  -0.1833  -0.0893 -22.00    2.0
2173 204483.000  -2197190.6129  -4678268.0312   3725899.9123   2   9   0.1495   0.2377   0.2179   0.1263  -0.1740  -0.0848 -21.00    2.1
2173 204484.000  -2197190.6132  -4678268.0325   3725899.9127   2   9   0.1426   0.2267   0.2078   0.1205  -0.1659  -0.0809 -20.00    2.1
2173 204485.000  -2197190.6149  -4678268.0326   3725899.9131   2   9   0.1365   0.2171   0.1989   0.1154  -0.1589  -0.0774 -19.00    2.2
2173 204486.000  -2197190.6151  -4678268.0373   3725899.9147   2   9   0.1311   0.2086   0.1911   0.1108  -0.1526  -0.0744 -18.00    2.3
2173 204487.000  -2197190.6143  -4678268.0327   3725899.9116   2   9   0.1264   0.2010   0.1841   0.1068  -0.1471  -0.0717 -17.00    2.4
2173 204488.000  -2197190.6152  -4678268.0315   3725899.9127   2   9   0.1221   0.1941   0.1778   0.1032  -0.1421  -0.0692 -16.00    2.5
2173 204489.000  -2197190.6136  -4678268.0341   3725899.9132   2   9   0.1182   0.1879   0.1721   0.0999  -0.1375  -0.0670 -15.00    2.6
2173 204490.000  -2197190.6115  -4678268.0317   3725899.9121   2   9   0.1146   0.1823   0.1669   0.0969  -0.1334  -0.0650 -14.00    2.7
2173 204491.000  -2197190.6106  -4678268.0345   3725899.9145   2   9   0.1113   0.1771   0.1621   0.0941  -0.1295  -0.0632 -13.00    2.9
2173 204492.000  -2197190.5274  -4678268.4485   3725899.9878   1   9   0.0097   0.0167   0.0178   0.0082  -0.0135  -0.0063 -12.00    3.1
2173 204493.000  -2197190.5260  -4678268.4459   3725899.9872   1   9   0.0091   0.0156   0.0166   0.0077  -0.0126  -0.0059 -11.00    3.3
2173 204494.000  -2197190.5264  -4678268.4451   3725899.9888   1   9   0.0085   0.0146   0.0153   0.0073  -0.0117  -0.0055 -10.00    3.7
2173 204495.000  -2197190.5243  -4678268.4464   3725899.9873   1   9   0.0080   0.0136   0.0141   0.0066  -0.0108  -0.0050  -9.00    4.0
2173 204496.000  -2197190.5250  -4678268.4451   3725899.9856   1   9   0.0075   0.0126   0.0130   0.0062  -0.0099  -0.0046  -8.00    4.5
2173 204497.000  -2197190.5249  -4678268.4489   3725899.9907   1   9   0.0069   0.0117   0.0118   0.0058  -0.0091  -0.0042  -7.00    5.1
2173 204498.000  -2197190.5239  -4678268.4464   3725899.9880   1   9   0.0065   0.0107   0.0107   0.0055  -0.0083  -0.0040  -6.00    5.5
2173 204499.000  -2197190.5239  -4678268.4454   3725899.9882   1   9   0.0061   0.0100   0.0098   0.0049  -0.0075  -0.0034  -5.00    5.9
2173 204500.000  -2197190.5229  -4678268.4449   3725899.9880   1   9   0.0056   0.0091   0.0087   0.0049  -0.0069  -0.0032  -4.00    6.4
2173 204501.000  -2197190.5223  -4678268.4452   3725899.9887   1   9   0.0051   0.0083   0.0081   0.0046  -0.0063  -0.0032  -3.00    7.1
2173 204502.000  -2197190.5222  -4678268.4456   3725899.9874   1   9   0.0047   0.0078   0.0075   0.0044  -0.0058  -0.0029  -2.00    7.8
2173 204503.000  -2197190.5211  -4678268.4434   3725899.9881   1   9   0.0048   0.0076   0.0069   0.0042  -0.0055  -0.0029  -1.00    8.6
2173 204504.000  -2197190.5192  -4678268.4409   3725899.9866   1   9   0.0045   0.0075   0.0068   0.0039  -0.0056  -0.0030   0.00    9.5
2173 204505.000  -2197190.5194  -4678268.4417   3725899.9880   1   9   0.0047   0.0075   0.0068   0.0040  -0.0055  -0.0027   0.00   16.3
2173 204506.000  -2197190.5205  -4678268.4396   3725899.9874   1   9   0.0047   0.0075   0.0068   0.0040  -0.0055  -0.0027   0.00   15.0
2173 204507.000  -2197190.5193  -4678268.4387   3725899.9857   1   9   0.0047   0.0075   0.0068   0.0040  -0.0055  -0.0027   0.00   13.2
2173 204508.000  -2197190.5199  -4678268.4411   3725899.9888   1   9   0.0047   0.0075   0.0068   0.0040  -0.0055  -0.0027   0.00   11.6
2173 204509.000  -2197190.5187  -4678268.4419   3725899.9887   1   9   0.0047   0.0075   0.0068   0.0040  -0.0055  -0.0027   0.00   12.6
2173 204510.000  -2197190.5199  -4678268.4396   3725899.9883   1   9   0.0047   0.0075   0.0068   0.0040  -0.0055  -0.0027   0.00   13.7
2173 204511.000  -2197190.5199  -4678268.4380   3725899.9868   1   9   0.0047   0.0075   0.0068   0.0040  -0.0055  -0.0027   0.00   13.9
2173 204512.000  -2197190.5196  -4678268.4397   3725899.9869   1   9   0.0047   0.0075   0.0068   0.0040  -0.0055  -0.0027   0.00   14.6
2173 204513.000  -2197190.5190  -4678268.4377   3725899.9857   1   9   0.0047   0.0075   0.0068   0.0040  -0.0055  -0.0027   0.00   13.5
2173 204514.000  -2197190.5185  -4678268.4414   3725899.9891   1   9   0.0047   0.0075   0.0068   0.0040  -0.0055  -0.0027   0.00   13.8
2173 204515.000  -2197190.5179  -4678268.4406   3725899.9901   1   9   0.0047   0.0075   0.0068   0.0040  -0.0055  -0.0027   0.00   11.4
2173 204516.000  -2197190.5197  -4678268.4411   3725899.9891   1   9   0.0047   0.0075   0.0068   0.0040  -0.0055  -0.0027   0.00   13.1
2173 204517.000  -2197190.5196  -4678268.4424   3725899.9899   1   9   0.0047   0.0075   0.0068   0.0040  -0.0055  -0.0027   0.00   14.3
2173 204518.000  -2197190.5191  -4678268.4416   3725899.9891   1   9   0.0047   0.0075   0.0068   0.0040  -0.0055  -0.0027   0.00   15.0
2173 204519.000  -2197190.5215  -4678268.4433   3725899.9906   1   9   0.0047   0.0075   0.0068   0.0040  -0.0055  -0.0027   0.00    9.4
2173 204520.000  -2197190.5205  -4678268.4402   3725899.9866   1   9   0.0047   0.0075   0.0068   0.0040  -0.0055  -0.0027   0.00   11.0
2173 204521.000  -2197190.5212  -4678268.4428   3725899.9889   1   9   0.0047   0.0075   0.0068   0.0040  -0.0055  -0.0027   0.00   14.6
2173 204522.000  -2197190.5209  -4678268.4394   3725899.9857   1   9   0.0047   0.0075   0.0068   0.0040  -0.0055  -0.0027   0.00   12.0
2173 204523.000  -2197190.5199  -4678268.4403   3725899.9875   1   9   0.0047   0.0075   0.0068   0.0040  -0.0055  -0.0027   0.00   11.0
2173 204524.000  -2197190.5214  -4678268.4406   3725899.9869   1   9   0.0047   0.0075   0.0068   0.0040  -0.0055  -0.0027   0.00   11.5
2173 204525.000  -2197190.5207  -4678268.4407   3725899.9888   1   9   0.0047   0.0075   0.0068   0.0040  -0.0055  -0.0027   0.00   11.4
2173 204526.000  -2197190.5203  -4678268.4414   3725899.9881   1   9   0.0047   0.0075   0.0068   0.0040  -0.0055  -0.0027   0.00   10.6
2173 204527.000  -2197190.5192  -4678268.4405   3725899.9877   1   9   0.0047   0.0075   0.0068   0.0040  -0.0055  -0.0027   0.00   12.8
2173 204528.000  -2197190.5216  -4678268.4379   3725899.9820   1   9   0.0047   0.0075   0.0068   0.0040  -0.0055  -0.0027   0.00   11.1
2173 204529.000  -2197190.5192  -4678268.4410   3725899.9858   1   9   0.0047   0.0075   0.0068   0.0040  -0.0055  -0.0027   0.00   10.9
2173 204530.000  -2197190.5189  -4678268.4382   3725899.9870   1   9   0.0047   0.0075   0.0068   0.0040  -0.0055  -0.0027   0.00   12.1
2173 204531.000  -2197190.5199  -4678268.4363   3725899.9857   1   9   0.0047   0.0075   0.0068   0.0040  -0.0055  -0.0027   0.00    9.7
2173 204532.000  -2197190.5198  -4678268.4411   3725899.9914   1   9   0.0047   0.0075   0.0068   0.0040  -0.0055  -0.0027   0.00   11.0
2173 204533.000  -2197190.5218  -4678268.4379   3725899.9849   1   9   0.0047   0.0075   0.0068   0.0040  -0.0055  -0.0027   0.00   12.9
2173 204534.000  -2197190.5218  -4678268.4391   3725899.9864   1   9   0.0047   0.0075   0.0068   0.0040  -0.0055  -0.0027   0.00   10.1
2173 204535.000  -2197190.5202  -4678268.4378   3725899.9845   1   9   0.0047   0.0075   0.0068   0.0040  -0.0055  -0.0027   0.00    9.0
2173 204536.000  -2197190.5195  -4678268.4383   3725899.9864   1   9   0.0047   0.0075   0.0068   0.0040  -0.0055  -0.0027   0.00   10.1
2173 204537.000  -2197190.5205  -4678268.4364   3725899.9865   1   9   0.0047   0.0075   0.0068   0.0040  -0.0055  -0.0027   0.00   10.6
2173 204538.000  -2197190.5195  -4678268.4361   3725899.9843   1   9   0.0047   0.0075   0.0068   0.0040  -0.0055  -0.0027   0.00   11.8
2173 204539.000  -2197190.5201  -4678268.4373   3725899.9858   1   9   0.0047   0.0075   0.0068   0.0040  -0.0055  -0.0027   0.00   10.9
2173 204540.000  -2197190.5199  -4678268.4371   3725899.9842   1   9   0.0047   0.0075   0.0068   0.0040  -0.0055  -0.0027   0.00   12.3
2173 204541.000  -2197190.5191  -4678268.4390   3725899.9859   1   9   0.0047   0.0075   0.0068   0.0040  -0.0055  -0.0027   0.00   11.4
2173 204542.000  -2197190.5218  -4678268.4393   3725899.9828   1   9   0.0047   0.0075   0.0068   0.0040  -0.0055  -0.0027   0.00   12.2
2173 204543.000  -2197190.5220  -4678268.4413   3725899.9865   1   9   0.0047   0.0075   0.0068   0.0040  -0.0055  -0.0027   0.00   14.5
2173 204544.000  -2197190.5214  -4678268.4381   3725899.9815   1   9   0.0047   0.0075   0.0068   0.0040  -0.0055  -0.0027   0.00   11.4
2173 204545.000  -2197190.5212  -4678268.4388   3725899.9850   1   9   0.0047   0.0075   0.0068   0.0040  -0.0055  -0.0027   0.00   15.0
2173 204546.000  -2197190.5213  -4678268.4399   3725899.9835   1   9   0.0047   0.0075   0.0068   0.0040  -0.0055  -0.0027   0.00   11.1
2173 204547.000  -2197190.5216  -4678268.4370   3725899.9835   1   9   0.0047   0.0075   0.0068   0.0040  -0.0055  -0.0027   0.00   12.4
2173 204548.000  -2197190.5198  -4678268.4353   3725899.9831   1   9   0.0047   0.0075   0.0069   0.0040  -0.0055  -0.0027   0.00   12.5
2173 204549.000  -2197190.5199  -4678268.4383   3725899.9863   1   9   0.0047   0.0075   0.0069   0.0040  -0.0055  -0.0027   0.00   12.5
2173 204550.000  -2197190.5196  -4678268.4371   3725899.9827   1   9   0.0047   0.0075   0.0069   0.0040  -0.0055  -0.0027   0.00   10.0
2173 204551.000  -2197190.5184  -4678268.4352   3725899.9834   1   9   0.0047   0.0075   0.0069   0.0040  -0.0055  -0.0027   0.00   12.4
2173 204552.000  -2197190.5194  -4678268.4384   3725899.9843   1   9   0.0047   0.0075   0.0069   0.0040  -0.0055  -0.0027   0.00   12.6
2173 204553.000  -2197190.5207  -4678268.4390   3725899.9851   1   9   0.0047   0.0075   0.0069   0.0040  -0.0055  -0.0027   0.00   11.7
2173 204554.000  -2197190.5209  -4678268.4348   3725899.9828   1   9   0.0047   0.0075   0.0069   0.0040  -0.0055  -0.0027   0.00   11.0
2173 204555.000  -2197190.5203  -4678268.4360   3725899.9854   1   9   0.0047   0.0075   0.0069   0.0040  -0.0055  -0.0027   0.00   10.9
2173 204556.000  -2197190.5183  -4678268.4345   3725899.9803   1   9   0.0047   0.0075   0.0069   0.0040  -0.0055  -0.0027   0.00   10.2
2173 204557.000  -2197190.5197  -4678268.4333   3725899.9824   1   9   0.0047   0.0075   0.0069   0.0040  -0.0055  -0.0027   0.00   12.4
2173 204558.000  -2197190.5183  -4678268.4322   3725899.9818   1   9   0.0047   0.0075   0.0069   0.0040  -0.0055  -0.0027   0.00    9.1
2173 204559.000  -2197190.5198  -4678268.4375   3725899.9860   1   9   0.0047   0.0075   0.0069   0.0040  -0.0055  -0.0027   0.00    9.0
2173 204560.000  -2197190.5195  -4678268.4373   3725899.9854   1   9   0.0047   0.0075   0.0069   0.0040  -0.0055  -0.0027   0.00   10.0
2173 204561.000  -2197190.5185  -4678268.4379   3725899.9846   1   9   0.0047   0.0075   0.0069   0.0040  -0.0055  -0.0027   0.00   10.0
2173 204562.000  -2197190.5196  -4678268.4365   3725899.9846   1   9   0.0047   0.0075   0.0069   0.0040  -0.0055  -0.0027   0.00   11.8
2173 204563.000  -2197190.5195  -4678268.4388   3725899.9848   1   9   0.0047   0.0075   0.0069   0.0040  -0.0055  -0.0027   0.00   10.3
2173 204564.000  -2197190.5184  -4678268.4362   3725899.9845   1   9   0.0047   0.0075   0.0069   0.0040  -0.0055  -0.0027   0.00    9.4
2173 204565.000  -2197190.5189  -4678268.4359   3725899.9834   1   9   0.0047   0.0075   0.0069   0.0040  -0.0055  -0.0027   0.00    9.8
2173 204566.000  -2197190.5175  -4678268.4383   3725899.9863   1   9   0.0047   0.0075   0.0069   0.0040  -0.0055  -0.0027   0.00    8.1
2173 204567.000  -2197190.5210  -4678268.4379   3725899.9855   1   9   0.0047   0.0075   0.0069   0.0040  -0.0055  -0.0027   0.00    9.3
2173 204568.000  -2197190.5202  -4678268.4366   3725899.9859   1   9   0.0047   0.0075   0.0069   0.0040  -0.0055  -0.0027   0.00    7.2
2173 204569.000  -2197190.5191  -4678268.4371   3725899.9880   1   9   0.0047   0.0075   0.0069   0.0040  -0.0055  -0.0027   0.00    7.5
2173 204570.000  -2197190.5205  -4678268.4385   3725899.9863   1   9   0.0047   0.0075   0.0069   0.0040  -0.0055  -0.0027   0.00    9.0
2173 204571.000  -2197190.5180  -4678268.4343   3725899.9843   1   9   0.0047   0.0075   0.0069   0.0040  -0.0055  -0.0027   0.00    8.3
2173 204572.000  -2197190.5190  -4678268.4356   3725899.9872   1   9   0.0047   0.0075   0.0069   0.0040  -0.0055  -0.0027   0.00    9.3
2173 204573.000  -2197190.5185  -4678268.4387   3725899.9836   1   9   0.0047   0.0075   0.0069   0.0040  -0.0055  -0.0027   0.00    9.9
2173 204574.000  -2197190.5172  -4678268.4380   3725899.9870   1   9   0.0047   0.0075   0.0069   0.0040  -0.0055  -0.0027   0.00    9.2
2173 204575.000  -2197190.5191  -4678268.4373   3725899.9866   1   9   0.0047   0.0075   0.0069   0.0040  -0.0055  -0.0027   0.00    8.2
2173 204576.000  -2197190.5187  -4678268.4378   3725899.9845   1   9   0.0047   0.0075   0.0069   0.0040  -0.0055  -0.0027   0.00    9.0
2173 204577.000  -2197190.5187  -4678268.4385   3725899.9901   1   9   0.0047   0.0075   0.0069   0.0040  -0.0055  -0.0027   0.00    9.8
2173 204578.000  -2197190.5192  -4678268.4380   3725899.9870   1   9   0.0047   0.0075   0.0069   0.0040  -0.0055  -0.0027   0.00   10.7
2173 204579.000  -2197190.5171  -4678268.4357   3725899.9865   1   9   0.0047   0.0075   0.0069   0.0040  -0.0055  -0.0027   0.00   10.2
2173 204580.000  -2197190.5168  -4678268.4360   3725899.9873   1   9   0.0047   0.0075   0.0069   0.0040  -0.0055  -0.0027   0.00    9.8
2173 204581.000  -2197190.5180  -4678268.4357   3725899.9883   1   9   0.0047   0.0075   0.0069   0.0040  -0.0055  -0.0027   0.00   10.9
2173 204582.000  -2197190.5199  -4678268.4372   3725899.9874   1   9   0.0047   0.0075   0.0069   0.0040  -0.0055  -0.0027   0.00    9.7
2173 204583.000  -2197190.5174  -4678268.4345   3725899.9872   1   9   0.0047   0.0075   0.0069   0.0040  -0.0055  -0.0027   0.00   10.5
2173 204584.000  -2197190.5190  -4678268.4371   3725899.9896   1   9   0.0047   0.0075   0.0069   0.0040  -0.0055  -0.0027   0.00    9.9
2173 204585.000  -2197190.5199  -4678268.4375   3725899.9881   1   9   0.0047   0.0075   0.0069   0.0040  -0.0055  -0.0027   0.00   10.7
2173 204586.000  -2197190.5185  -4678268.4331   3725899.9840   1   9   0.0047   0.0075   0.0069   0.0040  -0.0055  -0.0027   0.00   10.7
2173 204587.000  -2197190.5175  -4678268.4346   3725899.9873   1   9   0.0047   0.0075   0.0069   0.0040  -0.0055  -0.0027   0.00   12.1
2173 204588.000  -2197190.5175  -4678268.4370   3725899.9888   1   9   0.0047   0.0075   0.0069   0.0040  -0.0055  -0.0027   0.00   14.0
2173 204589.000  -2197190.5170  -4678268.4365   3725899.9876   1   9   0.0047   0.0075   0.0069   0.0040  -0.0055  -0.0027   0.00   12.7
2173 204590.000  -2197190.5180  -4678268.4374   3725899.9888   1   9   0.0047   0.0075   0.0069   0.0040  -0.0055  -0.0027   0.00   10.7
2173 204591.000  -2197190.5182  -4678268.4348   3725899.9880   1   9   0.0047   0.0075   0.0069   0.0040  -0.0055  -0.0027   0.00   10.4
2173 204592.000  -2197190.5163  -4678268.4359   3725899.9867   1   9   0.0047   0.0075   0.0069   0.0040  -0.0055  -0.0027   0.00   11.8
2173 204593.000  -2197190.5182  -4678268.4347   3725899.9876   1   9   0.0047   0.0075   0.0069   0.0040  -0.0055  -0.0027   0.00   11.9
2173 204594.000  -2197190.5182  -4678268.4334   3725899.9868   1   9   0.0047   0.0075   0.0069   0.0040  -0.0055  -0.0027   0.00   12.1
2173 204595.000  -2197190.5181  -4678268.4345   3725899.9856   1   9   0.0047   0.0075   0.0069   0.0040  -0.0055  -0.0027   0.00   12.0
2173 204596.000  -2197190.5184  -4678268.4355   3725899.9893   1   9   0.0047   0.0075   0.0069   0.0040  -0.0055  -0.0027   0.00   10.7
2173 204597.000  -2197190.5190  -4678268.4355   3725899.9902   1   9   0.0047   0.0075   0.0069   0.0040  -0.0055  -0.0027   0.00   11.8
2173 204598.000  -2197190.5164  -4678268.4347   3725899.9874   1   9   0.0047   0.0075   0.0069   0.0040  -0.0055  -0.0027   0.00   11.3
2173 204599.000  -2197190.5198  -4678268.4382   3725899.9902   1   9   0.0047   0.0075   0.0069   0.0040  -0.0055  -0.0027   0.00   11.7
2173 204600.000  -2197190.5179  -4678268.4348   3725899.9878   1   9   0.0047   0.0075   0.0069   0.0040  -0.0055  -0.0027   0.00   11.5
2173 204601.000  -2197190.5176  -4678268.4345   3725899.9872   1   9   0.0047   0.0075   0.0069   0.0040  -0.0055  -0.0027   0.00   12.2
2173 204602.000  -2197190.5164  -4678268.4328   3725899.9858   1   9   0.0047   0.0075   0.0069   0.0040  -0.0055  -0.0027   0.00   12.7
2173 204603.000  -2197190.5182  -4678268.4324   3725899.9879   1   9   0.0047   0.0075   0.0069   0.0040  -0.0055  -0.0027   0.00   12.3
2173 204604.000  -2197190.5164  -4678268.4314   3725899.9861   1   9   0.0047   0.0075   0.0069   0.0040  -0.0055  -0.0027   0.00   13.9
2173 204605.000  -2197190.5184  -4678268.4318   3725899.9867   1   9   0.0047   0.0075   0.0069   0.0040  -0.0055  -0.0027   0.00   12.0
2173 204606.000  -2197190.5162  -4678268.4321   3725899.9872   1   9   0.0047   0.0075   0.0069   0.0040  -0.0055  -0.0027   0.00   13.8
2173 204607.000  -2197190.5189  -4678268.4333   3725899.9876   1   9   0.0047   0.0075   0.0069   0.0040  -0.0055  -0.0027   0.00   11.4
2173 204608.000  -2197190.5192  -4678268.4356   3725899.9880   1   9   0.0047   0.0075   0.0069   0.0040  -0.0055  -0.0027   0.00   13.0
2173 204609.000  -2197190.5164  -4678268.4313   3725899.9855   1   9   0.0047   0.0075   0.0069   0.0040  -0.0055  -0.0027   0.00   14.2
2173 204610.000  -2197190.5163  -4678268.4302   3725899.9849   1   9   0.0047   0.0075   0.0069   0.0040  -0.0055  -0.0027   0.00   12.4
2173 204611.000  -2197190.5173  -4678268.4315   3725899.9862   1   9   0.0047   0.0075   0.0069   0.0040  -0.0055  -0.0027   0.00   13.6
2173 204612.000  -2197190.5164  -4678268.4326   3725899.9859   1   9   0.0047   0.0075   0.0069   0.0040  -0.0055  -0.0027   0.00   13.8
2173 204613.000  -2197190.5149  -4678268.4313   3725899.9863   1   9   0.0047   0.0075   0.0069   0.0040  -0.0055  -0.0027   0.00   11.5
2173 204614.000  -2197190.5179  -4678268.4307   3725899.9862   1   9   0.0047   0.0075   0.0069   0.0040  -0.0055  -0.0027   0.00   14.5
2173 204615.000  -2197190.5178  -4678268.4322   3725899.9849   1   9   0.0047   0.0075   0.0069   0.0040  -0.0055  -0.0027   0.00   11.6
2173 204616.000  -2197190.5180  -4678268.4331   3725899.9853   1   9   0.0047   0.0075   0.0069   0.0040  -0.0055  -0.0027   0.00   13.0
2173 204617.000  -2197190.5194  -4678268.4349   3725899.9871   1   9   0.0047   0.0075   0.0069   0.0040  -0.0055  -0.0027   0.00   12.2
2173 204618.000  -2197190.5191  -4678268.4317   3725899.9862   1   9   0.0047   0.0075   0.0069   0.0040  -0.0055  -0.0027   0.00   11.4
2173 204619.000  -2197190.5159  -4678268.4324   3725899.9856   1   9   0.0047   0.0075   0.0069   0.0040  -0.0055  -0.0027   0.00   13.2
2173 204620.000  -2197190.5168  -4678268.4330   3725899.9867   1   9   0.0047   0.0075   0.0069   0.0040  -0.0055  -0.0027   0.00   12.8
2173 204621.000  -2197190.5178  -4678268.4320   3725899.9847   1   9   0.0047   0.0075   0.0069   0.0040  -0.0055  -0.0027   0.00   10.5
2173 204622.000  -2197190.5194  -4678268.4345   3725899.9863   1   9   0.0047   0.0075   0.0069   0.0040  -0.0055  -0.0027   0.00    9.0
2173 204623.000  -2197190.5184  -4678268.4337   3725899.9871   1   9   0.0047   0.0075   0.0069   0.0040  -0.0055  -0.0027   0.00   10.4
2173 204624.000  -2197190.5178  -4678268.4328   3725899.9874   1   9   0.0047   0.0075   0.0069   0.0039  -0.0055  -0.0027   0.00   11.4
2173 204625.000  -2197190.5175  -4678268.4326   3725899.9862   1   9   0.0047   0.0075   0.0069   0.0039  -0.0055  -0.0027   0.00    9.1
2173 204626.000  -2197190.5183  -4678268.4338   3725899.9879   1   9   0.0047   0.0075   0.0069   0.0039  -0.0055  -0.0027   0.00   10.9
2173 204627.000  -2197190.5183  -4678268.4324   3725899.9888   1   9   0.0047   0.0075   0.0069   0.0039  -0.0055  -0.0027   0.00    9.7
2173 204628.000  -2197190.5179  -4678268.4358   3725899.9891   1   9   0.0047   0.0075   0.0069   0.0039  -0.0055  -0.0027   0.00   10.3
2173 204629.000  -2197190.5178  -4678268.4332   3725899.9879   1   9   0.0047   0.0075   0.0069   0.0039  -0.0055  -0.0027   0.00    9.4
2173 204630.000  -2197190.5178  -4678268.4349   3725899.9896   1   9   0.0047   0.0075   0.0069   0.0039  -0.0055  -0.0027   0.00   10.6
2173 204631.000  -2197190.5196  -4678268.4334   3725899.9891   1   9   0.0047   0.0075   0.0069   0.0039  -0.0055  -0.0027   0.00   10.3
2173 204632.000  -2197190.5189  -4678268.4353   3725899.9907   1   9   0.0047   0.0075   0.0069   0.0039  -0.0055  -0.0027   0.00    9.2
2173 204633.000  -2197190.5193  -4678268.4330   3725899.9885   1   9   0.0047   0.0075   0.0069   0.0039  -0.0055  -0.0027   0.00    9.6
2173 204634.000  -2197190.5193  -4678268.4349   3725899.9930   1   9   0.0047   0.0075   0.0069   0.0039  -0.0055  -0.0027   0.00    9.3
2173 204635.000  -2197190.5191  -4678268.4349   3725899.9886   1   9   0.0047   0.0075   0.0069   0.0039  -0.0055  -0.0027   0.00    8.0
2173 204636.000  -2197190.5188  -4678268.4333   3725899.9901   1   9   0.0047   0.0075   0.0069   0.0039  -0.0055  -0.0027   0.00    7.2
2173 204637.000  -2197190.5174  -4678268.4331   3725899.9916   1   9   0.0047   0.0075   0.0069   0.0039  -0.0055  -0.0027   0.00    7.8
2173 204638.000  -2197190.5199  -4678268.4337   3725899.9920   1   9   0.0047   0.0075   0.0069   0.0039  -0.0055  -0.0027   0.00    8.3
2173 204639.000  -2197190.5209  -4678268.4356   3725899.9905   1   9   0.0047   0.0075   0.0069   0.0039  -0.0055  -0.0027   0.00    6.8
2173 204640.000  -2197190.5192  -4678268.4345   3725899.9908   1   9   0.0047   0.0075   0.0069   0.0039  -0.0055  -0.0027   0.00    8.7
2173 204641.000  -2197190.5200  -4678268.4367   3725899.9911   1   9   0.0047   0.0075   0.0069   0.0039  -0.0055  -0.0027   0.00    9.2
2173 204642.000  -2197190.5195  -4678268.4345   3725899.9901   1   9   0.0047   0.0075   0.0069   0.0039  -0.0055  -0.0027   0.00    7.9
2173 204643.000  -2197190.5185  -4678268.4322   3725899.9900   1   9   0.0047   0.0075   0.0069   0.0039  -0.0055  -0.0027   0.00    7.5
2173 204644.000  -2197190.5186  -4678268.4349   3725899.9919   1   9   0.0047   0.0075   0.0069   0.0039  -0.0055  -0.0027   0.00    8.5
2173 204645.000  -2197190.5192  -4678268.4336   3725899.9905   1   9   0.0047   0.0075   0.0069   0.0039  -0.0055  -0.0027   0.00    7.5
2173 204646.000  -2197190.5198  -4678268.4340   3725899.9899   1   9   0.0047   0.0075   0.0069   0.0039  -0.0055  -0.0027   0.00    6.9
2173 204647.000  -2197190.5185  -4678268.4313   3725899.9883   1   9   0.0047   0.0075   0.0069   0.0039  -0.0055  -0.0027   0.00    7.0
2173 204648.000  -2197190.5195  -4678268.4320   3725899.9870   1   9   0.0047   0.0075   0.0069   0.0039  -0.0055  -0.0027   0.00    8.7
2173 204649.000  -2197190.5214  -4678268.4344   3725899.9911   1   9   0.0047   0.0075   0.0069   0.0039  -0.0055  -0.0027   0.00    8.4
2173 204650.000  -2197190.5194  -4678268.4332   3725899.9900   1   9   0.0047   0.0075   0.0069   0.0039  -0.0055  -0.0027   0.00    6.3
2173 204651.000  -2197190.5188  -4678268.4322   3725899.9892   1   9   0.0047   0.0075   0.0069   0.0039  -0.0055  -0.0027   0.00    6.5
2173 204652.000  -2197190.5198  -4678268.4327   3725899.9882   1   9   0.0047   0.0075   0.0069   0.0039  -0.0055  -0.0027   0.00    7.2
2173 204653.000  -2197190.5185  -4678268.4343   3725899.9888   1   9   0.0047   0.0075   0.0069   0.0039  -0.0055  -0.0027   0.00    6.8
2173 204654.000  -2197190.5190  -4678268.4320   3725899.9865   1   9   0.0047   0.0075   0.0069   0.0039  -0.0055  -0.0027   0.00    6.9
2173 204655.000  -2197190.5166  -4678268.4301   3725899.9875   1   9   0.0047   0.0074   0.0069   0.0039  -0.0055  -0.0027   0.00    6.4
2173 204656.000  -2197190.5170  -4678268.4315   3725899.9893   1   9   0.0047   0.0074   0.0069   0.0039  -0.0055  -0.0027   0.00    6.2
2173 204657.000  -2197190.5177  -4678268.4316   3725899.9856   1   9   0.0047   0.0074   0.0069   0.0039  -0.0055  -0.0027   0.00    7.1
2173 204658.000  -2197190.5180  -4678268.4322   3725899.9876   1   9   0.0047   0.0074   0.0069   0.0039  -0.0055  -0.0027   0.00    5.6
2173 204659.000  -2197190.5176  -4678268.4306   3725899.9873   1   9   0.0047   0.0074   0.0069   0.0039  -0.0055  -0.0027   0.00    6.1
2173 204660.000  -2197190.5174  -4678268.4304   3725899.9890   1   9   0.0047   0.0074   0.0069   0.0039  -0.0055  -0.0027   0.00    6.4
2173 204661.000  -2197190.5175  -4678268.4313   3725899.9863   1   9   0.0047   0.0074   0.0069   0.0039  -0.0055  -0.0027   0.00    5.6
2173 204662.000  -2197190.5182  -4678268.4296   3725899.9842   1   9   0.0047   0.0074   0.0069   0.0039  -0.0055  -0.0027   0.00    6.9
2173 204663.000  -2197190.5177  -4678268.4282   3725899.9826   1   9   0.0047   0.0074   0.0069   0.0039  -0.0055  -0.0027   0.00    5.7
2173 204664.000  -2197190.5181  -4678268.4290   3725899.9847   1   9   0.0047   0.0074   0.0069   0.0039  -0.0055  -0.0027   0.00    5.8
2173 204665.000  -2197190.5181  -4678268.4290   3725899.9842   1   9   0.0047   0.0074   0.0069   0.0039  -0.0055  -0.0027   0.00    7.5
2173 204666.000  -2197190.5193  -4678268.4286   3725899.9828   1   9   0.0047   0.0074   0.0069   0.0039  -0.0055  -0.0027   0.00    5.9
2173 204667.000  -2197190.5179  -4678268.4294   3725899.9843   1   9   0.0047   0.0074   0.0069   0.0039  -0.0055  -0.0027   0.00    6.6
2173 204668.000  -2197190.5187  -4678268.4280   3725899.9827   1   9   0.0047   0.0074   0.0069   0.0039  -0.0055  -0.0027   0.00    5.9
2173 204669.000  -2197190.5195  -4678268.4298   3725899.9859   1   9   0.0047   0.0074   0.0069   0.0039  -0.0055  -0.0027   0.00    5.8
2173 204670.000  -2197190.5177  -4678268.4283   3725899.9831   1   9   0.0047   0.0074   0.0069   0.0039  -0.0055  -0.0027   0.00    7.2
2173 204671.000  -2197190.5188  -4678268.4269   3725899.9830   1   9   0.0047   0.0074   0.0069   0.0039  -0.0055  -0.0027   0.00    7.3
2173 204672.000  -2197190.5196  -4678268.4279   3725899.9843   1   9   0.0047   0.0074   0.0069   0.0039  -0.0055  -0.0027   0.00    7.6
2173 204673.000  -2197190.5186  -4678268.4318   3725899.9862   1   9   0.0047   0.0074   0.0069   0.0039  -0.0055  -0.0027   0.00    8.1
2173 204674.000  -2197190.5189  -4678268.4308   3725899.9866   1   9   0.0047   0.0074   0.0069   0.0039  -0.0055  -0.0027   0.00    7.4
2173 204675.000  -2197190.5205  -4678268.4304   3725899.9844   1   9   0.0047   0.0074   0.0069   0.0039  -0.0055  -0.0027   0.00    9.7
2173 204676.000  -2197190.5189  -4678268.4293   3725899.9840   1   9   0.0047   0.0074   0.0069   0.0039  -0.0055  -0.0027   0.00    7.8
2173 204677.000  -2197190.5218  -4678268.4328   3725899.9838   1   9   0.0047   0.0074   0.0069   0.0039  -0.0055  -0.0027   0.00    7.8
2173 204678.000  -2197190.5198  -4678268.4325   3725899.9872   1   9   0.0047   0.0074   0.0069   0.0039  -0.0055  -0.0027   0.00    8.8
2173 204679.000  -2197190.5209  -4678268.4317   3725899.9841   1   9   0.0047   0.0074   0.0069   0.0039  -0.0055  -0.0027   0.00    9.3
2173 204680.000  -2197190.5191  -4678268.4313   3725899.9827   1   9   0.0047   0.0074   0.0069   0.0039  -0.0055  -0.0027   0.00   11.0
2173 204681.000  -2197190.5200  -4678268.4332   3725899.9854   1   9   0.0047   0.0074   0.0069   0.0039  -0.0055  -0.0027   0.00   11.9
2173 204682.000  -2197190.5200  -4678268.4321   3725899.9837   1   9   0.0047   0.0074   0.0069   0.0039  -0.0055  -0.0027   0.00   13.1
2173 204683.000  -2197190.5212  -4678268.4329   3725899.9833   1   9   0.0047   0.0074   0.0069   0.0039  -0.0055  -0.0027   0.00   10.5
2173 204684.000  -2197190.5192  -4678268.4340   3725899.9860   1   9   0.0047   0.0074   0.0069   0.0039  -0.0055  -0.0027   0.00   11.0
2173 204685.000  -2197190.5194  -4678268.4331   3725899.9836   1   9   0.0047   0.0074   0.0069   0.0039  -0.0055  -0.0027   0.00   12.1
2173 204686.000  -2197190.5212  -4678268.4345   3725899.9853   1   9   0.0047   0.0074   0.0069   0.0039  -0.0055  -0.0027   0.00   12.4
2173 204687.000  -2197190.5190  -4678268.4311   3725899.9832   1   9   0.0047   0.0074   0.0069   0.0039  -0.0055  -0.0027   0.00   10.2
2173 204688.000  -2197190.5206  -4678268.4333   3725899.9857   1   9   0.0047   0.0074   0.0069   0.0039  -0.0055  -0.0027   0.00   10.1
2173 204689.000  -2197190.5209  -4678268.4338   3725899.9853   1   9   0.0047   0.0074   0.0069   0.0039  -0.0055  -0.0027   0.00    8.6
2173 204690.000  -2197190.5214  -4678268.4346   3725899.9873   1   9   0.0047   0.0074   0.0069   0.0039  -0.0055  -0.0027   0.00   15.8
2173 204691.000  -2197190.5184  -4678268.4330   3725899.9864   1   9   0.0047   0.0074   0.0069   0.0039  -0.0055  -0.0027   0.00   10.0
2173 204692.000  -2197190.5197  -4678268.4318   3725899.9833   1   9   0.0047   0.0074   0.0069   0.0039  -0.0055  -0.0027   0.00    7.7
2173 204693.000  -2197190.5201  -4678268.4344   3725899.9837   1   9   0.0047   0.0074   0.0069   0.0039  -0.0055  -0.0027   0.00    7.6
2173 204694.000  -2197190.5195  -4678268.4347   3725899.9847   1   9   0.0047   0.0074   0.0069   0.0039  -0.0055  -0.0027   0.00    9.0
2173 204695.000  -2197190.5199  -4678268.4327   3725899.9855   1   9   0.0047   0.0074   0.0069   0.0039  -0.0055  -0.0027   0.00    8.6
2173 204696.000  -2197190.5206  -4678268.4318   3725899.9816   1   9   0.0047   0.0074   0.0069   0.0039  -0.0055  -0.0027   0.00    8.7
2173 204697.000  -2197190.5181  -4678268.4317   3725899.9841   1   9   0.0047   0.0074   0.0069   0.0039  -0.0055  -0.0027   0.00   10.3
2173 204698.000  -2197190.5178  -4678268.4317   3725899.9837   1   9   0.0047   0.0074   0.0069   0.0039  -0.0055  -0.0027   0.00    9.1
2173 204699.000  -2197190.5193  -4678268.4348   3725899.9852   1   9   0.0047   0.0074   0.0069   0.0039  -0.0055  -0.0027   0.00    8.8
2173 204700.000  -2197190.5183  -4678268.4327   3725899.9852   1   9   0.0047   0.0074   0.0069   0.0039  -0.0055  -0.0027   0.00    7.7
2173 204701.000  -2197190.5168  -4678268.4326   3725899.9844   1   9   0.0047   0.0074   0.0069   0.0039  -0.0055  -0.0027   0.00    7.8
2173 204702.000  -2197190.5198  -4678268.4350   3725899.9868   1   9   0.0047   0.0074   0.0069   0.0039  -0.0055  -0.0027   0.00    7.8
2173 204703.000  -2197190.5185  -4678268.4341   3725899.9859   1   9   0.0047   0.0074   0.0069   0.0039  -0.0055  -0.0027   0.00    9.0
2173 204704.000  -2197190.5192  -4678268.4345   3725899.9861   1   9   0.0047   0.0074   0.0069   0.0039  -0.0055  -0.0027   0.00    7.0
2173 204705.000  -2197190.5198  -4678268.4336   3725899.9867   1   9   0.0047   0.0074   0.0069   0.0039  -0.0055  -0.0027   0.00    8.0
2173 204706.000  -2197190.5192  -4678268.4342   3725899.9856   1   9   0.0047   0.0074   0.0069   0.0039  -0.0055  -0.0027   0.00    7.1
2173 204707.000  -2197190.5169  -4678268.4323   3725899.9872   1   9   0.0047   0.0074   0.0069   0.0039  -0.0055  -0.0027   0.00    7.5
2173 204708.000  -2197190.5193  -4678268.4354   3725899.9872   1   9   0.0047   0.0074   0.0069   0.0039  -0.0055  -0.0027   0.00    7.0
2173 204709.000  -2197190.5185  -4678268.4331   3725899.9857   1   9   0.0047   0.0074   0.0069   0.0039  -0.0055  -0.0027   0.00    7.7
2173 204710.000  -2197190.5187  -4678268.4339   3725899.9875   1   9   0.0047   0.0074   0.0069   0.0039  -0.0055  -0.0027   0.00    8.3
2173 204711.000  -2197190.5174  -4678268.4331   3725899.9853   1   9   0.0047   0.0074   0.0069   0.0039  -0.0055  -0.0027   0.00    6.7
2173 204712.000  -2197190.5181  -4678268.4359   3725899.9884   1   9   0.0047   0.0074   0.0069   0.0039  -0.0055  -0.0027   0.00    7.4
2173 204713.000  -2197190.5188  -4678268.4330   3725899.9856   1   9   0.0047   0.0074   0.0069   0.0039  -0.0055  -0.0027   0.00    8.7
2173 204714.000  -2197190.5186  -4678268.4346   3725899.9825   1   9   0.0047   0.0074   0.0069   0.0039  -0.0055  -0.0027   0.00    6.6
2173 204715.000  -2197190.5189  -4678268.4341   3725899.9867   1   9   0.0047   0.0074   0.0069   0.0039  -0.0055  -0.0027   0.00    7.4
2173 204716.000  -2197190.5172  -4678268.4343   3725899.9877   1   9   0.0047   0.0074   0.0069   0.0039  -0.0055  -0.0027   0.00    8.9
2173 204717.000  -2197190.5173  -4678268.4350   3725899.9865   1   9   0.0047   0.0074   0.0069   0.0039  -0.0055  -0.0027   0.00    7.3
2173 204718.000  -2197190.5178  -4678268.4354   3725899.9861   1   9   0.0047   0.0074   0.0069   0.0039  -0.0055  -0.0027   0.00    8.3
2173 204719.000  -2197190.5176  -4678268.4352   3725899.9870   1   9   0.0047   0.0074   0.0069   0.0039  -0.0055  -0.0027   0.00    8.1
2173 204720.000  -2197190.5176  -4678268.4353   3725899.9863   1   9   0.0047   0.0074   0.0069   0.0039  -0.0055  -0.0027   0.00    7.7
2173 204721.000  -2197190.5192  -4678268.4379   3725899.9889   1   9   0.0047   0.0074   0.0069   0.0039  -0.0055  -0.0027   0.00    6.4
2173 204722.000  -2197190.5188  -4678268.4357   3725899.9871   1   9   0.0047   0.0074   0.0069   0.0039  -0.0055  -0.0027   0.00    8.3
2173 204723.000  -2197190.5189  -4678268.4357   3725899.9869   1   9   0.0047   0.0074   0.0069   0.0039  -0.0055  -0.0027   0.00    7.5
2173 204724.000  -2197190.5177  -4678268.4370   3725899.9898   1   9   0.0047   0.0074   0.0069   0.0039  -0.0055  -0.0027   0.00    8.1
2173 204725.000  -2197190.5180  -4678268.4357   3725899.9881   1   9   0.0047   0.0074   0.0069   0.0039  -0.0055  -0.0027   0.00    7.6
2173 204726.000  -2197190.5176  -4678268.4328   3725899.9860   1   9   0.0047   0.0074   0.0069   0.0039  -0.0055  -0.0027   0.00    7.1
2173 204727.000  -2197190.5183  -4678268.4365   3725899.9892   1   9   0.0047   0.0074   0.0069   0.0039  -0.0055  -0.0027   0.00    7.5
2173 204728.000  -2197190.5186  -4678268.4357   3725899.9859   1   9   0.0046   0.0074   0.0069   0.0039  -0.0055  -0.0027   0.00    7.7
2173 204729.000  -2197190.5171  -4678268.4344   3725899.9864   1   9   0.0046   0.0074   0.0069   0.0039  -0.0055  -0.0027   0.00    7.4
2173 204730.000  -2197190.5200  -4678268.4370   3725899.9899   1   9   0.0046   0.0074   0.0069   0.0039  -0.0055  -0.0027   0.00    6.9
2173 204731.000  -2197190.5184  -4678268.4370   3725899.9915   1   9   0.0046   0.0074   0.0069   0.0039  -0.0055  -0.0027   0.00    7.2
2173 204732.000  -2197190.5183  -4678268.4382   3725899.9879   1   9   0.0046   0.0074   0.0069   0.0039  -0.0055  -0.0027   0.00    7.7
2173 204733.000  -2197190.5172  -4678268.4363   3725899.9905   1   9   0.0046   0.0074   0.0069   0.0039  -0.0055  -0.0027   0.00    7.8
2173 204734.000  -2197190.5177  -4678268.4359   3725899.9890   1   9   0.0046   0.0074   0.0069   0.0039  -0.0055  -0.0027   0.00    7.7
2173 204735.000  -2197190.5168  -4678268.4319   3725899.9885   1   9   0.0046   0.0074   0.0069   0.0039  -0.0055  -0.0027   0.00    7.8
2173 204736.000  -2197190.5173  -4678268.4362   3725899.9898   1   9   0.0046   0.0074   0.0069   0.0039  -0.0055  -0.0027   0.00    9.7
2173 204737.000  -2197190.5189  -4678268.4377   3725899.9915   1   9   0.0046   0.0074   0.0069   0.0039  -0.0055  -0.0027   0.00   10.1
2173 204738.000  -2197190.5201  -4678268.4382   3725899.9895   1   9   0.0046   0.0074   0.0069   0.0039  -0.0055  -0.0027   0.00    9.3
2173 204739.000  -2197190.5174  -4678268.4388   3725899.9911   1   9   0.0046   0.0074   0.0069   0.0039  -0.0055  -0.0027   0.00    9.5
2173 204740.000  -2197190.5181  -4678268.4368   3725899.9901   1   9   0.0046   0.0074   0.0069   0.0039  -0.0055  -0.0027   0.00    8.5
2173 204741.000  -2197190.5182  -4678268.4359   3725899.9896   1   9   0.0046   0.0074   0.0069   0.0039  -0.0055  -0.0027   0.00    8.9
2173 204742.000  -2197190.5176  -4678268.4360   3725899.9897   1   9   0.0046   0.0074   0.0069   0.0039  -0.0055  -0.0027   0.00    8.8
2173 204743.000  -2197190.5183  -4678268.4371   3725899.9902   1   9   0.0046   0.0074   0.0069   0.0039  -0.0055  -0.0027   0.00    7.5
2173 204744.000  -2197190.5184  -4678268.4343   3725899.9883   1   9   0.0046   0.0074   0.0069   0.0039  -0.0055  -0.0027   0.00    9.1
2173 204745.000  -2197190.5186  -4678268.4340   3725899.9904   1   9   0.0046   0.0074   0.0069   0.0039  -0.0055  -0.0027   0.00    9.4
2173 204746.000  -2197190.5187  -4678268.4340   3725899.9911   1   9   0.0046   0.0074   0.0069   0.0039  -0.0055  -0.0027   0.00   10.2
2173 204747.000  -2197190.5189  -4678268.4354   3725899.9904   1   9   0.0046   0.0074   0.0069   0.0039  -0.0055  -0.0027   0.00    9.5
2173 204748.000  -2197190.5197  -4678268.4354   3725899.9915   1   9   0.0046   0.0074   0.0069   0.0039  -0.0055  -0.0027   0.00    8.3
2173 204749.000  -2197190.5187  -4678268.4350   3725899.9891   1   9   0.0046   0.0074   0.0069   0.0039  -0.0055  -0.0027   0.00    8.4
2173 204750.000  -2197190.5186  -4678268.4319   3725899.9885   1   9   0.0046   0.0074   0.0069   0.0039  -0.0055  -0.0027   0.00    7.8
2173 204751.000  -2197190.5193  -4678268.4354   3725899.9895   1   9   0.0046   0.0074   0.0069   0.0039  -0.0055  -0.0027   0.00    8.8
2173 204752.000  -2197190.5172  -4678268.4326   3725899.9878   1   9   0.0046   0.0074   0.0069   0.0039  -0.0055  -0.0027   0.00    7.1
2173 204753.000  -2197190.5173  -4678268.4300   3725899.9867   1   9   0.0046   0.0074   0.0069   0.0039  -0.0055  -0.0027   0.00    8.3
2173 204754.000  -2197190.5173  -4678268.4298   3725899.9866   1   9   0.0046   0.0074   0.0069   0.0039  -0.0055  -0.0027   0.00    7.1
2173 204755.000  -2197190.5180  -4678268.4325   3725899.9875   1   9   0.0046   0.0074   0.0069   0.0039  -0.0055  -0.0027   0.00    8.8
2173 204756.000  -2197190.5189  -4678268.4323   3725899.9873   1   9   0.0046   0.0074   0.0069   0.0039  -0.0055  -0.0027   0.00    6.9
2173 204757.000  -2197190.5191  -4678268.4321   3725899.9860   1   9   0.0046   0.0074   0.0069   0.0039  -0.0055  -0.0027   0.00    6.5
2173 204758.000  -2197190.5193  -4678268.4341   3725899.9857   1   9   0.0046   0.0074   0.0069   0.0039  -0.0055  -0.0027   0.00    7.0
2173 204759.000  -2197190.5185  -4678268.4314   3725899.9862   1   9   0.0046   0.0074   0.0069   0.0039  -0.0055  -0.0027   0.00    5.7
2173 204760.000  -2197190.5196  -4678268.4312   3725899.9862   1   9   0.0046   0.0074   0.0069   0.0039  -0.0055  -0.0027   0.00    5.9
2173 204761.000  -2197190.5184  -4678268.4285   3725899.9842   1   9   0.0046   0.0074   0.0069   0.0039  -0.0055  -0.0027   0.00    6.1
2173 204762.000  -2197190.5189  -4678268.4285   3725899.9828   1   9   0.0046   0.0074   0.0069   0.0039  -0.0055  -0.0027   0.00    5.4
2173 204763.000  -2197190.5195  -4678268.4330   3725899.9851   1   9   0.0046   0.0074   0.0069   0.0039  -0.0055  -0.0027   0.00    5.1
2173 204764.000  -2197190.5198  -4678268.4324   3725899.9859   1   9   0.0046   0.0074   0.0069   0.0039  -0.0055  -0.0027   0.00    6.5
2173 204765.000  -2197190.5210  -4678268.4317   3725899.9867   1   9   0.0046   0.0074   0.0069   0.0039  -0.0055  -0.0027   0.00    5.0
2173 204766.000  -2197190.5205  -4678268.4319   3725899.9846   1   9   0.0046   0.0074   0.0069   0.0039  -0.0055  -0.0027   0.00    5.6
2173 204767.000  -2197190.5192  -4678268.4305   3725899.9856   1   9   0.0046   0.0074   0.0069   0.0039  -0.0055  -0.0027   0.00    5.4
2173 204768.000  -2197190.5178  -4678268.4249   3725899.9826   1   9   0.0046   0.0074   0.0069   0.0039  -0.0055  -0.0027   0.00    5.4
2173 204769.000  -2197190.5172  -4678268.4286   3725899.9840   1   9   0.0046   0.0074   0.0069   0.0039  -0.0055  -0.0027   0.00    5.6
2173 204770.000  -2197190.5196  -4678268.4300   3725899.9847   1   9   0.0046   0.0074   0.0069   0.0039  -0.0055  -0.0027   0.00    5.2
2173 204771.000  -2197190.5201  -4678268.4304   3725899.9833   1   9   0.0046   0.0074   0.0069   0.0039  -0.0055  -0.0027   0.00    5.2
2173 204772.000  -2197190.5182  -4678268.4292   3725899.9834   1   9   0.0046   0.0074   0.0069   0.0039  -0.0055  -0.0027   0.00    4.8
2173 204773.000  -2197190.5188  -4678268.4314   3725899.9855   1   9   0.0046   0.0074   0.0069   0.0039  -0.0055  -0.0027   0.00    5.7
2173 204774.000  -2197190.5173  -4678268.4298   3725899.9838   1   9   0.0046   0.0074   0.0069   0.0039  -0.0055  -0.0027   0.00    5.9
2173 204775.000  -2197190.5183  -4678268.4325   3725899.9873   1   9   0.0046   0.0074   0.0069   0.0039  -0.0055  -0.0027   0.00    6.2
2173 204776.000  -2197190.5190  -4678268.4315   3725899.9850   1   9   0.0046   0.0074   0.0069   0.0039  -0.0055  -0.0027   0.00    5.5
2173 204777.000  -2197190.5190  -4678268.4281   3725899.9841   1   9   0.0046   0.0074   0.0069   0.0039  -0.0055  -0.0027   0.00    5.7
2173 204778.000  -2197190.5199  -4678268.4275   3725899.9837   1   9   0.0046   0.0074   0.0069   0.0039  -0.0055  -0.0027   0.00    5.2
2173 204779.000  -2197190.5183  -4678268.4328   3725899.9850   1   9   0.0046   0.0074   0.0069   0.0039  -0.0055  -0.0027   0.00    6.2
2173 204780.000  -2197190.5191  -4678268.4291   3725899.9848   1   9   0.0046   0.0074   0.0069   0.0039  -0.0055  -0.0027   0.00    6.6
2173 204781.000  -2197190.5190  -4678268.4306   3725899.9857   1   9   0.0046   0.0074   0.0069   0.0039  -0.0055  -0.0027   0.00    7.1
2173 204782.000  -2197190.5183  -4678268.4294   3725899.9852   1   9   0.0046   0.0074   0.0069   0.0039  -0.0055  -0.0027   0.00    5.8
2173 204783.000  -2197190.5201  -4678268.4323   3725899.9879   1   9   0.0046   0.0074   0.0069   0.0039  -0.0055  -0.0027   0.00    6.8
2173 204784.000  -2197190.5200  -4678268.4323   3725899.9856   1   9   0.0046   0.0074   0.0069   0.0039  -0.0055  -0.0027   0.00    6.6
2173 204785.000  -2197190.5195  -4678268.4317   3725899.9875   1   9   0.0046   0.0074   0.0069   0.0039  -0.0055  -0.0027   0.00    7.0
2173 204786.000  -2197190.5182  -4678268.4315   3725899.9865   1   9   0.0046   0.0074   0.0069   0.0039  -0.0055  -0.0027   0.00    7.5
2173 204787.000  -2197190.5192  -4678268.4314   3725899.9865   1   9   0.0046   0.0074   0.0069   0.0039  -0.0055  -0.0027   0.00    5.7
2173 204788.000  -2197190.5186  -4678268.4287   3725899.9836   1   9   0.0046   0.0074   0.0069   0.0039  -0.0055  -0.0027   0.00    6.1
2173 204789.000  -2197190.5199  -4678268.4325   3725899.9864   1   9   0.0046   0.0074   0.0069   0.0039  -0.0055  -0.0028   0.00    6.3
2173 204790.000  -2197190.5168  -4678268.4255   3725899.9843   1   9   0.0046   0.0074   0.0069   0.0039  -0.0055  -0.0028   0.00    6.3
2173 204791.000  -2197190.5197  -4678268.4330   3725899.9885   1   9   0.0046   0.0074   0.0069   0.0039  -0.0055  -0.0028   0.00    6.9
2173 204792.000  -2197190.5182  -4678268.4289   3725899.9846   1   9   0.0046   0.0074   0.0069   0.0039  -0.0055  -0.0028   0.00    7.2
2173 204793.000  -2197190.5188  -4678268.4310   3725899.9840   1   9   0.0046   0.0074   0.0069   0.0039  -0.0055  -0.0028   0.00    6.6
2173 204794.000  -2197190.5157  -4678268.4269   3725899.9838   1   9   0.0046   0.0074   0.0069   0.0039  -0.0055  -0.0028   0.00    7.7
2173 204795.000  -2197190.5173  -4678268.4285   3725899.9846   1   9   0.0046   0.0074   0.0069   0.0039  -0.0055  -0.0028   0.00    7.6
2173 204796.000  -2197190.5184  -4678268.4305   3725899.9823   1   9   0.0046   0.0074   0.0069   0.0039  -0.0055  -0.0028   0.00    6.9
2173 204797.000  -2197190.5177  -4678268.4314   3725899.9867   1   9   0.0046   0.0074   0.0069   0.0039  -0.0055  -0.0028   0.00    7.1
2173 204798.000  -2197190.5178  -4678268.4284   3725899.9835   1   9   0.0046   0.0074   0.0069   0.0039  -0.0055  -0.0028   0.00    7.5
2173 204799.000  -2197190.5189  -4678268.4283   3725899.9862   1   9   0.0046   0.0074   0.0069   0.0039  -0.0055  -0.0028   0.00    6.8
2173 204800.000  -2197190.5189  -4678268.4271   3725899.9850   1   9   0.0046   0.0074   0.0069   0.0039  -0.0055  -0.0028   0.00    6.6
2173 204801.000  -2197190.5191  -4678268.4316   3725899.9862   1   9   0.0046   0.0074   0.0069   0.0039  -0.0055  -0.0028   0.00    6.2
2173 204802.000  -2197190.5192  -4678268.4304   3725899.9861   1   9   0.0046   0.0074   0.0069   0.0039  -0.0055  -0.0028   0.00    7.1
2173 204803.000  -2197190.5185  -4678268.4291   3725899.9864   1   9   0.0046   0.0074   0.0069   0.0039  -0.0055  -0.0028   0.00    6.0
2173 204804.000  -2197190.5180  -4678268.4267   3725899.9842   1   9   0.0046   0.0074   0.0069   0.0039  -0.0055  -0.0028   0.00    5.7
2173 204805.000  -2197190.5159  -4678268.4264   3725899.9827   1   9   0.0046   0.0074   0.0069   0.0039  -0.0055  -0.0028   0.00    5.9
2173 204806.000  -2197190.5174  -4678268.4294   3725899.9874   1   9   0.0046   0.0074   0.0069   0.0039  -0.0055  -0.0028   0.00    6.3
2173 204807.000  -2197190.5182  -4678268.4312   3725899.9852   1   9   0.0046   0.0074   0.0069   0.0039  -0.0055  -0.0028   0.00    7.0
2173 204808.000  -2197190.5186  -4678268.4296   3725899.9846   1   9   0.0046   0.0074   0.0069   0.0039  -0.0055  -0.0028   0.00    5.8
2173 204809.000  -2197190.5183  -4678268.4281   3725899.9859   1   9   0.0046   0.0074   0.0069   0.0039  -0.0055  -0.0028   0.00    5.6
2173 204810.000  -2197190.5170  -4678268.4286   3725899.9850   1   9   0.0046   0.0074   0.0069   0.0039  -0.0055  -0.0028   0.00    7.1
2173 204811.000  -2197190.5180  -4678268.4311   3725899.9865   1   9   0.0046   0.0074   0.0069   0.0039  -0.0055  -0.0028   0.00    5.3
2173 204812.000  -2197190.5161  -4678268.4263   3725899.9840   1   9   0.0046   0.0074   0.0069   0.0039  -0.0055  -0.0028   0.00    6.2
2173 204813.000  -2197190.5171  -4678268.4244   3725899.9835   1   9   0.0046   0.0074   0.0069   0.0039  -0.0055  -0.0028   0.00    5.2
2173 204814.000  -2197190.5184  -4678268.4293   3725899.9861   1   9   0.0046   0.0074   0.0070   0.0039  -0.0055  -0.0028   0.00    5.8
2173 204815.000  -2197190.5155  -4678268.4250   3725899.9829   1   9   0.0046   0.0074   0.0070   0.0039  -0.0055  -0.0028   0.00    6.4
2173 204816.000  -2197190.5152  -4678268.4287   3725899.9858   1   9   0.0046   0.0074   0.0070   0.0039  -0.0055  -0.0028   0.00    6.3
2173 204817.000  -2197190.5177  -4678268.4279   3725899.9845   1   9   0.0046   0.0074   0.0070   0.0039  -0.0055  -0.0028   0.00    6.3
2173 204818.000  -2197190.5168  -4678268.4289   3725899.9859   1   9   0.0046   0.0074   0.0070   0.0039  -0.0055  -0.0028   0.00    6.5
2173 204819.000  -2197190.5135  -4678268.4251   3725899.9847   1   9   0.0046   0.0074   0.0070   0.0039  -0.0055  -0.0028   0.00    6.1
2173 204820.000  -2197190.5188  -4678268.4275   3725899.9861   1   9   0.0046   0.0074   0.0070   0.0039  -0.0055  -0.0028   0.00    5.4
2173 204821.000  -2197190.5178  -4678268.4274   3725899.9856   1   9   0.0046   0.0074   0.0070   0.0039  -0.0055  -0.0028   0.00    6.4
2173 204822.000  -2197190.5171  -4678268.4280   3725899.9856   1   9   0.0046   0.0074   0.0070   0.0039  -0.0055  -0.0028   0.00    7.3
2173 204823.000  -2197190.5165  -4678268.4287   3725899.9869   1   9   0.0046   0.0074   0.0070   0.0039  -0.0055  -0.0028   0.00    7.0
2173 204824.000  -2197190.5171  -4678268.4273   3725899.9858   1   9   0.0046   0.0074   0.0070   0.0039  -0.0055  -0.0028   0.00    7.4
2173 204825.000  -2197190.5173  -4678268.4282   3725899.9867   1   9   0.0046   0.0074   0.0070   0.0039  -0.0055  -0.0028   0.00    7.6
2173 204826.000  -2197190.5188  -4678268.4298   3725899.9890   1   9   0.0046   0.0074   0.0070   0.0039  -0.0055  -0.0028   0.00    7.6
2173 204827.000  -2197190.5167  -4678268.4304   3725899.9879   1   9   0.0046   0.0074   0.0070   0.0039  -0.0055  -0.0028   0.00    9.6
2173 204828.000  -2197190.5181  -4678268.4302   3725899.9866   1   9   0.0046   0.0074   0.0070   0.0039  -0.0055  -0.0028   0.00    8.5
2173 204829.000  -2197190.5174  -4678268.4298   3725899.9883   1   9   0.0046   0.0074   0.0070   0.0039  -0.0055  -0.0028   0.00    9.6
2173 204830.000  -2197190.5184  -4678268.4272   3725899.9872   1   9   0.0046   0.0074   0.0070   0.0039  -0.0055  -0.0028   0.00    9.8
2173 204831.000  -2197190.5156  -4678268.4227   3725899.9829   1   9   0.0046   0.0074   0.0070   0.0039  -0.0055  -0.0028   0.00    8.9
2173 204832.000  -2197190.5178  -4678268.4264   3725899.9844   1   9   0.0046   0.0074   0.0070   0.0039  -0.0055  -0.0028   0.00   10.1
2173 204833.000  -2197190.5190  -4678268.4283   3725899.9862   1   9   0.0046   0.0074   0.0070   0.0039  -0.0055  -0.0028   0.00   10.3
2173 204834.000  -2197190.5158  -4678268.4272   3725899.9842   1   9   0.0046   0.0074   0.0070   0.0039  -0.0055  -0.0028   0.00   10.8
2173 204835.000  -2197190.5173  -4678268.4275   3725899.9857   1   9   0.0046   0.0074   0.0070   0.0039  -0.0055  -0.0028   0.00   10.4
2173 204836.000  -2197190.5195  -4678268.4290   3725899.9868   1   9   0.0046   0.0074   0.0070   0.0039  -0.0055  -0.0028   0.00    8.6
2173 204837.000  -2197190.5168  -4678268.4267   3725899.9860   1   9   0.0046   0.0074   0.0070   0.0039  -0.0055  -0.0028   0.00    9.0
2173 204838.000  -2197190.5180  -4678268.4242   3725899.9833   1   9   0.0046   0.0074   0.0070   0.0039  -0.0055  -0.0028   0.00   10.5
2173 204839.000  -2197190.5201  -4678268.4291   3725899.9851   1   9   0.0046   0.0074   0.0070   0.0039  -0.0055  -0.0028   0.00    9.3
2173 204840.000  -2197190.5171  -4678268.4245   3725899.9827   1   9   0.0046   0.0074   0.0070   0.0039  -0.0055  -0.0028   0.00    9.3
2173 204841.000  -2197190.5187  -4678268.4262   3725899.9848   1   9   0.0046   0.0074   0.0070   0.0039  -0.0055  -0.0028   0.00    9.0
2173 204842.000  -2197190.5190  -4678268.4283   3725899.9875   1   9   0.0046   0.0074   0.0070   0.0039  -0.0055  -0.0028   0.00   12.2
2173 204843.000  -2197190.5177  -4678268.4247   3725899.9825   1   9   0.0046   0.0074   0.0070   0.0039  -0.0055  -0.0028   0.00   10.2
2173 204844.000  -2197190.5179  -4678268.4253   3725899.9837   1   9   0.0046   0.0074   0.0070   0.0039  -0.0055  -0.0028   0.00   10.4
2173 204845.000  -2197190.5180  -4678268.4266   3725899.9838   1   9   0.0046   0.0074   0.0070   0.0039  -0.0055  -0.0028   0.00    9.8
2173 204846.000  -2197190.5176  -4678268.4232   3725899.9818   1   9   0.0046   0.0074   0.0070   0.0039  -0.0055  -0.0028   0.00    9.5
2173 204847.000  -2197190.5196  -4678268.4277   3725899.9856   1   9   0.0046   0.0074   0.0070   0.0039  -0.0055  -0.0028   0.00   11.1
2173 204848.000  -2197190.5194  -4678268.4259   3725899.9823   1   9   0.0046   0.0074   0.0070   0.0039  -0.0055  -0.0028   0.00    9.9
2173 204849.000  -2197190.5182  -4678268.4233   3725899.9834   1   9   0.0046   0.0074   0.0070   0.0039  -0.0055  -0.0028   0.00    8.1
2173 204850.000  -2197190.5192  -4678268.4255   3725899.9833   1   9   0.0046   0.0074   0.0070   0.0039  -0.0055  -0.0028   0.00    9.0
2173 204851.000  -2197190.5178  -4678268.4232   3725899.9856   1   9   0.0046   0.0074   0.0070   0.0039  -0.0055  -0.0028   0.00    8.8
2173 204852.000  -2197190.5192  -4678268.4250   3725899.9823   1   9   0.0046   0.0074   0.0070   0.0039  -0.0055  -0.0028   0.00    9.1
2173 204853.000  -2197190.5199  -4678268.4270   3725899.9841   1   9   0.0046   0.0074   0.0070   0.0039  -0.0055  -0.0028   0.00    8.6
2173 204854.000  -2197190.5181  -4678268.4241   3725899.9824   1   9   0.0046   0.0074   0.0070   0.0039  -0.0055  -0.0028   0.00    8.4
2173 204855.000  -2197190.5188  -4678268.4247   3725899.9838   1   9   0.0046   0.0074   0.0070   0.0039  -0.0055  -0.0028   0.00    7.1
2173 204856.000  -2197190.5180  -4678268.4239   3725899.9844   1   9   0.0046   0.0074   0.0070   0.0039  -0.0055  -0.0028   0.00    8.6
2173 204857.000  -2197190.5166  -4678268.4238   3725899.9839   1   9   0.0046   0.0074   0.0070   0.0039  -0.0055  -0.0028   0.00   10.3
2173 204858.000  -2197190.5183  -4678268.4230   3725899.9827   1   9   0.0046   0.0074   0.0070   0.0039  -0.0055  -0.0028   0.00    9.2
2173 204859.000  -2197190.5166  -4678268.4235   3725899.9830   1   9   0.0046   0.0074   0.0070   0.0039  -0.0055  -0.0028   0.00    9.6
2173 204860.000  -2197190.5157  -4678268.4229   3725899.9842   1   9   0.0046   0.0074   0.0070   0.0039  -0.0055  -0.0028   0.00    8.9
2173 204861.000  -2197190.5177  -4678268.4235   3725899.9836   1   9   0.0046   0.0074   0.0070   0.0039  -0.0055  -0.0028   0.00    8.4
2173 204862.000  -2197190.5146  -4678268.4200   3725899.9817   1   9   0.0046   0.0074   0.0070   0.0039  -0.0055  -0.0028   0.00    9.7
2173 204863.000  -2197190.5164  -4678268.4228   3725899.9823   1   9   0.0046   0.0074   0.0070   0.0039  -0.0055  -0.0028   0.00    8.2
2173 204864.000  -2197190.5153  -4678268.4199   3725899.9827   1   9   0.0046   0.0074   0.0070   0.0039  -0.0055  -0.0028   0.00    7.9
2173 204865.000  -2197190.5154  -4678268.4225   3725899.9822   1   9   0.0046   0.0074   0.0070   0.0039  -0.0055  -0.0028   0.00    9.1
2173 204866.000  -2197190.5148  -4678268.4207   3725899.9824   1   9   0.0046   0.0074   0.0070   0.0039  -0.0055  -0.0028   0.00    7.6
2173 204867.000  -2197190.5172  -4678268.4220   3725899.9840   1   9   0.0046   0.0074   0.0070   0.0039  -0.0055  -0.0028   0.00    7.1
2173 204868.000  -2197190.5173  -4678268.4240   3725899.9827   1   9   0.0046   0.0074   0.0070   0.0039  -0.0055  -0.0028   0.00    7.7
2173 204869.000  -2197190.5155  -4678268.4246   3725899.9851   1   9   0.0046   0.0074   0.0070   0.0039  -0.0055  -0.0028   0.00    7.3
2173 204870.000  -2197190.5164  -4678268.4241   3725899.9835   1   9   0.0046   0.0074   0.0070   0.0039  -0.0055  -0.0028   0.00    7.4
2173 204871.000  -2197190.5162  -4678268.4228   3725899.9809   1   9   0.0046   0.0074   0.0070   0.0039  -0.0055  -0.0028   0.00    8.0
2173 204872.000  -2197190.5142  -4678268.4212   3725899.9837   1   9   0.0046   0.0074   0.0070   0.0039  -0.0055  -0.0028   0.00    6.5
2173 204873.000  -2197190.5150  -4678268.4201   3725899.9830   1   9   0.0046   0.0074   0.0070   0.0039  -0.0055  -0.0028   0.00    6.2
2173 204874.000  -2197190.5148  -4678268.4204   3725899.9814   1   9   0.0046   0.0074   0.0070   0.0039  -0.0055  -0.0028   0.00    7.5
2173 204875.000  -2197190.5156  -4678268.4209   3725899.9819   1   9   0.0046   0.0074   0.0070   0.0039  -0.0055  -0.0028   0.00    7.3
2173 204876.000  -2197190.5136  -4678268.4180   3725899.9801   1   9   0.0046   0.0074   0.0070   0.0039  -0.0055  -0.0028   0.00    7.8
2173 204877.000  -2197190.5153  -4678268.4219   3725899.9808   1   9   0.0046   0.0074   0.0070   0.0039  -0.0055  -0.0028   0.00    8.3
2173 204878.000  -2197190.5151  -4678268.4200   3725899.9790   1   9   0.0046   0.0074   0.0070   0.0039  -0.0055  -0.0028   0.00    7.7
2173 204879.000  -2197190.5161  -4678268.4231   3725899.9814   1   9   0.0046   0.0074   0.0070   0.0039  -0.0055  -0.0028   0.00    8.9
2173 204880.000  -2197190.5175  -4678268.4223   3725899.9826   1   9   0.0046   0.0074   0.0070   0.0039  -0.0055  -0.0028   0.00    7.8
2173 204881.000  -2197190.5149  -4678268.4203   3725899.9801   1   9   0.0046   0.0074   0.0070   0.0039  -0.0055  -0.0028   0.00    8.8
2173 204882.000  -2197190.5139  -4678268.4194   3725899.9791   1   9   0.0046   0.0074   0.0070   0.0039  -0.0055  -0.0028   0.00    8.5
2173 204883.000  -2197190.5141  -4678268.4198   3725899.9802   1   9   0.0046   0.0074   0.0070   0.0039  -0.0055  -0.0028   0.00    8.3
2173 204884.000  -2197190.5133  -4678268.4212   3725899.9814   1   9   0.0046   0.0074   0.0070   0.0039  -0.0055  -0.0028   0.00   10.9
2173 204885.000  -2197190.5151  -4678268.4192   3725899.9781   1   9   0.0046   0.0074   0.0070   0.0039  -0.0055  -0.0028   0.00    8.0
2173 204886.000  -2197190.5142  -4678268.4204   3725899.9783   1   9   0.0046   0.0074   0.0070   0.0039  -0.0055  -0.0028   0.00    9.3
2173 204887.000  -2197190.5132  -4678268.4187   3725899.9778   1   9   0.0046   0.0074   0.0070   0.0039  -0.0055  -0.0028   0.00    7.2
2173 204888.000  -2197190.5155  -4678268.4226   3725899.9813   1   9   0.0046   0.0074   0.0070   0.0039  -0.0055  -0.0028   0.00    8.0
2173 204889.000  -2197190.5155  -4678268.4200   3725899.9776   1   9   0.0046   0.0074   0.0070   0.0039  -0.0055  -0.0028   0.00    7.1
2173 204890.000  -2197190.5128  -4678268.4166   3725899.9766   1   9   0.0046   0.0074   0.0070   0.0039  -0.0055  -0.0028   0.00    7.6
2173 204891.000  -2197190.5137  -4678268.4186   3725899.9796   1   9   0.0046   0.0074   0.0070   0.0039  -0.0055  -0.0028   0.00    7.6
2173 204892.000  -2197190.5149  -4678268.4175   3725899.9779   1   9   0.0046   0.0074   0.0070   0.0039  -0.0055  -0.0028   0.00    7.5
2173 204893.000  -2197190.5126  -4678268.4190   3725899.9778   1   9   0.0046   0.0074   0.0070   0.0039  -0.0055  -0.0028   0.00    9.2
2173 204894.000  -2197190.5133  -4678268.4174   3725899.9778   1   9   0.0046   0.0074   0.0070   0.0039  -0.0055  -0.0028   0.00   11.5
2173 204895.000  -2197190.5144  -4678268.4211   3725899.9808   1   9   0.0046   0.0074   0.0070   0.0039  -0.0055  -0.0028   0.00    8.0
2173 204896.000  -2197190.5134  -4678268.4176   3725899.9772   1   9   0.0046   0.0074   0.0070   0.0039  -0.0055  -0.0028   0.00    8.6
2173 204897.000  -2197190.5137  -4678268.4153   3725899.9753   1   9   0.0046   0.0074   0.0070   0.0039  -0.0055  -0.0028   0.00    9.1
2173 204898.000  -2197190.5158  -4678268.4234   3725899.9795   1   9   0.0046   0.0074   0.0070   0.0039  -0.0055  -0.0028   0.00   13.0
2173 204899.000  -2197190.5130  -4678268.4146   3725899.9747   1   9   0.0046   0.0074   0.0070   0.0039  -0.0055  -0.0028   0.00    7.7
2173 204900.000  -2197190.5139  -4678268.4155   3725899.9765   1   9   0.0046   0.0074   0.0070   0.0039  -0.0055  -0.0028   0.00   10.1
2173 204901.000  -2197190.5143  -4678268.4190   3725899.9770   1   9   0.0046   0.0074   0.0070   0.0039  -0.0055  -0.0028   0.00    9.2
2173 204902.000  -2197190.5145  -4678268.4148   3725899.9734   1   9   0.0046   0.0074   0.0070   0.0039  -0.0055  -0.0028   0.00    8.5
2173 204903.000  -2197190.5159  -4678268.4171   3725899.9752   1   9   0.0046   0.0074   0.0070   0.0039  -0.0055  -0.0028   0.00    7.6
2173 204904.000  -2197190.5132  -4678268.4156   3725899.9761   1   9   0.0046   0.0074   0.0070   0.0039  -0.0055  -0.0028   0.00    7.7
2173 204905.000  -2197190.5144  -4678268.4178   3725899.9764   1   9   0.0046   0.0074   0.0070   0.0039  -0.0055  -0.0028   0.00    9.7
2173 204906.000  -2197190.5146  -4678268.4172   3725899.9759   1   9   0.0046   0.0074   0.0070   0.0039  -0.0055  -0.0028   0.00    8.4
