     2.11           OBSERVATION DATA    M (MIXED)           RINEX VERSION / TYPE
CONVBIN 2.4.3                           20210901 190801 UTC PGM / RUN BY / DATE 
log: logs/21_09_01_08_42_11_pamm_SW.rtcm                    COMMENT             
format: RTCM 3, station ID: 2238                            COMMENT             
2238                                                        MARKER NAME         
                                                            MARKER NUMBER       
                                                            OBSERVER / AGENCY   
                    SWFT                                    REC # / TYPE / VERS 
                    NULL                                    ANT # / TYPE        
   824987.9304 -4798612.5637  4106112.1974                  APPROX POSITION XYZ 
        0.0000        0.0000        0.0000                  ANTENNA: DELTA H/E/N
     1     1                                                WAVELENGTH FACT L1/2
     5    C1    L1    P2    L2    C2                        # / TYPES OF OBSERV 
  2021     9     1     8    42   16.0000000     GPS         TIME OF FIRST OBS   
  2021     9     1     9    12   14.0000000     GPS         TIME OF LAST OBS    
                                                            END OF HEADER       
 21  9  1  8 42 16.0000000  0 11G 1G 7G 8G13G14G17G19G21G30E13E21
  20684222.776   108696285.988    20684225.528    84698394.164                  
  21019359.375   110457491.220    21019358.857    86070775.121                  
  23209915.592   121968891.988    23209917.772    95040685.747                  
  23753944.197   124827836.285    23753943.286    97268447.860                  
  21473807.280   112845635.142    21473807.173    87931669.896                  
  22075817.952   116009217.676    22075817.505    90396795.237                  
  24631006.217   129436819.995    24631004.680   100859862.354                  
  21539551.579   113191115.845    21539550.275    88200872.165                  
  20625949.766   108390063.513    20625951.535    84459781.281                  
  24662153.782   129600451.430                                                  
  25124536.445   132030312.298                                                  
 21  9  1  8 42 17.0000000  0 11G 1G 7G 8G13G14G17G19G21G30E13E21
  20683933.066   108694763.564    20683935.818    84697207.859                  
  21019789.054   110459749.210    21019788.536    86072534.621                  
  23210500.606   121971966.105    23210502.786    95043081.128                  
  23753967.445   124827958.552    23753966.533    97268543.165                  
  21473427.653   112843640.222    21473427.563    87930115.410                  
  22075407.054   116007058.386    22075406.571    90395112.683                  
  24630369.526   129433474.102    24630368.007   100857255.156                  
  21539752.766   113192172.956    21539751.462    88201695.863                  
  20625966.438   108390151.226    20625968.225    84459849.668                  
  24661681.218   129597967.839                                                  
  25124182.906   132028454.422                                                  
 21  9  1  8 42 18.0000000  0 11G 1G 7G 8G13G14G17G19G21G30E13E21
  20683643.480   108693241.820    20683646.232    84696022.083                  
  21020218.840   110462007.676    21020218.304    86074294.465                  
  23211085.602   121975040.347    23211087.782    95045476.639                  
  23753990.817   124828081.368    23753989.906    97268638.868                  
  21473048.079   112841645.504    21473047.972    87928561.082                  
  22074996.227   116004899.406    22074995.744    90393430.363                  
  24629732.853   129430128.355    24629731.316   100854648.083                  
  21539954.043   113193230.708    21539952.739    88202520.087                  
  20625983.235   108390239.524    20625985.022    84459918.469                  
  24661208.726   129595484.832                                                  
  25123829.385   132026596.629                                                  
 21  9  1  8 42 19.0000000  0 11G 1G 7G 8G13G14G17G19G21G30E13E21
  20683354.038   108691720.784    20683356.808    84694836.860                  
  21020648.697   110464266.679    21020648.179    86076054.727                  
  23211670.634   121978114.692    23211672.814    95047872.231                  
  23754014.297   124828204.808    23754013.404    97268735.050                  
  21472668.541   112839650.992    21472668.434    87927006.914                  
  22074585.436   116002740.770    22074584.971    90391748.305                  
  24629096.215   129426782.767    24629094.678   100852041.124                  
  21540155.445   113194289.052    21540154.140    88203344.766                  
  20626000.157   108390328.464    20626001.944    84459987.773                  
  24660736.286   129593002.133                                                  
  25123475.865   132024738.903                                                  
 21  9  1  8 42 20.0000000  0 11G 1G 7G 8G13G14G17G19G21G30E13E21
  20683064.739   108690200.446    20683067.472    84693652.176                  
  21021078.679   110466526.222    21021078.161    86077815.403                  
  23212255.684   121981189.108    23212257.864    95050267.875                  
  23754037.920   124828328.874    23754037.009    97268831.723                  
  21472289.039   112837656.679    21472288.931    87925452.902                  
  22074174.716   116000582.454    22074174.252    90390066.495                  
  24628459.595   129423437.317    24628458.059   100849434.277                  
  21540356.936   113195347.986    21540355.632    88204169.907                  
  20626017.204   108390418.058    20626019.008    84460057.582                  
  24660263.883   129590519.733                                                  
  25123122.380   132022881.286                                                  
 21  9  1  8 42 21.0000000  0 15G 1G 7G 8G13G14G17G19G21G30C23C25C28
                                C34E13E21
  20682775.564   108688680.792    20682778.298    84692468.030                  
  21021508.769   110468786.284    21021508.233    86079576.493                  
  23212840.734   121984263.624    23212842.914    95052663.601                  
  23754061.632   124828453.570    23754060.739    97268928.886                  
  21471909.572   112835662.572    21471909.465    87923899.050                  
  22073764.086   115998424.484    22073763.622    90388384.965                  
  24627822.994   129420092.007    24627821.457   100846827.547                  
  21540558.552   113196407.512    21540557.266    88204995.512                  
  20626034.376   108390508.305    20626036.163    84460127.901                  
                 114353108.773                   114353108.773    21960302.420  
                 120621357.594                   120621357.594    23164060.517  
                 125557615.184                   125557615.184    24112019.779  
                 122959101.981                   122959101.981    23613001.778  
  24659791.551   129588037.648                                                  
  25122768.895   132021023.753                                                  
 21  9  1  8 42 22.0000000  0 15G 1G 7G 8G13G14G17G19G21G30C23C25C28
                                C34E13E21
  20682486.497   108687161.840    20682489.267    84691284.433                  
  21021938.948   110471046.884    21021938.412    86081337.992                  
  23213425.819   121987338.215    23213427.999    95055059.387                  
  23754085.505   124828578.880    23754084.576    97269026.530                  
  21471530.141   112833668.667    21471530.034    87922345.360                  
  22073353.492   115996266.843    22073353.027    90386703.684                  
  24627186.445   129416746.848    24627184.909   100844220.925                  
  21540760.293   113197467.617    21540759.007    88205821.566                  
  20626051.673   108390599.199    20626053.460    84460198.731                  
                 114352524.573                   114352524.573    21960190.220  
                 120623596.942                   120623596.942    23164490.553  
                 125554800.406                   125554800.406    24111479.223  
                 122961515.178                   122961515.178    23613465.193  
  24659319.309   129585555.879                                                  
  25122415.445   132019166.315                                                  
 21  9  1  8 42 23.0000000  0 15G 1G 7G 8G13G14G17G19G21G30C23C25C28
                                C34E13E21
  20682197.573   108685643.565    20682200.342    84690101.364                  
  21022369.216   110473308.002    21022368.680    86083099.907                  
  23214010.904   121990412.878    23214013.084    95057455.230                  
  23754109.468   124828704.797    23754108.539    97269124.648                  
  21471150.764   112831674.961    21471150.639    87920791.821                  
  22072942.987   115994109.530    22072942.504    90385022.663                  
  24626549.897   129413401.823    24626548.360   100841614.419                  
  21540962.142   113198528.320    21540960.838    88206648.090                  
  20626069.095   108390690.751    20626070.882    84460270.067                  
                 114351940.809                   114351940.809    21960078.128  
                 120625836.633                   120625836.633    23164920.678  
                 125551985.883                   125551985.883    24110938.721  
                 122963928.629                   122963928.629    23613928.680  
  24658847.084   129583074.398                                                  
  25122061.996   132017308.965                                                  
 21  9  1  8 42 24.0000000  0 15G 1G 7G 8G13G14G17G19G21G30C23C25C28
                                C34E13E21
  20681908.791   108684125.986    20681911.543    84688918.833                  
  21022799.573   110475569.649    21022799.055    86084862.227                  
  23214596.026   121993487.628    23214598.188    95059851.137                  
  23754133.537   124828831.336    23754132.626    97269223.250                  
  21470771.405   112829681.458    21470771.297    87919238.442                  
  22072532.517   115991952.549    22072532.035    90383341.899                  
  24625913.403   129410056.942    24625911.866   100839008.016                  
  21541164.098   113199589.605    21541162.793    88207475.067                  
  20626086.643   108390782.948    20626088.447    84460341.910                  
                 114351357.484                   114351357.484    21959966.107  
                 120628076.672                   120628076.672    23165350.857  
                 125549171.617                   125549171.617    24110398.273  
                 122966342.321                   122966342.321    23614392.203  
  24658374.949   129580593.231                                                  
  25121708.565   132015451.696                                                  
 21  9  1  8 42 25.0000000  0 15G 1G 7G 8G13G14G17G19G21G30C23C25C28
                                C34E13E21
  20681620.135   108682609.093    20681622.905    84687736.836                  
  21023230.056   110477831.822    21023229.538    86086624.956                  
  23215181.129   121996562.446    23215183.309    95062247.097                  
  23754157.732   124828958.503    23754156.821    97269322.343                  
  21470392.099   112827688.149    21470391.974    87917685.215                  
  22072122.120   115989795.906    22072121.637    90381661.397                  
  24625276.908   129406712.190    24625275.353   100836401.716                  
  21541366.161   113200651.496    21541364.856    88208302.513                  
  20626104.315   108390875.806    20626106.102    84460414.266                  
                 114350774.595                   114350774.595    21959854.158  
                 120630317.058                   120630317.058    23165781.107  
                 125546357.606                   125546357.606    24109857.878  
                 122968756.254                   122968756.254    23614855.779  
  24657902.831   129578112.372                                                  
  25121355.169   132013594.522                                                  
 21  9  1  8 42 26.0000000  0 15G 1G 7G 8G13G14G17G19G21G30C23C25C28
                                C34E13E21
  20681331.622   108681092.896    20681334.374    84686555.386                  
  21023660.646   110480094.525    21023660.128    86088388.106                  
  23215766.268   121999637.328    23215768.448    95064643.109                  
  23754182.052   124829086.293    23754181.140    97269421.917                  
  21470012.829   112825695.043    21470012.704    87916132.144                  
  22071711.775   115987639.591    22071711.329    90379981.152                  
  24624640.467   129403367.591    24624638.912   100833795.535                  
  21541568.349   113201713.957    21541567.044    88209130.402                  
  20626122.095   108390969.303    20626123.900    84460487.121                  
                 114350192.145                   114350192.145    21959742.297  
                 120632557.793                   120632557.793    23166211.393  
                 125543543.855                   125543543.855    24109317.518  
                 122971170.437                   122971170.437    23615319.408  
  24657430.803   129575631.818                                                  
  25121001.755   132011737.439                                                  
 21  9  1  8 42 27.0000000  0 15G 1G 7G 8G13G14G17G19G21G30C23C25C28
                                C34E13E21
  20681043.216   108679577.370    20681045.986    84685374.457                  
  21024091.325   110482357.762    21024090.807    86090151.663                  
  23216351.425   122002712.319    23216353.587    95067039.208                  
  23754206.479   124829214.707    23754205.585    97269521.980                  
  21469633.577   112823702.132    21469633.487    87914579.230                  
  22071301.521   115985483.614    22071301.038    90378301.172                  
  24624004.026   129400023.144    24624002.471   100831189.472                  
  21541770.644   113202777.017    21541769.339    88209958.763                  
  20626140.017   108391063.452    20626141.822    84460560.484                  
                 114349610.128                   114349610.128    21959630.545  
                 120634798.879                   120634798.879    23166641.786  
                 125540730.359                   125540730.359    24108777.213  
                 122973584.864                   122973584.864    23615783.056  
  24656958.829   129573151.563                                                  
  25120648.378   132009880.447                                                  
 21  9  1  8 42 28.0000000  0 15G 1G 7G 8G13G14G17G19G21G30C23C25C28
                                C34E13E21
  20680754.953   108678062.555    20680757.723    84684194.082                  
  21024522.094   110484621.519    21024521.575    86091915.632                  
  23216936.582   122005787.369    23216938.744    95069435.348                  
  23754231.049   124829343.726    23754230.119    97269622.515                  
  21469254.378   112821709.422    21469254.289    87913026.468                  
  22070891.301   115983327.962    22070890.837    90376621.441                  
  24623367.621   129396678.836    24623366.084   100828583.515                  
  21541973.046   113203840.667    21541971.742    88210787.578                  
  20626158.065   108391158.253    20626159.852    84460634.354                  
                 114349028.553                   114349028.553    21959518.863  
                 120637040.309                   120637040.309    23167072.215  
                 125537917.122                   125537917.122    24108236.961  
                 122975999.530                   122975999.530    23616246.757  
  24656486.908   129570671.614                                                  
  25120295.018   132008023.536                                                  
 21  9  1  8 42 29.0000000  0 15G 1G 7G 8G13G14G17G19G21G30C23C25C28
                                C34E13E21
  20680466.833   108676548.430    20680469.585    84683014.241                  
  21024952.987   110486885.813    21024952.451    86093680.017                  
  23217521.756   122008862.497    23217523.919    95071831.555                  
  23754255.726   124829473.382    23754254.796    97269723.547                  
  21468875.215   112819716.917    21468875.108    87911473.867                  
  22070481.154   115981172.645    22070480.707    90374941.973                  
  24622731.233   129393334.659    24622729.697   100825977.663                  
  21542175.556   113204904.894    21542174.251    88211616.851                  
  20626176.220   108391253.707    20626178.025    84460708.735                  
                 114348447.418                   114348447.418    21959407.235  
                 120639282.081                   120639282.081    23167502.734  
                 125535104.141                   125535104.141    24107696.762  
                 122978414.449                   122978414.449    23616710.512  
  24656015.040   129568191.982                                                  
  25119941.676   132006166.714                                                  
 21  9  1  8 42 30.0000000  0 15G 1G 7G 8G13G14G17G19G21G30C23C25C28
                                C34E13E21
  20680178.838   108675035.003    20680181.607    84681834.952                  
  21025383.952   110489150.632    21025383.434    86095444.813                  
  23218106.931   122011937.697    23218109.111    95074227.812                  
  23754280.492   124829603.648    23754279.581    97269825.056                  
  21468496.106   112817724.617    21468495.981    87909921.425                  
  22070071.077   115979017.659    22070070.613    90373262.766                  
  24622094.900   129389990.626    24622093.363   100823371.926                  
  21542378.173   113205969.718    21542376.886    88212446.581                  
  20626194.518   108391349.813    20626196.305    84460783.620                  
                 114347866.718                   114347866.718    21959295.733  
                 120641524.206                   120641524.206    23167933.324  
                 125532291.415                   125532291.415    24107156.600  
                 122980829.607                   122980829.607    23617174.338  
  24655543.245   129565712.660                                                  
  25119588.351   132004309.971                                                  
 21  9  1  8 42 31.0000000  0 15G 1G 7G 8G13G14G17G19G21G30C23C25C28
                                C34E13E21
  20679890.986   108673522.265    20679893.720    84680656.196                  
  21025815.060   110491416.008    21025814.524    86097210.039                  
  23218692.142   122015012.969    23218694.322    95076624.128                  
  23754305.402   124829734.539    23754304.508    97269927.046                  
  21468116.997   112815732.511    21468116.908    87908369.137                  
  22069661.055   115976863.005    22069660.608    90371583.813                  
  24621458.584   129386646.737    24621457.047   100820766.298                  
  21542580.932   113207035.134    21542579.628    88213276.773                  
  20626212.923   108391446.565    20626214.728    84460859.016                  
                 114347286.458                   114347286.458    21959184.302  
                 120643766.679                   120643766.679    23168363.967  
                 125529478.946                   125529478.946    24106616.508  
                 122983245.011                   122983245.011    23617638.182  
  24655071.502   129563233.641                                                  
  25119235.063   132002453.337                                                  
 21  9  1  8 42 32.0000000  0 15G 1G 7G 8G13G14G17G19G21G30C23C25C28
                                C34E13E21
  20679603.241   108672010.214    20679605.993    84679477.972                  
  21026246.240   110493681.890    21026245.722    86098975.661                  
  23219277.352   122018088.315    23219279.532    95079020.499                  
  23754330.436   124829866.052    23754329.525    97270029.524                  
  21467737.959   112813740.601    21467737.852    87906816.995                  
  22069251.104   115974708.683    22069250.639    90369905.124                  
  24620822.286   129383302.983    24620820.749   100818160.778                  
  21542783.782   113208101.128    21542782.477    88214107.423                  
  20626231.453   108391543.974    20626233.258    84460934.914                  
                 114346706.634                   114346706.634    21959072.960  
                 120646009.499                   120646009.499    23168794.664  
                 125526666.738                   125526666.738    24106076.435  
                 122985660.660                   122985660.660    23618102.080  
  24654599.814   129560754.930                                                  
  25118881.757   132000596.782                                                  
 21  9  1  8 42 33.0000000  0 15G 1G 7G 8G13G14G17G19G21G30C23C25C28
                                C34E13E21
  20679315.639   108670498.862    20679318.409    84678300.297                  
  21026677.527   110495948.296    21026677.008    86100741.692                  
  23219862.598   122021163.755    23219864.778    95081416.946                  
  23754355.578   124829998.187    23754354.666    97270132.484                  
  21467358.957   112811748.897    21467358.832    87905265.023                  
  22068841.224   115972554.698    22068840.742    90368226.692                  
  24620186.023   129379959.390    24620184.487   100815555.378                  
  21542986.738   113209167.723    21542985.434    88214938.532                  
  20626250.126   108391642.032    20626251.913    84461011.325                  
                 114346127.246                   114346127.246    21958961.671  
                 120648252.664                   120648252.664    23169225.433  
                 125523854.786                   125523854.786    24105536.433  
                 122988076.556                   122988076.556    23618566.031  
  24654128.197   129558276.516                                                  
  25118528.486   131998740.321                                                  
 21  9  1  8 42 34.0000000  0 15G 1G 7G 8G13G14G17G19G21G30C23C25C28
                                C34E13E21
  20679028.180   108668988.187    20679030.914    84677123.143                  
  21027108.903   110498215.228    21027108.385    86102508.128                  
  23220447.863   122024239.265    23220450.043    95083813.450                  
  23754380.845   124830130.945    23754379.915    97270235.929                  
  21466979.973   112809757.390    21466979.884    87903713.194                  
  22068431.398   115970401.036    22068430.916    90366548.516                  
  24619549.779   129376615.918    24619548.242   100812950.077                  
  21543189.819   113210234.897    21543188.515    88215770.098                  
  20626268.907   108391740.726    20626270.694    84461088.230                  
                 114345548.300                   114345548.300    21958850.508  
                 120650496.179                   120650496.179    23169656.273  
                 125521043.090                   125521043.090    24104996.485  
                 122990492.693                   122990492.693    23619030.018  
  24653656.615   129555798.418                                                  
  25118175.215   131996883.945                                                  
 21  9  1  8 42 35.0000000  0 15G 1G 7G 8G13G14G17G19G21G30C23C25C28
                                C34E13E21
  20678740.846   108667478.211    20678743.580    84675946.543                  
  21027540.386   110500482.682    21027539.868    86104274.980                  
  23221033.127   122027314.840    23221035.307    95086209.999                  
  23754406.219   124830264.321    23754405.307    97270339.859                  
  21466601.061   112807766.094    21466600.936    87902161.540                  
  22068021.626   115968247.711    22068021.161    90364870.601                  
  24618913.552   129373272.601    24618912.016   100810344.895                  
  21543393.026   113211302.673    21543391.722    88216602.133                  
  20626287.812   108391840.089    20626289.599    84461165.656                  
                 114344969.790                   114344969.790    21958739.399  
                 120652740.039                   120652740.039    23170087.202  
                 125518231.648                   125518231.648    24104456.572  
                 122992909.071                   122992909.071    23619494.059  
  24653185.123   129553320.625                                                  
  25117821.981   131995027.660                                                  
 21  9  1  8 42 36.0000000  0 15G 1G 7G 8G13G14G17G19G21G30C23C25C28
                                C34E13E21
  20678453.619   108665968.919    20678456.371    84674770.469                  
  21027971.959   110502750.673    21027971.440    86106042.243                  
  23221618.409   122030390.503    23221620.589    95088606.622                  
  23754431.718   124830398.308    23754430.806    97270444.269                  
  21466222.166   112805774.988    21466222.041    87900610.027                  
  22067611.925   115966094.715    22067611.460    90363192.942                  
  24618277.379   129369929.413    24618275.843   100807739.816                  
  21543596.322   113212371.032    21543595.017    88217434.616                  
  20626306.843   108391940.089    20626308.647    84461243.578                  
                 114344391.719                   114344391.719    21958628.396  
                 120654984.246                   120654984.246    23170518.185  
                 125515420.469                   125515420.469    24103916.713  
                 122995325.700                   122995325.700    23619958.153  
  24652713.667   129550843.141                                                  
  25117468.764   131993171.465                                                  
 21  9  1  8 42 37.0000000  0 15G 1G 7G 8G13G14G17G19G21G30C23C25C28
                                C34E13E21
  20678166.536   108664460.325    20678169.305    84673594.941                  
  21028403.656   110505019.175    21028403.120    86107809.909                  
  23222203.708   122033466.242    23222205.853    95091003.302                  
  23754457.342   124830532.929    23754456.413    97270549.168                  
  21465843.307   112803784.085    21465843.200    87899058.676                  
  22067202.277   115963942.054    22067201.813    90361515.543                  
  24617641.224   129366586.378    24617639.688   100805134.852                  
  21543799.743   113213439.975    21543798.438    88218267.564                  
  20626325.998   108392040.747    20626327.785    84461322.012                  
                 114343814.087                   114343814.087    21958517.465  
                 120657228.801                   120657228.801    23170949.222  
                 125512609.544                   125512609.544    24103376.926  
                 122997742.567                   122997742.567    23620422.301  
  24652242.282   129548365.968                                                  
  25117115.565   131991315.356                                                  
 21  9  1  8 42 38.0000000  0 15G 1G 7G 8G13G14G17G19G21G30C23C25C28
                                C34E13E21
  20677879.595   108662952.429    20677882.364    84672419.957                  
  21028835.443   110507288.214    21028834.925    86109577.991                  
  23222789.008   122036542.031    23222791.153    95093400.021                  
  23754483.073   124830668.160    23754482.162    97270654.543                  
  21465464.484   112801793.391    21465464.376    87897507.485                  
  22066792.719   115961789.727    22066792.237    90359838.405                  
  24617005.087   129363243.484    24617003.532   100802529.999                  
  21544003.253   113214509.517    21544001.967    88219100.968                  
  20626345.279   108392142.067    20626347.066    84461400.961                  
                 114343236.892                   114343236.892    21958406.624  
                 120659473.703                   120659473.703    23171380.312  
                 125509798.874                   125509798.874    24102837.156  
                 123000159.678                   123000159.678    23620886.485  
  24651770.933   129545889.097                                                  
  25116762.365   131989459.335                                                  
 21  9  1  8 42 39.0000000  0 15G 1G 7G 8G13G14G17G19G21G30C23C25C28
                                C34E13E21
  20677592.797   108661445.223    20677595.549    84671245.511                  
  21029267.320   110509557.778    21029266.802    86111346.481                  
  23223374.326   122039617.891    23223376.488    95095796.792                  
  23754508.912   124830804.016    23754508.018    97270760.403                  
  21465085.696   112799802.887    21465085.607    87895956.441                  
  22066383.197   115959637.734    22066382.732    90358161.530                  
  24616368.986   129359900.739    24616367.449   100799925.261                  
  21544206.906   113215579.637    21544205.602    88219934.833                  
  20626364.685   108392244.019    20626366.454    84461480.406                  
                 114342660.132                   114342660.132    21958295.854  
                 120661718.953                   120661718.953    23171811.491  
                 125506988.469                   125506988.469    24102297.440  
                 123002577.040                   123002577.040    23621350.704  
  24651299.655   129543412.531                                                  
  25116409.202   131987603.399                                                  
 21  9  1  8 42 40.0000000  0 15G 1G 7G 8G13G14G17G19G21G30C23C25C28
                                C34E13E21
  20677306.124   108659938.701    20677308.858    84670071.602                  
  21029699.303   110511827.870    21029698.785    86113115.384                  
  23223959.644   122042693.821    23223961.824    95098193.620                  
  23754534.893   124830940.492    23754533.982    97270866.750                  
  21464706.962   112797812.589    21464706.855    87894405.561                  
  22065973.764   115957486.082    22065973.282    90356484.918                  
  24615732.902   129356558.141    24615731.365   100797320.641                  
  21544410.631   113216650.356    21544409.345    88220769.156                  
  20626384.198   108392346.625    20626386.002    84461560.357                  
                 114342083.812                   114342083.812    21958185.173  
                 120663964.547                   120663964.547    23172242.742  
                 125504178.318                   125504178.318    24101757.778  
                 123004994.640                   123004994.640    23621814.977  
  24650828.431   129540936.270                                                  
  25116056.039   131985747.566                                                  
 21  9  1  8 42 41.0000000  0 15G 1G 7G 8G13G14G17G19G21G30C23C25C28
                                C34E13E21
  20677019.559   108658432.874    20677022.293    84668898.226                  
  21030131.376   110514098.488    21030130.858    86114884.696                  
  23224544.979   122045769.836    23224547.159    95100590.515                  
  23754560.982   124831077.586    23754560.053    97270973.574                  
  21464328.264   112795822.493    21464328.157    87892854.835                  
  22065564.385   115955334.759    22065563.902    90354808.563                  
  24615096.854   129353215.678    24615095.317   100794716.129                  
  21544614.499   113217721.655    21544613.194    88221603.938                  
  20626403.854   108392449.888    20626405.641    84461640.821                  
                 114341507.934                   114341507.934    21958074.599  
                 120666210.492                   120666210.492    23172674.065  
                 125501368.421                   125501368.421    24101218.151  
                 123007412.484                   123007412.484    23622279.303  
  24650357.279   129538460.329                                                  
  25115702.893   131983891.809                                                  
 21  9  1  8 42 42.0000000  0 15G 1G 7G 8G13G14G17G19G21G30C23C25C28
                                C34E13E21
  20676733.136   108656927.728    20676735.888    84667725.387                  
  21030563.575   110516369.636    21030563.056    86116654.418                  
  23225130.333   122048845.930    23225132.513    95102987.470                  
  23754587.178   124831215.294    23754586.285    97271080.879                  
  21463949.601   112793832.602    21463949.476    87891304.269                  
  22065155.059   115953183.773    22065154.577    90353132.472                  
  24614460.842   129349873.356    24614459.305   100792111.718                  
  21544818.474   113218793.536    21544817.187    88222439.167                  
  20626423.617   108392553.794    20626425.422    84461721.789                  
                 114340932.491                   114340932.491    21957964.080  
                 120668456.780                   120668456.780    23173105.423  
                 125498558.784                   125498558.784    24100678.596  
                 123009830.575                   123009830.575    23622743.666  
  24649886.180   129535984.685                                                  
  25115349.783   131982036.149                                                  
 21  9  1  8 42 43.0000000  0 15G 1G 7G 8G13G14G17G19G21G30C23C25C28
                                C34E13E21
  20676446.857   108655423.292    20676449.608    84666553.102                  
  21030995.862   110518641.301    21030995.344    86118424.546                  
  23225715.722   122051922.106    23225717.902    95105384.492                  
  23754613.517   124831353.624    23754612.606    97271188.671                  
  21463570.957   112791842.905    21463570.867    87889753.860                  
  22064745.805   115951033.116    22064745.322    90351456.633                  
  24613824.848   129346531.184    24613823.293   100789507.430                  
  21545022.556   113219866.009    21545021.251    88223274.858                  
  20626443.523   108392658.354    20626445.328    84461803.265                  
                 114340357.488                   114340357.488    21957853.667  
                 120670703.418                   120670703.418    23173536.888  
                 125495749.406                   125495749.406    24100139.095  
                 123012248.908                   123012248.908    23623208.082  
  24649415.135   129533509.354                                                  
  25114996.674   131980180.574                                                  
 21  9  1  8 42 44.0000000  0 15G 1G 7G 8G13G14G17G19G21G30C23C25C28
                                C34E13E21
  20676160.702   108653919.542    20676163.454    84665381.347                  
  21031428.239   110520913.503    21031427.720    86120195.098                  
  23226301.111   122054998.344    23226303.291    95107781.559                  
  23754639.963   124831492.579    23754639.034    97271296.945                  
  21463192.384   112789853.411    21463192.276    87888203.602                  
  22064336.604   115948882.790    22064336.140    90349781.054                  
  24613188.853   129343189.143    24613187.335   100786903.243                  
  21545226.763   113220939.067    21545225.459    88224111.007                  
  20626463.536   108392763.566    20626465.341    84461885.246                  
                 114339782.921                   114339782.921    21957743.326  
                 120672950.398                   120672950.398    23173968.372  
                 125492940.280                   125492940.280    24099599.647  
                 123014667.482                   123014667.482    23623672.533  
  24648944.161   129531034.332                                                  
  25114643.582   131978325.090                                                  
 21  9  1  8 42 45.0000000  0 15G 1G 7G 8G13G14G17G19G21G30C23C25C28
                                C34E13E21
  20675874.673   108652416.480    20675877.424    84664210.129                  
  21031860.723   110523186.234    21031860.204    86121966.054                  
  23226886.518   122058074.659    23226888.698    95110178.687                  
  23754666.517   124831632.144    23754665.605    97271405.700                  
  21462813.846   112787864.116    21462813.721    87886653.505                  
  22063927.475   115946732.802    22063926.993    90348105.739                  
  24612552.948   129339847.262    24612551.394   100784299.176                  
  21545431.060   113222012.720    21545429.755    88224947.624                  
  20626483.692   108392869.423    20626485.479    84461967.730                  
                 114339208.796                   114339208.796    21957633.074  
                 120675197.731                   120675197.731    23174399.962  
                 125490131.417                   125490131.417    24099060.217  
                 123017086.300                   123017086.300    23624137.056  
  24648473.241   129528559.615                                                  
  25114290.526   131976469.694                                                  
 21  9  1  8 42 46.0000000  0 15G 1G 7G 8G13G14G17G19G21G30C23C25C28
                                C34E13E21
  20675588.786   108650914.113    20675591.538    84663039.453                  
  21032293.314   110525459.472    21032292.778    86123737.411                  
  23227471.943   122061151.038    23227474.105    95112575.867                  
  23754693.177   124831772.337    23754692.284    97271514.937                  
  21462435.327   112785875.024    21462435.220    87885103.563                  
  22063518.400   115944583.134    22063517.935    90346430.675                  
  24611917.026   129336505.515    24611915.471   100781695.222                  
  21545635.481   113223086.942    21545634.177    88225784.681                  
  20626503.956   108392975.941    20626505.743    84462050.730                  
                 114338635.110                   114338635.110    21957522.893  
                 120677445.406                   120677445.406    23174831.606  
                 125487322.812                   125487322.812    24098520.858  
                 123019505.362                   123019505.362    23624601.597  
  24648002.374   129526085.203                                                  
  25113937.452   131974614.383                                                  
 21  9  1  8 42 47.0000000  0 15G 1G 7G 8G13G14G17G19G21G30C23C25C28
                                C34E13E21
  20675303.042   108649412.450    20675305.776    84661869.329                  
  21032725.994   110527733.253    21032725.476    86125509.188                  
  23228057.368   122064227.481    23228059.548    95114973.094                  
  23754719.981   124831913.144    23754719.087    97271624.656                  
  21462056.843   112783886.128    21462056.736    87883553.774                  
  22063109.395   115942433.809    22063108.913    90344755.874                  
  24611281.139   129333163.917    24611279.602   100779091.378                  
  21545840.028   113224161.763    21545838.723    88226622.203                  
  20626524.362   108393083.104    20626526.131    84462134.239                  
                 114338061.861                   114338061.861    21957412.820  
                 120679693.434                   120679693.434    23175263.322  
                 125484514.465                   125484514.465    24097981.535  
                 123021924.669                   123021924.669    23625066.228  
  24647531.561   129523611.099                                                  
  25113584.413   131972759.161                                                  
 21  9  1  8 42 48.0000000  0 15G 1G 7G 8G13G14G17G19G21G30C23C25C28
                                C34E13E21
  20675017.406   108647911.473    20675020.158    84660699.735                  
  21033158.782   110530007.567    21033158.264    86127281.375                  
  23228642.793   122067303.995    23228644.973    95117370.380                  
  23754746.892   124832054.575    23754745.980    97271734.862                  
  21461678.395   112781897.446    21461678.306    87882004.149                  
  22062700.463   115940284.809    22062699.980    90343081.331                  
  24610645.287   129329822.452    24610643.733   100776487.641                  
  21546044.664   113225237.168    21546043.359    88227460.179                  
  20626544.876   108393190.930    20626546.663    84462218.255                  
                 114337489.047                   114337489.047    21957302.818  
                 120681941.801                   120681941.801    23175695.073  
                 125481706.372                   125481706.372    24097442.284  
                 123024344.220                   123024344.220    23625530.858  
  24647060.819   129521137.300                                                  
  25113231.393   131970904.043                                                  
 21  9  1  8 42 49.0000000  0 15G 1G 7G 8G13G14G17G19G21G30C23C25C28
                                C34E13E21
  20674731.913   108646411.187    20674734.665    84659530.685                  
  21033591.677   110532282.399    21033591.141    86129053.973                  
  23229228.254   122070380.594    23229230.434    95119767.727                  
  23754773.927   124832196.617    23754773.016    97271845.547                  
  21461300.018   112779908.952    21461299.893    87880454.676                  
  22062291.584   115938136.148    22062291.119    90341407.052                  
  24610009.436   129326481.134    24610007.899   100773884.016                  
  21546249.425   113226313.160    21546248.121    88228298.616                  
  20626565.515   108393299.393    20626567.302    84462302.774                  
                 114336916.676                   114336916.676    21957192.906  
                 120684190.520                   120684190.520    23176126.932  
                 125478898.538                   125478898.538    24096903.068  
                 123026764.012                   123026764.012    23625995.560  
  24646590.114   129518663.815                                                  
  25112878.408   131969048.999                                                  
 21  9  1  8 42 50.0000000  0 15G 1G 7G 8G13G14G17G19G21G30C23C25C28
                                C34E13E21
  20674446.544   108644911.590    20674449.296    84658362.165                  
  21034024.661   110534557.758    21034024.143    86130826.980                  
  23229813.732   122073457.260    23229815.894    95122165.130                  
  23754801.088   124832339.290    23754800.159    97271956.718                  
  21460921.660   112777920.664    21460921.535    87878905.361                  
  22061882.776   115935987.832    22061882.294    90339733.040                  
  24609373.638   129323139.956    24609372.102   100771280.499                  
  21546454.276   113227389.753    21546452.971    88229137.520                  
  20626586.278   108393408.517    20626588.065    84462387.805                  
                 114336344.743                   114336344.743    21957083.065  
                 120686439.583                   120686439.583    23176558.844  
                 125476090.965                   125476090.965    24096363.906  
                 123029184.046                   123029184.046    23626460.297  
  24646119.497   129516190.642                                                  
  25112525.424   131967194.047                                                  
 21  9  1  8 42 51.0000000  0 15G 1G 7G 8G13G14G17G19G21G30C23C25C28
                                C34E13E21
  20674161.319   108643412.691    20674164.053    84657194.192                  
  21034457.735   110536833.637    21034457.217    86132600.395                  
  23230399.229   122076534.012    23230401.409    95124562.598                  
  23754828.339   124832482.579    23754827.445    97272068.374                  
  21460543.337   112775932.578    21460543.212    87877356.198                  
  22061474.022   115933839.836    22061473.540    90338059.274                  
  24608737.858   129319798.919    24608736.322   100768677.094                  
  21546659.251   113228466.919    21546657.965    88229976.868                  
  20626607.167   108393518.286    20626608.954    84462473.339                  
                 114335773.247                   114335773.247    21956973.314  
                 120688689.000                   120688689.000    23176990.828  
                 125473283.640                   125473283.640    24095824.780  
                 123031604.344                   123031604.344    23626925.106  
  24645648.916   129513717.764                                                  
  25112172.439   131965339.191                                                  
 21  9  1  8 42 52.0000000  0 15G 1G 7G 8G13G14G17G19G21G30C23C25C28
                                C34E13E21
  20673876.219   108641914.479    20673878.953    84656026.754                  
  21034890.934   110539110.047    21034890.398    86134374.219                  
  23230984.725   122079610.831    23230986.905    95126960.122                  
  23754855.714   124832626.485    23754854.820    97272180.504                  
  21460165.067   112773944.692    21460164.942    87875807.200                  
  22061065.340   115931692.163    22061064.858    90336385.765                  
  24608102.097   129316458.026    24608100.560   100766073.801                  
  21546864.352   113229544.677    21546863.065    88230816.680                  
  20626628.181   108393628.700    20626629.968    84462559.374                  
                 114335202.192                   114335202.192    21956863.634  
                 120690938.758                   120690938.758    23177422.865  
                 125470476.581                   125470476.581    24095285.725  
                 123034024.866                   123034024.866    23627389.915  
  24645178.425   129511245.207                                                  
  25111819.508   131963484.423                                                  
 21  9  1  8 42 53.0000000  0 15G 1G 7G 8G13G14G17G19G21G30C23C25C28
                                C34E13E21
  20673591.244   108640416.966    20673593.996    84654859.861                  
  21035324.222   110541386.992    21035323.704    86136148.461                  
  23231570.239   122082687.726    23231572.401    95129357.698                  
  23754883.232   124832771.015    23754882.321    97272293.129                  
  21459786.798   112771957.017    21459786.709    87874258.360                  
  22060656.693   115929544.843    22060656.247    90334712.528                  
  24607466.388   129313117.280    24607464.834   100763470.624                  
  21547069.560   113230623.028    21547068.255    88231656.958                  
  20626649.320   108393739.778    20626651.107    84462645.926                  
                 114334631.574                   114334631.574    21956754.061  
                 120693188.864                   120693188.864    23177854.956  
                 125467669.782                   125467669.782    24094746.706  
                 123036445.633                   123036445.633    23627854.796  
  24644707.952   129508772.958                                                  
  25111466.559   131961629.740                                                  
 21  9  1  8 42 54.0000000  0 15G 1G 7G 8G13G14G17G19G21G30C23C25C28
                                C34E13E21
  20673306.411   108638920.147    20673309.163    84653693.511                  
  21035757.599   110543664.446    21035757.081    86137923.101                  
  23232155.754   122085764.680    23232157.934    95131755.327                  
  23754910.858   124832916.168    23754909.946    97272406.235                  
  21459408.600   112769969.535    21459408.493    87872709.671                  
  22060248.154   115927397.850    22060247.671    90333039.548                  
  24606830.680   129309776.674    24606829.143   100760867.555                  
  21547274.875   113231701.960    21547273.552    88232497.684                  
  20626670.585   108393851.501    20626672.354    84462732.985                  
                 114334061.395                   114334061.395    21956644.559  
                 120695439.313                   120695439.313    23178287.136  
                 125464863.239                   125464863.239    24094207.723  
                 123038866.640                   123038866.640    23628319.748  
  24644237.567   129506301.008                                                  
  25111113.646   131959775.148                                                  
 21  9  1  8 42 55.0000000  0 15G 1G 7G 8G13G14G17G19G21G30C23C25C28
                                C34E13E21
  20673021.704   108637424.016    20673024.456    84652527.692                  
  21036191.102   110545942.444    21036190.583    86139698.164                  
  23232741.304   122088841.722    23232743.484    95134153.020                  
  23754938.608   124833061.942    23754937.679    97272519.824                  
  21459030.438   112767982.254    21459030.313    87871161.145                  
  22059839.668   115925251.196    22059839.186    90331366.832                  
  24606195.025   129306436.222    24606193.488   100758264.604                  
  21547480.297   113232781.476    21547478.993    88233338.863                  
  20626691.956   108393963.867    20626693.743    84462820.543                  
                 114333491.655                   114333491.655    21956535.165  
                 120697690.109                   120697690.109    23178719.387  
                 125462056.954                   125462056.954    24093668.829  
                 123041287.889                   123041287.889    23628784.718  
  24643767.219   129503829.366                                                  
  25110760.732   131957920.641                                                  
 21  9  1  8 42 56.0000000  0 15G 1G 7G 8G13G14G17G19G21G30C23C25C28
                                C34E13E21
  20672737.140   108635928.583    20672739.874    84651362.422                  
  21036624.676   110548220.964    21036624.157    86141473.632                  
  23233326.854   122091918.832    23233329.016    95136550.765                  
  23754966.466   124833208.336    23754965.537    97272633.899                  
  21458652.294   112765995.177    21458652.204    87869612.769                  
  22059431.218   115923104.870    22059430.753    90329694.370                  
  24605559.388   129303095.904    24605557.834   100755661.757                  
  21547685.844   113233861.585    21547684.540    88234180.509                  
  20626713.452   108394076.887    20626715.257    84462908.613                  
                 114332922.354                   114332922.354    21956425.825  
                 120699941.253                   120699941.253    23179151.693  
                 125459250.926                   125459250.926    24093129.935  
                 123043709.383                   123043709.383    23629249.741  
  24643296.942   129501358.035                                                  
  25110407.855   131956066.231                                                  
 21  9  1  8 42 57.0000000  0 15G 1G 7G 8G13G14G17G19G21G30C23C25C28
                                C34E13E21
  20672452.701   108634433.839    20672455.435    84650197.684                  
  21037058.357   110550500.012    21037057.839    86143249.516                  
  23233912.422   122094996.021    23233914.602    95138948.575                  
  23754994.413   124833355.337    23754993.520    97272748.445                  
  21458274.221   112764008.297    21458274.096    87868064.555                  
  22059022.857   115920958.887    22059022.375    90328022.176                  
  24604923.751   129299755.730    24604922.215   100753059.026                  
  21547891.481   113234942.281    21547890.177    88235022.609                  
  20626735.092   108394190.571    20626736.879    84462997.191                  
                 114332353.495                   114332353.495    21956316.573  
                 120702192.747                   120702192.747    23179584.052  
                 125456445.156                   125456445.156    24092591.112  
                 123046131.117                   123046131.117    23629714.800  
  24642826.719   129498887.006                                                  
  25110054.977   131954211.906                                                  
 21  9  1  8 42 58.0000000  0 15G 1G 7G 8G13G14G17G19G21G30C23C25C28
                                C34E13E21
  20672168.387   108632939.789    20672171.139    84649033.489                  
  21037492.163   110552779.571    21037491.645    86145025.798                  
  23234498.007   122098073.286    23234500.187    95141346.446                  
  23755022.521   124833502.961    23755021.592    97272863.476                  
  21457896.166   112762021.617    21457896.059    87866516.493                  
  22058614.532   115918813.230    22058614.085    90326350.235                  
  24604288.186   129296415.688    24604286.631   100750456.398                  
  21548097.243   113236023.564    21548095.938    88235865.165                  
  20626756.856   108394304.888    20626758.643    84463086.274                  
                 114331785.075                   114331785.075    21956207.412  
                 120704444.583                   120704444.583    23180016.518  
                 125453639.648                   125453639.648    24092052.361  
                 123048553.096                   123048553.096    23630179.913  
  24642356.567   129496416.292                                                  
  25109702.136   131952357.660                                                  
 21  9  1  8 42 59.0000000  0 15G 1G 7G 8G13G14G17G19G21G30C23C25C28
                                C34E13E21
  20671884.216   108631446.430    20671886.968    84647869.835                  
  21037926.041   110555059.667    21037925.523    86146802.493                  
  23235083.593   122101150.630    23235085.773    95143744.374                  
  23755050.718   124833651.206    23755049.825    97272978.992                  
  21457518.165   112760035.139    21457518.040    87864968.590                  
  22058206.296   115916667.902    22058205.832    90324678.551                  
  24603652.620   129293075.792    24603651.084   100747853.883                  
  21548303.112   113237105.433    21548301.825    88236708.180                  
  20626778.746   108394419.869    20626780.515    84463175.866                  
                 114331217.088                   114331217.088    21956098.339  
                 120706696.763                   120706696.763    23180449.020  
                 125450834.395                   125450834.395    24091513.646  
                 123050975.317                   123050975.317    23630645.080  
  24641886.469   129493945.879                                                  
  25109349.294   131950503.514                                                  
 21  9  1  8 43  0.0000000  0 15G 1G 7G 8G13G14G17G19G21G30C23C25C28
                                C34E13E21
  20671600.152   108629953.770    20671602.922    84646706.723                  
  21038360.044   110557340.288    21038359.525    86148579.598                  
  23235669.215   122104228.042    23235671.395    95146142.360                  
  23755079.059   124833800.062    23755078.147    97273094.984                  
  21457140.181   112758048.870    21457140.056    87863420.843                  
  22057798.114   115914522.911    22057797.668    90323007.129                  
  24603017.073   129289736.044    24603015.536   100745251.481                  
  21548509.106   113238187.884    21548507.802    88237551.648                  
  20626800.742   108394535.498    20626802.512    84463265.969                  
                 114330649.547                   114330649.547    21955989.356  
                 120708949.294                   120708949.294    23180881.593  
                 125448029.402                   125448029.402    24090974.966  
                 123053397.781                   123053397.781    23631110.300  
  24641416.424   129491475.778                                                  
  25108996.488   131948649.456                                                  
 21  9  1  8 43  1.0000000  0 15G 1G 7G 8G13G14G17G19G21G30C23C25C28
                                C34E13E21
  20671316.267   108628461.800    20671319.001    84645544.149                  
  21038794.118   110559621.425    21038793.600    86150357.110                  
  23236254.836   122107305.542    23236257.016    95148540.409                  
  23755107.506   124833949.554    23755106.577    97273211.469                  
  21456762.234   112756062.797    21456762.144    87861873.254                  
  22057390.022   115912378.246    22057389.539    90321335.964                  
  24602381.579   129286396.433    24602380.042   100742649.187                  
  21548715.207   113239270.939    21548713.903    88238395.587                  
  20626822.864   108394651.778    20626824.651    84463356.577                  
