     2.11           OBSERVATION DATA    M (MIXED)           RINEX VERSION / TYPE
CONVBIN 2.4.3                           20210901 005128 UTC PGM / RUN BY / DATE 
log: logs/21_08_31_21_54_02_garf_VZ.rtcm                    COMMENT             
format: RTCM 3, station ID: 1665                            COMMENT             
1665                                                        MARKER NAME         
                                                            MARKER NUMBER       
                                                            OBSERVER / AGENCY   
                    LEICA GR50          4.40/7.701          REC # / TYPE / VERS 
                    GPPNULLANTENNA                          ANT # / TYPE        
   714359.8994 -4741697.3024  4191881.7925                  APPROX POSITION XYZ 
        0.0000        0.0000        0.0000                  ANTENNA: DELTA H/E/N
     1     1                                                WAVELENGTH FACT L1/2
     7    C1    L1    C2    L2    P2    C5    L5            # / TYPES OF OBSERV 
  2021     8    31    21    54   21.0000000     GPS         TIME OF FIRST OBS   
  2021     8    31    22    24    6.0000000     GPS         TIME OF LAST OBS    
                                                            END OF HEADER       
 21  8 31 21 54 21.0000000  0 17G10G12G18G23G24G32R 5R 7R15R16R21R22
                                E 3E 5E 9E15E24
  20417802.112   107296303.592    20417801.970    83607523.837    20417801.844  
  20417800.165    80123874.846  
  24430138.135   128381237.395    24430138.332   100037332.345    24430137.313  
                                
  23501772.810   123502616.631    23501772.935    96235792.574    23501772.596  
  23501776.974    92225979.147  
  20773677.982   109166421.247    20773676.481    85064738.789    20773676.124  
  20773680.037    81520390.939  
  21655452.760   113800216.440    21655453.207    88675505.435    21655452.635  
  21655453.690    84980704.140  
  21448710.988   112713775.130    21448711.417    87828933.633    21448710.916  
  21448709.773    84169393.807  
  21063178.955   112594764.151    21063179.991    87573712.769    21063179.920  
                                
  23348483.933   124986270.819    23348485.255    97211553.651    23348485.184  
                                
  20888597.386   111622366.890    20888598.619    86817421.572    20888598.672  
                                
  21335965.029   113972938.763    21335965.744    88645624.332    21335966.709  
                                
  21268243.595   113810688.231    21268244.006    88519427.696    21268243.916  
                                
  22064517.403   117781903.909    22064519.762    91608136.354    22064518.958  
                                
  24248113.582   127424732.393                                                  
  24248115.851    95154863.246  
  24027615.038   126265973.559                                                  
  24027617.308    94289537.661  
  25956854.610   136404163.371                                                  
  25956858.720   101860249.580  
  24577856.827   129157526.043                                                  
  24577860.151    96448830.082  
  26522349.719   139375913.341                                                  
  26522351.577   104079439.767  
 21  8 31 21 54 22.0000000  0 17G10G12G18G23G24G32R 5R 7R15R16R21R22
                                E 3E 5E 9E15E24
  20417640.076   107295451.977    20417639.933    83606860.243    20417639.808  
  20417638.111    80123238.899  
  24429623.901   128378535.038    24429624.079   100035226.612    24429623.061  
                                
  23502487.393   123506371.700    23502487.500    96238718.598    23502487.160  
  23502491.538    92228783.258  
  20773955.685   109167880.545    20773954.184    85065875.900    20773953.826  
  20773957.757    81521480.677  
  21655912.548   113802632.653    21655912.995    88677388.194    21655912.423  
  21655913.477    84982508.457  
  21448395.189   112712115.673    21448395.618    87827640.547    21448395.117  
  21448393.974    84168154.598  
  21063542.590   112596707.900    21063543.626    87575224.580    21063543.537  
                                
  23347951.168   124983418.815    23347952.490    97209335.423    23347952.419  
                                
  20888661.518   111622709.612    20888662.751    86817688.134    20888662.804  
                                
  21335292.940   113969348.608    21335293.655    88642831.989    21335294.619  
                                
  21268655.511   113812892.540    21268655.940    88521142.161    21268655.851  
                                
  22064269.184   117780578.937    22064271.561    91607105.818    22064270.739  
                                
  24247914.610   127423686.887                                                  
  24247916.897    95154082.509  
  24027820.568   126267053.618                                                  
  24027822.819    94290344.199  
  25957274.031   136406367.444                                                  
  25957278.123   101861895.492  
  24577886.079   129157679.661                                                  
  24577889.403    96448944.793  
  26522068.478   139374435.494                                                  
  26522070.336   104078336.175  
 21  8 31 21 54 23.0000000  0 17G10G12G18G23G24G32R 5R 7R15R16R21R22
                                E 3E 5E 9E15E24
  20417478.076   107294600.696    20417477.933    83606196.906    20417477.808  
  20417476.110    80122603.203  
  24429109.684   128375832.801    24429109.863   100033120.982    24429108.844  
                                
  23503201.975   123510126.832    23503202.082    96241644.670    23503201.760  
  23503206.138    92231587.412  
  20774233.459   109169340.201    20774231.958    85067013.294    20774231.600  
  20774235.514    81522570.678  
  21656372.425   113805049.300    21656372.872    88679271.298    21656372.300  
  21656373.355    84984313.095  
  21448079.461   112710456.415    21448079.872    87826347.622    21448079.372  
  21448078.246    84166915.546  
  21063906.206   112598651.780    21063907.243    87576736.485    21063907.171  
                                
  23347418.385   124980566.745    23347419.690    97207117.145    23347419.618  
                                
  20888725.810   111623053.152    20888727.025    86817955.334    20888727.097  
                                
  21334620.922   113965758.855    21334621.654    88640039.964    21334622.601  
                                
  21269067.571   113815097.537    21269067.982    88522857.158    21269067.911  
                                
  22064021.127   117779254.755    22064023.503    91606075.899    22064022.681  
                                
  24247715.674   127422641.449                                                  
  24247717.962    95153301.827  
  24028026.115   126268133.730                                                  
  24028028.367    94291150.776  
  25957693.435   136408571.464                                                  
  25957697.545   101863541.336  
  24577915.384   129157833.702                                                  
  24577918.708    96449059.821  
  26521787.327   139372957.961                                                  
  26521789.185   104077232.816  
 21  8 31 21 54 24.0000000  0 16G10G12G18G23G24G32R 5R 7R15R16R21R22
                                E 3E 5E15E24
  20417316.200   107293750.064    20417316.057    83605534.075    20417315.932  
  20417314.235    80121967.991  
  24428595.556   128373131.028    24428595.735   100031015.727    24428594.716  
                                
  23503916.629   123513882.333    23503916.736    96244571.049    23503916.414  
  23503920.792    92234391.865  
  20774511.340   109170800.532    20774509.839    85068151.222    20774509.481  
  20774513.395    81523661.193  
  21656832.428   113807466.702    21656832.874    88681154.987    21656832.303  
  21656833.357    84986118.301  
  21447763.823   112708797.695    21447764.233    87825055.119    21447763.733  
  21447762.607    84165676.900  
  21064269.948   112600596.120    21064270.985    87578248.738    21064270.913  
                                
  23346885.656   124977714.986    23346886.961    97204899.108    23346886.889  
                                
  20888790.300   111623397.832    20888791.533    86818223.416    20888791.586  
                                
  21333949.064   113962169.850    21333949.779    88637248.516    21333950.744  
                                
  21269479.827   113817303.555    21269480.238    88524572.946    21269480.149  
                                
  22063773.265   117777931.673    22063775.642    91605046.830    22063774.820  
                                
  24247516.810   127421596.415                                                  
  24247519.079    95152521.445  
  24028231.716   126269214.217                                                  
  24028233.968    94291957.633  
  24577944.832   129157988.495                                                  
  24577948.156    96449175.413  
  26521506.265   139371481.048                                                  
  26521508.141   104076129.935  
 21  8 31 21 54 25.0000000  0 16G10G12G18G23G24G32R 5R 7R15R16R21R22
                                E 3E 5E15E24
  20417154.432   107292899.969    20417154.289    83604871.664    20417154.164  
  20417152.484    80121333.184  
  24428081.500   128370429.669    24428081.679   100028910.770    24428080.660  
                                
  23504631.336   123517638.113    23504631.461    96247497.619    23504631.121  
  23504635.499    92237196.506  
  20774789.328   109172261.430    20774787.827    85069289.581    20774787.470  
  20774791.401    81524752.123  
  21657292.573   113809884.725    21657293.020    88683039.164    21657292.448  
  21657293.502    84987923.968  
  21447448.238   112707139.385    21447448.667    87823762.932    21447448.166  
  21447447.023    84164438.548  
  21064633.744   112602540.782    21064634.780    87579761.248    21064634.709  
                                
  23346352.945   124974863.385    23346354.267    97202681.196    23346354.178  
                                
  20888855.003   111623743.547    20888856.218    86818492.308    20888856.290  
                                
  21333277.314   113958581.502    21333278.029    88634457.572    21333278.994  
                                
  21269892.226   113819510.449    21269892.637    88526289.415    21269892.548  
                                
  22063525.601   117776609.581    22063527.977    91604018.536    22063527.155  
                                
  24247317.999   127420551.670                                                  
  24247320.287    95151741.279  
  24028437.389   126270294.951                                                  
  24028439.640    94292764.679  
  24577974.423   129158143.924                                                  
  24577977.747    96449291.480  
  26521225.328   139370004.671                                                  
  26521227.204   104075027.441  
 21  8 31 21 54 26.0000000  0 16G10G12G18G23G24G32R 5R 7R15R16R21R22
                                E 3E 5E15E24
  20416992.699   107292050.056    20416992.556    83604209.394    20416992.431  
  20416990.752    80120698.504  
  24427567.426   128367728.230    24427567.605   100026805.759    24427566.586  
                                
  23505346.025   123521393.808    23505346.150    96250424.125    23505345.811  
  23505350.189    92240001.068  
  20775067.388   109173722.527    20775065.887    85070428.098    20775065.530  
  20775069.443    81525843.196  
  21657752.754   113812303.022    21657753.200    88684923.551    21657752.647  
  21657753.701    84989729.841  
  21447132.689   112705481.114    21447133.100    87822470.773    21447132.617  
  21447131.474    84163200.232  
  21064997.521   112604485.424    21064998.558    87581273.747    21064998.468  
                                
  23345820.233   124972011.606    23345821.538    97200463.147    23345821.466  
                                
  20888919.832   111624089.964    20888921.047    86818761.746    20888921.119  
                                
  21332605.617   113954993.411    21332606.332    88631666.839    21332607.297  
                                
  21270304.733   113821717.878    21270305.162    88528006.306    21270305.072  
                                
  22063278.043   117775288.099    22063280.420    91602990.717    22063279.616  
                                
  24247119.189   127419506.839                                                  
  24247121.476    95150961.051  
  24028643.007   126271375.591                                                  
  24028645.277    94293571.646  
  24578004.050   129158299.617                                                  
  24578007.356    96449407.744  
  26520944.391   139368528.429                                                  
  26520946.268   104073925.059  
 21  8 31 21 54 27.0000000  0 16G10G12G18G23G24G32R 5R 7R15R16R21R22
                                E 3E 5E15E24
  20416831.038   107291200.571    20416830.913    83603547.462    20416830.788  
  20416829.091    80120064.155  
  24427053.406   128365027.070    24427053.585   100024700.971    24427052.566  
                                
  23506060.733   123525149.664    23506060.858    96253350.769    23506060.518  
  23506064.896    92242805.759  
  20775345.502   109175184.085    20775344.001    85071566.975    20775343.643  
  20775347.574    81526934.625  
  21658213.042   113814721.855    21658213.489    88686808.354    21658212.917  
  21658213.971    84991536.107  
  21446817.175   112703823.159    21446817.604    87821178.860    21446817.104  
  21446815.960    84161962.147  
  21065361.370   112606430.340    21065362.407    87582786.459    21065362.317  
                                
  23345287.486   124969159.859    23345288.791    97198245.124    23345288.719  
                                
  20888984.840   111624437.338    20888986.055    86819031.930    20888986.108  
                                
  21331934.010   113951405.827    21331934.725    88628876.495    21331935.690  
                                
  21270717.382   113823926.105    21270717.793    88529723.816    21270717.722  
                                
  22063030.629   117773967.512    22063033.005    91601963.599    22063032.201  
                                
  24246920.396   127418462.210                                                  
  24246922.665    95150180.971  
  24028848.680   126272456.393                                                  
  24028850.949    94294378.738  
  24578033.784   129158455.858                                                  
  24578037.108    96449524.418  
  26520663.562   139367052.619                                                  
  26520665.420   104072822.987  
 21  8 31 21 54 28.0000000  0 16G10G12G18G23G24G32R 5R 7R15R16R21R22
                                E 3E 5E15E24
  20416669.431   107290351.295    20416669.288    83602885.684    20416669.163  
  20416667.483    80119429.951  
  24426539.386   128362325.922    24426539.564   100022596.187    24426538.546  
                                
  23506775.440   123528905.435    23506775.565    96256277.341    23506775.226  
  23506779.603    92245610.387  
  20775623.669   109176645.860    20775622.168    85072706.018    20775621.810  
  20775625.741    81528026.204  
  21658673.384   113817140.979    21658673.848    88688693.385    21658673.276  
  21658674.331    84993342.593  
  21446501.698   112702165.266    21446502.127    87819886.998    21446501.626  
  21446500.483    84160724.115  
  21065725.202   112608375.253    21065726.220    87584299.172    21065726.149  
                                
  23344754.739   124966307.911    23344756.026    97196026.948    23344755.954  
                                
  20889049.972   111624785.369    20889051.187    86819302.619    20889051.241  
                                
  21331262.474   113947818.484    21331263.189    88626086.340    21331264.154  
                                
  21271130.174   113826134.843    21271130.585    88531441.723    21271130.496  
                                
  22062783.375   117772647.593    22062785.752    91600936.995    22062784.948  
                                
  24246721.603   127417417.506                                                  
  24246723.872    95149400.832  
  24029054.335   126273537.091                                                  
  24029056.604    94295185.753  
  24578063.554   129158612.379                                                  
  24578066.878    96449641.303  
  26520382.768   139365576.973                                                  
  26520384.626   104071721.041  
 21  8 31 21 54 29.0000000  0 16G10G12G18G23G24G32R 5R 7R15R16R21R22
                                E 3E 5E15E24
  20416507.913   107289502.503    20416507.770    83602224.287    20416507.645  
  20416505.947    80118796.113  
  24426025.437   128359625.079    24426025.616   100020491.625    24426024.597  
                                
  23507490.183   123532661.400    23507490.308    96259204.067    23507489.969  
  23507494.364    92248415.168  
  20775901.925   109178108.139    20775900.424    85073845.454    20775900.067  
  20775903.998    81529118.166  
  21659133.851   113819560.670    21659134.297    88690578.861    21659133.725  
  21659134.780    84995149.514  
  21446186.274   112700507.746    21446186.703    87818595.417    21446186.202  
  21446185.059    84159486.349  
  21066089.086   112610320.470    21066090.123    87585812.123    21066090.051  
                                
  23344221.974   124963455.991    23344223.261    97193808.811    23344223.190  
                                
  20889115.266   111625134.370    20889116.499    86819574.064    20889116.552  
                                
  21330591.010   113944231.702    21330591.743    88623296.630    21330592.690  
                                
  21271543.056   113828344.385    21271543.485    88533160.253    21271543.396  
                                
  22062536.282   117771328.657    22062538.659    91599911.153    22062537.855  
                                
  24246522.846   127416373.053                                                  
  24246525.115    95148620.888  
  24029260.025   126274618.010                                                  
  24029262.294    94295992.933  
  24578093.449   129158769.483                                                  
  24578096.773    96449758.619  
  26520102.046   139364101.793                                                  
  26520103.904   104070619.466  
 21  8 31 21 54 30.0000000  0 16G10G12G18G23G24G32R 5R 7R15R16R21R22
                                E 3E 5E15E24
  20416346.466   107288654.168    20416346.341    83601563.248    20416346.216  
  20416344.518    80118162.616  
  24425511.542   128356924.515    24425511.702   100018387.287    24425510.684  
                                
  23508204.962   123536417.568    23508205.087    96262130.944    23508204.747  
  23508209.143    92251220.094  
  20776180.289   109179570.903    20776178.788    85074985.270    20776178.430  
  20776182.344    81530210.488  
  21659594.407   113821980.929    21659594.853    88692464.775    21659594.282  
  21659595.336    84996956.844  
  21445870.921   112698850.543    21445871.350    87817304.092    21445870.850  
  21445869.706    84158248.832  
  21066453.025   112612265.947    21066454.061    87587325.268    21066453.990  
                                
  23343689.245   124960604.223    23343690.532    97191590.778    23343690.460  
                                
  20889180.756   111625484.317    20889181.989    86819846.245    20889182.042  
                                
  21329919.653   113940645.460    21329920.386    88620507.330    21329921.333  
                                
  21271956.116   113830554.766    21271956.527    88534879.436    21271956.438  
                                
  22062289.368   117770010.576    22062291.763    91598885.975    22062290.941  
                                
  24246324.142   127415328.798                                                  
  24246326.412    95147841.080  
  24029465.751   126275699.096                                                  
  24029468.020    94296800.233  
  24578123.469   129158927.142                                                  
  24578126.775    96449876.354  
  26519821.413   139362627.060                                                  
  26519823.271   104069518.197  
 21  8 31 21 54 31.0000000  0 16G10G12G18G23G24G32R 5R 7R15R16R21R22
                                E 3E 5E15E24
  20416185.109   107287806.195    20416184.966    83600902.491    20416184.841  
  20416183.161    80117529.387  
  24424997.664   128354224.127    24424997.825   100016283.096    24424996.807  
                                
  23508919.776   123540173.808    23508919.901    96265057.880    23508919.562  
  23508923.940    92254025.070  
  20776458.724   109181034.043    20776457.223    85076125.379    20776456.865  
  20776460.797    81531303.090  
  21660055.052   113824401.626    21660055.517    88694351.035    21660054.945  
  21660055.999    84998764.501  
  21445555.622   112697193.583    21445556.033    87816012.954    21445555.533  
  21445554.407    84157011.485  
  21066816.999   112614211.583    21066818.017    87588838.542    21066817.946  
                                
  23343156.480   124957752.419    23343157.785    97189372.709    23343157.695  
                                
  20889246.424   111625835.141    20889247.639    86820119.105    20889247.693  
                                
  21329248.385   113937059.656    21329249.100    88617718.372    21329250.065  
                                
  21272369.338   113832765.903    21272369.749    88536599.209    21272369.659  
                                
  22062042.597   117768693.313    22062044.991    91597861.432    22062044.169  
                                
  24246125.439   127414284.650                                                  
  24246127.708    95147061.360  
  24029671.495   126276780.261                                                  
  24029673.746    94297607.599  
  24578153.543   129159085.259                                                  
  24578156.866    96449994.421  
  26519540.851   139361152.649                                                  
  26519542.709   104068417.176  
 21  8 31 21 54 32.0000000  0 16G10G12G18G23G24G32R 5R 7R15R16R21R22
                                E 3E 5E15E24
  20416023.805   107286958.544    20416023.680    83600241.984    20416023.555  
  20416021.857    80116896.397  
  24424483.823   128351523.818    24424483.983   100014178.957    24424482.965  
                                
  23509634.573   123543930.108    23509634.698    96267984.860    23509634.359  
  23509638.754    92256830.094  
  20776737.213   109182497.531    20776735.712    85077265.759    20776735.354  
  20776739.285    81532395.952  
  21660515.769   113826822.743    21660516.234    88696237.615    21660515.662  
  21660516.716    85000572.473  
  21445240.341   112695536.802    21445240.770    87814721.956    21445240.270  
  21445239.126    84155774.283  
  21067180.991   112616157.334    21067182.027    87590351.904    21067181.956  
                                
  23342623.733   124954900.571    23342625.020    97187154.611    23342624.948  
                                
  20889312.218   111626186.776    20889313.433    86820392.602    20889313.505  
                                
  21328577.189   113933474.255    21328577.904    88614929.729    21328578.869  
                                
  21272782.666   113834977.671    21272783.077    88538319.478    21272782.988  
                                
  22061795.987   117767376.839    22061798.381    91596837.503    22061797.559  
                                
  24245926.735   127413240.562                                                  
  24245929.022    95146281.686  
  24029877.221   126277861.465                                                  
  24029879.490    94298414.991  
  24578183.723   129159243.790                                                  
  24578187.029    96450112.811  
  26519260.325   139359678.549                                                  
  26519262.184   104067316.383  
 21  8 31 21 54 33.0000000  0 16G10G12G18G23G24G32R 5R 7R15R16R21R22
                                E 3E 5E15E24
  20415862.609   107286111.413    20415862.466    83599581.882    20415862.341  
  20415860.643    80116263.808  
  24423970.035   128348823.888    24423970.195   100012075.124    24423969.159  
                                
  23510349.405   123547686.639    23510349.548    96270912.030    23510349.209  
  23510353.587    92259635.307  
  20777015.808   109183961.563    20777014.307    85078406.561    20777013.950  
  20777017.881    81533489.227  
  21660976.611   113829244.473    21660977.076    88698124.672    21660976.504  
  21660977.558    85002380.916  
  21444925.132   112693880.418    21444925.561    87813431.271    21444925.060  
  21444923.917    84154537.381  
  21067545.054   112618103.427    21067546.073    87591865.532    21067546.001  
                                
  23342091.022   124952048.844    23342092.291    97184936.602    23342092.219  
                                
  20889378.226   111626539.423    20889379.441    86820666.885    20889379.495  
                                
  21327906.118   113929889.475    21327906.833    88612141.564    21327907.798  
                                
  21273196.137   113837190.281    21273196.548    88540040.402    21273196.459  
                                
  22061549.555   117766061.355    22061551.931    91595814.349    22061551.127  
                                
  24245728.121   127412196.761                                                  
  24245730.408    95145502.222  
  24030083.018   126278942.912                                                  
  24030085.288    94299222.569  
  24578213.993   129159402.940                                                  
  24578217.317    96450231.659  
  26518979.907   139358204.952                                                  
  26518981.765   104066215.973  
 21  8 31 21 54 34.0000000  0 16G10G12G18G23G24G32R 5R 7R15R16R21R22
                                E 3E 5E15E24
  20415701.484   107285264.704    20415701.341    83598922.109    20415701.216  
  20415699.536    80115631.523  
  24423456.300   128346124.251    24423456.461   100009971.529    24423455.442  
                                
  23511064.273   123551443.329    23511064.416    96273839.327    23511064.077  
  23511068.455    92262440.627  
  20777294.494   109185426.052    20777292.975    85079547.726    20777292.617  
  20777296.549    81534582.839  
  21661437.561   113831666.731    21661438.007    88700012.155    21661437.454  
  21661438.490    85004189.743  
  21444610.011   112692224.338    21444610.422    87812140.817    21444609.922  
  21444608.778    84153300.692  
  21067909.154   112620049.766    21067910.172    87593379.354    21067910.101  
                                
  23341558.293   124949197.142    23341559.561    97182718.621    23341559.490  
                                
  20889444.377   111626892.986    20889445.592    86820941.879    20889445.664  
                                
  21327235.136   113926305.216    21327235.851    88609353.817    21327236.816  
                                
  21273609.752   113839403.639    21273610.163    88541761.904    21273610.073  
                                
  22061303.284   117764746.664    22061305.661    91594791.830    22061304.856  
                                
  24245529.525   127411153.113                                                  
  24245531.794    95144722.879  
  24030288.852   126280024.505                                                  
  24030291.121    94300030.251  
  24578244.389   129159562.618                                                  
  24578247.694    96450350.888  
  26518699.577   139356731.765                                                  
  26518701.436   104065115.860  
 21  8 31 21 54 35.0000000  0 16G10G12G18G23G24G32R 5R 7R15R16R21R22
                                E 3E 5E15E24
  20415540.448   107284418.451    20415540.305    83598262.691    20415540.180  
  20415538.500    80114999.578  
  24422942.602   128343424.823    24422942.762   100007868.081    24422941.744  
                                
  23511779.195   123555200.189    23511779.338    96276766.743    23511778.999  
  23511783.394    92265246.072  
  20777573.250   109186891.011    20777571.749    85080689.250    20777571.392  
  20777575.323    81535676.802  
  21661898.582   113834089.526    21661899.046    88701900.047    21661898.474  
  21661899.529    85005998.978  
  21444294.909   112690568.573    21444295.338    87810850.613    21444294.838  
  21444293.694    84152064.246  
  21068273.306   112621996.354    21068274.343    87594893.371    21068274.253  
                                
  23341025.581   124946345.557    23341026.850    97180500.725    23341026.779  
                                
  20889510.725   111627247.483    20889511.940    86821217.599    20889512.012  
                                
  21326564.262   113922721.507    21326564.994    88606566.489    21326565.941  
                                
  21274023.509   113841617.806    21274023.920    88543484.037    21274023.830  
                                
  22061057.156   117763432.924    22061059.550    91593770.028    22061058.746  
                                
  24245330.946   127410109.673                                                  
  24245333.233    95143943.686  
  24030494.703   126281106.263                                                  
  24030496.972    94300838.051  
  24578274.891   129159722.842                                                  
  24578278.197    96450470.538  
  26518419.320   139355258.991                                                  
  26518421.178   104064016.072  
 21  8 31 21 54 36.0000000  0 16G10G12G18G23G24G32R 5R 7R15R16R21R22
                                E 3E 5E15E24
  20415379.502   107283572.634    20415379.359    83597603.615    20415379.234  
  20415377.536    80114367.964  
  24422428.956   128340725.650    24422429.117   100005764.831    24422428.099  
                                
  23512494.135   123558957.219    23512494.278    96279694.292    23512493.938  
  23512498.334    92268051.647  
  20777852.132   109188356.425    20777850.631    85081831.129    20777850.274  
  20777854.205    81536771.104  
  21662359.745   113836512.843    21662360.210    88703788.344    21662359.638  
  21662360.692    85007808.591  
  21443979.914   112688913.127    21443980.325    87809560.658    21443979.825  
  21443978.681    84150828.037  
  21068637.513   112623943.201    21068638.531    87596407.583    21068638.460  
                                
  23340492.906   124943494.043    23340494.175    97178282.886    23340494.103  
                                
  20889577.233   111627602.906    20889578.449    86821494.038    20889578.520  
                                
  21325893.476   113919138.322    21325894.209    88603779.568    21325895.156  
                                
  21274437.445   113843832.786    21274437.874    88545206.799    21274437.784  
                                
  22060811.225   117762120.105    22060813.619    91592748.946    22060812.797  
                                
  24245132.439   127409066.418                                                  
  24245134.708    95143164.634  
  24030700.590   126282188.171                                                  
  24030702.859    94301645.973  
  24578305.465   129159883.597                                                  
  24578308.771    96450590.578  
  26518139.151   139353786.641                                                  
  26518141.010   104062916.583  
 21  8 31 21 54 37.0000000  0 16G10G12G18G23G24G32R 5R 7R15R16R21R22
                                E 3E 5E15E24
  20415218.627   107282727.240    20415218.484    83596944.866    20415218.359  
  20415216.661    80113736.672  
  24421915.383   128338026.726    24421915.526   100003661.778    24421914.507  
                                
  23513209.110   123562714.398    23513209.235    96282621.967    23513208.896  
  23513213.292    92270857.328  
  20778131.068   109189822.284    20778129.567    85082973.359    20778129.209  
  20778133.141    81537865.740  
  21662820.980   113838936.677    21662821.427    88705677.046    21662820.873  
  21662821.928    85009618.603  
  21443664.937   112687257.975    21443665.348    87808270.924    21443664.847  
  21443663.704    84149592.046  
  21069001.737   112625890.255    21069002.773    87597921.960    21069002.684  
                                
  23339960.212   124940642.565    23339961.481    97176065.074    23339961.410  
                                
  20889643.903   111627959.253    20889645.118    86821771.197    20889645.189  
                                
  21325222.798   113915555.627    21325223.513    88600993.027    21325224.478  
                                
  21274851.506   113846048.540    21274851.935    88546930.161    21274851.845  
                                
  22060565.454   117760808.135    22060567.849    91591728.527    22060567.044  
                                
  24244933.932   127408023.327                                                  
  24244936.219    95142385.705  
  24030906.494   126283270.240                                                  
  24030908.764    94302454.009  
  24578336.164   129160044.868                                                  
  24578339.470    96450711.010  
  26517859.054   139352314.704                                                  
  26517860.913   104061817.407  
 21  8 31 21 54 38.0000000  0 16G10G12G18G23G24G32R 5R 7R15R16R21R22
                                E 3E 5E15E24
  20415057.788   107281882.019    20415057.645    83596286.255    20415057.520  
  20415055.840    80113105.496  
  24421401.774   128335327.794    24421401.934   100001558.716    24421400.916  
                                
  23513924.050   123566471.458    23513924.193    96285549.551    23513923.853  
  23513928.249    92273662.929  
  20778410.057   109191288.335    20778408.538    85084115.734    20778408.181  
  20778412.130    81538960.518  
  21663282.269   113841360.784    21663282.734    88707565.960    21663282.162  
  21663283.216    85011428.802  
  21443349.977   112685602.855    21443350.388    87806981.223    21443349.888  
  21443348.744    84148356.078  
  21069365.961   112627837.251    21069366.998    87599436.291    21069366.908  
                                
  23339427.483   124937790.845    23339428.752    97173847.075    23339428.680  
                                
  20889710.715   111628316.277    20889711.948    86822048.881    20889712.002  
                                
  21324552.138   113911973.125    21324552.853    88598206.637    21324553.818  
                                
  21275265.674   113848264.772    21275266.085    88548653.894    21275265.996  
                                
  22060319.791   117759496.809    22060322.185    91590708.605    22060321.381  
                                
  24244735.425   127406980.163                                                  
  24244737.695    95141606.719  
  24031112.381   126284352.168                                                  
  24031114.651    94303261.947  
  24578366.899   129160206.401                                                  
  24578370.204    96450831.637  
  26517578.975   139350842.884                                                  
  26517580.816   104060718.332  
 21  8 31 21 54 39.0000000  0 16G10G12G18G23G24G32R 5R 7R15R16R21R22
                                E 3E 5E15E24
  20414897.038   107281037.344    20414896.895    83595628.064    20414896.770  
  20414895.090    80112474.732  
  24420888.254   128332629.193    24420888.414    99999455.913    24420887.396  
                                
  23514639.043   123570228.796    23514639.186    96288477.347    23514638.846  
  23514643.242    92276468.745  
  20778689.135   109192754.952    20778687.634    85085258.552    20778687.277  
  20778691.208    81540055.721  
  21663743.665   113843785.495    21663744.130    88709455.344    21663743.558  
  21663744.612    85013239.472  
  21443035.107   112683948.149    21443035.518    87805691.846    21443035.018  
  21443033.874    84147120.430  
  21069730.257   112629784.621    21069731.294    87600950.905    21069731.204  
                                
  23338894.790   124934939.283    23338896.059    97171629.184    23338895.987  
                                
  20889777.724   111628674.334    20889778.939    86822327.372    20889779.011  
                                
  21323881.603   113908391.253    21323882.336    88595420.737    21323883.301  
                                
  21275680.003   113850481.930    21275680.414    88550378.346    21275680.325  
                                
  22060074.324   117758186.562    22060076.718    91589689.524    22060075.914  
                                
  24244536.990   127405937.289                                                  
  24244539.259    95140827.945  
  24031318.322   126285434.381                                                  
  24031320.591    94304070.095  
  24578397.758   129160368.582                                                  
  24578401.064    96450952.742  
  26517298.986   139349371.622                                                  
  26517300.844   104059619.645  
 21  8 31 21 54 40.0000000  0 16G10G12G18G23G24G32R 5R 7R15R16R21R22
                                E 3E 5E15E24
  20414736.449   107280193.411    20414736.306    83594970.454    20414736.181  
  20414734.502    80111844.516  
  24420374.823   128329931.129    24420374.984    99997353.523    24420373.965  
                                
  23515354.126   123573986.612    23515354.269    96291405.508    23515353.929  
  23515358.325    92279274.889  
  20778968.374   109194222.334    20778966.856    85086401.970    20778966.498  
  20778970.447    81541151.489  
  21664205.258   113846211.057    21664205.705    88711345.392    21664205.151  
  21664206.205    85015050.766  
  21442720.327   112682294.056    21442720.755    87804402.942    21442720.255  
  21442719.111    84145885.233  
  21070094.660   112631732.537    21070095.679    87602465.951    21070095.607  
                                
  23338362.150   124932088.047    23338363.419    97169411.561    23338363.347  
                                
  20889844.965   111629033.618    20889846.180    86822606.814    20889846.252  
                                
  21323211.229   113904810.213    21323211.944    88592635.486    21323212.908  
                                
  21276094.529   113852700.164    21276094.940    88552103.639    21276094.850  
                                
  22059829.107   117756877.478    22059831.502    91588671.345    22059830.680  
                                
  24244338.626   127404894.908                                                  
  24244340.895    95140049.542  
  24031524.352   126286517.037                                                  
  24031526.621    94304878.570  
  24578428.797   129160531.590                                                  
  24578432.103    96451074.467  
  26517019.157   139347901.067                                                  
  26517020.997   104058521.501  
 21  8 31 21 54 41.0000000  0 16G10G12G18G23G24G32R 5R 7R15R16R21R22
                                E 3E 5E15E24
  20414575.968   107279350.024    20414575.825    83594313.270    20414575.700  
  20414574.002    80111214.719  
  24419861.482   128327233.449    24419861.642    99995251.433    24419860.606  
                                
  23516069.262   123577744.664    23516069.405    96294333.867    23516069.065  
  23516073.461    92282081.243  
  20779247.703   109195690.283    20779246.202    85087545.826    20779245.845  
  20779249.776    81542247.689  
  21664666.958   113848637.268    21664667.404    88713235.944    21664666.851  
  21664667.905    85016862.543  
  21442405.653   112680640.401    21442406.064    87803114.379    21442405.564  
  21442404.420    84144650.356  
  21070459.117   112633680.814    21070460.153    87603981.277    21070460.064  
                                
  23337829.546   124929237.003    23337830.797    97167194.091    23337830.725  
                                
  20889912.403   111629393.946    20889913.618    86822887.069    20889913.671  
                                
  21322540.962   113901229.788    21322541.694    88589850.713    21322542.659  
                                
  21276509.233   113854919.295    21276509.644    88553829.628    21276509.554  
                                
  22059584.052   117755569.390    22059586.446    91587653.948    22059585.624  
                                
  24244140.315   127403852.807                                                  
  24244142.585    95139271.349  
  24031730.399   126287599.969                                                  
  24031732.687    94305687.251  
  24578459.925   129160695.242                                                  
  24578463.231    96451196.678  
  26516739.417   139346431.041                                                  
  26516741.275   104057423.750  
 21  8 31 21 54 42.0000000  0 16G10G12G18G23G24G32R 5R 7R15R16R21R22
                                E 3E 5E15E24
  20414415.557   107278507.078    20414415.414    83593656.428    20414415.289  
  20414413.610    80110585.248  
  24419348.194   128324536.043    24419348.337    99993149.562    24419347.318  
                                
  23516784.434   123581502.912    23516784.577    96297262.369    23516784.237  
  23516788.633    92284887.723  
  20779527.157   109197158.708    20779525.656    85088690.053    20779525.298  
  20779529.229    81543344.238  
  21665128.747   113851064.022    21665129.212    88715126.920    21665128.640  
  21665129.694    85018674.724  
  21442091.033   112678987.050    21442091.462    87801826.054    21442090.962  
  21442089.818    84143415.715  
  21070823.645   112635629.372    21070824.663    87605496.822    21070824.592  
                                
  23337296.960   124926386.045    23337298.210    97164976.686    23337298.139  
                                
  20889980.001   111629755.210    20889981.234    86823168.053    20889981.288  
                                
  21321870.802   113897649.899    21321871.535    88587066.355    21321872.499  
                                
  21276924.062   113857139.205    21276924.473    88555556.225    21276924.384  
                                
  22059339.157   117754262.189    22059341.569    91586637.234    22059340.747  
                                
  24243942.041   127402810.904                                                  
  24243944.310    95138493.307  
  24031936.519   126288683.065                                                  
  24031938.788    94306496.058  
  24578491.160   129160859.444                                                  
  24578494.466    96451319.298  
  26516459.767   139344961.431                                                  
  26516461.607   104056326.318  
 21  8 31 21 54 43.0000000  0 16G10G12G18G23G24G32R 5R 7R15R16R21R22
                                E 3E 5E15E24
  20414255.219   107277664.530    20414255.076    83592999.900    20414254.951  
  20414253.253    80109956.077  
  24418834.906   128321838.824    24418835.067    99991047.838    24418834.031  
                                
  23517499.641   123585261.286    23517499.766    96300190.975    23517499.427  
  23517503.823    92287694.294  
  20779806.664   109198627.555    20779805.163    85089834.604    20779804.806  
  20779808.737    81544441.104  
  21665590.625   113853491.242    21665591.072    88717018.263    21665590.518  
  21665591.572    85020487.270  
  21441776.449   112677333.976    21441776.878    87800537.947    21441776.378  
  21441775.234    84142181.276  
  21071188.191   112637578.129    21071189.227    87607012.520    21071189.138  
                                
  23336764.373   124923535.156    23336765.624    97162759.337    23336765.553  
                                
  20890047.778   111630117.376    20890048.994    86823449.738    20890049.065  
                                
  21321200.731   113894070.512    21321201.446    88584282.387    21321202.411  
                                
  21277339.052   113859359.863    21277339.481    88557283.403    21277339.392  
                                
  22059094.423   117752955.847    22059096.835    91585621.195    22059096.013  
                                
  24243743.819   127401769.157                                                  
  24243746.089    95137715.373  
  24032142.638   126289766.273                                                  
  24032144.925    94307304.945  
  24578522.520   129161024.135                                                  
  24578525.826    96451442.278  
  26516180.170   139343492.191                                                  
  26516182.029   104055229.163  
 21  8 31 21 54 44.0000000  0 17G10G12G18G23G24G32R 5R 7R15R16R21R22
                                E 3E 5E15E24E31
  20414094.969   107276822.411    20414094.826    83592343.703    20414094.701  
  20414093.022    80109327.221  
  24418321.690   128319141.825    24418321.851    99988946.289    24418320.814  
                                
  23518214.867   123589019.798    23518215.010    96303119.686    23518214.670  
  23518219.066    92290500.982  
  20780086.261   109200096.836    20780084.760    85090979.501    20780084.402  
  20780088.333    81545538.294  
  21666052.611   113855919.002    21666053.076    88718910.027    21666052.504  
  21666053.558    85022300.208  
  21441461.936   112675681.186    21441462.347    87799250.056    21441461.865  
  21441460.703    84140947.055  
  21071552.790   112639527.087    21071553.809    87608528.379    21071553.737  
                                
  23336231.823   124920684.338    23336233.074    97160542.012    23336233.002  
                                
  20890115.717   111630480.470    20890116.932    86823732.146    20890117.003  
                                
  21320530.750   113890491.647    21320531.483    88581498.837    21320532.448  
                                
  21277754.168   113861581.285    21277754.579    88559011.178    21277754.507  
                                
  22058849.867   117751650.331    22058852.262    91584605.798    22058851.457  
                                
  24243545.616   127400727.566                                                  
  24243547.886    95136937.566  
  24032348.811   126290849.627                                                  
  24032351.080    94308113.943  
  24578553.952   129161189.347                                                  
  24578557.257    96451565.653  
  26515900.663   139342023.355                                                  
  26515902.504   104054132.323  
  27644523.092   145272963.032                                                  
  27644527.774   108483070.025  
 21  8 31 21 54 45.0000000  0 17G10G12G18G23G24G32R 5R 7R15R16R21R22
                                E 3E 5E15E24E31
  20413934.827   107275980.893    20413934.684    83591687.977    20413934.559  
  20413932.879    80108698.813  
  24417808.545   128316445.255    24417808.688    99986845.073    24417807.670  
                                
  23518930.146   123592778.644    23518930.271    96306048.655    23518929.949  
  23518934.327    92293307.895  
  20780365.982   109201566.742    20780364.463    85092124.880    20780364.106  
  20780368.055    81546635.947  
  21666514.722   113858347.446    21666515.187    88720802.321    21666514.633  
  21666515.687    85024113.647  
  21441147.531   112674028.877    21441147.942    87797962.545    21441147.459  
  21441146.298    84139713.183  
  21071917.461   112641476.448    21071918.480    87610044.550    21071918.408  
                                
  23335699.308   124917833.709    23335700.559    97158324.860    23335700.488  
                                
  20890183.869   111630844.662    20890185.102    86824015.407    20890185.156  
                                
  21319860.912   113886913.453    21319861.627    88578715.797    21319862.592  
                                
  21278169.497   113863803.664    21278169.908    88560739.692    21278169.819  
                                
  22058605.490   117750345.870    22058607.885    91583591.217    22058607.081  
                                
  24243347.467   127399686.330                                                  
  24243349.736    95136160.019  
  24032555.019   126291933.289                                                  
  24032557.288    94308923.170  
  24578585.526   129161355.243                                                  
  24578588.832    96451689.541  
  26515621.281   139340555.113                                                  
  26515623.121   104053035.899  
  27644670.297   145273736.729                                                  
  27644674.979   108483647.792  
 21  8 31 21 54 46.0000000  0 17G10G12G18G23G24G32R 5R 7R15R16R21R22
                                E 3E 5E15E24E31
  20413774.774   107275139.728    20413774.631    83591032.521    20413774.506  
  20413772.809    80108070.668  
  24417295.436   128313748.881    24417295.579    99984744.002    24417294.561  
                                
  23519645.443   123596537.558    23519645.586    96308977.674    23519645.246  
  23519649.642    92296114.870  
  20780645.758   109203037.021    20780644.257    85093270.552    20780643.899  
  20780647.830    81547733.881  
  21666976.940   113860776.324    21666977.405    88722694.953    21666976.833  
  21666977.887    85025927.418  
  21440833.143   112672376.783    21440833.554    87796675.197    21440833.054  
  21440831.910    84138479.479  
  21072282.150   112643425.961    21072283.187    87611560.838    21072283.097  
                                
  23335166.758   124914983.012    23335168.009    97156107.651    23335167.937  
                                
  20890252.182   111631209.672    20890253.397    86824299.301    20890253.469  
                                
  21319191.145   113883335.670    21319191.860    88575933.079    21319192.825  
                                
  21278584.934   113866026.721    21278585.345    88562468.737    21278585.256  
                                
  22058361.257   117749042.166    22058363.669    91582577.228    22058362.847  
                                
  24243149.335   127398645.176                                                  
  24243151.604    95135382.534  
  24032761.263   126293017.022                                                  
  24032763.533    94309732.448  
  24578617.172   129161521.591                                                  
  24578620.496    96451813.758  
  26515341.934   139339087.190                                                  
  26515343.793   104051939.723  
  27644817.609   145274510.830                                                  
  27644822.291   108484225.864  
 21  8 31 21 54 47.0000000  0 17G10G12G18G23G24G32R 5R 7R15R16R21R22
                                E 3E 5E15E24E31
  20413614.757   107274298.885    20413614.614    83590377.319    20413614.489  
  20413612.792    80107442.766  
  24416782.363   128311052.595    24416782.506    99982643.005    24416781.470  
                                
  23520360.758   123600296.510    23520360.901    96311906.721    23520360.579  
  23520364.957    92298921.877  
  20780925.604   109204507.646    20780924.103    85094416.494    20780923.746  
  20780927.677    81548832.075  
  21667439.212   113863205.625    21667439.676    88724587.912    21667439.122  
  21667440.177    85027741.508  
  21440518.791   112670724.882    21440519.202    87795388.003    21440518.702  
  21440517.558    84137245.916  
  21072646.875   112645375.608    21072647.911    87613077.233    21072647.822  
                                
  23334634.207   124912132.239    23334635.458    97153890.383    23334635.387  
                                
  20890320.656   111631575.490    20890321.871    86824583.826    20890321.925  
                                
  21318521.450   113879758.272    21318522.165    88573150.659    21318523.130  
                                
  21279000.478   113868250.447    21279000.889    88564198.299    21279000.800  
                                
  22058117.184   117747739.261    22058119.578    91581563.857    22058118.774  
                                
  24242951.221   127397604.101                                                  
  24242953.490    95134605.112  
  24032967.472   126294100.796                                                  
  24032969.759    94310541.762  
  24578648.908   129161688.356                                                  
  24578652.213    96451938.294  
  26515062.659   139337619.570                                                  
  26515064.500   104050843.777  
  27644965.011   145275285.331                                                  
  27644969.675   108484804.212  
 21  8 31 21 54 48.0000000  0 17G10G12G18G23G24G32R 5R 7R15R16R21R22
                                E 3E 5E15E24E31
  20413454.811   107273458.406    20413454.686    83589722.398    20413454.561  
  20413452.864    80106815.138  
  24416269.308   128308356.533    24416269.433    99980542.182    24416268.414  
                                
  23521076.090   123604055.559    23521076.233    96314835.836    23521075.894  
  23521080.290    92301728.953  
  20781205.523   109205978.647    20781204.022    85095562.728    20781203.664  
  20781207.613    81549930.556  
  21667901.573   113865635.369    21667902.037    88726481.217    21667901.483  
  21667902.537    85029555.932  
  21440204.475   112669073.219    21440204.904    87794100.996    21440204.404  
  21440203.260    84136012.534  
  21073011.635   112647325.428    21073012.654    87614593.760    21073012.582  
                                
  23334101.657   124909281.467    23334102.908    97151673.116    23334102.836  
                                
  20890389.256   111631942.162    20890390.471    86824869.013    20890390.524  
                                
  21317851.826   113876181.283    21317852.559    88570368.554    21317853.506  
                                
  21279416.165   113870474.876    21279416.576    88565928.408    21279416.487  
                                
  22057873.254   117746437.188    22057875.666    91580551.131    22057874.844  
                                
  24242753.143   127396563.135                                                  
  24242755.412    95133827.761  
  24033173.734   126295184.646                                                  
  24033176.003    94311351.131  
  24578680.732   129161855.581                                                  
  24578684.038    96452063.170  
  26514783.456   139336152.293                                                  
  26514785.297   104049748.077  
  27645112.466   145276060.231                                                  
  27645117.148   108485382.869  
 21  8 31 21 54 49.0000000  0 17G10G12G18G23G24G32R 5R 7R15R16R21R22
                                E 3E 5E15E24E31
  20413294.937   107272618.203    20413294.794    83589067.699    20413294.669  
  20413292.972    80106187.714  
  24415756.270   128305660.520    24415756.413    99978441.395    24415755.395  
                                
  23521791.423   123607814.573    23521791.566    96317764.942    23521791.227  
  23521795.622    92304536.017  
  20781485.512   109207449.956    20781483.993    85096709.203    20781483.636  
  20781487.585    81551029.259  
  21668364.023   113868065.482    21668364.487    88728374.812    21668363.916  
  21668364.970    85031370.625  
  21439890.195   112667421.696    21439890.624    87792814.097    21439890.123  
  21439888.980    84134779.256  
  21073376.396   112649275.365    21073377.414    87616110.370    21073377.343  
                                
  23333569.088   124906430.551    23333570.339    97149455.735    23333570.268  
                                
  20890458.016   111632309.615    20890459.248    86825154.808    20890459.302  
                                
  21317182.274   113872604.703    21317183.007    88567586.769    21317183.972  
                                
  21279831.960   113872699.956    21279832.371    88567659.028    21279832.281  
                                
  22057629.466   117745135.893    22057631.879    91579539.003    22057631.057  
                                
  24242555.047   127395522.189                                                  
  24242557.316    95133050.438  
  24033379.996   126296268.491                                                  
  24033382.265    94312160.493  
  24578712.629   129162023.179                                                  
  24578715.934    96452188.318  
  26514504.288   139334685.259                                                  
  26514506.129   104048652.571  
  27645259.975   145276835.445                                                  
  27645264.657   108485961.775  
 21  8 31 21 54 50.0000000  0 17G10G12G18G23G24G32R 5R 7R15R16R21R22
                                E 3E 5E15E24E31
  20413135.099   107271778.226    20413134.956    83588413.169    20413134.849  
  20413133.151    80105560.454  
  24415243.251   128302964.557    24415243.376    99976340.647    24415242.357  
                                
  23522506.738   123611573.543    23522506.881    96320693.998    23522506.559  
  23522510.955    92307343.044  
  20781765.556   109208921.512    20781764.055    85097855.869    20781763.697  
  20781767.628    81552128.143  
  21668826.509   113870495.913    21668826.974    88730268.656    21668826.420  
  21668827.474    85033185.559  
  21439575.968   112665770.286    21439576.379    87791527.281    21439575.879  
  21439574.735    84133546.060  
  21073741.174   112651225.296    21073742.192    87617626.985    21073742.121  
                                
  23333036.502   124903579.542    23333037.753    97147238.283    23333037.664  
                                
  20890526.936   111632677.791    20890528.151    86825441.164    20890528.205  
                                
  21316512.793   113869028.453    21316513.526    88564805.247    21316514.491  
                                
  21280247.879   113874925.576    21280248.290    88569390.062    21280248.219  
                                
