     2.11           OBSERVATION DATA    M (MIXED)           RINEX VERSION / TYPE
CONVBIN 2.4.3                           20210901 190827 UTC PGM / RUN BY / DATE 
log: logs/21_09_01_09_12_19_pass_SW.rtcm                    COMMENT             
format: RTCM 3, station ID: 1171                            COMMENT             
1171                                                        MARKER NAME         
                                                            MARKER NUMBER       
                                                            OBSERVER / AGENCY   
                    SWFT                                    REC # / TYPE / VERS 
                    NULL                                    ANT # / TYPE        
  1174954.0883 -4768561.4199  4055921.6518                  APPROX POSITION XYZ 
        0.0000        0.0000        0.0000                  ANTENNA: DELTA H/E/N
     1     1                                                WAVELENGTH FACT L1/2
     5    C1    L1    P2    L2    C2                        # / TYPES OF OBSERV 
  2021     9     1     9    12   24.0000000     GPS         TIME OF FIRST OBS   
  2021     9     1     9    42   22.0000000     GPS         TIME OF LAST OBS    
                                                            END OF HEADER       
 21  9  1  9 12 24.0000000  0 15G 1G 7G 8G13G14G17G19G21G30C23C25C28
                                C34E21E27
  20218640.040   106249633.032    20218642.738    82791911.503                  
  21886838.578   115016121.529    21886838.274    89622953.638                  
  24021043.526   126231394.427    24021045.903    98362115.300                  
  24323099.525   127818762.899    24323098.900    99599038.856                  
  21007830.961   110396911.933    21007830.925    86023573.625                  
  21660403.337   113826201.737    21660402.712    88695744.520                  
  23809343.922   125118961.367    23809342.082    97495298.703                  
  21890343.658   115034540.175    21890342.372    89637306.578                  
  20955733.074   110123083.737    20955735.022    85810185.898                  
                 114289684.979                   114289684.979    21948122.894  
                 124227353.818                   124227353.818    23856554.864  
                 121844022.577                   121844022.577    23398862.820  
                 126638426.369                   126638426.369    24319577.719  
  24705518.381   129828356.393                                                  
  23530190.847   123651976.375                                                  
 21  9  1  9 12 25.0000000  0 15G 1G 7G 8G13G14G17G19G21G30C23C25C28
                                C34E21E27
  20218608.680   106249468.245    20218611.378    82791783.102                  
  21887415.193   115019151.702    21887414.907    89625314.812                  
  24021615.961   126234402.583    24021618.337    98364459.317                  
  24323329.374   127819970.874    24323328.785    99599980.137                  
  21007493.004   110395135.925    21007492.968    86022189.723                  
  21660096.973   113824591.796    21660096.365    88694490.020                  
  23808774.311   125115968.153    23808772.489    97492966.329                  
  21890733.239   115036587.423    21890731.952    89638901.835                  
  20955955.847   110124254.345    20955957.777    85811098.062                  
                 114289837.477                   114289837.477    21948152.181  
                 124230133.839                   124230133.839    23857088.719  
                 121841749.801                   121841749.801    23398426.351  
                 126641082.042                   126641082.042    24320087.719  
  24705179.155   129826573.792                                                  
  23530302.296   123652562.118                                                  
 21  9  1  9 12 26.0000000  0 15G 1G 7G 8G13G14G17G19G21G30C23C25C28
                                C34E21E27
  20218577.481   106249304.215    20218580.161    82791655.285                  
  21887991.898   115022182.265    21887991.594    89627676.290                  
  24022188.377   126237410.745    24022190.771    98366803.339                  
  24323559.366   127821179.356    24323558.741    99600921.810                  
  21007155.083   110393360.191    21007155.047    86020806.034                  
  21659790.680   113822982.157    21659790.055    88693235.758                  
  23808204.772   125112975.121    23808202.914    97490634.099                  
  21891122.908   115038635.122    21891121.640    89640497.445                  
  20956178.727   110125425.586    20956180.657    85812010.715                  
                 114289990.481                   114289990.481    21948181.558  
                 124232914.152                   124232914.152    23857622.663  
                 121839477.329                   121839477.329    23397989.954  
                 126643737.841                   126643737.841    24320597.737  
  24704839.984   129824791.347                                                  
  23530413.816   123653148.148                                                  
 21  9  1  9 12 27.0000000  0 15G 1G 7G 8G13G14G17G19G21G30C23C25C28
                                C34E21E27
  20218546.406   106249140.922    20218549.105    82791528.043                  
  21888568.675   115025213.228    21888568.389    89630038.074                  
  24022760.829   126240418.909    24022763.223    98369147.364                  
  24323789.412   127822388.349    24323788.805    99601863.880                  
  21006817.215   110391584.723    21006817.180    86019422.555                  
  21659484.441   113821372.818    21659483.797    88691981.723                  
  23807635.233   125109982.263    23807633.392    97488301.999                  
  21891512.668   115040683.279    21891511.381    89642093.414                  
  20956401.715   110126597.452    20956403.663    85812923.860                  
                 114290143.989                   114290143.989    21948211.042  
                 124235694.749                   124235694.749    23858156.643  
                 121837205.152                   121837205.152    23397553.628  
                 126646393.759                   126646393.759    24321107.772  
  24704500.812   129823009.054                                                  
  23530525.409   123653734.474                                                  
 21  9  1  9 12 28.0000000  0 15G 1G 7G 8G13G14G17G19G21G30C23C25C28
                                C34E21E27
  20218515.475   106248978.386    20218518.155    82791401.391                  
  21889145.522   115028244.566    21889145.219    89632400.160                  
  24023333.263   126243427.062    24023335.640    98371491.379                  
  24324019.583   127823597.835    24324018.958    99602806.341                  
  21006479.419   110389809.532    21006479.384    86018039.285                  
  21659178.237   113819763.775    21659177.612    88690727.921                  
  23807065.765   125106989.589    23807063.924    97485970.050                  
  21891902.498   115042731.890    21891901.212    89643689.735                  
  20956624.845   110127769.946    20956626.775    85813837.489                  
                 114290298.004                   114290298.004    21948240.615  
                 124238475.637                   124238475.637    23858690.676  
                 121834933.278                   121834933.278    23397117.320  
                 126649049.793                   126649049.793    24321617.844  
  24704161.675   129821226.910                                                  
  23530637.018   123654321.094                                                  
 21  9  1  9 12 29.0000000  0 15G 1G 7G 8G13G14G17G19G21G30C23C25C28
                                C34E21E27
  20218484.687   106248816.595    20218487.385    82791275.321                  
  21889722.442   115031276.297    21889722.138    89634762.546                  
  24023905.679   126246435.207    24023908.074    98373835.388                  
  24324249.826   127824807.831    24324249.218    99603749.193                  
  21006141.659   110388034.607    21006141.623    86016656.226                  
  21658872.105   113818155.031    21658871.480    88689474.359                  
  23806496.297   125103997.103    23806494.456    97483638.238                  
  21892292.418   115044780.957    21892291.132    89645286.410                  
  20956848.083   110128943.074    20956850.013    85814751.617                  
                 114290452.526                   114290452.526    21948270.295  
                 124241256.813                   124241256.813    23859224.782  
                 121832661.704                   121832661.704    23396681.102  
                 126651705.946                   126651705.946    24322127.915  
  24703822.575   129819444.925                                                  
  23530748.700   123654908.004                                                  
 21  9  1  9 12 30.0000000  0 15G 1G 7G 8G13G14G17G19G21G30C23C25C28
                                C34E21E27
  20218454.041   106248655.558    20218456.740    82791149.835                  
  21890299.432   115034308.418    21890299.146    89637125.233                  
  24024478.113   126249443.351    24024480.508    98376179.394                  
  24324480.175   127826018.329    24324479.568    99604692.438                  
  21005803.953   110386259.961    21005803.917    86015273.388                  
  21658566.044   113816546.589    21658565.401    88688221.032                  
  23805926.900   125101004.790    23805925.042    97481306.566                  
  21892682.427   115046830.484    21892681.159    89646883.442                  
  20957071.446   110130116.833    20957073.376    85815666.234                  
                 114290607.554                   114290607.554    21948300.065  
                 124244038.277                   124244038.277    23859758.922  
                 121830390.426                   121830390.426    23396244.919  
                 126654362.219                   126654362.219    24322638.040  
  24703483.528   129817663.090                                                  
  23530860.453   123655495.219                                                  
 21  9  1  9 12 31.0000000  0 15G 1G 7G 8G13G14G17G19G21G30C23C25C28
                                C34E21E27
  20218423.539   106248495.273    20218426.237    82791024.942                  
  21890876.495   115037340.918    21890876.209    89639488.223                  
  24025050.565   126252451.504    24025052.942    98378523.409                  
  24324710.614   127827229.335    24324710.024    99605636.079                  
  21005466.299   110384485.582    21005466.264    86013890.755                  
  21658260.020   113814938.456    21658259.394    88686967.937                  
  23805357.504   125098012.668    23805355.663    97478975.047                  
  21893072.526   115048880.464    21893071.257    89648480.833                  
  20957294.898   110131291.211    20957296.864    85816581.332                  
                 114290763.091                   114290763.091    21948329.942  
                 124246820.031                   124246820.031    23860293.135  
                 121828119.453                   121828119.453    23395808.807  
                 126657018.614                   126657018.614    24323148.182  
  24703144.481   129815881.410                                                  
  23530972.259   123656082.725                                                  
 21  9  1  9 12 32.0000000  0 15G 1G 7G 8G13G14G17G19G21G30C23C25C28
                                C34E21E27
  20218393.180   106248335.739    20218395.878    82790900.630                  
  21891453.646   115040373.806    21891453.342    89641851.512                  
  24025622.982   126255459.657    24025625.376    98380867.422                  
  24324941.160   127828440.831    24324940.553    99606580.101                  
  21005128.700   110382711.479    21005128.664    86012508.339                  
  21657954.066   113813330.619    21657953.423    88685715.079                  
  23804788.161   125095020.722    23804786.321    97476643.660                  
  21893462.696   115050930.886    21893461.445    89650078.562                  
  20957518.493   110132466.225    20957520.459    85817496.930                  
                 114290919.134                   114290919.134    21948359.909  
                 124249602.074                   124249602.074    23860827.401  
                 121825848.777                   121825848.777    23395372.732  
                 126659675.125                   126659675.125    24323658.325  
  24702805.452   129814099.883                                                  
  23531084.101   123656670.524                                                  
 21  9  1  9 12 33.0000000  0 15G 1G 7G 8G13G14G17G19G21G30C23C25C28
                                C34E21E27
  20218362.963   106248176.953    20218365.661    82790776.898                  
  21892030.851   115043407.087    21892030.565    89644215.105                  
  24026195.416   126258467.810    24026197.793    98383211.437                  
  24325171.796   127829652.840    24325171.206    99607524.524                  
  21004791.154   110380937.649    21004791.101    86011126.132                  
  21657648.149   113811723.081    21657647.523    88684462.452                  
  23804218.836   125092028.949    23804216.996    97474312.411                  
  21893852.974   115052981.760    21893851.705    89651676.649                  
  20957742.213   110133641.868    20957744.179    85818413.011                  
                 114291075.679                   114291075.679    21948389.964  
                 124252384.401                   124252384.401    23861361.720  
                 121823578.407                   121823578.407    23394936.745  
                 126662331.755                   126662331.755    24324168.504  
  24702466.477   129812318.512                                                  
  23531196.015   123657258.614                                                  
 21  9  1  9 12 34.0000000  0 15G 1G 7G 8G13G14G17G19G21G30C23C25C28
                                C34E21E27
  20218332.907   106248018.918    20218335.588    82790653.754                  
  21892608.146   115046440.755    21892607.842    89646579.004                  
  24026767.868   126261475.968    24026770.245    98385555.462                  
  24325402.538   127830865.342    24325401.913    99608469.329                  
  21004453.662   110379164.095    21004453.626    86009744.142                  
  21657342.302   113810115.848    21657341.677    88683210.063                  
  23803649.565   125089037.358    23803647.724    97471981.301                  
  21894243.340   115055033.098    21894242.054    89653275.089                  
  20957966.059   110134818.148    20957968.024    85819329.594                  
                 114291232.740                   114291232.740    21948420.127  
                 124255167.020                   124255167.020    23861896.075  
                 121821308.333                   121821308.333    23394500.795  
                 126664988.505                   126664988.505    24324678.700  
  24702127.519   129810537.293                                                  
  23531307.982   123657847.001                                                  
 21  9  1  9 12 35.0000000  0 15G 1G 7G 8G13G14G17G19G21G30C23C25C28
                                C34E21E27
  20218302.959   106247861.637    20218305.657    82790531.196                  
  21893185.494   115049474.813    21893185.208    89648943.203                  
  24027340.284   126264484.142    24027342.679    98387899.488                  
  24325633.353   127832078.346    24325632.763    99609414.527                  
  21004116.223   110377390.808    21004116.152    86008362.359                  
  21657036.528   113808508.909    21657035.884    88681957.907                  
  23803080.311   125086045.958    23803078.489    97469650.335                  
  21894633.778   115057084.882    21894632.492    89654873.882                  
  20958190.029   110135995.046    20958191.959    85820246.656                  
                 114291390.297                   114291390.297    21948450.379  
                 124257949.926                   124257949.926    23862430.520  
                 121819038.558                   121819038.558    23394064.898  
                 126667645.376                   126667645.376    24325188.914  
  24701788.598   129808756.215                                                  
  23531420.003   123658435.686                                                  
 21  9  1  9 12 36.0000000  0 15G 1G 7G 8G13G14G17G19G21G30C23C25C28
                                C34E21E27
  20218273.171   106247705.093    20218275.852    82790409.216                  
  21893762.932   115052509.250    21893762.646    89651307.699                  
  24027912.718   126267492.315    24027915.113    98390243.524                  
  24325864.274   127833291.844    24325863.684    99610360.109                  
  21003778.820   110375617.794    21003778.785    86006980.790                  
  21656730.789   113806902.255    21656730.163    88680705.964                  
  23802511.094   125083054.719    23802509.253    97467319.504                  
  21895024.306   115059137.118    21895023.037    89656473.027                  
  20958414.106   110137172.579    20958416.036    85821164.214                  
                 114291548.367                   114291548.367    21948480.739  
                 124260733.123                   124260733.123    23862965.000  
                 121816769.086                   121816769.086    23393629.072  
                 126670302.358                   126670302.358    24325699.182  
  24701449.694   129806975.298                                                  
  23531532.078   123659024.659                                                  
 21  9  1  9 12 37.0000000  0 15G 1G 7G 8G13G14G17G19G21G30C23C25C28
                                C34E21E27
  20218243.526   106247549.309    20218246.225    82790287.823                  
  21894340.458   115055544.077    21894340.137    89653672.500                  
  24028485.153   126270500.492    24028487.565    98392587.556                  
  24326095.302   127834505.854    24326094.695    99611306.094                  
  21003441.471   110373845.052    21003441.435    86005599.431                  
  21656425.103   113805295.890    21656424.460    88679454.249                  
  23801941.912   125080063.665    23801940.071    97464988.813                  
  21895414.923   115061189.812    21895413.636    89658072.530                  
  20958638.291   110138350.742    20958640.239    85822082.261                  
                 114291706.942                   114291706.942    21948511.206  
                 124263516.601                   124263516.601    23863499.534  
                 121814499.913                   121814499.913    23393193.301  
                 126672959.469                   126672959.469    24326209.432  
  24701110.826   129805194.542                                                  
  23531644.224   123659613.929                                                  
 21  9  1  9 12 38.0000000  0 15G 1G 7G 8G13G14G17G19G21G30C23C25C28
                                C34E21E27
  20218214.025   106247394.274    20218216.723    82790167.016                  
  21894918.039   115058579.288    21894917.717    89656037.602                  
  24029057.605   126273508.657    24029059.981    98394931.578                  
  24326326.420   127835720.358    24326325.795    99612252.458                  
  21003104.175   110372072.581    21003104.140    86004218.284                  
  21656119.454   113803689.823    21656118.846    88678202.773                  
  23801372.783   125077072.793    23801370.943    97462658.261                  
  21895805.629   115063242.948    21895804.342    89659672.379                  
  20958862.601   110139529.531    20958864.567    85823000.800                  
                 114291866.023                   114291866.023    21948541.744  
                 124266300.374                   124266300.374    23864034.140  
                 121812231.040                   121812231.040    23392757.600  
                 126675616.692                   126675616.692    24326719.736  
  24700771.993   129803413.925                                                  
  23531756.406   123660203.492                                                  
 21  9  1  9 12 39.0000000  0 15G 1G 7G 8G13G14G17G19G21G30C23C25C28
                                C34E21E27
  20218184.666   106247239.983    20218187.364    82790046.792                  
  21895495.673   115061614.887    21895495.387    89658403.001                  
  24029630.039   126276516.821    24029632.415    98397275.602                  
  24326557.628   127836935.372    24326557.020    99613199.222                  
  21002766.933   110370300.385    21002766.898    86002837.355                  
  21655813.893   113802084.075    21655813.286    88676951.538                  
  23800803.673   125074082.109    23800801.814    97460327.860                  
  21896196.407   115065296.546    21896195.138    89661272.583                  
  20959087.036   110140708.956    20959089.002    85823919.832                  
                 114292025.613                   114292025.613    21948572.371  
                 124269084.429                   124269084.429    23864568.781  
                 121809962.470                   121809962.470    23392321.936  
                 126678274.035                   126678274.035    24327230.057  
  24700433.179   129801633.472                                                  
  23531868.659   123660793.342                                                  
 21  9  1  9 12 40.0000000  0 15G 1G 7G 8G13G14G17G19G21G30C23C25C28
                                C34E21E27
  20218155.432   106247086.450    20218158.148    82789927.156                  
  21896073.414   115064650.876    21896073.128    89660768.707                  
  24030202.455   126279524.983    24030204.867    98399619.624                  
  24326788.924   127838150.882    24326788.317    99614146.371                  
  21002429.763   110368528.460    21002429.727    86001456.636                  
  21655508.404   113800478.621    21655507.779    88675700.535                  
  23800234.598   125071091.598    23800232.740    97457997.594                  
  21896587.274   115067350.589    21896586.005    89662873.136                  
  20959311.596   110141889.000    20959313.562    85824839.348                  
                 114292185.707                   114292185.707    21948603.142  
                 124271868.777                   124271868.777    23865103.476  
                 121807694.195                   121807694.195    23391886.342  
                 126680931.497                   126680931.497    24327740.396  
  24700094.400   129799853.171                                                  
  23531980.966   123661383.492                                                  
 21  9  1  9 12 41.0000000  0 15G 1G 7G 8G13G14G17G19G21G30C23C25C28
                                C34E21E27
  20218126.377   106246933.659    20218129.058    82789808.098                  
  21896651.227   115067687.247    21896650.923    89663134.710                  
  24030774.907   126282533.180    24030777.301    98401963.672                  
  24327020.328   127839366.891    24327019.721    99615093.910                  
  21002092.628   110366756.813    21002092.574    86000076.129                  
  21655202.934   113798873.472    21655202.326    88674449.774                  
  23799665.559   125068101.278    23799663.701    97455667.472                  
  21896978.248   115069405.082    21896976.961    89664474.040                  
  20959536.281   110143069.684    20959538.229    85825759.359                  
                 114292346.309                   114292346.309    21948633.984  
                 124274653.410                   124274653.410    23865638.242  
                 121805426.227                   121805426.227    23391450.803  
                 126683589.078                   126683589.078    24328250.753  
  24699755.639   129798073.021                                                  
  23532093.326   123661973.938                                                  
 21  9  1  9 12 42.0000000  0 15G 1G 7G 8G13G14G17G19G21G30C23C25C28
                                C34E21E27
  20218097.447   106246781.617    20218100.145    82789689.626                  
  21897229.093   115070723.973    21897228.771    89665500.987                  
  24031347.341   126285541.359    24031349.736    98404307.708                  
  24327251.821   127840583.411    24327251.214    99616041.848                  
  21001755.547   110364985.442    21001755.493    85998695.840                  
  21654897.552   113797268.645    21654896.944    88673199.258                  
  23799096.556   125065111.134    23799094.697    97453337.492                  
  21897369.276   115071460.026    21897368.007    89666075.297                  
  20959761.073   110144250.997    20959763.021    85826679.864                  
                 114292507.417                   114292507.417    21948664.915  
                 124277438.332                   124277438.332    23866173.062  
                 121803158.554                   121803158.554    23391015.317  
                 126686246.778                   126686246.778    24328761.146  
  24699416.914   129796293.028                                                  
  23532205.722   123662564.681                                                  
 21  9  1  9 12 43.0000000  0 15G 1G 7G 8G13G14G17G19G21G30C23C25C28
                                C34E21E27
  20218068.660   106246630.331    20218071.341    82789571.738                  
  21897807.049   115073761.088    21897806.745    89667867.574                  
  24031919.775   126288549.548    24031922.188    98406651.750                  
  24327483.422   127841800.426    24327482.796    99616990.167                  
  21001418.519   110363214.335    21001418.483    85997315.757                  
  21654592.224   113795664.106    21654591.599    88671948.965                  
  23798527.588   125062121.171    23798525.748    97451007.653                  
  21897760.393   115073515.425    21897759.142    89667676.907                  
  20959985.973   110145432.931    20959987.938    85827600.852                  
                 114292669.031                   114292669.031    21948695.953  
                 124280223.543                   124280223.543    23866707.935  
                 121800891.185                   121800891.185    23390579.902  
                 126688904.595                   126688904.595    24329271.539  
  24699078.242   129794513.182                                                  
  23532318.208   123663155.711                                                  
 21  9  1  9 12 44.0000000  0 16G 1G 7G 8G13G14G17G19G21G22G30C23C25
                                C28C34E21E27
  20218039.998   106246479.797    20218042.697    82789454.437                  
  21898385.058   115076798.612    21898384.754    89670234.473                  
  24032492.227   126291557.718    24032494.622    98408995.777                  
  24327715.094   127843017.947    24327714.504    99617938.886                  
  21001081.545   110361443.507    21001081.491    85995935.891                  
  21654286.932   113794059.879    21654286.324    88670698.922                  
  23797958.638   125059131.382    23797956.798    97448677.945                  
  21898151.617   115075571.282    21898150.348    89669278.866                  
  24069986.816   126488655.255    24069984.529    98562594.366                  
  20960211.015   110146615.499    20960212.981    85828522.331                  
                 114292831.153                   114292831.153    21948727.081  
                 124283009.040                   124283009.040    23867242.862  
                 121798624.114                   121798624.114    23390144.524  
                 126691562.531                   126691562.531    24329781.968  
  24698739.588   129792733.495                                                  
  23532430.729   123663747.038                                                  
 21  9  1  9 12 45.0000000  0 16G 1G 7G 8G13G14G17G19G21G22G30C23C25
                                C28C34E21E27
  20218011.497   106246330.008    20218014.195    82789337.723                  
  21898963.139   115079836.497    21898962.835    89672601.651                  
  24033064.661   126294565.895    24033067.038    98411339.808                  
  24327946.873   127844235.969    24327946.283    99618887.997                  
  21000744.625   110359672.958    21000744.589    85994556.242                  
  21653981.729   113792455.933    21653981.103    88669449.094                  
  23797389.742   125056141.778    23797387.902    97446348.386                  
  21898542.913   115077627.591    21898541.662    89670881.187                  
  24069577.562   126486504.595    24069575.257    98560918.532                  
  20960436.183   110147798.698    20960438.149    85829444.309                  
                 114292993.782                   114292993.782    21948758.316  
                 124285794.825                   124285794.825    23867777.843  
                 121796357.344                   121796357.344    23389709.216  
                 126694220.586                   126694220.586    24330292.414  
  24698400.935   129790953.964                                                  
  23532543.304   123664338.673                                                  
 21  9  1  9 12 46.0000000  0 16G 1G 7G 8G13G14G17G19G21G22G30C23C25
                                C28C34E21E27
  20217983.139   106246180.982    20217985.837    82789221.594                  
  21899541.291   115082874.760    21899541.005    89674969.134                  
  24033637.078   126297574.030    24033639.472    98413683.817                  
  24328178.759   127845454.484    24328178.152    99619837.489                  
  21000407.740   110357902.669    21000407.704    85993176.797                  
  21653676.562   113790852.268    21653675.936    88668199.484                  
  23796820.882   125053152.358    23796819.024    97444018.968                  
  21898934.298   115079684.337    21898933.047    89672483.847                  
  24069168.361   126484354.219    24069166.056    98559242.914                  
  20960661.458   110148982.531    20960663.405    85830366.774                  
                 114293156.917                   114293156.917    21948789.641  
                 124288580.895                   124288580.895    23868312.877  
                 121794090.875                   121794090.875    23389273.963  
                 126696878.757                   126696878.757    24330802.897  
  24698062.335   129789174.587                                                  
  23532655.932   123664930.589                                                  
 21  9  1  9 12 47.0000000  0 16G 1G 7G 8G13G14G17G19G21G22G30C23C25
                                C28C34E21E27
  20217954.924   106246032.687    20217957.622    82789106.044                  
  21900119.533   115085913.429    21900119.247    89677336.925                  
  24034209.512   126300582.192    24034211.924    98416027.837                  
  24328410.735   127846673.504    24328410.127    99620787.374                  
  21000070.927   110356132.660    21000070.873    85991797.566                  
  21653371.466   113789248.933    21653370.840    88666950.133                  
  23796252.040   125050163.112    23796250.181    97441689.683                  
  21899325.773   115081741.547    21899324.522    89674086.867                  
  24068759.214   126482204.128    24068756.927    98557567.519                  
  20960886.858   110150166.980    20960888.805    85831289.723                  
                 114293320.557                   114293320.557    21948821.072  
                 124291367.253                   124291367.253    23868847.965  
                 121791824.706                   121791824.706    23388838.780  
                 126699537.048                   126699537.048    24331313.397  
  24697723.752   129787395.355                                                  
  23532768.632   123665522.808                                                  
 21  9  1  9 12 48.0000000  0 16G 1G 7G 8G13G14G17G19G21G22G30C23C25
                                C28C34E21E27
  20217926.834   106245885.151    20217929.532    82788991.081                  
  21900697.864   115088952.476    21900697.560    89679705.016                  
  24034781.964   126303590.350    24034784.341    98418371.857                  
  24328642.800   127847893.022    24328642.174    99621737.649                  
  20999734.167   110354362.921    20999734.096    85990418.556                  
  21653066.406   113787645.899    21653065.781    88665701.016                  
  23795683.233   125047174.042    23795681.374    97439360.544                  
  21899717.337   115083799.206    21899716.086    89675690.238                  
  24068350.121   126480054.313    24068347.816    98555892.340                  
  20961112.365   110151352.071    20961114.312    85832213.169                  
                 114293484.707                   114293484.707    21948852.593  
                 124294153.901                   124294153.901    23869383.125  
                 121789558.840                   121789558.840    23388403.634  
                 126702195.458                   126702195.458    24331823.915  
  24697385.224   129785616.284                                                  
  23532881.403   123666115.308                                                  
 21  9  1  9 12 49.0000000  0 16G 1G 7G 8G13G14G17G19G21G22G30C23C25
                                C28C34E21E27
  20217898.922   106245738.364    20217901.603    82788876.700                  
  21901276.248   115091991.913    21901275.944    89682073.406                  
  24035354.380   126306598.503    24035356.775    98420715.867                  
  24328874.954   127849113.040    24328874.364    99622688.309                  
  20999397.443   110352593.457    20999397.372    85989039.750                  
  21652761.417   113786043.148    21652760.792    88664452.121                  
  23795114.462   125044185.159    23795112.621    97437031.542                  
  21900109.008   115085857.325    21900107.721    89677293.969                  
  24067941.081   126477904.786    24067938.776    98554217.382                  
  20961337.997   110152537.785    20961339.962    85833137.102                  
                 114293649.362                   114293649.362    21948884.221  
                 124296940.837                   124296940.837    23869918.320  
                 121787293.273                   121787293.273    23387968.559  
                 126704853.984                   126704853.984    24332334.468  
  24697046.695   129783837.363                                                  
  23532994.193   123666708.105                                                  
 21  9  1  9 12 50.0000000  0 16G 1G 7G 8G13G14G17G19G21G22G30C23C25
                                C28C34E21E27
  20217871.118   106245592.337    20217873.816    82788762.915                  
  21901854.704   115095031.737    21901854.400    89684442.101                  
  24035926.814   126309606.648    24035929.227    98423059.878                  
  24329107.216   127850333.562    24329106.608    99623639.368                  
  20999060.755   110350824.269    20999060.719    85987661.160                  
  21652456.483   113784440.695    21652455.857    88663203.452                  
  23794545.744   125041196.453    23794543.886    97434702.680                  
  21900500.715   115087915.890    21900499.464    89678898.046                  
  24067532.095   126475755.543    24067529.772    98552542.652                  
  20961563.754   110153724.124    20961565.702    85834061.519                  
                 114293814.527                   114293814.527    21948915.939  
                 124299728.058                   124299728.058    23870453.586  
                 121785028.005                   121785028.005    23387533.538  
                 126707512.629                   126707512.629    24332845.022  
  24696708.202   129782058.597                                                  
  23533107.053   123667301.207                                                  
 21  9  1  9 12 51.0000000  0 16G 1G 7G 8G13G14G17G19G21G22G30C23C25
                                C28C34E21E27
  20217843.475   106245447.047    20217846.173    82788649.699                  
  21902433.232   115098071.952    21902432.946    89686811.097                  
  24036499.266   126312614.798    24036501.643    98425403.891                  
  24329339.584   127851554.595    24329338.959    99624590.820                  
  20998724.156   110349055.351    20998724.103    85986282.785                  
  21652151.601   113782838.542    21652150.976    88661955.024                  
  23793977.045   125038207.928    23793975.204    97432373.960                  
  21900892.547   115089974.914    21900891.260    89680502.480                  
  24067123.162   126473606.573    24067120.839    98550868.130                  
  20961789.618   110154911.096    20961791.584    85834986.433                  
                 114293980.200                   114293980.200    21948947.746  
                 124302515.567                   124302515.567    23870988.889  
                 121782763.046                   121782763.046    23387098.588  
                 126710171.388                   126710171.388    24333355.594  
  24696369.745   129780279.990                                                  
  23533219.986   123667894.599                                                  
 21  9  1  9 12 52.0000000  0 16G 1G 7G 8G13G14G17G19G21G22G30C23C25
                                C28C34E21E27
  20217815.974   106245302.511    20217818.655    82788537.073                  
  21903011.848   115101112.531    21903011.545    89689180.379                  
  24037071.683   126315622.951    24037074.077    98427747.902                  
  24329572.025   127852776.138    24329571.417    99625542.672                  
  20998387.593   110347286.715    20998387.540    85984904.625                  
  21651846.774   113781236.700    21651846.166    88660706.833                  
  23793408.381   125035219.586    23793406.523    97430045.384                  
  21901284.432   115092034.374    21901283.181    89682107.257                  
  24066714.283   126471457.890    24066711.960    98549193.832                  
  20962015.626   110156098.700    20962017.574    85835911.841                  
                 114294146.379                   114294146.379    21948979.660  
                 124305303.364                   124305303.364    23871524.262  
                 121780498.383                   121780498.383    23386663.656  
                 126712830.266                   126712830.266    24333866.219  
  24696031.324   129778501.523                                                  
  23533332.954   123668488.285                                                  
 21  9  1  9 12 53.0000000  0 16G 1G 7G 8G13G14G17G19G21G22G30C23C25
                                C28C34E21E27
  20217788.599   106245158.711    20217791.297    82788425.024                  
  21903590.519   115104153.532    21903590.215    89691549.988                  
  24037644.117   126318631.095    24037646.493    98430091.915                  
  24329804.554   127853998.163    24329803.965    99626494.899                  
  20998051.084   110345518.335    20998051.048    85983526.668                  
  21651542.017   113779635.146    21651541.374    88659458.871                  
  23792839.735   125032231.417    23792837.895    97427716.942                  
  21901676.443   115094094.298    21901675.156    89683712.390                  
  24066305.440   126469309.493    24066303.135    98547519.753                  
  20962241.740   110157286.923    20962243.688    85836837.726                  
                 114294313.061                   114294313.061    21949011.681  
                 124308091.449                   124308091.449    23872059.672  
                 121778234.014                   121778234.014    23386228.813  
                 126715489.266                   126715489.266    24334376.844  
  24695692.920   129776723.215                                                  
  23533445.975   123669082.258                                                  
 21  9  1  9 12 54.0000000  0 16G 1G 7G 8G13G14G17G19G21G22G30C23C25
                                C28C34E21E27
  20217761.402   106245015.671    20217764.083    82788313.567                  
  21904169.279   115107194.900    21904168.975    89693919.887                  
  24038216.533   126321639.242    24038218.945    98432435.921                  
  24330037.191   127855220.692    24330036.601    99627447.517                  
  20997714.628   110343750.241    20997714.574    85982148.933                  
  21651237.297   113778033.911    21651236.672    88658211.155                  
  23792271.161   125029243.441    23792269.302    97425388.645                  
  21902068.507   115096154.668    21902067.238    89685317.871                  
  24065896.686   126467161.383    24065894.363    98545845.903                  
  20962467.962   110158475.782    20962469.928    85837764.110                  
                 114294480.250                   114294480.250    21949043.774  
                 124310879.816                   124310879.816    23872595.153  
                 121775969.954                   121775969.954    23385794.024  
                 126718148.382                   126718148.382    24334887.505  
  24695354.534   129774945.066                                                  
  23533559.068   123669676.531                                                  
 21  9  1  9 12 55.0000000  0 16G 1G 7G 8G13G14G17G19G21G22G30C23C25
                                C28C34E21E27
  20217734.313   106244873.392    20217736.993    82788202.695                  
  21904748.092   115110236.629    21904747.806    89696290.066                  
  24038788.985   126324647.392    24038791.380    98434779.934                  
  24330269.935   127856443.723    24330269.345    99628400.528                  
  20997378.226   110341982.421    20997378.172    85980771.411                  
  21650932.666   113776432.973    21650932.040    88656963.671                  
  23791702.604   125026255.632    23791700.746    97423060.485                  
  21902460.678   115098215.505    21902459.392    89686923.718                  
  24065487.968   126465013.548    24065485.645    98544172.266                  
  20962694.327   110159665.270    20962696.257    85838690.982                  
                 114294647.949                   114294647.949    21949075.974  
                 124313668.477                   124313668.477    23873130.688  
                 121773706.186                   121773706.186    23385359.306  
                 126720807.618                   126720807.618    24335398.184  
  24695016.202   129773167.074                                                  
  23533672.215   123670271.100                                                  
 21  9  1  9 12 56.0000000  0 16G 1G 7G 8G13G14G17G19G21G22G30C23C25
                                C28C34E21E27
  20217707.384   106244731.860    20217710.083    82788092.415                  
  21905326.995   115113278.774    21905326.709    89698660.571                  
  24039361.419   126327655.542    24039363.796    98437123.945                  
  24330502.786   127857667.250    24330502.161    99629353.926                  
  20997041.859   110340214.871    20997041.824    85979394.097                  
  21650628.053   113774832.337    21650627.445    88655716.422                  
  23791134.065   125023268.012    23791132.225    97420732.469                  
  21902852.921   115100276.794    21902851.653    89688529.919                  
  24065079.303   126462866.004    24065076.980    98542498.856                  
  20962920.781   110160855.379    20962922.747    85839618.340                  
                 114294816.152                   114294816.152    21949108.281  
                 124316457.422                   124316457.422    23873666.276  
                 121771442.728                   121771442.728    23384924.625  
                 126723466.970                   126723466.970    24335908.881  
  24694677.906   129771389.227                                                  
  23533785.415   123670865.966                                                  
 21  9  1  9 12 57.0000000  0 16G 1G 7G 8G13G14G17G19G21G22G30C23C25
                                C28C34E21E27
  20217680.599   106244591.071    20217683.279    82787982.707                  
  21905905.987   115116321.301    21905905.683    89701031.367                  
  24039933.836   126330663.695    24039936.248    98439467.960                  
  24330735.691   127858891.276    24330735.102    99630307.710                  
  20996705.564   110338447.593    20996705.529    85978017.000                  
  21650323.547   113773232.009    21650322.921    88654469.418                  
  23790565.580   125020280.570    23790563.722    97418404.594                  
  21903245.254   115102338.531    21903243.985    89690136.466                  
  24064670.675   126460718.742    24064668.387    98540825.664                  
  20963147.378   110162046.126    20963149.326    85840546.196                  
                 114294984.864                   114294984.864    21949140.678  
                 124319246.653                   124319246.653    23874201.918  
                 121769179.565                   121769179.565    23384489.996  
                 126726126.438                   126726126.438    24336419.595  
  24694339.592   129769611.547                                                  
  23533898.651   123671461.116                                                  
 21  9  1  9 12 58.0000000  0 16G 1G 7G 8G13G14G17G19G21G22G30C23C25
                                C28C34E21E27
  20217653.938   106244451.031    20217656.636    82787873.587                  
  21906485.015   115119364.192    21906484.729    89703402.448                  
  24040506.288   126333671.862    24040508.682    98441811.989                  
  24330968.721   127860115.804    24330968.114    99631261.890                  
  20996369.323   110336680.600    20996369.287    85976640.122                  
  21650019.058   113771631.983    21650018.433    88653222.645                  
  23789997.113   125017293.316    23789995.255    97416076.864                  
  21903637.675   115104400.724    21903636.407    89691743.366                  
  24064262.117   126458571.771    24064259.812    98539152.699                  
  20963374.083   110163237.488    20963376.048    85841474.531                  
                 114295154.082                   114295154.082    21949173.181  
                 124322036.171                   124322036.171    23874737.613  
                 121766916.703                   121766916.703    23384055.440  
                 126728786.023                   126728786.023    24336930.363  
  24694001.367   129767834.005                                                  
  23534011.977   123672056.571                                                  
 21  9  1  9 12 59.0000000  0 16G 1G 7G 8G13G14G17G19G21G22G30C23C25
                                C28C34E21E27
  20217627.438   106244311.741    20217630.119    82787765.047                  
  21907064.132   115122407.462    21907063.846    89705773.827                  
  24041078.722   126336680.030    24041081.098    98444156.016                  
  24331201.840   127861340.836    24331201.215    99632216.460                  
  20996033.117   110334913.875    20996033.081    85975263.450                  
  21649714.642   113770032.263    21649714.016    88651976.105                  
  23789428.699   125014306.239    23789426.841    97413749.269                  
  21904030.186   115106463.359    21904028.918    89693350.617                  
  24063853.613   126456425.087    24063851.326    98537479.961                  
  20963600.912   110164429.493    20963602.860    85842403.364                  
                 114295323.809                   114295323.809    21949205.774  
                 124324825.977                   124324825.977    23875273.362  
                 121764654.145                   121764654.145    23383620.936  
                 126731445.730                   126731445.730    24337441.114  
  24693663.124   129766056.621                                                  
  23534125.338   123672652.308                                                  
 21  9  1  9 13  0.0000000  0 16G 1G 7G 8G13G14G17G19G21G22G30C23C25
                                C28C34E21E27
  20217601.081   106244173.215    20217603.762    82787657.105                  
  21907643.321   115125451.127    21907643.017    89708145.519                  
  24041651.156   126339688.192    24041653.532    98446500.036                  
  24331435.031   127862566.371    24331434.441    99633171.422                  
  20995696.983   110333147.422    20995696.912    85973886.996                  
  21649410.279   113768432.845    21649409.653    88650729.810                  
  23788860.304   125011319.337    23788858.463    97411421.815                  
  21904422.787   115108526.447    21904421.500    89694958.218                  
  24063445.181   126454278.676    24063442.858    98535807.433                  
  20963827.866   110165622.124    20963829.814    85843332.688                  
                 114295494.038                   114295494.038    21949238.457  
                 124327616.071                   124327616.071    23875809.183  
                 121762391.884                   121762391.884    23383186.505  
                 126734105.550                   126734105.550    24337951.917  
  24693324.935   129764279.402                                                  
  23534238.752   123673248.359                                                  
 21  9  1  9 13  1.0000000  0 16G 1G 7G 8G13G14G17G19G21G22G30C23C25
                                C28C34E21E27
  20217574.868   106244035.419    20217577.548    82787549.731                  
  21908222.599   115128495.180    21908222.277    89710517.504                  
  24042223.572   126342696.357    24042225.984    98448844.058                  
  24331668.365   127863792.415    24331667.739    99634126.782                  
  20995360.885   110331381.245    20995360.849    85972510.754                  
  21649105.987   113766833.723    21649105.362    88649483.738                  
  23788291.962   125008332.620    23788290.103    97409094.504                  
  21904815.458   115110589.989    21904814.172    89696566.175                  
  24063036.785   126452132.555    24063034.480    98534135.133                  
  20964054.946   110166815.376    20964056.876    85844262.493                  
                 114295664.777                   114295664.777    21949271.264  
                 124330406.450                   124330406.450    23876345.039  
                 121760129.926                   121760129.926    23382752.127  
                 126736765.492                   126736765.492    24338462.721  
  24692986.764   129762502.329                                                  
  23534352.238   123673844.695                                                  
 21  9  1  9 13  2.0000000  0 16G 1G 7G 8G13G14G17G19G21G22G30C23C25
                                C28C34E21E27
  20217548.779   106243898.380    20217551.459    82787442.950                  
  21908801.912   115131539.618    21908801.626    89712889.793                  
  24042796.024   126345704.507    24042798.419    98451188.075                  
  24331901.752   127865018.950    24331901.145    99635082.523                  
  20995024.840   110329615.347    20995024.804    85971134.727                  
  21648801.731   113765234.909    21648801.124    88648237.910                  
  23787723.637   125005346.085    23787721.779    97406767.336                  
  21905208.219   115112653.980    21905206.969    89698174.480                  
  24062628.442   126449986.722    24062626.137    98532463.051                  
  20964282.115   110168009.256    20964284.080    85845192.794                  
                 114295836.024                   114295836.024    21949304.143  
                 124333197.115                   124333197.115    23876880.967  
                 121757868.267                   121757868.267    23382317.784  
                 126739425.548                   126739425.548    24338973.561  
  24692648.646   129760725.409                                                  
  23534465.778   123674441.327                                                  
 21  9  1  9 13  3.0000000  0 16G 1G 7G 8G13G14G17G19G21G22G30C23C25
                                C28C34E21E27
  20217522.833   106243762.098    20217525.531    82787336.754                  
  21909381.333   115134584.437    21909381.047    89715262.379                  
  24043368.458   126348712.677    24043370.835    98453532.097                  
  24332135.265   127866245.984    24332134.639    99636038.653                  
  20994688.866   110327849.715    20994688.795    85969758.913                  
  21648497.547   113763636.386    21648496.922    88646992.309                  
  23787155.349   125002359.735    23787153.508    97404440.307                  
  21905601.088   115114718.409    21905599.801    89699783.126                  
  24062220.152   126447841.168    24062217.865    98530791.191                  
  20964509.445   110169203.774    20964511.374    85846123.582                  
                 114296007.778                   114296007.778    21949337.112  
                 124335988.066                   124335988.066    23877416.912  
                 121755606.910                   121755606.910    23381883.513  
                 126742085.723                   126742085.723    24339484.418  
  24692310.528   129758948.648                                                  
  23534579.372   123675038.247                                                  
 21  9  1  9 13  4.0000000  0 16G 1G 7G 8G13G14G17G19G21G22G30C23C25
                                C28C34E21E27
  20217497.048   106243626.553    20217499.746    82787231.137                  
  21909960.826   115137629.646    21909960.522    89717635.269                  
  24043940.875   126351720.845    24043943.287    98455876.124                  
  24332368.848   127867473.520    24332368.241    99636995.172                  
  20994352.929   110326084.360    20994352.875    85968383.309                  
  21648193.416   113762038.177    21648192.809    88645746.949                  
  23786587.096   124999373.558    23786585.238    97402113.419                  
  21905993.992   115116783.292    21905992.741    89701392.125                  
  24061811.917   126445695.895    24061809.612    98529119.550                  
  20964736.864   110170398.913    20964738.811    85847054.859                  
                 114296180.040                   114296180.040    21949370.205  
                 124338779.303                   124338779.303    23877952.965  
                 121753345.856                   121753345.856    23381449.296  
                 126744746.011                   126744746.011    24339995.294  
  24691972.446   129757172.042                                                  
  23534693.019   123675635.471                                                  
 21  9  1  9 13  5.0000000  0 16G 1G 7G 8G13G14G17G19G21G22G30C23C25
                                C28C34E21E27
  20217471.406   106243491.765    20217474.104    82787126.105                  
  21910540.372   115140675.240    21910540.086    89720008.457                  
  24044513.327   126354729.018    24044515.721    98458220.160                  
  24332602.540   127868701.542    24332601.914    99637952.075                  
  20994017.045   110324319.278    20994016.973    85967007.922                  
  21647889.339   113760440.270    21647888.714    88644501.827                  
  23786018.879   124996387.563    23786017.038    97399786.667                  
  21906387.021   115118848.621    21906385.752    89703001.473                  
  24061403.753   126443550.919    24061401.447    98527448.140                  
  20964964.408   110171594.683    20964966.355    85847986.628                  
                 114296352.805                   114296352.805    21949403.388  
                 124341570.831                   124341570.831    23878489.036  
                 121751085.099                   121751085.099    23381015.168  
                 126747406.421                   126747406.421    24340506.205  
  24691634.400   129755395.597                                                  
  23534806.719   123676232.993                                                  
 21  9  1  9 13  6.0000000  0 16G 1G 7G 8G13G14G17G19G21G22G30C23C25
                                C28C34E21E27
  20217445.907   106243357.723    20217448.587    82787021.656                  
  21911120.007   115143721.200    21911119.703    89722381.932                  
  24045085.761   126357737.165    24045088.155    98460564.168                  
  24332836.320   127869930.067    24332835.695    99638909.363                  
  20993681.196   110322554.468    20993681.161    85965632.746                  
  21647585.333   113758842.671    21647584.708    88643256.949                  
  23785450.698   124993401.730    23785448.839    97397460.046                  
  21906780.139   115120914.403    21906778.853    89704611.173                  
  24060995.624   126441406.207    24060993.319    98525776.942                  
  20965192.077   110172791.081    20965194.025    85848918.886                  
                 114296526.082                   114296526.082    21949436.660  
                 124344362.643                   124344362.643    23879025.178  
