% program   : rnx2rtkp ver.2.4.3 b31
% inp file  : ngs/21_08_29_00_11_02_sdrc.obs
% inp file  : ngs/21_08_29_00_11_02_sdrc_SW.obs
% inp file  : ngs/21_08_29_00_11_02_brdc.nav
% obs start : 2021/08/29 00:00:00.0 GPST (week2173      0.0s)
% obs end   : 2021/08/29 00:59:59.0 GPST (week2173   3599.0s)
% ref pos   : -1065680.4466  -4534420.1828   4342477.0007
%
% (x/y/z-ecef=WGS84,Q=1:fix,2:float,3:sbas,4:dgps,5:single,6:ppp,ns=# of satellites)
%  GPST              x-ecef(m)      y-ecef(m)      z-ecef(m)   Q  ns   sdx(m)   sdy(m)   sdz(m)  sdxy(m)  sdyz(m)  sdzx(m) age(s)  ratio
2173    637.000  -1050083.6476  -4468051.1742   4415386.4725   2   8   0.4142   0.8766   1.1013   0.4168  -0.8161  -0.3141 -30.00    1.3
2173    638.000  -1050083.6272  -4468051.0853   4415386.4097   2   8   0.2947   0.6236   0.7834   0.2968  -0.5806  -0.2242 -29.00    1.3
2173    639.000  -1050083.6002  -4468050.9236   4415386.3165   2   8   0.2413   0.5106   0.6413   0.2430  -0.4754  -0.1837 -28.00    1.3
2173    640.000  -1050083.5846  -4468050.8635   4415386.2279   2   8   0.2093   0.4430   0.5564   0.2108  -0.4124  -0.1593 -27.00    1.3
2173    641.000  -1050083.5694  -4468050.7927   4415386.1727   2   8   0.1874   0.3967   0.4982   0.1887  -0.3693  -0.1426 -26.00    1.3
2173    642.000  -1050083.5838  -4468050.8090   4415386.1990   2   8   0.1713   0.3625   0.4552   0.1724  -0.3374  -0.1303 -25.00    1.4
2173    643.000  -1050083.5833  -4468050.8345   4415386.2036   2   8   0.1587   0.3358   0.4218   0.1597  -0.3126  -0.1207 -24.00    1.4
2173    644.000  -1050083.5661  -4468050.8184   4415386.2066   2   8   0.1485   0.3143   0.3947   0.1495  -0.2925  -0.1129 -23.00    1.5
2173    645.000  -1050083.5879  -4468050.8269   4415386.1765   2   8   0.1400   0.2965   0.3722   0.1410  -0.2759  -0.1065 -22.00    1.5
2173    646.000  -1050083.5865  -4468050.8243   4415386.1689   2   8   0.1329   0.2813   0.3532   0.1338  -0.2618  -0.1010 -21.00    1.5
2173    647.000  -1050083.5831  -4468050.8160   4415386.1698   2   8   0.1267   0.2683   0.3368   0.1275  -0.2496  -0.0963 -20.00    1.5
2173    648.000  -1050083.5812  -4468050.8117   4415386.1475   2   8   0.1213   0.2569   0.3224   0.1221  -0.2390  -0.0922 -19.00    1.5
2173    649.000  -1050083.5816  -4468050.8384   4415386.1658   2   8   0.1166   0.2468   0.3097   0.1173  -0.2295  -0.0886 -18.00    1.5
2173    650.000  -1050083.5835  -4468050.8309   4415386.1694   2   8   0.1123   0.2378   0.2983   0.1130  -0.2211  -0.0854 -17.00    1.6
2173    651.000  -1050083.5728  -4468050.7989   4415386.1443   2   8   0.1085   0.2296   0.2880   0.1092  -0.2135  -0.0825 -16.00    1.6
2173    652.000  -1050083.5760  -4468050.8040   4415386.1478   2   8   0.1050   0.2223   0.2788   0.1057  -0.2067  -0.0799 -15.00    1.6
2173    653.000  -1050083.5688  -4468050.7999   4415386.1398   2   8   0.1018   0.2156   0.2703   0.1025  -0.2004  -0.0775 -14.00    1.6
2173    654.000  -1050083.5712  -4468050.8135   4415386.1580   2   8   0.0989   0.2094   0.2625   0.0996  -0.1946  -0.0753 -13.00    1.6
2173    655.000  -1050083.5700  -4468050.8137   4415386.1661   2   8   0.0962   0.2037   0.2553   0.0969  -0.1893  -0.0733 -12.00    1.6
2173    656.000  -1050083.5781  -4468050.8290   4415386.1661   2   8   0.0937   0.1985   0.2486   0.0944  -0.1844  -0.0714 -11.00    1.5
2173    657.000  -1050083.5838  -4468050.8367   4415386.1666   2   8   0.0915   0.1936   0.2424   0.0921  -0.1798  -0.0697 -10.00    1.4
2173    658.000  -1050083.5833  -4468050.8316   4415386.1489   2   8   0.0893   0.1890   0.2366   0.0899  -0.1755  -0.0680  -9.00    1.4
2173    659.000  -1050083.5876  -4468050.8305   4415386.1515   2   8   0.0873   0.1847   0.2311   0.0879  -0.1714  -0.0665  -8.00    1.3
2173    660.000  -1050083.5830  -4468050.8156   4415386.1332   2   8   0.0854   0.1807   0.2260   0.0860  -0.1677  -0.0651  -7.00    1.2
2173    661.000  -1050083.5748  -4468050.7979   4415386.1253   2   8   0.0837   0.1769   0.2212   0.0842  -0.1641  -0.0637  -6.00    1.1
2173    662.000  -1050083.5740  -4468050.7963   4415386.1162   2   8   0.0820   0.1734   0.2166   0.0825  -0.1607  -0.0625  -5.00    1.0
2173    663.000  -1050083.5715  -4468050.7830   4415386.0913   2   8   0.0804   0.1700   0.2122   0.0809  -0.1575  -0.0612  -4.00    1.0
2173    664.000  -1050083.5693  -4468050.7817   4415386.0951   2   8   0.0790   0.1668   0.2081   0.0794  -0.1544  -0.0601  -3.00    1.1
2173    665.000  -1050083.5709  -4468050.7688   4415386.0636   2   8   0.0775   0.1638   0.2042   0.0780  -0.1516  -0.0589  -2.00    1.1
2173    666.000  -1050083.5622  -4468050.7507   4415386.0424   2   8   0.0762   0.1610   0.2005   0.0766  -0.1488  -0.0579  -1.00    1.2
2173    667.000  -1050083.5602  -4468050.7394   4415386.0244   2   8   0.0750   0.1583   0.1970   0.0753  -0.1462  -0.0569   0.00    1.3
2173    668.000  -1050083.5557  -4468050.7227   4415386.0010   2   8   0.0738   0.1557   0.1936   0.0742  -0.1437  -0.0559   0.00    1.3
2173    669.000  -1050083.5562  -4468050.7255   4415385.9953   2   8   0.0727   0.1532   0.1904   0.0730  -0.1414  -0.0551   0.00    1.4
2173    670.000  -1050083.5549  -4468050.7167   4415385.9772   2   8   0.0716   0.1509   0.1873   0.0719  -0.1391  -0.0542   0.00    1.4
2173    671.000  -1050083.5570  -4468050.7092   4415385.9691   2   8   0.0705   0.1486   0.1844   0.0708  -0.1369  -0.0533   0.00    1.4
2173    672.000  -1050083.5583  -4468050.7054   4415385.9694   2   8   0.0695   0.1465   0.1815   0.0698  -0.1348  -0.0525   0.00    1.5
2173    673.000  -1050083.5554  -4468050.6973   4415385.9595   2   8   0.0686   0.1444   0.1788   0.0688  -0.1328  -0.0517   0.00    1.5
2173    674.000  -1050083.5574  -4468050.6987   4415385.9687   2   8   0.0677   0.1424   0.1761   0.0679  -0.1308  -0.0510   0.00    1.5
2173    675.000  -1050083.5563  -4468050.6950   4415385.9626   2   8   0.0668   0.1405   0.1735   0.0669  -0.1289  -0.0502   0.00    1.5
2173    676.000  -1050083.5539  -4468050.6837   4415385.9514   2   8   0.0659   0.1386   0.1710   0.0661  -0.1271  -0.0495   0.00    1.5
2173    677.000  -1050083.5540  -4468050.6759   4415385.9431   2   8   0.0651   0.1368   0.1685   0.0652  -0.1253  -0.0489   0.00    1.5
2173    678.000  -1050083.5561  -4468050.6680   4415385.9356   2   8   0.0644   0.1350   0.1662   0.0644  -0.1235  -0.0482   0.00    1.5
2173    679.000  -1050083.5607  -4468050.6790   4415385.9475   2   8   0.0636   0.1333   0.1638   0.0636  -0.1218  -0.0475   0.00    1.5
2173    680.000  -1050083.5592  -4468050.6813   4415385.9477   2   8   0.0628   0.1317   0.1616   0.0629  -0.1201  -0.0469   0.00    1.5
2173    681.000  -1050083.5646  -4468050.6952   4415385.9581   2   8   0.0621   0.1301   0.1594   0.0621  -0.1185  -0.0463   0.00    1.5
2173    682.000  -1050083.5691  -4468050.7169   4415385.9729   2   8   0.0614   0.1285   0.1572   0.0614  -0.1169  -0.0457   0.00    1.5
2173    683.000  -1050083.5722  -4468050.7323   4415385.9855   2   8   0.0608   0.1270   0.1551   0.0607  -0.1154  -0.0451   0.00    1.4
2173    684.000  -1050083.5786  -4468050.7490   4415386.0062   2   8   0.0601   0.1255   0.1530   0.0600  -0.1139  -0.0445   0.00    1.4
2173    685.000  -1050083.5791  -4468050.7667   4415386.0331   2   8   0.0595   0.1241   0.1510   0.0594  -0.1124  -0.0439   0.00    1.4
2173    686.000  -1050083.5828  -4468050.7771   4415386.0508   2   8   0.0589   0.1227   0.1490   0.0587  -0.1109  -0.0433   0.00    1.4
2173    687.000  -1050083.5836  -4468050.7884   4415386.0755   2   8   0.0583   0.1213   0.1470   0.0581  -0.1095  -0.0428   0.00    1.3
2173    688.000  -1050083.5817  -4468050.7945   4415386.0838   2   8   0.0577   0.1200   0.1451   0.0575  -0.1081  -0.0423   0.00    1.3
2173    689.000  -1050083.5825  -4468050.8104   4415386.1072   2   8   0.0572   0.1187   0.1432   0.0569  -0.1067  -0.0417   0.00    1.3
2173    690.000  -1050083.5836  -4468050.8296   4415386.1440   2   8   0.0566   0.1175   0.1414   0.0562  -0.1053  -0.0413   0.00    1.3
2173    691.000  -1050083.5856  -4468050.8433   4415386.1661   2   8   0.0561   0.1162   0.1395   0.0557  -0.1040  -0.0407   0.00    1.3
2173    692.000  -1050083.5889  -4468050.8635   4415386.1958   2   8   0.0556   0.1150   0.1377   0.0552  -0.1027  -0.0402   0.00    1.2
2173    693.000  -1050083.5888  -4468050.8812   4415386.2278   2   8   0.0551   0.1138   0.1360   0.0546  -0.1014  -0.0398   0.00    1.2
2173    694.000  -1050083.5890  -4468050.9006   4415386.2582   2   8   0.0545   0.1126   0.1342   0.0541  -0.1002  -0.0393   0.00    1.2
2173    695.000  -1050083.5927  -4468050.9214   4415386.2851   2   8   0.0541   0.1115   0.1325   0.0536  -0.0989  -0.0388   0.00    1.2
2173    696.000  -1050083.5903  -4468050.9330   4415386.3142   2   8   0.0536   0.1104   0.1309   0.0531  -0.0977  -0.0384   0.00    1.2
2173    697.000  -1050083.5984  -4468050.9569   4415386.3461   2   8   0.0531   0.1093   0.1292   0.0526  -0.0965  -0.0379   0.00    1.1
2173    698.000  -1050083.6022  -4468050.9798   4415386.3754   2   8   0.0527   0.1082   0.1276   0.0521  -0.0953  -0.0374   0.00    1.1
2173    699.000  -1050083.6046  -4468050.9986   4415386.3978   2   8   0.0523   0.1072   0.1260   0.0515  -0.0942  -0.0370   0.00    1.1
2173    700.000  -1050083.6103  -4468051.0224   4415386.4346   2   8   0.0519   0.1062   0.1244   0.0511  -0.0930  -0.0366   0.00    1.1
2173    701.000  -1050083.6110  -4468051.0390   4415386.4674   2   8   0.0515   0.1052   0.1228   0.0507  -0.0919  -0.0361   0.00    1.1
2173    702.000  -1050083.6131  -4468051.0540   4415386.4880   2   8   0.0510   0.1042   0.1213   0.0503  -0.0908  -0.0357   0.00    1.0
2173    703.000  -1050083.6176  -4468051.0741   4415386.5149   2   8   0.0506   0.1032   0.1198   0.0498  -0.0897  -0.0353   0.00    1.0
2173    704.000  -1050083.6191  -4468051.0821   4415386.5235   2   8   0.0503   0.1023   0.1183   0.0493  -0.0886  -0.0349   0.00    1.0
2173    705.000  -1050083.6233  -4468051.1002   4415386.5502   2   8   0.0499   0.1013   0.1168   0.0490  -0.0875  -0.0345   0.00    1.0
2173    706.000  -1050083.6254  -4468051.1075   4415386.5588   2   8   0.0495   0.1004   0.1153   0.0485  -0.0865  -0.0341   0.00    1.0
2173    707.000  -1050083.6263  -4468051.1266   4415386.5774   2   8   0.0491   0.0995   0.1139   0.0481  -0.0855  -0.0337   0.00    1.0
2173    708.000  -1050083.6299  -4468051.1381   4415386.5867   2   8   0.0488   0.0986   0.1125   0.0477  -0.0844  -0.0334   0.00    1.1
2173    709.000  -1050083.6324  -4468051.1576   4415386.6127   2   8   0.0485   0.0978   0.1111   0.0474  -0.0834  -0.0329   0.00    1.1
2173    710.000  -1050083.6338  -4468051.1712   4415386.6235   2   8   0.0481   0.0969   0.1098   0.0470  -0.0824  -0.0326   0.00    1.1
2173    711.000  -1050083.6354  -4468051.1846   4415386.6447   2   8   0.0478   0.0961   0.1084   0.0466  -0.0815  -0.0322   0.00    1.1
2173    712.000  -1050083.6409  -4468051.2045   4415386.6695   2   8   0.0474   0.0953   0.1071   0.0462  -0.0805  -0.0318   0.00    1.1
2173    713.000  -1050083.6464  -4468051.2277   4415386.6985   2   8   0.0471   0.0945   0.1058   0.0459  -0.0796  -0.0315   0.00    1.1
2173    714.000  -1050083.6498  -4468051.2432   4415386.7224   2   8   0.0467   0.0937   0.1045   0.0455  -0.0787  -0.0312   0.00    1.1
2173    715.000  -1050083.6524  -4468051.2572   4415386.7404   2   8   0.0465   0.0929   0.1032   0.0451  -0.0778  -0.0308   0.00    1.2
2173    716.000  -1050083.6563  -4468051.2736   4415386.7678   2   8   0.0462   0.0921   0.1020   0.0448  -0.0768  -0.0305   0.00    1.2
2173    717.000  -1050083.6591  -4468051.2800   4415386.7803   2   8   0.0458   0.0914   0.1007   0.0445  -0.0760  -0.0302   0.00    1.2
2173    718.000  -1050083.6596  -4468051.2902   4415386.7973   2   8   0.0456   0.0907   0.0995   0.0441  -0.0751  -0.0299   0.00    1.2
2173    719.000  -1050083.6615  -4468051.3041   4415386.8126   2   8   0.0453   0.0899   0.0983   0.0438  -0.0742  -0.0295   0.00    1.2
2173    720.000  -1050083.6643  -4468051.3179   4415386.8291   2   8   0.0450   0.0892   0.0971   0.0435  -0.0734  -0.0292   0.00    1.2
2173    721.000  -1050083.6624  -4468051.3224   4415386.8472   2   8   0.0447   0.0885   0.0960   0.0432  -0.0726  -0.0289   0.00    1.2
2173    722.000  -1050083.6646  -4468051.3370   4415386.8662   2   8   0.0444   0.0878   0.0948   0.0429  -0.0717  -0.0286   0.00    1.2
2173    723.000  -1050083.6661  -4468051.3925   4415386.9754   2   8   0.0442   0.0872   0.0937   0.0426  -0.0709  -0.0283   0.00    1.2
2173    724.000  -1050083.6680  -4468051.4163   4415387.0255   2   8   0.0439   0.0865   0.0926   0.0423  -0.0701  -0.0280   0.00    1.2
2173    725.000  -1050083.6726  -4468051.4366   4415387.0686   2   8   0.0437   0.0859   0.0915   0.0420  -0.0694  -0.0277   0.00    1.2
2173    726.000  -1050083.6785  -4468051.4640   4415387.1160   2   8   0.0434   0.0852   0.0904   0.0417  -0.0686  -0.0274   0.00    1.2
2173    727.000  -1050083.6780  -4468051.4826   4415387.1529   2   8   0.0432   0.0846   0.0893   0.0414  -0.0678  -0.0271   0.00    1.2
2173    728.000  -1050083.6834  -4468051.5072   4415387.1940   2   8   0.0429   0.0840   0.0883   0.0411  -0.0671  -0.0268   0.00    1.2
2173    729.000  -1050083.6899  -4468051.5354   4415387.2403   2   8   0.0427   0.0833   0.0873   0.0409  -0.0663  -0.0266   0.00    1.2
2173    730.000  -1050083.6952  -4468051.5533   4415387.2751   2   8   0.0423   0.0827   0.0863   0.0406  -0.0656  -0.0263   0.00    1.2
2173    731.000  -1050083.6976  -4468051.5789   4415387.3234   2   8   0.0421   0.0821   0.0853   0.0403  -0.0649  -0.0261   0.00    1.2
2173    732.000  -1050083.7068  -4468051.6119   4415387.3699   2   8   0.0419   0.0815   0.0843   0.0402  -0.0642  -0.0257   0.00    1.2
2173    733.000  -1050083.7096  -4468051.6300   4415387.4026   2   8   0.0417   0.0810   0.0833   0.0398  -0.0635  -0.0255   0.00    1.2
2173    734.000  -1050083.7062  -4468051.6510   4415387.4397   2   8   0.0415   0.0804   0.0823   0.0396  -0.0629  -0.0253   0.00    1.2
2173    735.000  -1050083.7094  -4468051.6708   4415387.4771   2   8   0.0413   0.0799   0.0814   0.0393  -0.0622  -0.0250   0.00    1.2
2173    736.000  -1050083.7121  -4468051.6909   4415387.5098   2   8   0.0410   0.0793   0.0805   0.0391  -0.0615  -0.0248   0.00    1.2
2173    737.000  -1050083.7130  -4468051.7056   4415387.5420   2   8   0.0408   0.0788   0.0796   0.0388  -0.0609  -0.0246   0.00    1.2
2173    738.000  -1050083.7173  -4468051.7272   4415387.5720   2   8   0.0406   0.0782   0.0787   0.0386  -0.0602  -0.0242   0.00    1.2
2173    739.000  -1050083.7223  -4468051.7491   4415387.6050   2   8   0.0404   0.0778   0.0778   0.0383  -0.0596  -0.0241   0.00    1.2
2173    740.000  -1050083.7266  -4468051.7700   4415387.6371   2   8   0.0402   0.0773   0.0769   0.0381  -0.0590  -0.0238   0.00    1.2
2173    741.000  -1050083.7293  -4468051.7855   4415387.6640   2   8   0.0400   0.0768   0.0761   0.0378  -0.0584  -0.0236   0.00    1.2
2173    742.000  -1050083.7332  -4468051.8052   4415387.6952   2   8   0.0398   0.0763   0.0752   0.0376  -0.0577  -0.0234   0.00    1.1
2173    743.000  -1050083.7383  -4468051.8253   4415387.7252   2   8   0.0395   0.0757   0.0744   0.0374  -0.0572  -0.0231   0.00    1.1
2173    744.000  -1050083.7418  -4468051.8428   4415387.7553   2   8   0.0393   0.0752   0.0736   0.0373  -0.0566  -0.0229   0.00    1.1
2173    745.000  -1050083.7440  -4468051.8625   4415387.7848   2   8   0.0392   0.0748   0.0728   0.0370  -0.0560  -0.0228   0.00    1.1
2173    746.000  -1050083.7453  -4468051.8774   4415387.8089   2   8   0.0390   0.0743   0.0720   0.0368  -0.0555  -0.0226   0.00    1.1
2173    747.000  -1050083.7492  -4468051.8946   4415387.8352   2   8   0.0388   0.0738   0.0712   0.0366  -0.0549  -0.0223   0.00    1.1
2173    748.000  -1050083.7542  -4468051.9125   4415387.8597   2   8   0.0386   0.0734   0.0704   0.0364  -0.0544  -0.0221   0.00    1.1
2173    749.000  -1050083.7581  -4468051.9270   4415387.8773   2   8   0.0384   0.0730   0.0697   0.0362  -0.0538  -0.0219   0.00    1.1
2173    750.000  -1050083.7608  -4468051.9412   4415387.8962   2   8   0.0382   0.0725   0.0689   0.0360  -0.0533  -0.0217   0.00    1.1
2173    751.000  -1050083.7670  -4468051.9585   4415387.9171   2   8   0.0381   0.0721   0.0682   0.0358  -0.0528  -0.0215   0.00    1.1
2173    752.000  -1050083.7695  -4468051.9696   4415387.9320   2   8   0.0379   0.0717   0.0675   0.0356  -0.0522  -0.0214   0.00    1.1
2173    753.000  -1050083.7743  -4468051.9867   4415387.9509   2   8   0.0376   0.0712   0.0668   0.0354  -0.0518  -0.0211   0.00    1.1
2173    754.000  -1050083.7764  -4468051.9982   4415387.9714   2   8   0.0375   0.0709   0.0661   0.0352  -0.0512  -0.0210   0.00    1.1
2173    755.000  -1050083.7803  -4468052.0155   4415387.9975   2   8   0.0373   0.0704   0.0654   0.0351  -0.0508  -0.0208   0.00    1.1
2173    756.000  -1050083.7830  -4468052.0264   4415388.0094   2   8   0.0372   0.0701   0.0647   0.0348  -0.0503  -0.0206   0.00    1.1
2173    757.000  -1050083.7989  -4468052.0533   4415388.0322   2   8   0.0370   0.0697   0.0640   0.0346  -0.0498  -0.0204   0.00    1.1
2173    758.000  -1050083.7994  -4468052.0585   4415388.0610   2   8   0.0368   0.0693   0.0634   0.0345  -0.0494  -0.0203   0.00    1.1
2173    759.000  -1050083.8021  -4468052.0809   4415388.0821   2   8   0.0366   0.0689   0.0627   0.0343  -0.0489  -0.0200   0.00    1.1
2173    760.000  -1050083.8097  -4468052.1016   4415388.1046   2   8   0.0365   0.0685   0.0621   0.0342  -0.0485  -0.0199   0.00    1.1
2173    761.000  -1050083.8169  -4468052.1164   4415388.1176   2   8   0.0363   0.0681   0.0615   0.0339  -0.0480  -0.0197   0.00    1.1
2173    762.000  -1050083.8197  -4468052.1260   4415388.1337   2   8   0.0362   0.0677   0.0609   0.0338  -0.0476  -0.0196   0.00    1.1
2173    763.000  -1050083.8232  -4468052.1404   4415388.1545   2   8   0.0360   0.0674   0.0602   0.0336  -0.0472  -0.0194   0.00    1.1
2173    764.000  -1050083.8260  -4468052.1574   4415388.1764   2   8   0.0359   0.0670   0.0596   0.0334  -0.0467  -0.0193   0.00    1.1
2173    765.000  -1050083.8299  -4468052.1739   4415388.1992   2   8   0.0357   0.0667   0.0591   0.0332  -0.0463  -0.0192   0.00    1.1
2173    766.000  -1050083.8350  -4468052.1878   4415388.2176   2   8   0.0356   0.0663   0.0585   0.0331  -0.0459  -0.0190   0.00    1.1
2173    767.000  -1050083.8399  -4468052.2033   4415388.2335   2   8   0.0354   0.0660   0.0579   0.0329  -0.0455  -0.0188   0.00    1.1
2173    768.000  -1050083.8454  -4468052.2213   4415388.2554   2   8   0.0353   0.0657   0.0573   0.0328  -0.0451  -0.0187   0.00    1.1
2173    769.000  -1050083.8492  -4468052.2355   4415388.2713   2   8   0.0352   0.0653   0.0568   0.0326  -0.0447  -0.0185   0.00    1.1
2173    770.000  -1050083.8522  -4468052.2453   4415388.2831   2   8   0.0350   0.0650   0.0562   0.0324  -0.0443  -0.0184   0.00    1.1
2173    771.000  -1050083.8550  -4468052.2587   4415388.2983   2   8   0.0349   0.0646   0.0557   0.0323  -0.0440  -0.0183   0.00    1.1
2173    772.000  -1050083.8597  -4468052.2707   4415388.3108   2   8   0.0347   0.0643   0.0552   0.0322  -0.0436  -0.0181   0.00    1.1
2173    773.000  -1050083.8657  -4468052.2882   4415388.3273   2   8   0.0346   0.0640   0.0547   0.0320  -0.0432  -0.0180   0.00    1.1
2173    774.000  -1050083.8693  -4468052.2979   4415388.3339   2   8   0.0344   0.0637   0.0541   0.0318  -0.0428  -0.0179   0.00    1.1
2173    775.000  -1050083.8725  -4468052.3095   4415388.3426   2   8   0.0343   0.0634   0.0536   0.0317  -0.0425  -0.0177   0.00    1.1
2173    776.000  -1050083.8753  -4468052.3156   4415388.3441   2   8   0.0342   0.0631   0.0531   0.0316  -0.0421  -0.0176   0.00    1.1
2173    777.000  -1050083.8786  -4468052.3274   4415388.3564   2   8   0.0340   0.0627   0.0526   0.0315  -0.0418  -0.0174   0.00    1.0
2173    778.000  -1050083.8808  -4468052.3313   4415388.3546   2   8   0.0339   0.0625   0.0522   0.0312  -0.0414  -0.0174   0.00    1.0
2173    779.000  -1050083.8846  -4468052.3377   4415388.3564   2   8   0.0338   0.0622   0.0517   0.0311  -0.0411  -0.0172   0.00    1.0
2173    780.000  -1050083.8864  -4468052.3430   4415388.3631   2   8   0.0337   0.0619   0.0512   0.0310  -0.0408  -0.0171   0.00    1.0
2173    781.000  -1050083.8894  -4468052.3473   4415388.3609   2   8   0.0335   0.0616   0.0508   0.0308  -0.0404  -0.0170   0.00    1.0
2173    782.000  -1050083.8927  -4468052.3569   4415388.3639   2   8   0.0334   0.0613   0.0503   0.0308  -0.0401  -0.0168   0.00    1.0
2173    783.000  -1050083.8988  -4468052.3736   4415388.3680   2   8   0.0333   0.0610   0.0499   0.0306  -0.0398  -0.0167   0.00    1.0
2173    784.000  -1050083.9008  -4468052.3778   4415388.3719   2   8   0.0331   0.0607   0.0494   0.0305  -0.0395  -0.0165   0.00    1.0
2173    785.000  -1050083.9058  -4468052.3892   4415388.3692   2   8   0.0330   0.0605   0.0490   0.0303  -0.0392  -0.0165   0.00    1.1
2173    786.000  -1050083.9103  -4468052.4036   4415388.3806   2   8   0.0329   0.0602   0.0485   0.0302  -0.0389  -0.0164   0.00    1.1
2173    787.000  -1050083.9164  -4468052.4183   4415388.3795   2   8   0.0327   0.0599   0.0481   0.0302  -0.0386  -0.0163   0.00    1.1
2173    788.000  -1050083.9178  -4468052.4278   4415388.3795   2   8   0.0326   0.0597   0.0477   0.0299  -0.0383  -0.0162   0.00    1.1
2173    789.000  -1050083.9246  -4468052.4418   4415388.3876   2   8   0.0325   0.0594   0.0473   0.0298  -0.0380  -0.0161   0.00    1.1
2173    790.000  -1050083.9267  -4468052.4468   4415388.3853   2   8   0.0324   0.0591   0.0469   0.0297  -0.0377  -0.0159   0.00    1.1
2173    791.000  -1050083.9298  -4468052.4556   4415388.3887   2   8   0.0323   0.0589   0.0465   0.0296  -0.0374  -0.0158   0.00    1.1
2173    792.000  -1050083.9329  -4468052.4576   4415388.3789   2   8   0.0322   0.0587   0.0461   0.0293  -0.0371  -0.0158   0.00    1.1
2173    793.000  -1050083.9367  -4468052.4637   4415388.3730   2   8   0.0320   0.0584   0.0457   0.0293  -0.0369  -0.0156   0.00    1.1
2173    794.000  -1050083.9410  -4468052.4674   4415388.3677   2   8   0.0319   0.0582   0.0453   0.0292  -0.0366  -0.0155   0.00    1.1
2173    795.000  -1050083.9400  -4468052.4685   4415388.3581   2   8   0.0318   0.0579   0.0449   0.0291  -0.0364  -0.0155   0.00    1.1
2173    796.000  -1050083.9588  -4468052.4862   4415388.3616   2   8   0.0317   0.0576   0.0446   0.0291  -0.0361  -0.0153   0.00    1.1
2173    797.000  -1050083.9636  -4468052.4881   4415388.3480   2   8   0.0316   0.0574   0.0442   0.0288  -0.0358  -0.0152   0.00    1.2
2173    798.000  -1050083.9675  -4468052.4895   4415388.3342   2   8   0.0315   0.0572   0.0438   0.0287  -0.0356  -0.0152   0.00    1.2
2173    799.000  -1050083.9683  -4468052.4914   4415388.3228   2   8   0.0313   0.0570   0.0435   0.0286  -0.0353  -0.0152   0.00    1.2
2173    800.000  -1050083.9727  -4468052.4915   4415388.3066   2   8   0.0312   0.0567   0.0431   0.0285  -0.0351  -0.0150   0.00    1.2
2173    801.000  -1050083.9756  -4468052.4864   4415388.2897   2   8   0.0311   0.0565   0.0428   0.0284  -0.0348  -0.0149   0.00    1.2
2173    802.000  -1050083.9767  -4468052.4873   4415388.2795   2   8   0.0310   0.0562   0.0424   0.0284  -0.0346  -0.0147   0.00    1.2
2173    803.000  -1050083.9811  -4468052.4845   4415388.2632   2   8   0.0310   0.0561   0.0421   0.0282  -0.0343  -0.0147   0.00    1.2
2173    804.000  -1050083.9852  -4468052.4839   4415388.2476   2   8   0.0308   0.0558   0.0418   0.0281  -0.0341  -0.0146   0.00    1.2
2173    805.000  -1050083.9884  -4468052.4820   4415388.2288   2   8   0.0308   0.0556   0.0414   0.0280  -0.0339  -0.0146   0.00    1.2
2173    806.000  -1050083.9930  -4468052.4761   4415388.2092   2   8   0.0307   0.0554   0.0411   0.0278  -0.0336  -0.0145   0.00    1.2
2173    807.000  -1050083.9910  -4468052.4708   4415388.1961   2   8   0.0305   0.0551   0.0408   0.0278  -0.0335  -0.0143   0.00    1.2
2173    808.000  -1050083.9957  -4468052.4708   4415388.1697   2   8   0.0304   0.0549   0.0405   0.0277  -0.0332  -0.0143   0.00    1.2
2173    809.000  -1050083.9972  -4468052.4797   4415388.1623   2   8   0.0303   0.0547   0.0402   0.0276  -0.0330  -0.0142   0.00    1.2
2173    810.000  -1050083.9961  -4468052.4775   4415388.1386   2   8   0.0302   0.0546   0.0399   0.0274  -0.0327  -0.0142   0.00    1.2
2173    811.000  -1050083.9928  -4468052.4663   4415388.1212   2   8   0.0301   0.0543   0.0396   0.0274  -0.0326  -0.0140   0.00    1.2
2173    812.000  -1050084.0007  -4468052.4734   4415388.1068   2   8   0.0300   0.0541   0.0393   0.0273  -0.0324  -0.0139   0.00    1.2
2173    813.000  -1050083.9929  -4468052.4734   4415388.0806   2   8   0.0299   0.0539   0.0390   0.0272  -0.0322  -0.0139   0.00    1.2
2173    814.000  -1050083.9940  -4468052.4723   4415388.0649   2   8   0.0298   0.0537   0.0387   0.0270  -0.0319  -0.0139   0.00    1.2
2173    815.000  -1050084.0053  -4468052.4795   4415388.0535   2   8   0.0297   0.0535   0.0384   0.0270  -0.0318  -0.0137   0.00    1.2
2173    816.000  -1050084.0147  -4468052.4981   4415388.0515   2   8   0.0296   0.0533   0.0381   0.0268  -0.0316  -0.0137   0.00    1.2
2173    817.000  -1050084.0158  -4468052.5219   4415388.0386   2   8   0.0295   0.0531   0.0379   0.0267  -0.0314  -0.0135   0.00    1.2
2173    818.000  -1050084.0132  -4468052.5331   4415388.0423   2   8   0.0294   0.0529   0.0376   0.0266  -0.0311  -0.0135   0.00    1.2
2173    819.000  -1050084.0129  -4468052.5375   4415388.0348   2   8   0.0293   0.0527   0.0373   0.0266  -0.0310  -0.0134   0.00    1.2
2173    820.000  -1050084.0138  -4468052.5400   4415388.0209   2   8   0.0293   0.0525   0.0370   0.0264  -0.0308  -0.0134   0.00    1.2
2173    821.000  -1050084.0190  -4468052.5490   4415388.0262   2   8   0.0292   0.0523   0.0368   0.0263  -0.0306  -0.0133   0.00    1.2
2173    822.000  -1050084.0163  -4468052.5479   4415388.0092   2   8   0.0291   0.0522   0.0365   0.0263  -0.0304  -0.0132   0.00    1.2
2173    823.000  -1050084.0221  -4468052.5512   4415387.9979   2   8   0.0290   0.0520   0.0363   0.0262  -0.0302  -0.0131   0.00    1.2
2173    824.000  -1050084.0232  -4468052.5610   4415387.9823   2   8   0.0289   0.0518   0.0360   0.0261  -0.0301  -0.0131   0.00    1.2
2173    825.000  -1050084.0259  -4468052.5697   4415387.9650   2   8   0.0288   0.0517   0.0358   0.0260  -0.0298  -0.0130   0.00    1.3
2173    826.000  -1050084.0298  -4468052.5816   4415387.9591   2   8   0.0287   0.0514   0.0355   0.0260  -0.0297  -0.0129   0.00    1.3
2173    827.000  -1050084.0335  -4468052.5935   4415387.9512   2   8   0.0287   0.0513   0.0353   0.0258  -0.0295  -0.0129   0.00    1.3
2173    828.000  -1050084.0327  -4468052.5967   4415387.9450   2   8   0.0285   0.0511   0.0350   0.0258  -0.0294  -0.0128   0.00    1.3
2173    829.000  -1050084.0409  -4468052.6201   4415387.9441   2   8   0.0284   0.0509   0.0348   0.0257  -0.0292  -0.0127   0.00    1.3
2173    830.000  -1050084.0431  -4468052.6290   4415387.9324   2   8   0.0283   0.0507   0.0346   0.0255  -0.0290  -0.0127   0.00    1.3
2173    831.000  -1050084.0486  -4468052.6489   4415387.9248   2   8   0.0282   0.0505   0.0343   0.0255  -0.0289  -0.0126   0.00    1.3
2173    832.000  -1050084.0515  -4468052.6605   4415387.9199   2   8   0.0282   0.0504   0.0341   0.0253  -0.0287  -0.0126   0.00    1.3
2173    833.000  -1050084.0507  -4468052.6646   4415387.9129   2   8   0.0281   0.0502   0.0339   0.0253  -0.0286  -0.0125   0.00    1.3
2173    834.000  -1050084.0523  -4468052.6709   4415387.9042   2   8   0.0280   0.0500   0.0336   0.0253  -0.0284  -0.0125   0.00    1.3
2173    835.000  -1050084.0507  -4468052.6974   4415387.9014   2   8   0.0280   0.0499   0.0334   0.0251  -0.0283  -0.0124   0.00    1.3
2173    836.000  -1050084.0504  -4468052.6911   4415387.8796   2   8   0.0278   0.0497   0.0332   0.0250  -0.0281  -0.0123   0.00    1.3
2173    837.000  -1050084.0501  -4468052.6838   4415387.8595   2   8   0.0277   0.0496   0.0330   0.0249  -0.0279  -0.0123   0.00    1.3
2173    838.000  -1050084.0519  -4468052.6792   4415387.8361   2   8   0.0277   0.0494   0.0328   0.0249  -0.0278  -0.0123   0.00    1.3
2173    839.000  -1050084.0498  -4468052.6753   4415387.8179   2   8   0.0276   0.0492   0.0326   0.0248  -0.0277  -0.0121   0.00    1.3
2173    840.000  -1050084.0511  -4468052.6744   4415387.7991   2   8   0.0275   0.0491   0.0324   0.0247  -0.0275  -0.0122   0.00    1.3
2173    841.000  -1050084.0485  -4468052.6645   4415387.7799   2   8   0.0275   0.0489   0.0322   0.0246  -0.0273  -0.0121   0.00    1.3
2173    842.000  -1050084.0481  -4468052.6527   4415387.7506   2   8   0.0273   0.0488   0.0320   0.0245  -0.0272  -0.0120   0.00    1.3
2173    843.000  -1050084.0469  -4468052.6539   4415387.7332   2   8   0.0273   0.0486   0.0318   0.0245  -0.0270  -0.0119   0.00    1.3
2173    844.000  -1050084.0461  -4468052.6490   4415387.7134   2   8   0.0272   0.0485   0.0316   0.0244  -0.0269  -0.0119   0.00    1.3
2173    845.000  -1050084.0452  -4468052.6418   4415387.6947   2   8   0.0272   0.0483   0.0314   0.0244  -0.0268  -0.0119   0.00    1.3
2173    846.000  -1050084.0428  -4468052.6390   4415387.6789   2   8   0.0271   0.0482   0.0312   0.0242  -0.0266  -0.0118   0.00    1.3
2173    847.000  -1050084.0457  -4468052.6352   4415387.6530   2   8   0.0270   0.0480   0.0310   0.0241  -0.0265  -0.0117   0.00    1.3
2173    848.000  -1050084.0436  -4468052.6359   4415387.6387   2   8   0.0269   0.0479   0.0308   0.0240  -0.0263  -0.0118   0.00    1.3
2173    849.000  -1050084.0418  -4468052.6303   4415387.6221   2   8   0.0268   0.0477   0.0306   0.0240  -0.0262  -0.0117   0.00    1.3
2173    850.000  -1050084.0414  -4468052.6220   4415387.6065   2   8   0.0267   0.0475   0.0304   0.0240  -0.0262  -0.0115   0.00    1.3
2173    851.000  -1050084.0409  -4468052.6270   4415387.6019   2   8   0.0267   0.0474   0.0303   0.0238  -0.0260  -0.0116   0.00    1.3
2173    852.000  -1050084.0365  -4468052.6203   4415387.5821   2   8   0.0266   0.0473   0.0301   0.0237  -0.0258  -0.0115   0.00    1.3
2173    853.000  -1050084.0354  -4468052.6155   4415387.5674   2   8   0.0266   0.0472   0.0299   0.0236  -0.0257  -0.0115   0.00    1.3
2173    854.000  -1050084.0368  -4468052.6102   4415387.5469   2   8   0.0265   0.0470   0.0297   0.0237  -0.0256  -0.0114   0.00    1.3
2173    855.000  -1050084.0349  -4468052.6097   4415387.5410   2   8   0.0265   0.0469   0.0296   0.0235  -0.0254  -0.0114   0.00    1.3
2173    856.000  -1050084.0391  -4468052.6137   4415387.5230   2   8   0.0263   0.0467   0.0294   0.0234  -0.0254  -0.0113   0.00    1.3
2173    857.000  -1050084.0486  -4468052.6221   4415387.5036   2   8   0.0263   0.0466   0.0292   0.0234  -0.0252  -0.0113   0.00    1.3
2173    858.000  -1050084.0414  -4468052.6177   4415387.4917   2   8   0.0261   0.0464   0.0291   0.0234  -0.0251  -0.0111   0.00    1.3
2173    859.000  -1050084.0428  -4468052.6168   4415387.4814   2   8   0.0261   0.0463   0.0289   0.0231  -0.0249  -0.0113   0.00    1.3
2173    860.000  -1050084.0403  -4468052.6062   4415387.4566   2   8   0.0260   0.0462   0.0287   0.0231  -0.0248  -0.0111   0.00    1.3
2173    861.000  -1050084.0391  -4468052.5967   4415387.4376   2   8   0.0260   0.0460   0.0286   0.0231  -0.0248  -0.0111   0.00    1.3
2173    862.000  -1050084.0381  -4468052.5896   4415387.4193   2   8   0.0259   0.0459   0.0284   0.0230  -0.0246  -0.0111   0.00    1.3
2173    863.000  -1050084.0393  -4468052.5880   4415387.4083   2   8   0.0258   0.0457   0.0283   0.0230  -0.0246  -0.0109   0.00    1.2
2173    864.000  -1050084.0385  -4468052.5920   4415387.3973   2   8   0.0258   0.0456   0.0281   0.0229  -0.0245  -0.0109   0.00    1.2
2173    865.000  -1050084.0377  -4468052.5792   4415387.3793   2   8   0.0257   0.0455   0.0279   0.0229  -0.0243  -0.0108   0.00    1.2
2173    866.000  -1050084.0376  -4468052.5751   4415387.3695   2   8   0.0257   0.0454   0.0278   0.0227  -0.0242  -0.0109   0.00    1.2
2173    867.000  -1050084.0339  -4468052.5722   4415387.3567   2   8   0.0255   0.0452   0.0277   0.0227  -0.0241  -0.0108   0.00    1.2
2173    868.000  -1050084.0353  -4468052.5696   4415387.3409   2   8   0.0255   0.0451   0.0275   0.0226  -0.0240  -0.0107   0.00    1.2
2173    869.000  -1050084.0341  -4468052.5591   4415387.3227   2   8   0.0254   0.0449   0.0274   0.0225  -0.0239  -0.0108   0.00    1.2
2173    870.000  -1050084.0358  -4468052.5583   4415387.3109   2   8   0.0254   0.0448   0.0272   0.0225  -0.0238  -0.0107   0.00    1.2
2173    871.000  -1050084.0340  -4468052.5484   4415387.2917   2   8   0.0253   0.0447   0.0271   0.0224  -0.0237  -0.0107   0.00    1.2
2173    872.000  -1050084.0356  -4468052.5470   4415387.2784   2   8   0.0252   0.0445   0.0269   0.0225  -0.0236  -0.0105   0.00    1.2
2173    873.000  -1050084.0347  -4468052.5396   4415387.2694   2   8   0.0251   0.0445   0.0268   0.0222  -0.0234  -0.0105   0.00    1.2
2173    874.000  -1050084.0326  -4468052.5344   4415387.2558   2   8   0.0252   0.0444   0.0267   0.0222  -0.0233  -0.0105   0.00    1.2
2173    875.000  -1050084.0314  -4468052.5301   4415387.2414   2   8   0.0250   0.0442   0.0265   0.0221  -0.0233  -0.0105   0.00    1.2
2173    876.000  -1050084.0303  -4468052.5306   4415387.2299   2   8   0.0250   0.0441   0.0264   0.0221  -0.0232  -0.0105   0.00    1.2
2173    877.000  -1050084.0309  -4468052.5207   4415387.2118   2   8   0.0248   0.0439   0.0262   0.0221  -0.0231  -0.0103   0.00    1.2
2173    878.000  -1050084.0312  -4468052.5233   4415387.2063   2   8   0.0247   0.0438   0.0261   0.0221  -0.0230  -0.0104   0.00    1.2
2173    879.000  -1050084.0315  -4468052.5158   4415387.1916   2   8   0.0247   0.0437   0.0260   0.0219  -0.0229  -0.0103   0.00    1.2
2173    880.000  -1050084.0293  -4468052.5103   4415387.1770   2   8   0.0248   0.0436   0.0259   0.0218  -0.0228  -0.0103   0.00    1.2
2173    881.000  -1050084.0297  -4468052.5132   4415387.1704   2   8   0.0246   0.0435   0.0258   0.0217  -0.0227  -0.0103   0.00    1.2
2173    882.000  -1050084.0277  -4468052.5178   4415387.1758   2   8   0.0245   0.0433   0.0256   0.0217  -0.0226  -0.0102   0.00    1.1
2173    883.000  -1050084.0254  -4468052.5170   4415387.1643   2   8   0.0245   0.0432   0.0255   0.0217  -0.0225  -0.0101   0.00    1.1
2173    884.000  -1050084.0241  -4468052.5119   4415387.1524   2   8   0.0244   0.0431   0.0254   0.0216  -0.0224  -0.0101   0.00    1.1
2173    885.000  -1050084.0237  -4468052.5079   4415387.1409   2   8   0.0245   0.0431   0.0253   0.0215  -0.0223  -0.0102   0.00    1.1
2173    886.000  -1050084.0237  -4468052.5049   4415387.1248   2   8   0.0243   0.0428   0.0251   0.0216  -0.0223  -0.0100   0.00    1.1
2173    887.000  -1050084.0209  -4468052.4996   4415387.1106   2   8   0.0242   0.0428   0.0250   0.0214  -0.0222  -0.0101   0.00    1.1
2173    888.000  -1050084.0158  -4468052.4858   4415387.0922   2   8   0.0242   0.0427   0.0249   0.0213  -0.0220  -0.0100   0.00    1.1
2173    889.000  -1050084.0186  -4468052.4820   4415387.0757   2   8   0.0241   0.0426   0.0248   0.0213  -0.0220  -0.0099   0.00    1.1
2173    890.000  -1050084.0147  -4468052.4753   4415387.0600   2   8   0.0241   0.0425   0.0247   0.0212  -0.0219  -0.0099   0.00    1.1
2173    891.000  -1050084.0146  -4468052.4644   4415387.0353   2   8   0.0241   0.0423   0.0246   0.0212  -0.0218  -0.0100   0.00    1.1
2173    892.000  -1050084.0121  -4468052.4624   4415387.0218   2   8   0.0240   0.0422   0.0244   0.0211  -0.0217  -0.0100   0.00    1.1
2173    893.000  -1050084.0116  -4468052.4576   4415387.0066   2   8   0.0239   0.0421   0.0243   0.0211  -0.0217  -0.0099   0.00    1.1
2173    894.000  -1050084.0098  -4468052.4553   4415386.9930   2   8   0.0239   0.0420   0.0242   0.0210  -0.0216  -0.0097   0.00    1.1
2173    895.000  -1050084.0048  -4468052.4498   4415386.9774   2   8   0.0237   0.0419   0.0241   0.0210  -0.0215  -0.0098   0.00    1.0
2173    896.000  -1050084.0061  -4468052.4474   4415386.9693   2   8   0.0237   0.0418   0.0240   0.0208  -0.0214  -0.0098   0.00    1.0
2173    897.000  -1050084.0051  -4468052.4414   4415386.9511   2   8   0.0237   0.0416   0.0239   0.0209  -0.0214  -0.0097   0.00    1.0
2173    898.000  -1050084.0003  -4468052.4319   4415386.9334   2   8   0.0236   0.0415   0.0238   0.0208  -0.0213  -0.0096   0.00    1.0
2173    899.000  -1050083.9998  -4468052.4224   4415386.9167   2   8   0.0236   0.0415   0.0237   0.0206  -0.0212  -0.0097   0.00    1.0
2173    900.000  -1050083.9967  -4468052.4184   4415386.9045   2   8   0.0235   0.0414   0.0236   0.0206  -0.0211  -0.0097   0.00    1.0
2173    901.000  -1050083.9964  -4468052.4092   4415386.8874   2   8   0.0234   0.0412   0.0235   0.0206  -0.0210  -0.0096   0.00    1.0
2173    902.000  -1050083.9934  -4468052.4049   4415386.8799   2   8   0.0234   0.0412   0.0234   0.0205  -0.0209  -0.0097   0.00    1.0
2173    903.000  -1050083.9917  -4468052.4005   4415386.8638   2   8   0.0233   0.0410   0.0233   0.0205  -0.0208  -0.0096   0.00    1.0
2173    904.000  -1050083.9885  -4468052.3935   4415386.8517   2   8   0.0233   0.0409   0.0232   0.0204  -0.0208  -0.0097   0.00    1.0
2173    905.000  -1050083.9878  -4468052.3893   4415386.8386   2   8   0.0232   0.0409   0.0231   0.0203  -0.0207  -0.0095   0.00    1.0
2173    906.000  -1050083.9844  -4468052.3849   4415386.8294   2   8   0.0231   0.0407   0.0230   0.0203  -0.0207  -0.0094   0.00    1.0
2173    907.000  -1050083.9809  -4468052.3797   4415386.8215   2   8   0.0231   0.0406   0.0229   0.0203  -0.0205  -0.0094   0.00    1.0
2173    908.000  -1050083.9788  -4468052.3725   4415386.8047   2   8   0.0230   0.0405   0.0228   0.0202  -0.0205  -0.0094   0.00    1.0
2173    909.000  -1050083.9741  -4468052.3665   4415386.7925   2   8   0.0230   0.0404   0.0227   0.0203  -0.0204  -0.0094   0.00    1.1
2173    910.000  -1050083.9729  -4468052.3648   4415386.7857   2   8   0.0230   0.0404   0.0226   0.0200  -0.0203  -0.0093   0.00    1.1
2173    911.000  -1050083.9702  -4468052.3551   4415386.7671   2   8   0.0229   0.0402   0.0225   0.0199  -0.0204  -0.0094   0.00    1.1
2173    912.000  -1050083.9685  -4468052.3502   4415386.7561   2   8   0.0228   0.0401   0.0224   0.0200  -0.0202  -0.0093   0.00    1.1
2173    913.000  -1050083.9682  -4468052.3494   4415386.7461   2   8   0.0228   0.0401   0.0224   0.0199  -0.0201  -0.0093   0.00    1.1
2173    914.000  -1050083.9689  -4468052.3476   4415386.7367   2   8   0.0227   0.0399   0.0223   0.0200  -0.0201  -0.0092   0.00    1.1
2173    915.000  -1050083.9669  -4468052.3481   4415386.7286   2   8   0.0227   0.0398   0.0222   0.0199  -0.0200  -0.0092   0.00    1.1
2173    916.000  -1050083.9645  -4468052.3422   4415386.7115   2   8   0.0226   0.0397   0.0221   0.0199  -0.0200  -0.0092   0.00    1.1
2173    917.000  -1050083.9640  -4468052.3403   4415386.7047   2   8   0.0225   0.0396   0.0220   0.0198  -0.0199  -0.0090   0.00    1.1
2173    918.000  -1050083.9658  -4468052.3279   4415386.6876   2   8   0.0226   0.0395   0.0219   0.0198  -0.0198  -0.0091   0.00    1.1
2173    919.000  -1050083.9667  -4468052.3263   4415386.6798   2   8   0.0225   0.0395   0.0218   0.0195  -0.0197  -0.0091   0.00    1.1
2173    920.000  -1050083.9683  -4468052.3280   4415386.6696   2   8   0.0224   0.0393   0.0218   0.0196  -0.0197  -0.0091   0.00    1.1
2173    921.000  -1050083.9674  -4468052.3253   4415386.6611   2   8   0.0224   0.0393   0.0217   0.0195  -0.0196  -0.0091   0.00    1.2
2173    922.000  -1050083.9653  -4468052.3244   4415386.6524   2   8   0.0223   0.0391   0.0216   0.0195  -0.0196  -0.0090   0.00    1.2
2173    923.000  -1050083.9666  -4468052.3259   4415386.6439   2   8   0.0222   0.0390   0.0215   0.0195  -0.0195  -0.0090   0.00    1.2
2173    924.000  -1050083.9682  -4468052.3228   4415386.6310   2   8   0.0223   0.0390   0.0214   0.0193  -0.0194  -0.0091   0.00    1.2
2173    925.000  -1050083.9697  -4468052.3271   4415386.6286   2   8   0.0221   0.0388   0.0213   0.0194  -0.0194  -0.0089   0.00    1.2
2173    926.000  -1050083.9703  -4468052.3319   4415386.6212   2   8   0.0221   0.0388   0.0213   0.0193  -0.0193  -0.0089   0.00    1.2
2173    927.000  -1050083.9715  -4468052.3336   4415386.6107   2   8   0.0220   0.0387   0.0212   0.0192  -0.0193  -0.0088   0.00    1.2
2173    928.000  -1050083.9731  -4468052.3345   4415386.6071   2   8   0.0220   0.0387   0.0211   0.0190  -0.0192  -0.0089   0.00    1.2
2173    929.000  -1050083.9727  -4468052.3325   4415386.5957   2   8   0.0220   0.0385   0.0210   0.0192  -0.0191  -0.0088   0.00    1.2
2173    930.000  -1050083.9740  -4468052.3410   4415386.5974   2   8   0.0219   0.0384   0.0210   0.0191  -0.0191  -0.0088   0.00    1.2
2173    931.000  -1050083.9728  -4468052.3373   4415386.5891   2   8   0.0218   0.0383   0.0209   0.0191  -0.0190  -0.0087   0.00    1.3
2173    932.000  -1050083.9746  -4468052.3383   4415386.5779   2   8   0.0218   0.0382   0.0208   0.0190  -0.0190  -0.0087   0.00    1.3
2173    933.000  -1050083.9717  -4468052.3322   4415386.5682   2   8   0.0218   0.0382   0.0207   0.0189  -0.0189  -0.0088   0.00    1.3
2173    934.000  -1050083.9741  -4468052.3374   4415386.5644   2   8   0.0218   0.0381   0.0207   0.0187  -0.0188  -0.0087   0.00    1.3
2173    935.000  -1050083.9745  -4468052.3362   4415386.5561   2   8   0.0216   0.0379   0.0206   0.0188  -0.0188  -0.0086   0.00    1.3
2173    936.000  -1050083.9736  -4468052.3367   4415386.5537   2   8   0.0216   0.0379   0.0205   0.0187  -0.0187  -0.0086   0.00    1.3
2173    937.000  -1050083.9728  -4468052.3354   4415386.5417   2   8   0.0216   0.0378   0.0204   0.0189  -0.0187  -0.0087   0.00    1.3
2173    938.000  -1050083.9723  -4468052.3355   4415386.5365   2   8   0.0215   0.0377   0.0204   0.0187  -0.0187  -0.0086   0.00    1.3
2173    939.000  -1050083.9713  -4468052.3341   4415386.5280   2   8   0.0215   0.0377   0.0203   0.0186  -0.0185  -0.0086   0.00    1.3
2173    940.000  -1050083.9717  -4468052.3357   4415386.5224   2   8   0.0214   0.0376   0.0202   0.0186  -0.0185  -0.0086   0.00    1.3
2173    941.000  -1050083.9716  -4468052.3331   4415386.5148   2   8   0.0214   0.0374   0.0202   0.0186  -0.0185  -0.0085   0.00    1.3
2173    942.000  -1050083.9736  -4468052.3389   4415386.5114   2   8   0.0212   0.0373   0.0201   0.0186  -0.0184  -0.0086   0.00    1.3
2173    943.000  -1050083.9757  -4468052.3365   4415386.5005   2   8   0.0213   0.0373   0.0200   0.0184  -0.0184  -0.0085   0.00    1.3
2173    944.000  -1050083.9764  -4468052.3420   4415386.4968   2   8   0.0212   0.0372   0.0200   0.0185  -0.0183  -0.0084   0.00    1.3
2173    945.000  -1050083.9752  -4468052.3394   4415386.4897   2   8   0.0211   0.0371   0.0199   0.0185  -0.0182  -0.0083   0.00    1.3
2173    946.000  -1050083.9750  -4468052.3430   4415386.4877   2   8   0.0212   0.0371   0.0198   0.0183  -0.0182  -0.0085   0.00    1.3
2173    947.000  -1050083.9749  -4468052.3384   4415386.4765   2   8   0.0211   0.0370   0.0198   0.0182  -0.0182  -0.0085   0.00    1.3
2173    948.000  -1050083.9735  -4468052.3374   4415386.4687   2   8   0.0210   0.0368   0.0197   0.0183  -0.0182  -0.0082   0.00    1.3
2173    949.000  -1050083.9735  -4468052.3408   4415386.4664   2   8   0.0210   0.0368   0.0197   0.0182  -0.0181  -0.0085   0.00    1.3
2173    950.000  -1050083.9727  -4468052.3425   4415386.4637   2   8   0.0210   0.0367   0.0196   0.0181  -0.0180  -0.0084   0.00    1.3
2173    951.000  -1050083.9726  -4468052.3440   4415386.4595   2   8   0.0207   0.0365   0.0195   0.0182  -0.0180  -0.0082   0.00    1.3
2173    952.000  -1050083.9700  -4468052.3379   4415386.4489   2   8   0.0209   0.0365   0.0194   0.0182  -0.0179  -0.0082   0.00    1.3
2173    953.000  -1050083.9693  -4468052.3358   4415386.4434   2   8   0.0208   0.0365   0.0194   0.0180  -0.0178  -0.0083   0.00    1.3
2173    954.000  -1050083.9704  -4468052.3383   4415386.4392   2   8   0.0208   0.0365   0.0194   0.0179  -0.0177  -0.0083   0.00    1.3
2173    955.000  -1050083.9680  -4468052.3385   4415386.4351   2   8   0.0207   0.0363   0.0193   0.0180  -0.0177  -0.0082   0.00    1.3
2173    956.000  -1050083.9675  -4468052.3373   4415386.4259   2   8   0.0206   0.0361   0.0192   0.0180  -0.0178  -0.0082   0.00    1.3
2173    957.000  -1050083.9681  -4468052.3367   4415386.4218   2   8   0.0207   0.0361   0.0192   0.0179  -0.0176  -0.0082   0.00    1.3
2173    958.000  -1050083.9649  -4468052.3357   4415386.4187   2   8   0.0208   0.0361   0.0191   0.0178  -0.0176  -0.0082   0.00    1.3
2173    959.000  -1050083.9658  -4468052.3389   4415386.4126   2   8   0.0205   0.0360   0.0191   0.0177  -0.0176  -0.0081   0.00    1.3
2173    960.000  -1050083.9631  -4468052.3370   4415386.4116   2   8   0.0205   0.0359   0.0190   0.0176  -0.0176  -0.0081   0.00    1.3
2173    961.000  -1050083.9630  -4468052.3361   4415386.4020   2   8   0.0204   0.0359   0.0190   0.0177  -0.0174  -0.0082   0.00    1.3
2173    962.000  -1050083.9620  -4468052.3345   4415386.3977   2   8   0.0205   0.0358   0.0189   0.0175  -0.0174  -0.0082   0.00    1.3
2173    963.000  -1050083.9616  -4468052.3400   4415386.3954   2   8   0.0205   0.0357   0.0189   0.0176  -0.0173  -0.0082   0.00    1.3
2173    964.000  -1050083.9615  -4468052.3462   4415386.3953   2   8   0.0204   0.0356   0.0188   0.0174  -0.0173  -0.0081   0.00    1.3
2173    965.000  -1050083.9614  -4468052.3408   4415386.3887   2   8   0.0203   0.0356   0.0187   0.0174  -0.0172  -0.0080   0.00    1.3
2173    966.000  -1050083.9612  -4468052.3447   4415386.3855   2   8   0.0202   0.0354   0.0187   0.0175  -0.0173  -0.0080   0.00    1.3
2173    967.000  -1050083.9621  -4468052.3448   4415386.3848   2   8   0.0201   0.0353   0.0186   0.0175  -0.0173  -0.0079   0.00    1.3
2173    968.000  -1050083.9600  -4468052.3440   4415386.3733   2   8   0.0202   0.0353   0.0186   0.0174  -0.0171  -0.0079   0.00    1.3
2173    969.000  -1050083.9583  -4468052.3422   4415386.3668   2   8   0.0201   0.0352   0.0185   0.0174  -0.0171  -0.0080   0.00    1.3
2173    970.000  -1050083.9561  -4468052.3408   4415386.3614   2   8   0.0201   0.0351   0.0185   0.0173  -0.0171  -0.0081   0.00    1.3
2173    971.000  -1050083.9540  -4468052.3418   4415386.3627   2   8   0.0201   0.0351   0.0184   0.0172  -0.0170  -0.0080   0.00    1.3
2173    972.000  -1050083.9545  -4468052.3453   4415386.3633   2   8   0.0200   0.0350   0.0183   0.0172  -0.0170  -0.0079   0.00    1.3
2173    973.000  -1050083.9519  -4468052.3438   4415386.3578   2   8   0.0200   0.0349   0.0183   0.0172  -0.0169  -0.0079   0.00    1.3
2173    974.000  -1050083.9513  -4468052.3479   4415386.3570   2   8   0.0198   0.0348   0.0183   0.0172  -0.0169  -0.0079   0.00    1.3
2173    975.000  -1050083.9493  -4468052.3509   4415386.3561   2   8   0.0199   0.0348   0.0182   0.0171  -0.0168  -0.0079   0.00    1.3
2173    976.000  -1050083.9521  -4468052.3514   4415386.3388   2   8   0.0198   0.0347   0.0182   0.0171  -0.0168  -0.0077   0.00    1.3
2173    977.000  -1050083.9505  -4468052.3464   4415386.3311   2   8   0.0197   0.0346   0.0181   0.0171  -0.0168  -0.0078   0.00    1.3
2173    978.000  -1050083.9456  -4468052.3426   4415386.3274   2   8   0.0198   0.0345   0.0181   0.0169  -0.0168  -0.0079   0.00    1.3
2173    979.000  -1050083.9432  -4468052.3426   4415386.3289   2   8   0.0197   0.0345   0.0180   0.0168  -0.0167  -0.0078   0.00    1.3
2173    980.000  -1050083.9393  -4468052.3404   4415386.3239   2   8   0.0196   0.0344   0.0180   0.0169  -0.0166  -0.0078   0.00    1.3
2173    981.000  -1050083.9389  -4468052.3382   4415386.3230   2   8   0.0197   0.0344   0.0179   0.0167  -0.0166  -0.0079   0.00    1.3
2173    982.000  -1050083.9341  -4468052.3359   4415386.3216   2   8   0.0197   0.0343   0.0179   0.0169  -0.0165  -0.0078   0.00    1.3
2173    983.000  -1050083.9281  -4468052.3320   4415386.3209   2   8   0.0195   0.0342   0.0178   0.0168  -0.0165  -0.0078   0.00    1.3
2173    984.000  -1050083.9232  -4468052.3299   4415386.3208   2   8   0.0196   0.0341   0.0178   0.0168  -0.0165  -0.0077   0.00    1.3
2173    985.000  -1050083.9184  -4468052.3306   4415386.3223   2   8   0.0195   0.0341   0.0178   0.0168  -0.0164  -0.0078   0.00    1.3
2173    986.000  -1050083.9150  -4468052.3298   4415386.3212   2   8   0.0194   0.0339   0.0177   0.0168  -0.0165  -0.0077   0.00    1.3
2173    987.000  -1050083.9104  -4468052.3236   4415386.3156   2   8   0.0194   0.0339   0.0176   0.0167  -0.0164  -0.0076   0.00    1.3
2173    988.000  -1050083.9078  -4468052.3230   4415386.3179   2   8   0.0193   0.0338   0.0176   0.0167  -0.0164  -0.0076   0.00    1.3
2173    989.000  -1050083.9051  -4468052.3214   4415386.3153   2   8   0.0193   0.0338   0.0176   0.0166  -0.0163  -0.0077   0.00    1.3
2173    990.000  -1050083.8981  -4468052.3129   4415386.3100   2   8   0.0192   0.0336   0.0175   0.0166  -0.0163  -0.0076   0.00    1.3
2173    991.000  -1050083.8949  -4468052.3064   4415386.3068   2   8   0.0193   0.0336   0.0175   0.0165  -0.0162  -0.0077   0.00    1.3
2173    992.000  -1050083.8917  -4468052.3049   4415386.3074   2   8   0.0193   0.0336   0.0174   0.0164  -0.0161  -0.0076   0.00    1.3
2173    993.000  -1050083.8866  -4468052.2974   4415386.3020   2   8   0.0192   0.0335   0.0174   0.0164  -0.0162  -0.0075   0.00    1.3
2173    994.000  -1050083.8807  -4468052.2894   4415386.2981   2   8   0.0191   0.0334   0.0173   0.0164  -0.0161  -0.0076   0.00    1.3
2173    995.000  -1050083.8758  -4468052.2825   4415386.2959   2   8   0.0191   0.0333   0.0173   0.0163  -0.0161  -0.0076   0.00    1.3
2173    996.000  -1050083.8715  -4468052.2818   4415386.2958   2   8   0.0191   0.0332   0.0172   0.0164  -0.0161  -0.0075   0.00    1.3
2173    997.000  -1050083.8667  -4468052.2706   4415386.2899   2   8   0.0189   0.0332   0.0172   0.0164  -0.0161  -0.0075   0.00    1.3
2173    998.000  -1050083.8602  -4468052.2680   4415386.2892   2   8   0.0190   0.0332   0.0172   0.0162  -0.0160  -0.0076   0.00    1.3
2173    999.000  -1050083.8560  -4468052.2632   4415386.2881   2   8   0.0189   0.0331   0.0172   0.0162  -0.0160  -0.0075   0.00    1.3
2173   1000.000  -1050083.8515  -4468052.2546   4415386.2791   2   8   0.0189   0.0330   0.0171   0.0161  -0.0159  -0.0074   0.00    1.3
2173   1001.000  -1050083.8457  -4468052.2525   4415386.2750   2   8   0.0188   0.0330   0.0170   0.0161  -0.0159  -0.0075   0.00    1.3
2173   1002.000  -1050083.8400  -4468052.2403   4415386.2700   2   8   0.0188   0.0330   0.0170   0.0161  -0.0157  -0.0075   0.00    1.3
2173   1003.000  -1050083.8362  -4468052.2323   4415386.2439   2   8   0.0187   0.0328   0.0170   0.0161  -0.0158  -0.0073   0.00    1.3
2173   1004.000  -1050083.8352  -4468052.2294   4415386.2398   2   8   0.0189   0.0328   0.0170   0.0159  -0.0157  -0.0074   0.00    1.3
2173   1005.000  -1050083.8329  -4468052.2270   4415386.2445   2   8   0.0187   0.0326   0.0169   0.0161  -0.0158  -0.0073   0.00    1.3
2173   1006.000  -1050083.8305  -4468052.2245   4415386.2493   2   8   0.0186   0.0326   0.0169   0.0160  -0.0158  -0.0073   0.00    1.3
2173   1007.000  -1050083.8282  -4468052.2238   4415386.2556   2   8   0.0188   0.0326   0.0169   0.0158  -0.0156  -0.0074   0.00    1.3
2173   1008.000  -1050083.8247  -4468052.2197   4415386.2539   2   8   0.0185   0.0325   0.0168   0.0159  -0.0156  -0.0074   0.00    1.3
2173   1009.000  -1050083.8245  -4468052.2145   4415386.2572   2   8   0.0186   0.0324   0.0167   0.0159  -0.0156  -0.0071   0.00    1.3
2173   1010.000  -1050083.8207  -4468052.2148   4415386.2613   2   8   0.0185   0.0324   0.0167   0.0158  -0.0156  -0.0073   0.00    1.3
2173   1011.000  -1050083.8187  -4468052.2082   4415386.2603   2   8   0.0186   0.0323   0.0167   0.0157  -0.0155  -0.0073   0.00    1.3
2173   1012.000  -1050083.8159  -4468052.2089   4415386.2653   2   8   0.0186   0.0323   0.0167   0.0157  -0.0154  -0.0074   0.00    1.3
2173   1013.000  -1050083.8135  -4468052.2074   4415386.2698   2   8   0.0184   0.0322   0.0166   0.0156  -0.0155  -0.0073   0.00    1.3
2173   1014.000  -1050083.8098  -4468052.2018   4415386.2692   2   8   0.0184   0.0321   0.0166   0.0157  -0.0154  -0.0073   0.00    1.3
2173   1015.000  -1050083.8060  -4468052.1920   4415386.2689   2   8   0.0184   0.0321   0.0166   0.0156  -0.0153  -0.0073   0.00    1.2
2173   1016.000  -1050083.8053  -4468052.1944   4415386.2784   2   8   0.0183   0.0320   0.0165   0.0156  -0.0154  -0.0073   0.00    1.2
2173   1017.000  -1050083.8052  -4468052.1911   4415386.2791   2   8   0.0183   0.0320   0.0164   0.0155  -0.0153  -0.0072   0.00    1.2
2173   1018.000  -1050083.8029  -4468052.1887   4415386.2837   2   8   0.0182   0.0318   0.0164   0.0156  -0.0154  -0.0071   0.00    1.2
2173   1019.000  -1050083.8007  -4468052.1852   4415386.2877   2   8   0.0182   0.0318   0.0164   0.0156  -0.0154  -0.0073   0.00    1.2
2173   1020.000  -1050083.7959  -4468052.1855   4415386.2934   2   8   0.0182   0.0317   0.0163   0.0155  -0.0153  -0.0071   0.00    1.2
2173   1021.000  -1050083.7926  -4468052.1783   4415386.2941   2   8   0.0182   0.0317   0.0164   0.0154  -0.0152  -0.0071   0.00    1.2
2173   1022.000  -1050083.7894  -4468052.1762   4415386.2998   2   8   0.0181   0.0316   0.0163   0.0155  -0.0152  -0.0072   0.00    1.2
2173   1023.000  -1050083.7865  -4468052.1700   4415386.2976   2   8   0.0181   0.0315   0.0163   0.0154  -0.0152  -0.0071   0.00    1.2
2173   1024.000  -1050083.7819  -4468052.1671   4415386.3026   2   8   0.0181   0.0315   0.0162   0.0153  -0.0151  -0.0071   0.00    1.2
2173   1025.000  -1050083.7791  -4468052.1604   4415386.3021   2   8   0.0181   0.0314   0.0162   0.0153  -0.0151  -0.0071   0.00    1.2
2173   1026.000  -1050083.7749  -4468052.1561   4415386.3033   2   8   0.0181   0.0315   0.0162   0.0152  -0.0150  -0.0071   0.00    1.2
2173   1027.000  -1050083.7737  -4468052.1524   4415386.3083   2   8   0.0179   0.0312   0.0161   0.0154  -0.0151  -0.0070   0.00    1.2
2173   1028.000  -1050083.7689  -4468052.1460   4415386.3059   2   8   0.0180   0.0313   0.0161   0.0153  -0.0150  -0.0070   0.00    1.2
2173   1029.000  -1050083.7651  -4468052.1405   4415386.3072   2   8   0.0179   0.0312   0.0161   0.0151  -0.0150  -0.0071   0.00    1.2
2173   1030.000  -1050083.7620  -4468052.1376   4415386.3086   2   8   0.0178   0.0312   0.0160   0.0151  -0.0150  -0.0070   0.00    1.2
2173   1031.000  -1050083.7591  -4468052.1384   4415386.3149   2   8   0.0178   0.0311   0.0160   0.0151  -0.0149  -0.0071   0.00    1.2
2173   1032.000  -1050083.7574  -4468052.1336   4415386.3142   2   8   0.0178   0.0310   0.0160   0.0151  -0.0149  -0.0070   0.00    1.2
2173   1033.000  -1050083.7530  -4468052.1305   4415386.3223   2   8   0.0178   0.0310   0.0160   0.0151  -0.0149  -0.0071   0.00    1.2
2173   1034.000  -1050083.7492  -4468052.1250   4415386.3245   2   8   0.0178   0.0310   0.0159   0.0149  -0.0148  -0.0068   0.00    1.2
2173   1035.000  -1050083.7361  -4468052.1169   4415386.3320   2   8   0.0177   0.0308   0.0159   0.0151  -0.0148  -0.0068   0.00    1.2
2173   1036.000  -1050083.7329  -4468052.1096   4415386.3336   2   8   0.0177   0.0307   0.0158   0.0151  -0.0148  -0.0068   0.00    1.2
2173   1037.000  -1050083.7300  -4468052.0988   4415386.3321   2   8   0.0177   0.0308   0.0158   0.0150  -0.0147  -0.0071   0.00    1.2
2173   1038.000  -1050083.7239  -4468052.0873   4415386.3302   2   8   0.0177   0.0307   0.0158   0.0149  -0.0147  -0.0069   0.00    1.2
2173   1039.000  -1050083.7203  -4468052.0785   4415386.3304   2   8   0.0175   0.0306   0.0158   0.0148  -0.0147  -0.0068   0.00    1.2
2173   1040.000  -1050083.7162  -4468052.0703   4415386.3311   2   8   0.0175   0.0306   0.0158   0.0148  -0.0147  -0.0070   0.00    1.2
2173   1041.000  -1050083.7111  -4468052.0651   4415386.3353   2   8   0.0176   0.0306   0.0158   0.0147  -0.0146  -0.0071   0.00    1.2
2173   1042.000  -1050083.7079  -4468052.0548   4415386.3328   2   8   0.0174   0.0305   0.0157   0.0148  -0.0146  -0.0069   0.00    1.2
2173   1043.000  -1050083.7047  -4468052.0518   4415386.3415   2   8   0.0175   0.0304   0.0157   0.0147  -0.0145  -0.0069   0.00    1.2
2173   1044.000  -1050083.6999  -4468052.0452   4415386.3426   2   8   0.0174   0.0303   0.0157   0.0149  -0.0146  -0.0069   0.00    1.2
2173   1045.000  -1050083.6968  -4468052.0384   4415386.3414   2   8   0.0173   0.0303   0.0156   0.0147  -0.0145  -0.0068   0.00    1.2
2173   1046.000  -1050083.6907  -4468052.0340   4415386.3453   2   8   0.0174   0.0303   0.0156   0.0146  -0.0145  -0.0069   0.00    1.2
2173   1047.000  -1050083.6895  -4468052.0296   4415386.3514   2   8   0.0173   0.0302   0.0155   0.0147  -0.0145  -0.0068   0.00    1.2
2173   1048.000  -1050083.6833  -4468052.0204   4415386.3507   2   8   0.0172   0.0301   0.0155   0.0147  -0.0145  -0.0067   0.00    1.2
2173   1049.000  -1050083.6789  -4468052.0168   4415386.3582   2   8   0.0172   0.0300   0.0155   0.0147  -0.0145  -0.0069   0.00    1.2
2173   1050.000  -1050083.6745  -4468052.0071   4415386.3538   2   8   0.0173   0.0300   0.0155   0.0147  -0.0145  -0.0068   0.00    1.2
2173   1051.000  -1050083.6727  -4468052.0024   4415386.3588   2   8   0.0172   0.0300   0.0155   0.0146  -0.0143  -0.0067   0.00    1.2
2173   1052.000  -1050083.6667  -4468051.9918   4415386.3573   2   8   0.0173   0.0299   0.0154   0.0144  -0.0144  -0.0068   0.00    1.2
2173   1053.000  -1050083.6628  -4468051.9841   4415386.3572   2   8   0.0171   0.0298   0.0154   0.0144  -0.0144  -0.0069   0.00    1.1
2173   1054.000  -1050083.6584  -4468051.9758   4415386.3576   2   8   0.0170   0.0297   0.0154   0.0145  -0.0144  -0.0067   0.00    1.1
2173   1055.000  -1050083.6534  -4468051.9711   4415386.3629   2   8   0.0171   0.0298   0.0153   0.0144  -0.0143  -0.0068   0.00    1.1
2173   1056.000  -1050083.6483  -4468051.9577   4415386.3522   2   8   0.0171   0.0298   0.0153   0.0143  -0.0143  -0.0068   0.00    1.1
2173   1057.000  -1050083.6414  -4468051.9497   4415386.3574   2   8   0.0170   0.0296   0.0153   0.0143  -0.0143  -0.0067   0.00    1.1
2173   1058.000  -1050083.6373  -4468051.9417   4415386.3602   2   8   0.0170   0.0296   0.0153   0.0142  -0.0142  -0.0067   0.00    1.1
2173   1059.000  -1050083.6313  -4468051.9263   4415386.3552   2   8   0.0168   0.0295   0.0153   0.0144  -0.0142  -0.0067   0.00    1.1
2173   1060.000  -1050083.6283  -4468051.9231   4415386.3571   2   8   0.0170   0.0294   0.0152   0.0142  -0.0142  -0.0067   0.00    1.1
2173   1061.000  -1050083.6233  -4468051.9148   4415386.3606   2   8   0.0169   0.0294   0.0152   0.0143  -0.0142  -0.0065   0.00    1.1
2173   1062.000  -1050083.6175  -4468051.9046   4415386.3600   2   8   0.0169   0.0294   0.0151   0.0141  -0.0141  -0.0067   0.00    1.1
2173   1063.000  -1050083.6139  -4468051.8966   4415386.3536   2   8   0.0168   0.0292   0.0151   0.0143  -0.0142  -0.0066   0.00    1.1
2173   1064.000  -1050083.6117  -4468051.8945   4415386.3626   2   8   0.0169   0.0292   0.0151   0.0143  -0.0141  -0.0065   0.00    1.1
2173   1065.000  -1050083.6040  -4468051.8861   4415386.3593   2   8   0.0167   0.0291   0.0151   0.0142  -0.0141  -0.0065   0.00    1.1
2173   1066.000  -1050083.6030  -4468051.8813   4415386.3655   2   8   0.0167   0.0291   0.0150   0.0142  -0.0141  -0.0066   0.00    1.1
2173   1067.000  -1050083.5992  -4468051.8755   4415386.3655   2   8   0.0167   0.0292   0.0151   0.0140  -0.0140  -0.0067   0.00    1.0
2173   1068.000  -1050083.5937  -4468051.8638   4415386.3586   2   8   0.0168   0.0292   0.0150   0.0139  -0.0139  -0.0066   0.00    1.0
2173   1069.000  -1050083.5908  -4468051.8564   4415386.3622   2   8   0.0166   0.0290   0.0150   0.0141  -0.0140  -0.0065   0.00    1.0
